ISOTime,UnixTime,Id,Longitude,Latitude,Altitude,Roll,Pitch,Yaw,U,V,Heading,Type,Color,Coalition,Name,Group,Country,Pilot,TAS,CAS,M,ASL,AGL,GS,VS,AOA,AOS,RRT,TRT,TRD,G,LatG,LonG,Ek,Ep,Em,FFW,FFV,RelativeTime,Elev,GroundDistance,AirDistance
2018-07-19T08:05:17Z,1531987517,104,42.0424879,42.2466242,15.37,-0.1,0.2,145.7,646754.31,-281189.34,139.6,Air+FixedWing,Blue,Enemies,J-11A,Blue J-11A #004,cn,<51>YAGA,0.368813280203678,0.37154546380043,0.00108361480790894,15.3733329772949,2.37333297729492,NaN,NaN,NaN,NaN,0.609526081531938,NaN,NaN,NaN,NaN,NaN,NaN,15.0760895841789,NaN,,,0.559999942779541,13,NaN,NaN
2018-07-19T08:05:18Z,1531987518,104,42.0424884,42.2466238,15.44,-0.2,0,145.7,646754.31,-281189.38,139.6,Air+FixedWing,Blue,Enemies,J-11A,Blue J-11A #004,cn,<51>YAGA,0.0697705206348703,0,0.000204993763785906,15.4357137680054,2.43571376800537,0.03125,0.0623807907104492,NaN,NaN,0.276225790042142,0.0873564853083433,NaN,0.998988768423529,0.00211374384803524,0.00437963349504215,0.000243396277483043,15.137264242301,15.1375076385785,,,1.55999994277954,13,0.0541149946428145,0.0825821404013638
2018-07-19T08:05:19Z,1531987519,104,42.0424886,42.2466236,15.49,0,-0.3,145.7,646754.38,-281189.41,139.6,Air+FixedWing,Blue,Enemies,J-11A,Blue J-11A #004,cn,<51>YAGA,0.0873306112791137,0,0.000256587468467499,15.4880952835083,2.4880952835083,0.0698771242968684,0.0523815155029297,NaN,NaN,0.199987938897973,0.374171396431212,NaN,0.993445895560656,-0.0007228416988744,-0.0141859103233872,0.000381331783319183,15.1886329612017,15.189014292985,,,2.55999994277954,13,0.0811557568832561,0.141531521785516
2018-07-19T08:05:20Z,1531987520,104,42.0424884,42.2466237,15.48,0,-0.3,145.7,646754.38,-281189.38,139.6,Air+FixedWing,Blue,Enemies,J-11A,Blue J-11A #004,cn,<51>YAGA,0.0332290274816299,0,9.76307257136005e-05,15.4767990112305,2.47679901123047,0.03125,-0.011296272277832,NaN,NaN,0,0.00989117029631303,NaN,1.0016530053475,-0.00413061310110525,-0.000391170723067018,5.52084133687458e-05,15.1775551023483,15.1776103107617,,,3.55999994277954,13,0.0985786888531028,0.162296055022226
2018-07-19T08:05:21Z,1531987521,104,42.0424885,42.2466237,15.48,0,-0.3,145.7,646754.38,-281189.41,139.6,Air+FixedWing,Blue,Enemies,J-11A,Blue J-11A #004,cn,<51>YAGA,0.0316166118855073,0,9.28932672382782e-05,15.4815998077393,2.48159980773926,0.03125,0.00480079650878906,NaN,NaN,0,0.0312786278555019,NaN,0.999308041719331,0.00413061310110525,-0.0100859350303673,4.99805073559401e-05,15.1822630754566,15.182313055964,,,4.55999994277954,13,0.106819200305281,0.171833035858871
2018-07-19T08:05:22Z,1531987522,104,42.0424885,42.2466237,15.48,0,-0.3,145.7,646754.38,-281189.38,139.6,Air+FixedWing,Blue,Enemies,J-11A,Blue J-11A #004,cn,<51>YAGA,0.031290946768672,0,9.19364237524415e-05,15.4799995422363,2.47999954223633,0.03125,-0.00160026550292969,NaN,NaN,0,0.0494558589854351,NaN,1.000161527051,-0.00206530655055262,-0.00298468548432648,4.89561674839933e-05,15.1806937510872,15.1807427072547,,,5.55999994277954,13,0.106819200305281,0.173433301031057
2018-07-19T08:05:23Z,1531987523,104,42.0424885,42.2466237,15.48,0,-0.4,145.7,646754.38,-281189.38,139.6,Air+FixedWing,Blue,Enemies,J-11A,Blue J-11A #004,cn,<51>YAGA,0,0,0,15.4799995422363,2.47999954223633,0,0,NaN,NaN,0,0.0523391626455858,NaN,0.999992503714761,-0.00206530655055262,-0.00455459197813992,0,15.1806937510872,15.1806937510872,,,6.55999994277954,13,0.106819200305281,0.173433301031057
2018-07-19T08:05:24Z,1531987524,104,42.0424885,42.2466237,15.48,0,-0.4,145.7,646754.38,-281189.41,139.6,Air+FixedWing,Blue,Enemies,J-11A,Blue J-11A #004,cn,<51>YAGA,0.03125,0,9.1816117406208e-05,15.4799995422363,2.47999954223633,0.03125,0,NaN,NaN,0,0.0197823405926261,NaN,0.999958620479429,0.00206530655055262,-0.0094079292396235,4.8828125e-05,15.1806937510872,15.1807425792122,,,7.55999994277954,13,0.106819200305281,0.173433301031057
2018-07-19T08:05:25Z,1531987525,104,42.0424885,42.2466237,15.48,0,-0.4,145.7,646754.38,-281189.41,139.6,Air+FixedWing,Blue,Enemies,J-11A,Blue J-11A #004,cn,<51>YAGA,0,0,0,15.4799995422363,2.47999954223633,0,0,NaN,NaN,0,0.0197823405926261,NaN,0.999975562097095,0,-0.00698126060888171,0,15.1806937510872,15.1806937510872,,,8.55999994277954,13,0.106819200305281,0.173433301031057
2018-07-19T08:05:26Z,1531987526,104,42.0424885,42.2466237,15.48,0,-0.4,145.7,646754.38,-281189.41,139.6,Air+FixedWing,Blue,Enemies,J-11A,Blue J-11A #004,cn,<51>YAGA,0,0,0,15.4799995422363,2.47999954223633,0,0,NaN,NaN,0,0.0197823405926261,NaN,0.999958620479429,0.00206530655055262,-0.0094079292396235,0,15.1806937510872,15.1806937510872,,,9.55999994277954,13,0.106819200305281,0.173433301031057
2018-07-19T08:05:27Z,1531987527,104,42.0424885,42.2466237,15.48,0,-0.4,145.7,646754.38,-281189.38,139.6,Air+FixedWing,Blue,Enemies,J-11A,Blue J-11A #004,cn,<51>YAGA,0.03125,0,9.1816117406208e-05,15.4799995422363,2.47999954223633,0.03125,0,NaN,NaN,0,0.0197823405926261,NaN,0.999992503714761,-0.00206530655055262,-0.00455459197813992,4.8828125e-05,15.1806937510872,15.1807425792122,,,10.5599999427795,13,0.106819200305281,0.173433301031057
2018-07-19T08:05:28Z,1531987528,104,42.0424885,42.2466237,15.48,0,-0.4,145.7,646754.38,-281189.38,139.6,Air+FixedWing,Blue,Enemies,J-11A,Blue J-11A #004,cn,<51>YAGA,0,0,0,15.4799995422363,2.47999954223633,0,0,NaN,NaN,0,0.0197823405926261,NaN,0.999975562097095,0,-0.00698126060888171,0,15.1806937510872,15.1806937510872,,,11.5599999427795,13,0.106819200305281,0.173433301031057
2018-07-19T08:05:29Z,1531987529,104,42.0424885,42.2466237,15.48,0,-0.4,145.7,646754.38,-281189.38,139.6,Air+FixedWing,Blue,Enemies,J-11A,Blue J-11A #004,cn,<51>YAGA,0,0,0,15.4799995422363,2.47999954223633,0,0,NaN,NaN,0,0.0197823405926261,NaN,0.999975562097095,0,-0.00698126060888171,0,15.1806937510872,15.1806937510872,,,12.5599999427795,13,0.106819200305281,0.173433301031057
2018-07-19T08:05:30Z,1531987530,104,42.0424885,42.2466237,15.48,0,-0.4,145.7,646754.38,-281189.38,139.6,Air+FixedWing,Blue,Enemies,J-11A,Blue J-11A #004,cn,<51>YAGA,0,0,0,15.4799995422363,2.47999954223633,0,0,NaN,NaN,0,0.0197823405926261,NaN,0.999975562097095,0,-0.00698126060888171,0,15.1806937510872,15.1806937510872,,,13.5599999427795,13,0.106819200305281,0.173433301031057
2018-07-19T08:05:31Z,1531987531,104,42.0424885,42.2466237,15.48,0,-0.4,145.7,646754.38,-281189.38,139.6,Air+FixedWing,Blue,Enemies,J-11A,Blue J-11A #004,cn,<51>YAGA,0,0,0,15.4799995422363,2.47999954223633,0,0,NaN,NaN,0,0.0197823405926261,NaN,0.999992503714761,-0.00206530655055262,-0.00455459197813992,0,15.1806937510872,15.1806937510872,,,14.5599999427795,13,0.106819200305281,0.173433301031057
2018-07-19T08:05:32Z,1531987532,104,42.0424885,42.2466237,15.48,0,-0.4,145.7,646754.38,-281189.41,139.6,Air+FixedWing,Blue,Enemies,J-11A,Blue J-11A #004,cn,<51>YAGA,0.03125,0,9.1816117406208e-05,15.4799995422363,2.47999954223633,0.03125,0,NaN,NaN,0,0.0197823405926261,NaN,0.999958620479429,0.00206530655055262,-0.0094079292396235,4.8828125e-05,15.1806937510872,15.1807425792122,,,15.5599999427795,13,0.106819200305281,0.173433301031057
2018-07-19T08:05:33Z,1531987533,104,42.0424885,42.2466237,15.48,0,-0.4,145.7,646754.38,-281189.41,139.6,Air+FixedWing,Blue,Enemies,J-11A,Blue J-11A #004,cn,<51>YAGA,0,0,0,15.4799995422363,2.47999954223633,0,0,NaN,NaN,0,0.0197823405926261,NaN,0.999975562097095,0,-0.00698126060888171,0,15.1806937510872,15.1806937510872,,,16.5599999427795,13,0.106819200305281,0.173433301031057
2018-07-19T08:05:34Z,1531987534,104,42.0424885,42.2466237,15.48,0,-0.4,145.7,646754.38,-281189.41,139.6,Air+FixedWing,Blue,Enemies,J-11A,Blue J-11A #004,cn,<51>YAGA,0,0,0,15.4799995422363,2.47999954223633,0,0,NaN,NaN,0,0.0197823405926261,NaN,0.999958620479429,0.00206530655055262,-0.0094079292396235,0,15.1806937510872,15.1806937510872,,,17.5599999427795,13,0.106819200305281,0.173433301031057
2018-07-19T08:05:35Z,1531987535,104,42.0424885,42.2466237,15.48,0,-0.4,145.7,646754.38,-281189.38,139.6,Air+FixedWing,Blue,Enemies,J-11A,Blue J-11A #004,cn,<51>YAGA,0.03125,0,9.1816117406208e-05,15.4799995422363,2.47999954223633,0.03125,0,NaN,NaN,0,0.0197823405926261,NaN,1.00000944533243,-0.00413061310110525,-0.00212792334739813,4.8828125e-05,15.1806937510872,15.1807425792122,,,18.5599999427795,13,0.106819200305281,0.173433301031057
2018-07-19T08:05:36Z,1531987536,104,42.0424885,42.2466237,15.48,0,-0.4,145.7,646754.38,-281189.41,139.6,Air+FixedWing,Blue,Enemies,J-11A,Blue J-11A #004,cn,<51>YAGA,0.03125,0,9.1816117406208e-05,15.4799995422363,2.47999954223633,0.03125,0,NaN,NaN,0,0.0197823405926261,NaN,0.999958620479429,0.00206530655055262,-0.0094079292396235,4.8828125e-05,15.1806937510872,15.1807425792122,,,19.5599999427795,13,0.106819200305281,0.173433301031057
2018-07-19T08:05:37Z,1531987537,104,42.0424885,42.2466237,15.48,0,-0.4,145.7,646754.38,-281189.41,139.6,Air+FixedWing,Blue,Enemies,J-11A,Blue J-11A #004,cn,<51>YAGA,0,0,0,15.4799995422363,2.47999954223633,0,0,NaN,NaN,0,0.0197823405926261,NaN,0.999958620479429,0.00206530655055262,-0.0094079292396235,0,15.1806937510872,15.1806937510872,,,20.5599999427795,13,0.106819200305281,0.173433301031057
2018-07-19T08:05:38Z,1531987538,104,42.0424885,42.2466237,15.48,0,-0.4,145.7,646754.38,-281189.38,139.6,Air+FixedWing,Blue,Enemies,J-11A,Blue J-11A #004,cn,<51>YAGA,0.03125,0,9.1816117406208e-05,15.4799995422363,2.47999954223633,0.03125,0,NaN,NaN,0,0.0197823405926261,NaN,1.00000944533243,-0.00413061310110525,-0.00212792334739813,4.8828125e-05,15.1806937510872,15.1807425792122,,,21.5599999427795,13,0.106819200305281,0.173433301031057
2018-07-19T08:05:39Z,1531987539,104,42.0424885,42.2466237,15.48,0,-0.4,145.7,646754.38,-281189.41,139.6,Air+FixedWing,Blue,Enemies,J-11A,Blue J-11A #004,cn,<51>YAGA,0.03125,0,9.1816117406208e-05,15.4799995422363,2.47999954223633,0.03125,0,NaN,NaN,0,0.0197823405926261,NaN,0.999941678861764,0.00413061310110525,-0.0118345978703653,4.8828125e-05,15.1806937510872,15.1807425792122,,,22.5599999427795,13,0.106819200305281,0.173433301031057
2018-07-19T08:05:40Z,1531987540,104,42.0424885,42.2466237,15.48,0,-0.4,145.7,646754.38,-281189.38,139.6,Air+FixedWing,Blue,Enemies,J-11A,Blue J-11A #004,cn,<51>YAGA,0.03125,0,9.1816117406208e-05,15.4799995422363,2.47999954223633,0.03125,0,NaN,NaN,0,0.0197823405926261,NaN,1.00000944533243,-0.00413061310110525,-0.00212792334739813,4.8828125e-05,15.1806937510872,15.1807425792122,,,23.5599999427795,13,0.106819200305281,0.173433301031057
2018-07-19T08:05:41Z,1531987541,104,42.0424885,42.2466237,15.48,0,-0.4,145.7,646754.38,-281189.41,139.6,Air+FixedWing,Blue,Enemies,J-11A,Blue J-11A #004,cn,<51>YAGA,0.03125,0,9.1816117406208e-05,15.4799995422363,2.47999954223633,0.03125,0,NaN,NaN,0,0.0197823405926261,NaN,0.999941678861764,0.00413061310110525,-0.0118345978703653,4.8828125e-05,15.1806937510872,15.1807425792122,,,24.5599999427795,13,0.106819200305281,0.173433301031057
2018-07-19T08:05:42Z,1531987542,104,42.0424885,42.2466237,15.48,0,-0.4,145.7,646754.38,-281189.38,139.6,Air+FixedWing,Blue,Enemies,J-11A,Blue J-11A #004,cn,<51>YAGA,0.03125,0,9.1816117406208e-05,15.4799995422363,2.47999954223633,0.03125,0,NaN,NaN,0,0.0197823405926261,NaN,1.00000944533243,-0.00413061310110525,-0.00212792334739813,4.8828125e-05,15.1806937510872,15.1807425792122,,,25.5599999427795,13,0.106819200305281,0.173433301031057
2018-07-19T08:05:43Z,1531987543,104,42.0424885,42.2466237,15.48,0,-0.4,145.7,646754.38,-281189.41,139.6,Air+FixedWing,Blue,Enemies,J-11A,Blue J-11A #004,cn,<51>YAGA,0.03125,0,9.1816117406208e-05,15.4799995422363,2.47999954223633,0.03125,0,NaN,NaN,0,0.0197823405926261,NaN,0.999958620479429,0.00206530655055262,-0.0094079292396235,4.8828125e-05,15.1806937510872,15.1807425792122,,,26.5599999427795,13,0.106819200305281,0.173433301031057
2018-07-19T08:05:44Z,1531987544,104,42.0424885,42.2466237,15.48,0,-0.4,145.7,646754.38,-281189.41,139.6,Air+FixedWing,Blue,Enemies,J-11A,Blue J-11A #004,cn,<51>YAGA,0,0,0,15.4799995422363,2.47999954223633,0,0,NaN,NaN,0,0.0197823405926261,NaN,0.999958620479429,0.00206530655055262,-0.0094079292396235,0,15.1806937510872,15.1806937510872,,,27.5599999427795,13,0.106819200305281,0.173433301031057
2018-07-19T08:05:45Z,1531987545,104,42.0424885,42.2466237,15.48,0,-0.4,145.7,646754.38,-281189.38,139.6,Air+FixedWing,Blue,Enemies,J-11A,Blue J-11A #004,cn,<51>YAGA,0.03125,0,9.1816117406208e-05,15.4799995422363,2.47999954223633,0.03125,0,NaN,NaN,0,0.0197823405926261,NaN,0.999992503714761,-0.00206530655055262,-0.00455459197813992,4.8828125e-05,15.1806937510872,15.1807425792122,,,28.5599999427795,13,0.106819200305281,0.173433301031057
2018-07-19T08:05:46Z,1531987546,104,42.0424885,42.2466237,15.48,0,-0.4,145.7,646754.38,-281189.38,139.6,Air+FixedWing,Blue,Enemies,J-11A,Blue J-11A #004,cn,<51>YAGA,0,0,0,15.4799995422363,2.47999954223633,0,0,NaN,NaN,0,0.0197823405926261,NaN,0.999992503714761,-0.00206530655055262,-0.00455459197813992,0,15.1806937510872,15.1806937510872,,,29.5599999427795,13,0.106819200305281,0.173433301031057
2018-07-19T08:05:47Z,1531987547,104,42.0424885,42.2466237,15.48,0,-0.4,145.7,646754.38,-281189.41,139.6,Air+FixedWing,Blue,Enemies,J-11A,Blue J-11A #004,cn,<51>YAGA,0.03125,0,9.1816117406208e-05,15.4799995422363,2.47999954223633,0.03125,0,NaN,NaN,0,0.0197823405926261,NaN,0.999958620479429,0.00206530655055262,-0.0094079292396235,4.8828125e-05,15.1806937510872,15.1807425792122,,,30.5599999427795,13,0.106819200305281,0.173433301031057
2018-07-19T08:05:48Z,1531987548,104,42.0424885,42.2466236,15.48,0,-0.4,145.7,646754.38,-281189.41,139.6,Air+FixedWing,Blue,Enemies,J-11A,Blue J-11A #004,cn,<51>YAGA,0,0,0,15.4799995422363,2.47999954223633,0,0,NaN,NaN,0,0.0197823405926261,NaN,0.999975562097095,0,-0.00698126060888171,0,15.1806937510872,15.1806937510872,,,31.5599999427795,13,0.113379099536078,0.179993216089278
2018-07-19T08:05:49Z,1531987549,104,42.0424885,42.2466237,15.48,0,-0.4,145.7,646754.38,-281189.41,139.6,Air+FixedWing,Blue,Enemies,J-11A,Blue J-11A #004,cn,<51>YAGA,0,0,0,15.4799995422363,2.47999954223633,0,0,NaN,NaN,0,0.0279764548403722,NaN,0.999977707864179,0,-0.00666052429005504,0,15.1806937510872,15.1806937510872,,,32.5599999427795,13,0.119938998766876,0.186553131147499
2018-07-19T08:05:50Z,1531987550,104,42.0424885,42.2466237,15.48,0,-0.3,145.7,646754.38,-281189.41,139.6,Air+FixedWing,Blue,Enemies,J-11A,Blue J-11A #004,cn,<51>YAGA,0,0,0,15.4799995422363,2.47999954223633,0,0,NaN,NaN,0,0.0532655904281015,NaN,0.999969675085741,0.00206530655055262,-0.00814386616441735,0,15.1806937510872,15.1806937510872,,,33.5599999427795,13,0.119938998766876,0.186553131147499
2018-07-19T08:05:51Z,1531987551,104,42.0424885,42.2466237,15.48,0,-0.3,145.7,646754.38,-281189.38,139.6,Air+FixedWing,Blue,Enemies,J-11A,Blue J-11A #004,cn,<51>YAGA,0.03125,0,9.1816117406208e-05,15.4799995422363,2.47999954223633,0.03125,0,NaN,NaN,0,0.0312786278555019,NaN,1.00001158423919,-0.00413061310110525,-0.000382576181446908,4.8828125e-05,15.1806937510872,15.1807425792122,,,34.5599999427795,13,0.119938998766876,0.186553131147499
2018-07-19T08:05:52Z,1531987552,104,42.0424885,42.2466237,15.48,0,-0.3,145.7,646754.38,-281189.41,139.6,Air+FixedWing,Blue,Enemies,J-11A,Blue J-11A #004,cn,<51>YAGA,0.03125,0,9.1816117406208e-05,15.4799995422363,2.47999954223633,0.03125,0,NaN,NaN,0,0.0139882274201861,NaN,0.999960759207275,0.00413061310110525,-0.0100893526832706,4.8828125e-05,15.1806937510872,15.1807425792122,,,35.5599999427795,13,0.119938998766876,0.186553131147499
2018-07-19T08:05:53Z,1531987553,104,42.0424885,42.2466237,15.48,0,-0.3,145.7,646754.38,-281189.38,139.6,Air+FixedWing,Blue,Enemies,J-11A,Blue J-11A #004,cn,<51>YAGA,0.03125,0,9.1816117406208e-05,15.4799995422363,2.47999954223633,0.03125,0,NaN,NaN,0,0.00989117029631303,NaN,0.999623085078831,-0.00413061310110525,-0.000380541985477222,4.8828125e-05,15.1806937510872,15.1807425792122,,,36.5599999427795,13,0.119938998766876,0.186553131147499
2018-07-19T08:05:54Z,1531987554,104,42.0424885,42.2466237,15.48,0,-0.3,145.7,646754.38,-281189.41,139.6,Air+FixedWing,Blue,Enemies,J-11A,Blue J-11A #004,cn,<51>YAGA,0.0314813922528478,0,9.2495970660593e-05,15.4761896133423,2.47618961334229,0.03125,-0.00380992889404297,NaN,NaN,0,0.00989117029631303,NaN,1.00073775752799,0.00413061310110525,-0.0100934210752099,4.95539029088832e-05,15.1769574871683,15.1770070410712,,,37.5599999427795,13,0.119938998766876,0.190363060790073
2018-07-19T08:05:55Z,1531987555,104,42.0424885,42.2466237,15.48,0,-0.3,145.7,646754.38,-281189.38,139.6,Air+FixedWing,Blue,Enemies,J-11A,Blue J-11A #004,cn,<51>YAGA,0.0314813922528478,0,9.24959746303474e-05,15.4799995422363,2.47999954223633,0.03125,0.00380992889404297,NaN,NaN,0,0.00989117029631303,NaN,0.999610378820852,-0.00206530655055262,-0.00280723611093314,4.95539029088832e-05,15.1806937510872,15.1807433049901,,,38.5599999427795,13,0.119938998766876,0.194172990432648
2018-07-19T08:05:56Z,1531987556,104,42.0424885,42.2466237,15.48,0,-0.3,145.7,646754.38,-281189.38,139.6,Air+FixedWing,Blue,Enemies,J-11A,Blue J-11A #004,cn,<51>YAGA,0,0,0,15.4799995422363,2.47999954223633,0,0,NaN,NaN,0,0.00989117029631303,NaN,0.999986171723233,0,-0.00523596443235874,0,15.1806937510872,15.1806937510872,,,39.5599999427795,13,0.119938998766876,0.194172990432648
2018-07-19T08:05:57Z,1531987557,104,42.0424885,42.2466237,15.48,0,-0.3,145.7,646754.38,-281189.38,139.6,Air+FixedWing,Blue,Enemies,J-11A,Blue J-11A #004,cn,<51>YAGA,0,0,0,15.4799995422363,2.47999954223633,0,0,NaN,NaN,0,0.00989117029631303,NaN,0.999998877981212,-0.00206530655055262,-0.00280927030690282,0,15.1806937510872,15.1806937510872,,,40.5599999427795,13,0.119938998766876,0.194172990432648
2018-07-19T08:05:58Z,1531987558,104,42.0424885,42.2466237,15.48,0,-0.3,145.7,646754.38,-281189.41,139.6,Air+FixedWing,Blue,Enemies,J-11A,Blue J-11A #004,cn,<51>YAGA,0.03125,0,9.1816117406208e-05,15.4799995422363,2.47999954223633,0.03125,0,NaN,NaN,0,0.00989117029631303,NaN,0.999973465465254,0.00206530655055262,-0.00766265855781466,4.8828125e-05,15.1806937510872,15.1807425792122,,,41.5599999427795,13,0.119938998766876,0.194172990432648
2018-07-19T08:05:59Z,1531987559,104,42.0424885,42.2466237,15.48,0,-0.3,145.7,646754.38,-281189.41,139.6,Air+FixedWing,Blue,Enemies,J-11A,Blue J-11A #004,cn,<51>YAGA,0,0,0,15.4799995422363,2.47999954223633,0,0,NaN,NaN,0,0.00989117029631303,NaN,0.999986171723233,0,-0.00523596443235874,0,15.1806937510872,15.1806937510872,,,42.5599999427795,13,0.119938998766876,0.194172990432648
2018-07-19T08:06:00Z,1531987560,104,42.0424884,42.2466236,15.48,0.2,-0.3,145.7,646754.38,-281189.41,139.6,Air+FixedWing,Blue,Enemies,J-11A,Blue J-11A #004,cn,<51>YAGA,0,0,0,15.4799995422363,2.47999954223633,0,0,NaN,NaN,0.371430356139921,0.00989117029631303,NaN,0.999803550175481,0.00324071617185313,-0.00523503567805368,0,15.1806937510872,15.1806937510872,,,43.5599999427795,13,0.13254651887751,0.206780540357935
2018-07-19T08:06:01Z,1531987561,104,42.0424884,42.2466237,15.48,0.1,-0.3,145.7,646754.38,-281189.41,139.6,Air+FixedWing,Blue,Enemies,J-11A,Blue J-11A #004,cn,<51>YAGA,0.001739501953125,0,5.1108579976584e-06,15.4782600402832,2.4782600402832,0,-0.001739501953125,NaN,NaN,0,0.00989117029631303,NaN,0.999528694151148,0.00174450854355058,-0.00523357686166992,1.51293352246285e-07,15.1789878824043,15.1789880336977,,,44.5599999427795,13,0.142088192223766,0.216479501265574
2018-07-19T08:06:02Z,1531987562,104,42.0424884,42.2466237,15.47,0.1,-0.3,145.7,646754.38,-281189.41,139.6,Air+FixedWing,Blue,Enemies,J-11A,Blue J-11A #004,cn,<51>YAGA,0.00621128082275391,0,1.82494604219808e-05,15.4720487594604,2.47204875946045,0,-0.00621128082275391,NaN,NaN,0,0.00989117029631303,NaN,1.00039275320756,0.00381132651324583,-0.00766488064322435,1.92900047295552e-06,15.1728966966963,15.1728986256968,,,45.5599999427795,13,0.142088192223766,0.22269078187867
2018-07-19T08:06:03Z,1531987563,104,42.0424885,42.2466237,15.47,-0.1,-0.3,145.7,646754.38,-281189.38,139.6,Air+FixedWing,Blue,Enemies,J-11A,Blue J-11A #004,cn,<51>YAGA,0.0313171315631113,0,9.20133473442096e-05,15.4699993133545,2.46999931335449,0.03125,-0.00204944610595703,NaN,NaN,0.150373444767001,0.00989117029631303,NaN,1.00020535991293,-0.00304528404146575,-0.00281036454648702,4.90381364670611e-05,15.1708868766308,15.1709359147673,,,46.5599999427795,13,0.150328703675944,0.231182341835726
2018-07-19T08:06:04Z,1531987564,104,42.0424885,42.2466237,15.47,0,-0.3,145.7,646754.38,-281189.38,139.6,Air+FixedWing,Blue,Enemies,J-11A,Blue J-11A #004,cn,<51>YAGA,0,0,0,15.4699993133545,2.46999931335449,0,0,NaN,NaN,0,0.00989117029631303,NaN,0.999986171723233,0,-0.00523596443235874,0,15.1708868766308,15.1708868766308,,,47.5599999427795,13,0.150328703675944,0.231182341835726
2018-07-19T08:06:05Z,1531987565,104,42.0424885,42.2466237,15.47,0,-0.3,145.7,646754.38,-281189.38,139.6,Air+FixedWing,Blue,Enemies,J-11A,Blue J-11A #004,cn,<51>YAGA,0,0,0,15.4699993133545,2.46999931335449,0,0,NaN,NaN,0,0.00989117029631303,NaN,0.999986171723233,0,-0.00523596443235874,0,15.1708868766308,15.1708868766308,,,48.5599999427795,13,0.152786399235925,0.233640043348692
2018-07-19T08:06:06Z,1531987566,104,42.0424884,42.2466237,15.47,0.1,-0.3,145.7,646754.38,-281189.38,139.6,Air+FixedWing,Blue,Enemies,J-11A,Blue J-11A #004,cn,<51>YAGA,0,0,0,15.4699993133545,2.46999931335449,0,0,NaN,NaN,0.190476220127856,0.00989117029631303,NaN,1.00000099967206,-0.000403088119083797,-0.00280927030690282,0,15.1708868766308,15.1708868766308,,,49.5599999427795,13,0.158569215128122,0.239422873397727
2018-07-19T08:06:07Z,1531987567,104,42.0424885,42.2466237,15.47,0,-0.3,145.7,646754.38,-281189.41,139.6,Air+FixedWing,Blue,Enemies,J-11A,Blue J-11A #004,cn,<51>YAGA,0.03125,0,9.18161070630596e-05,15.4699993133545,2.46999931335449,0.03125,0,NaN,NaN,0,0.00989117029631303,NaN,0.999960759207275,0.00413061310110525,-0.0100893526832706,4.8828125e-05,15.1708868766308,15.1709357047558,,,50.5599999427795,13,0.166809726580301,0.247663404959726
2018-07-19T08:06:08Z,1531987568,104,42.0424885,42.2466237,15.47,0,-0.3,145.7,646754.38,-281189.38,139.6,Air+FixedWing,Blue,Enemies,J-11A,Blue J-11A #004,cn,<51>YAGA,0.03125,0,9.18161070630596e-05,15.4699993133545,2.46999931335449,0.03125,0,NaN,NaN,0,0.0312786278555019,NaN,0.999998877981212,-0.00206530655055262,-0.00280927030690282,4.8828125e-05,15.1708868766308,15.1709357047558,,,51.5599999427795,13,0.166809726580301,0.247663404959726
2018-07-19T08:06:09Z,1531987569,104,42.0424885,42.2466237,15.47,0,-0.2,145.7,646754.38,-281189.38,139.6,Air+FixedWing,Blue,Enemies,J-11A,Blue J-11A #004,cn,<51>YAGA,0,0,0,15.4699993133545,2.46999931335449,0,0,NaN,NaN,0,0.00989117029631303,NaN,0.999991297722378,0,-0.00415553338825703,0,15.1708868766308,15.1708868766308,,,52.5599999427795,13,0.166809726580301,0.247663404959726
2018-07-19T08:06:10Z,1531987570,104,42.0424885,42.2466237,15.47,0,-0.3,145.7,646754.38,-281189.38,139.6,Air+FixedWing,Blue,Enemies,J-11A,Blue J-11A #004,cn,<51>YAGA,0,0,0,15.4699993133545,2.46999931335449,0,0,NaN,NaN,0,0.0312786278555019,NaN,0.999986171723233,0,-0.00523596443235874,0,15.1708868766308,15.1708868766308,,,53.5599999427795,13,0.169772223492323,0.250625909140068
2018-07-19T08:06:11Z,1531987571,104,42.0424884,42.2466237,15.47,0,-0.3,145.7,646754.38,-281189.38,139.6,Air+FixedWing,Blue,Enemies,J-11A,Blue J-11A #004,cn,<51>YAGA,0,0,0,15.4699993133545,2.46999931335449,0,0,NaN,NaN,0,0.00989117029631303,NaN,0.999998877981212,-0.00206530655055262,-0.00280927030690282,0,15.1708868766308,15.1708868766308,,,54.5599999427795,13,0.173177394532426,0.25403108807218
2018-07-19T08:06:12Z,1531987572,104,42.0424884,42.2466237,15.47,0.1,-0.2,145.7,646754.38,-281189.41,139.6,Air+FixedWing,Blue,Enemies,J-11A,Blue J-11A #004,cn,<51>YAGA,0.03125,0,9.18161070630596e-05,15.4699993133545,2.46999931335449,0.03125,0,NaN,NaN,0.171430331008768,0.0523391626455858,NaN,0.999981108062875,0.0035612938540761,-0.00591736399870365,4.8828125e-05,15.1708868766308,15.1709357047558,,,55.5599999427795,13,0.175050238032479,0.255903936521727
2018-07-19T08:06:13Z,1531987573,104,42.0424884,42.2466237,15.47,0,-0.2,145.7,646754.38,-281189.41,139.6,Air+FixedWing,Blue,Enemies,J-11A,Blue J-11A #004,cn,<51>YAGA,0,0,0,15.4699993133545,2.46999931335449,0,0,NaN,NaN,0,0.0523391626455858,NaN,0.999985270653506,0.00206530655055262,-0.00591736399870365,0,15.1708868766308,15.1708868766308,,,56.5599999427795,13,0.176368718934188,0.257222421057595
2018-07-19T08:06:14Z,1531987574,104,42.0424885,42.2466237,15.47,0,-0.2,145.7,646754.38,-281189.38,139.6,Air+FixedWing,Blue,Enemies,J-11A,Blue J-11A #004,cn,<51>YAGA,0.03125,0,9.18161070630596e-05,15.4699993133545,2.46999931335449,0.03125,0,NaN,NaN,0,0.0171320104161963,NaN,1.00000221237183,-0.00206530655055262,-0.00106393945101649,4.8828125e-05,15.1708868766308,15.1709357047558,,,57.5599999427795,13,0.182898345396133,0.263752062991712
2018-07-19T08:06:15Z,1531987575,104,42.0424885,42.2466237,15.47,-0,-0.2,145.7,646754.38,-281189.38,139.6,Air+FixedWing,Blue,Enemies,J-11A,Blue J-11A #004,cn,<51>YAGA,0,0,0,15.4699993133545,2.46999931335449,0,0,NaN,NaN,0.0960051389736992,0.0171320104161963,NaN,0.999993443491292,-0.000837703048450822,-0.00349065172486007,0,15.1708868766308,15.1708868766308,,,58.5599999427795,13,0.183290749484659,0.264144468083728
2018-07-19T08:06:16Z,1531987576,104,42.0424885,42.2466237,15.47,0,-0.2,145.7,646754.38,-281189.38,139.6,Air+FixedWing,Blue,Enemies,J-11A,Blue J-11A #004,cn,<51>YAGA,0,0,0,15.4699993133545,2.46999931335449,0,0,NaN,NaN,0,0.0171320104161963,NaN,0.999993741512668,0,-0.00349065172486007,0,15.1708868766308,15.1708868766308,,,59.5599999427795,13,0.183290749484659,0.264144468083728
2018-07-19T08:06:17Z,1531987577,104,42.0424885,42.2466237,15.47,0,-0.2,145.7,646754.38,-281189.38,139.6,Air+FixedWing,Blue,Enemies,J-11A,Blue J-11A #004,cn,<51>YAGA,0,0,0,15.4699993133545,2.46999931335449,0,0,NaN,NaN,0,0.0171320104161963,NaN,1.00000221237183,-0.00206530655055262,-0.00106393945101649,0,15.1708868766308,15.1708868766308,,,60.5599999427795,13,0.183290749484659,0.264144468083728
2018-07-19T08:06:18Z,1531987578,104,42.0424885,42.2466237,15.47,0,-0.2,145.7,646754.38,-281189.41,139.6,Air+FixedWing,Blue,Enemies,J-11A,Blue J-11A #004,cn,<51>YAGA,0.03125,0,9.18161070630596e-05,15.4699993133545,2.46999931335449,0.03125,0,NaN,NaN,0,0.0171320104161963,NaN,0.999976799794344,0.00413061310110525,-0.00834407627254723,4.8828125e-05,15.1708868766308,15.1709357047558,,,61.5599999427795,13,0.183290749484659,0.264144468083728
2018-07-19T08:06:19Z,1531987579,104,42.0424885,42.2466237,15.47,0,-0.2,145.7,646754.38,-281189.38,139.6,Air+FixedWing,Blue,Enemies,J-11A,Blue J-11A #004,cn,<51>YAGA,0.03125,0,9.18161070630596e-05,15.4699993133545,2.46999931335449,0.03125,0,NaN,NaN,0,0.0171320104161963,NaN,1.00001068323099,-0.00413061310110525,0.00136277282282709,4.8828125e-05,15.1708868766308,15.1709357047558,,,62.5599999427795,13,0.183290749484659,0.264144468083728
2018-07-19T08:06:20Z,1531987580,104,42.0424885,42.2466237,15.47,0,-0.2,145.7,646754.38,-281189.41,139.6,Air+FixedWing,Blue,Enemies,J-11A,Blue J-11A #004,cn,<51>YAGA,0.03125,0,9.18161070630596e-05,15.4699993133545,2.46999931335449,0.03125,0,NaN,NaN,0,0.0171320104161963,NaN,0.999985270653506,0.00206530655055262,-0.00591736399870365,4.8828125e-05,15.1708868766308,15.1709357047558,,,63.5599999427795,13,0.183290749484659,0.264144468083728
2018-07-19T08:06:21Z,1531987581,104,42.0424885,42.2466237,15.47,0,-0.2,145.7,646754.38,-281189.41,139.6,Air+FixedWing,Blue,Enemies,J-11A,Blue J-11A #004,cn,<51>YAGA,0,0,0,15.4699993133545,2.46999931335449,0,0,NaN,NaN,0,0.0171320104161963,NaN,0.999993741512668,0,-0.00349065172486007,0,15.1708868766308,15.1708868766308,,,64.5599999427795,13,0.183290749484659,0.264144468083728
2018-07-19T08:06:22Z,1531987582,104,42.0424885,42.2466237,15.47,0,-0.2,145.7,646754.38,-281189.41,139.6,Air+FixedWing,Blue,Enemies,J-11A,Blue J-11A #004,cn,<51>YAGA,0,0,0,15.4699993133545,2.46999931335449,0,0,NaN,NaN,0,0.0171320104161963,NaN,0.999985270653506,0.00206530655055262,-0.00591736399870365,0,15.1708868766308,15.1708868766308,,,65.5599999427795,13,0.183290749484659,0.264144468083728
2018-07-19T08:06:23Z,1531987583,104,42.0424885,42.2466237,15.47,0,-0.2,145.7,646754.38,-281189.38,139.6,Air+FixedWing,Blue,Enemies,J-11A,Blue J-11A #004,cn,<51>YAGA,0.03125,0,9.18161070630596e-05,15.4699993133545,2.46999931335449,0.03125,0,NaN,NaN,0,0.0171320104161963,NaN,1.00000221237183,-0.00206530655055262,-0.00106393945101649,4.8828125e-05,15.1708868766308,15.1709357047558,,,66.5599999427795,13,0.183290749484659,0.264144468083728
2018-07-19T08:06:24Z,1531987584,104,42.0424885,42.2466237,15.47,0,-0.2,145.7,646754.38,-281189.38,139.6,Air+FixedWing,Blue,Enemies,J-11A,Blue J-11A #004,cn,<51>YAGA,0,0,0,15.4699993133545,2.46999931335449,0,0,NaN,NaN,0,0.0171320104161963,NaN,0.999993741512668,0,-0.00349065172486007,0,15.1708868766308,15.1708868766308,,,67.5599999427795,13,0.183290749484659,0.264144468083728
2018-07-19T08:06:25Z,1531987585,104,42.0424885,42.2466237,15.47,0,-0.2,145.7,646754.38,-281189.38,139.6,Air+FixedWing,Blue,Enemies,J-11A,Blue J-11A #004,cn,<51>YAGA,0,0,0,15.4699993133545,2.46999931335449,0,0,NaN,NaN,0,0.0171320104161963,NaN,0.999993741512668,0,-0.00349065172486007,0,15.1708868766308,15.1708868766308,,,68.5599999427795,13,0.183290749484659,0.264144468083728
2018-07-19T08:06:26Z,1531987586,104,42.0424885,42.2466237,15.47,0,-0.2,145.7,646754.38,-281189.38,139.6,Air+FixedWing,Blue,Enemies,J-11A,Blue J-11A #004,cn,<51>YAGA,0,0,0,15.4699993133545,2.46999931335449,0,0,NaN,NaN,0,0.0171320104161963,NaN,1.00000221237183,-0.00206530655055262,-0.00106393945101649,0,15.1708868766308,15.1708868766308,,,69.5599999427795,13,0.183290749484659,0.264144468083728
2018-07-19T08:06:27Z,1531987587,104,42.0424885,42.2466237,15.47,0,-0.2,145.7,646754.38,-281189.41,139.6,Air+FixedWing,Blue,Enemies,J-11A,Blue J-11A #004,cn,<51>YAGA,0.03125,0,9.18161070630596e-05,15.4699993133545,2.46999931335449,0.03125,0,NaN,NaN,0,0.0171320104161963,NaN,0.999976799794344,0.00413061310110525,-0.00834407627254723,4.8828125e-05,15.1708868766308,15.1709357047558,,,70.5599999427795,13,0.183290749484659,0.264144468083728
2018-07-19T08:06:28Z,1531987588,104,42.0424885,42.2466237,15.47,0,-0.2,145.7,646754.38,-281189.38,139.6,Air+FixedWing,Blue,Enemies,J-11A,Blue J-11A #004,cn,<51>YAGA,0.03125,0,9.18161070630596e-05,15.4699993133545,2.46999931335449,0.03125,0,NaN,NaN,0,0.0171320104161963,NaN,1.00000221237183,-0.00206530655055262,-0.00106393945101649,4.8828125e-05,15.1708868766308,15.1709357047558,,,71.5599999427795,13,0.183290749484659,0.264144468083728
2018-07-19T08:06:29Z,1531987589,104,42.0424885,42.2466237,15.47,0,-0.2,145.7,646754.38,-281189.38,139.6,Air+FixedWing,Blue,Enemies,J-11A,Blue J-11A #004,cn,<51>YAGA,0,0,0,15.4699993133545,2.46999931335449,0,0,NaN,NaN,0,0.0171320104161963,NaN,1.00000221237183,-0.00206530655055262,-0.00106393945101649,0,15.1708868766308,15.1708868766308,,,72.5599999427795,13,0.183290749484659,0.264144468083728
2018-07-19T08:06:30Z,1531987590,104,42.0424885,42.2466237,15.47,0,-0.2,145.7,646754.38,-281189.41,139.6,Air+FixedWing,Blue,Enemies,J-11A,Blue J-11A #004,cn,<51>YAGA,0.03125,0,9.18161070630596e-05,15.4699993133545,2.46999931335449,0.03125,0,NaN,NaN,0,0.0171320104161963,NaN,0.999985270653506,0.00206530655055262,-0.00591736399870365,4.8828125e-05,15.1708868766308,15.1709357047558,,,73.5599999427795,13,0.183290749484659,0.264144468083728
2018-07-19T08:06:31Z,1531987591,104,42.0424885,42.2466237,15.47,0,-0.2,145.7,646754.38,-281189.41,139.6,Air+FixedWing,Blue,Enemies,J-11A,Blue J-11A #004,cn,<51>YAGA,0,0,0,15.4699993133545,2.46999931335449,0,0,NaN,NaN,0,0.0171320104161963,NaN,0.999985270653506,0.00206530655055262,-0.00591736399870365,0,15.1708868766308,15.1708868766308,,,74.5599999427795,13,0.183290749484659,0.264144468083728
2018-07-19T08:06:32Z,1531987592,104,42.0424885,42.2466237,15.47,0,-0.2,145.7,646754.38,-281189.38,139.6,Air+FixedWing,Blue,Enemies,J-11A,Blue J-11A #004,cn,<51>YAGA,0.03125,0,9.18161070630596e-05,15.4699993133545,2.46999931335449,0.03125,0,NaN,NaN,0,0.0171320104161963,NaN,1.00001068323099,-0.00413061310110525,0.00136277282282709,4.8828125e-05,15.1708868766308,15.1709357047558,,,75.5599999427795,13,0.183290749484659,0.264144468083728
2018-07-19T08:06:33Z,1531987593,104,42.0424885,42.2466237,15.47,0,-0.2,145.7,646754.38,-281189.41,139.6,Air+FixedWing,Blue,Enemies,J-11A,Blue J-11A #004,cn,<51>YAGA,0.03125,0,9.18161070630596e-05,15.4699993133545,2.46999931335449,0.03125,0,NaN,NaN,0,0.0171320104161963,NaN,0.999976799794344,0.00413061310110525,-0.00834407627254723,4.8828125e-05,15.1708868766308,15.1709357047558,,,76.5599999427795,13,0.183290749484659,0.264144468083728
2018-07-19T08:06:34Z,1531987594,104,42.0424885,42.2466237,15.47,0,-0.2,145.7,646754.38,-281189.38,139.6,Air+FixedWing,Blue,Enemies,J-11A,Blue J-11A #004,cn,<51>YAGA,0.03125,0,9.18161070630596e-05,15.4699993133545,2.46999931335449,0.03125,0,NaN,NaN,0,0.0171320104161963,NaN,1.00000221237183,-0.00206530655055262,-0.00106393945101649,4.8828125e-05,15.1708868766308,15.1709357047558,,,77.5599999427795,13,0.183290749484659,0.264144468083728
2018-07-19T08:06:35Z,1531987595,104,42.0424885,42.2466237,15.47,0,-0.2,145.7,646754.38,-281189.38,139.6,Air+FixedWing,Blue,Enemies,J-11A,Blue J-11A #004,cn,<51>YAGA,0,0,0,15.4699993133545,2.46999931335449,0,0,NaN,NaN,0,0.0171320104161963,NaN,1.00000221237183,-0.00206530655055262,-0.00106393945101649,0,15.1708868766308,15.1708868766308,,,78.5599999427795,13,0.183290749484659,0.264144468083728
2018-07-19T08:06:36Z,1531987596,104,42.0424885,42.2466237,15.47,0,-0.2,145.7,646754.38,-281189.41,139.6,Air+FixedWing,Blue,Enemies,J-11A,Blue J-11A #004,cn,<51>YAGA,0.03125,0,9.18161070630596e-05,15.4699993133545,2.46999931335449,0.03125,0,NaN,NaN,0,0.0171320104161963,NaN,0.999985270653506,0.00206530655055262,-0.00591736399870365,4.8828125e-05,15.1708868766308,15.1709357047558,,,79.5599999427795,13,0.183290749484659,0.264144468083728
2018-07-19T08:06:37Z,1531987597,104,42.0424885,42.2466237,15.47,0,-0.2,145.7,646754.38,-281189.41,139.6,Air+FixedWing,Blue,Enemies,J-11A,Blue J-11A #004,cn,<51>YAGA,0,0,0,15.4699993133545,2.46999931335449,0,0,NaN,NaN,0,0.0171320104161963,NaN,0.999985270653506,0.00206530655055262,-0.00591736399870365,0,15.1708868766308,15.1708868766308,,,80.5599999427795,13,0.183290749484659,0.264144468083728
2018-07-19T08:06:38Z,1531987598,104,42.0424885,42.2466237,15.47,0,-0.2,145.7,646754.38,-281189.38,139.6,Air+FixedWing,Blue,Enemies,J-11A,Blue J-11A #004,cn,<51>YAGA,0.03125,0,9.18161070630596e-05,15.4699993133545,2.46999931335449,0.03125,0,NaN,NaN,0,0.0171320104161963,NaN,1.00001068323099,-0.00413061310110525,0.00136277282282709,4.8828125e-05,15.1708868766308,15.1709357047558,,,81.5599999427795,13,0.183290749484659,0.264144468083728
2018-07-19T08:06:39Z,1531987599,104,42.0424885,42.2466237,15.47,0,-0.2,145.7,646754.38,-281189.41,139.6,Air+FixedWing,Blue,Enemies,J-11A,Blue J-11A #004,cn,<51>YAGA,0.03125,0,9.18161070630596e-05,15.4699993133545,2.46999931335449,0.03125,0,NaN,NaN,0,0.0171320104161963,NaN,0.999985270653506,0.00206530655055262,-0.00591736399870365,4.8828125e-05,15.1708868766308,15.1709357047558,,,82.5599999427795,13,0.183290749484659,0.264144468083728
2018-07-19T08:06:40Z,1531987600,104,42.0424885,42.2466237,15.47,0,-0.2,145.7,646754.38,-281189.41,139.6,Air+FixedWing,Blue,Enemies,J-11A,Blue J-11A #004,cn,<51>YAGA,0,0,0,15.4699993133545,2.46999931335449,0,0,NaN,NaN,0,0.0171320104161963,NaN,0.999993741512668,0,-0.00349065172486007,0,15.1708868766308,15.1708868766308,,,83.5599999427795,13,0.183290749484659,0.264144468083728
2018-07-19T08:06:41Z,1531987601,104,42.0424885,42.2466237,15.47,0,-0.2,145.7,646754.38,-281189.41,139.6,Air+FixedWing,Blue,Enemies,J-11A,Blue J-11A #004,cn,<51>YAGA,0,0,0,15.4699993133545,2.46999931335449,0,0,NaN,NaN,0,0.0171320104161963,NaN,0.999993741512668,0,-0.00349065172486007,0,15.1708868766308,15.1708868766308,,,84.5599999427795,13,0.183290749484659,0.264144468083728
2018-07-19T08:06:42Z,1531987602,104,42.0424885,42.2466237,15.47,0,-0.2,145.7,646754.38,-281189.41,139.6,Air+FixedWing,Blue,Enemies,J-11A,Blue J-11A #004,cn,<51>YAGA,0,0,0,15.4699993133545,2.46999931335449,0,0,NaN,NaN,0,0.0171320104161963,NaN,0.999985270653506,0.00206530655055262,-0.00591736399870365,0,15.1708868766308,15.1708868766308,,,85.5599999427795,13,0.183290749484659,0.264144468083728
2018-07-19T08:06:43Z,1531987603,104,42.0424885,42.2466237,15.47,0,-0.2,145.7,646754.38,-281189.38,139.6,Air+FixedWing,Blue,Enemies,J-11A,Blue J-11A #004,cn,<51>YAGA,0.03125,0,9.18161070630596e-05,15.4699993133545,2.46999931335449,0.03125,0,NaN,NaN,0,0.0171320104161963,NaN,1.00001068323099,-0.00413061310110525,0.00136277282282709,4.8828125e-05,15.1708868766308,15.1709357047558,,,86.5599999427795,13,0.183290749484659,0.264144468083728
2018-07-19T08:06:44Z,1531987604,104,42.0424885,42.2466237,15.47,0,-0.2,145.7,646754.38,-281189.41,139.6,Air+FixedWing,Blue,Enemies,J-11A,Blue J-11A #004,cn,<51>YAGA,0.03125,0,9.18161070630596e-05,15.4699993133545,2.46999931335449,0.03125,0,NaN,NaN,0,0.0171320104161963,NaN,0.999985270653506,0.00206530655055262,-0.00591736399870365,4.8828125e-05,15.1708868766308,15.1709357047558,,,87.5599999427795,13,0.183290749484659,0.264144468083728
2018-07-19T08:06:45Z,1531987605,104,42.0424885,42.2466237,15.47,0,-0.2,145.7,646754.38,-281189.41,139.6,Air+FixedWing,Blue,Enemies,J-11A,Blue J-11A #004,cn,<51>YAGA,0,0,0,15.4699993133545,2.46999931335449,0,0,NaN,NaN,0,0.0171320104161963,NaN,0.999993741512668,0,-0.00349065172486007,0,15.1708868766308,15.1708868766308,,,88.5599999427795,13,0.183290749484659,0.264144468083728
2018-07-19T08:06:46Z,1531987606,104,42.0424885,42.2466237,15.47,0,-0.2,145.7,646754.38,-281189.41,139.6,Air+FixedWing,Blue,Enemies,J-11A,Blue J-11A #004,cn,<51>YAGA,0,0,0,15.4699993133545,2.46999931335449,0,0,NaN,NaN,0,0.0171320104161963,NaN,0.999985270653506,0.00206530655055262,-0.00591736399870365,0,15.1708868766308,15.1708868766308,,,89.5599999427795,13,0.183290749484659,0.264144468083728
2018-07-19T08:06:47Z,1531987607,104,42.0424885,42.2466237,15.47,0,-0.2,145.7,646754.38,-281189.38,139.6,Air+FixedWing,Blue,Enemies,J-11A,Blue J-11A #004,cn,<51>YAGA,0.03125,0,9.18161070630596e-05,15.4699993133545,2.46999931335449,0.03125,0,NaN,NaN,0,0.0171320104161963,NaN,1.00000221237183,-0.00206530655055262,-0.00106393945101649,4.8828125e-05,15.1708868766308,15.1709357047558,,,90.5599999427795,13,0.183290749484659,0.264144468083728
2018-07-19T08:06:48Z,1531987608,104,42.0424885,42.2466237,15.47,0,-0.2,145.7,646754.38,-281189.38,139.6,Air+FixedWing,Blue,Enemies,J-11A,Blue J-11A #004,cn,<51>YAGA,0,0,0,15.4699993133545,2.46999931335449,0,0,NaN,NaN,0,0.0171320104161963,NaN,0.999993741512668,0,-0.00349065172486007,0,15.1708868766308,15.1708868766308,,,91.5599999427795,13,0.183290749484659,0.264144468083728
2018-07-19T08:06:49Z,1531987609,104,42.0424885,42.2466237,15.47,0,-0.2,145.7,646754.38,-281189.38,139.6,Air+FixedWing,Blue,Enemies,J-11A,Blue J-11A #004,cn,<51>YAGA,0,0,0,15.4699993133545,2.46999931335449,0,0,NaN,NaN,0,0.0171320104161963,NaN,0.999993741512668,0,-0.00349065172486007,0,15.1708868766308,15.1708868766308,,,92.5599999427795,13,0.183290749484659,0.264144468083728
2018-07-19T08:06:50Z,1531987610,104,42.0424885,42.2466237,15.47,0,-0.2,145.7,646754.38,-281189.38,139.6,Air+FixedWing,Blue,Enemies,J-11A,Blue J-11A #004,cn,<51>YAGA,0,0,0,15.4699993133545,2.46999931335449,0,0,NaN,NaN,0,0.0171320104161963,NaN,1.00000221237183,-0.00206530655055262,-0.00106393945101649,0,15.1708868766308,15.1708868766308,,,93.5599999427795,13,0.183290749484659,0.264144468083728
2018-07-19T08:06:51Z,1531987611,104,42.0424885,42.2466237,15.47,0,-0.2,145.7,646754.38,-281189.41,139.6,Air+FixedWing,Blue,Enemies,J-11A,Blue J-11A #004,cn,<51>YAGA,0.03125,0,9.18161070630596e-05,15.4699993133545,2.46999931335449,0.03125,0,NaN,NaN,0,0.0171320104161963,NaN,0.999976799794344,0.00413061310110525,-0.00834407627254723,4.8828125e-05,15.1708868766308,15.1709357047558,,,94.5599999427795,13,0.183290749484659,0.264144468083728
2018-07-19T08:06:52Z,1531987612,104,42.0424885,42.2466237,15.47,0,-0.2,145.7,646754.38,-281189.38,139.6,Air+FixedWing,Blue,Enemies,J-11A,Blue J-11A #004,cn,<51>YAGA,0.03125,0,9.18161070630596e-05,15.4699993133545,2.46999931335449,0.03125,0,NaN,NaN,0,0.0171320104161963,NaN,1.00001068323099,-0.00413061310110525,0.00136277282282709,4.8828125e-05,15.1708868766308,15.1709357047558,,,95.5599999427795,13,0.183290749484659,0.264144468083728
2018-07-19T08:06:53Z,1531987613,104,42.0424885,42.2466237,15.47,0,-0.2,145.7,646754.38,-281189.41,139.6,Air+FixedWing,Blue,Enemies,J-11A,Blue J-11A #004,cn,<51>YAGA,0.03125,0,9.18161070630596e-05,15.4699993133545,2.46999931335449,0.03125,0,NaN,NaN,0,0.0171320104161963,NaN,0.999976799794344,0.00413061310110525,-0.00834407627254723,4.8828125e-05,15.1708868766308,15.1709357047558,,,96.5599999427795,13,0.183290749484659,0.264144468083728
2018-07-19T08:06:54Z,1531987614,104,42.0424885,42.2466237,15.47,0,-0.2,145.7,646754.38,-281189.38,139.6,Air+FixedWing,Blue,Enemies,J-11A,Blue J-11A #004,cn,<51>YAGA,0.03125,0,9.18161070630596e-05,15.4699993133545,2.46999931335449,0.03125,0,NaN,NaN,0,0.0171320104161963,NaN,1.00001068323099,-0.00413061310110525,0.00136277282282709,4.8828125e-05,15.1708868766308,15.1709357047558,,,97.5599999427795,13,0.183290749484659,0.264144468083728
2018-07-19T08:06:55Z,1531987615,104,42.0424885,42.2466237,15.47,0,-0.2,145.7,646754.38,-281189.41,139.6,Air+FixedWing,Blue,Enemies,J-11A,Blue J-11A #004,cn,<51>YAGA,0.03125,0,9.18161070630596e-05,15.4699993133545,2.46999931335449,0.03125,0,NaN,NaN,0,0.0171320104161963,NaN,0.999985270653506,0.00206530655055262,-0.00591736399870365,4.8828125e-05,15.1708868766308,15.1709357047558,,,98.5599999427795,13,0.183290749484659,0.264144468083728
2018-07-19T08:06:56Z,1531987616,104,42.0424885,42.2466237,15.47,0,-0.2,145.7,646754.38,-281189.41,139.6,Air+FixedWing,Blue,Enemies,J-11A,Blue J-11A #004,cn,<51>YAGA,0,0,0,15.4699993133545,2.46999931335449,0,0,NaN,NaN,0,0.0171320104161963,NaN,0.999993741512668,0,-0.00349065172486007,0,15.1708868766308,15.1708868766308,,,99.5599999427795,13,0.183290749484659,0.264144468083728
2018-07-19T08:06:57Z,1531987617,104,42.0424885,42.2466237,15.47,0,-0.2,145.7,646754.38,-281189.41,139.6,Air+FixedWing,Blue,Enemies,J-11A,Blue J-11A #004,cn,<51>YAGA,0,0,0,15.4699993133545,2.46999931335449,0,0,NaN,NaN,0,0.0171320104161963,NaN,0.999993741512668,0,-0.00349065172486007,0,15.1708868766308,15.1708868766308,,,100.55999994278,13,0.183290749484659,0.264144468083728
2018-07-19T08:06:58Z,1531987618,104,42.0424885,42.2466237,15.47,0,-0.2,145.7,646754.38,-281189.41,139.6,Air+FixedWing,Blue,Enemies,J-11A,Blue J-11A #004,cn,<51>YAGA,0,0,0,15.4699993133545,2.46999931335449,0,0,NaN,NaN,0,0.0171320104161963,NaN,0.999985270653506,0.00206530655055262,-0.00591736399870365,0,15.1708868766308,15.1708868766308,,,101.55999994278,13,0.183290749484659,0.264144468083728
2018-07-19T08:06:59Z,1531987619,104,42.0424885,42.2466237,15.47,0,-0.2,145.7,646754.38,-281189.38,139.6,Air+FixedWing,Blue,Enemies,J-11A,Blue J-11A #004,cn,<51>YAGA,0.03125,0,9.18161070630596e-05,15.4699993133545,2.46999931335449,0.03125,0,NaN,NaN,0,0.0171320104161963,NaN,1.00001068323099,-0.00413061310110525,0.00136277282282709,4.8828125e-05,15.1708868766308,15.1709357047558,,,102.55999994278,13,0.183290749484659,0.264144468083728
2018-07-19T08:07:00Z,1531987620,104,42.0424885,42.2466237,15.47,0,-0.2,145.7,646754.38,-281189.41,139.6,Air+FixedWing,Blue,Enemies,J-11A,Blue J-11A #004,cn,<51>YAGA,0.03125,0,9.18161070630596e-05,15.4699993133545,2.46999931335449,0.03125,0,NaN,NaN,0,0.0171320104161963,NaN,0.999976799794344,0.00413061310110525,-0.00834407627254723,4.8828125e-05,15.1708868766308,15.1709357047558,,,103.55999994278,13,0.183290749484659,0.264144468083728
2018-07-19T08:07:01Z,1531987621,104,42.0424885,42.2466237,15.47,0,-0.2,145.7,646754.38,-281189.38,139.6,Air+FixedWing,Blue,Enemies,J-11A,Blue J-11A #004,cn,<51>YAGA,0.03125,0,9.18161070630596e-05,15.4699993133545,2.46999931335449,0.03125,0,NaN,NaN,0,0.0171320104161963,NaN,1.00001068323099,-0.00413061310110525,0.00136277282282709,4.8828125e-05,15.1708868766308,15.1709357047558,,,104.55999994278,13,0.183290749484659,0.264144468083728
2018-07-19T08:07:02Z,1531987622,104,42.0424885,42.2466237,15.47,0,-0.2,145.7,646754.38,-281189.41,139.6,Air+FixedWing,Blue,Enemies,J-11A,Blue J-11A #004,cn,<51>YAGA,0.03125,0,9.18161070630596e-05,15.4699993133545,2.46999931335449,0.03125,0,NaN,NaN,0,0.0171320104161963,NaN,0.999985270653506,0.00206530655055262,-0.00591736399870365,4.8828125e-05,15.1708868766308,15.1709357047558,,,105.55999994278,13,0.183290749484659,0.264144468083728
2018-07-19T08:07:03Z,1531987623,104,42.0424885,42.2466237,15.47,0,-0.2,145.7,646754.38,-281189.41,139.6,Air+FixedWing,Blue,Enemies,J-11A,Blue J-11A #004,cn,<51>YAGA,0,0,0,15.4699993133545,2.46999931335449,0,0,NaN,NaN,0,0.0171320104161963,NaN,0.999985270653506,0.00206530655055262,-0.00591736399870365,0,15.1708868766308,15.1708868766308,,,106.55999994278,13,0.183290749484659,0.264144468083728
2018-07-19T08:07:04Z,1531987624,104,42.0424885,42.2466237,15.47,0,-0.2,145.7,646754.38,-281189.38,139.6,Air+FixedWing,Blue,Enemies,J-11A,Blue J-11A #004,cn,<51>YAGA,0.03125,0,9.18161070630596e-05,15.4699993133545,2.46999931335449,0.03125,0,NaN,NaN,0,0.0171320104161963,NaN,1.00000221237183,-0.00206530655055262,-0.00106393945101649,4.8828125e-05,15.1708868766308,15.1709357047558,,,107.55999994278,13,0.183290749484659,0.264144468083728
2018-07-19T08:07:05Z,1531987625,104,42.0424885,42.2466237,15.47,0,-0.2,145.7,646754.38,-281189.38,139.6,Air+FixedWing,Blue,Enemies,J-11A,Blue J-11A #004,cn,<51>YAGA,0,0,0,15.4699993133545,2.46999931335449,0,0,NaN,NaN,0,0.0171320104161963,NaN,0.999993741512668,0,-0.00349065172486007,0,15.1708868766308,15.1708868766308,,,108.55999994278,13,0.183290749484659,0.264144468083728
2018-07-19T08:07:06Z,1531987626,104,42.0424885,42.2466237,15.47,0,-0.2,145.7,646754.38,-281189.38,139.6,Air+FixedWing,Blue,Enemies,J-11A,Blue J-11A #004,cn,<51>YAGA,0,0,0,15.4699993133545,2.46999931335449,0,0,NaN,NaN,0,0.0171320104161963,NaN,1.00000221237183,-0.00206530655055262,-0.00106393945101649,0,15.1708868766308,15.1708868766308,,,109.55999994278,13,0.183290749484659,0.264144468083728
2018-07-19T08:07:07Z,1531987627,104,42.0424885,42.2466237,15.47,0,-0.2,145.7,646754.38,-281189.41,139.6,Air+FixedWing,Blue,Enemies,J-11A,Blue J-11A #004,cn,<51>YAGA,0.03125,0,9.18161070630596e-05,15.4699993133545,2.46999931335449,0.03125,0,NaN,NaN,0,0.0171320104161963,NaN,0.999976799794344,0.00413061310110525,-0.00834407627254723,4.8828125e-05,15.1708868766308,15.1709357047558,,,110.55999994278,13,0.183290749484659,0.264144468083728
2018-07-19T08:07:08Z,1531987628,104,42.0424885,42.2466237,15.47,0,-0.2,145.7,646754.38,-281189.38,139.6,Air+FixedWing,Blue,Enemies,J-11A,Blue J-11A #004,cn,<51>YAGA,0.03125,0,9.18161070630596e-05,15.4699993133545,2.46999931335449,0.03125,0,NaN,NaN,0,0.0171320104161963,NaN,1.00001068323099,-0.00413061310110525,0.00136277282282709,4.8828125e-05,15.1708868766308,15.1709357047558,,,111.55999994278,13,0.183290749484659,0.264144468083728
2018-07-19T08:07:09Z,1531987629,104,42.0424885,42.2466237,15.47,0,-0.2,145.7,646754.38,-281189.41,139.6,Air+FixedWing,Blue,Enemies,J-11A,Blue J-11A #004,cn,<51>YAGA,0.03125,0,9.18161070630596e-05,15.4699993133545,2.46999931335449,0.03125,0,NaN,NaN,0,0.0171320104161963,NaN,0.999985270653506,0.00206530655055262,-0.00591736399870365,4.8828125e-05,15.1708868766308,15.1709357047558,,,112.55999994278,13,0.183290749484659,0.264144468083728
2018-07-19T08:07:10Z,1531987630,104,42.0424885,42.2466237,15.47,0,-0.2,145.7,646754.38,-281189.41,139.6,Air+FixedWing,Blue,Enemies,J-11A,Blue J-11A #004,cn,<51>YAGA,0,0,0,15.4699993133545,2.46999931335449,0,0,NaN,NaN,0,0.0171320104161963,NaN,0.999985270653506,0.00206530655055262,-0.00591736399870365,0,15.1708868766308,15.1708868766308,,,113.55999994278,13,0.183290749484659,0.264144468083728
2018-07-19T08:07:11Z,1531987631,104,42.0424885,42.2466237,15.47,0,-0.2,145.7,646754.38,-281189.38,139.6,Air+FixedWing,Blue,Enemies,J-11A,Blue J-11A #004,cn,<51>YAGA,0.03125,0,9.18161070630596e-05,15.4699993133545,2.46999931335449,0.03125,0,NaN,NaN,0,0.0171320104161963,NaN,1.00000221237183,-0.00206530655055262,-0.00106393945101649,4.8828125e-05,15.1708868766308,15.1709357047558,,,114.55999994278,13,0.183290749484659,0.264144468083728
2018-07-19T08:07:12Z,1531987632,104,42.0424885,42.2466237,15.47,0,-0.2,145.7,646754.38,-281189.38,139.6,Air+FixedWing,Blue,Enemies,J-11A,Blue J-11A #004,cn,<51>YAGA,0,0,0,15.4699993133545,2.46999931335449,0,0,NaN,NaN,0,0.0171320104161963,NaN,1.00000221237183,-0.00206530655055262,-0.00106393945101649,0,15.1708868766308,15.1708868766308,,,115.55999994278,13,0.183290749484659,0.264144468083728
2018-07-19T08:07:13Z,1531987633,104,42.0424885,42.2466237,15.47,0,-0.2,145.7,646754.38,-281189.41,139.6,Air+FixedWing,Blue,Enemies,J-11A,Blue J-11A #004,cn,<51>YAGA,0.03125,0,9.18161070630596e-05,15.4699993133545,2.46999931335449,0.03125,0,NaN,NaN,0,0.0171320104161963,NaN,0.999985270653506,0.00206530655055262,-0.00591736399870365,4.8828125e-05,15.1708868766308,15.1709357047558,,,116.55999994278,13,0.183290749484659,0.264144468083728
2018-07-19T08:07:14Z,1531987634,104,42.0424885,42.2466237,15.47,0,-0.2,145.7,646754.38,-281189.41,139.6,Air+FixedWing,Blue,Enemies,J-11A,Blue J-11A #004,cn,<51>YAGA,0,0,0,15.4699993133545,2.46999931335449,0,0,NaN,NaN,0,0.0171320104161963,NaN,0.999993741512668,0,-0.00349065172486007,0,15.1708868766308,15.1708868766308,,,117.55999994278,13,0.183290749484659,0.264144468083728
2018-07-19T08:07:15Z,1531987635,104,42.0424885,42.2466237,15.47,0,-0.2,145.7,646754.38,-281189.41,139.6,Air+FixedWing,Blue,Enemies,J-11A,Blue J-11A #004,cn,<51>YAGA,0,0,0,15.4699993133545,2.46999931335449,0,0,NaN,NaN,0,0.0171320104161963,NaN,0.999985270653506,0.00206530655055262,-0.00591736399870365,0,15.1708868766308,15.1708868766308,,,118.55999994278,13,0.183290749484659,0.264144468083728
2018-07-19T08:07:16Z,1531987636,104,42.0424885,42.2466237,15.47,0,-0.2,145.7,646754.38,-281189.38,139.6,Air+FixedWing,Blue,Enemies,J-11A,Blue J-11A #004,cn,<51>YAGA,0.03125,0,9.18161070630596e-05,15.4699993133545,2.46999931335449,0.03125,0,NaN,NaN,0,0.0171320104161963,NaN,1.00000221237183,-0.00206530655055262,-0.00106393945101649,4.8828125e-05,15.1708868766308,15.1709357047558,,,119.55999994278,13,0.183290749484659,0.264144468083728
2018-07-19T08:07:17Z,1531987637,104,42.0424885,42.2466237,15.47,0,-0.2,145.7,646754.38,-281189.38,139.6,Air+FixedWing,Blue,Enemies,J-11A,Blue J-11A #004,cn,<51>YAGA,0,0,0,15.4699993133545,2.46999931335449,0,0,NaN,NaN,0,0.0171320104161963,NaN,0.999993741512668,0,-0.00349065172486007,0,15.1708868766308,15.1708868766308,,,120.55999994278,13,0.183290749484659,0.264144468083728
2018-07-19T08:07:18Z,1531987638,104,42.0424885,42.2466237,15.47,0,-0.2,145.7,646754.38,-281189.38,139.6,Air+FixedWing,Blue,Enemies,J-11A,Blue J-11A #004,cn,<51>YAGA,0,0,0,15.4699993133545,2.46999931335449,0,0,NaN,NaN,0,0.0171320104161963,NaN,1.00000221237183,-0.00206530655055262,-0.00106393945101649,0,15.1708868766308,15.1708868766308,,,121.55999994278,13,0.183290749484659,0.264144468083728
2018-07-19T08:07:19Z,1531987639,104,42.0424885,42.2466237,15.47,0,-0.2,145.7,646754.38,-281189.41,139.6,Air+FixedWing,Blue,Enemies,J-11A,Blue J-11A #004,cn,<51>YAGA,0.03125,0,9.18161070630596e-05,15.4699993133545,2.46999931335449,0.03125,0,NaN,NaN,0,0.0504352774299245,NaN,0.999976811782773,0.00413464781552028,-0.00834064327967166,4.8828125e-05,15.1708868766308,15.1709357047558,,,122.55999994278,13,0.183290749484659,0.264144468083728
2018-07-19T08:07:20Z,1531987640,104,42.0424885,42.2466237,15.47,0,-0.2,145.7,646754.38,-281189.38,139.5,Air+FixedWing,Blue,Enemies,J-11A,Blue J-11A #004,cn,<51>YAGA,0.03125,0,9.18161070630596e-05,15.4699993133545,2.46999931335449,0.03125,0,NaN,NaN,0,0.0197823405926261,NaN,1.00000220500387,-0.00206778510025165,-0.00106604968708156,4.8828125e-05,15.1708868766308,15.1709357047558,,,123.55999994278,13,0.183290749484659,0.264144468083728
2018-07-19T08:07:21Z,1531987641,104,42.0424885,42.2466237,15.47,0,-0.2,145.7,646754.38,-281189.38,139.5,Air+FixedWing,Blue,Enemies,J-11A,Blue J-11A #004,cn,<51>YAGA,0,0,0,15.4699993133545,2.46999931335449,0,0,NaN,NaN,0,0,NaN,0.999993741512668,0,-0.00349065172486007,0,15.1708868766308,15.1708868766308,,,124.55999994278,13,0.183290749484659,0.264144468083728
2018-07-19T08:07:22Z,1531987642,104,42.0424885,42.2466237,15.47,0,-0.2,145.7,646754.38,-281189.38,139.5,Air+FixedWing,Blue,Enemies,J-11A,Blue J-11A #004,cn,<51>YAGA,0,0,0,15.4699993133545,2.46999931335449,0,0,NaN,NaN,0,0.0312786278555019,NaN,0.999993741512668,0,-0.00349065172486007,0,15.1708868766308,15.1708868766308,,,125.55999994278,13,0.183290749484659,0.264144468083728
2018-07-19T08:07:23Z,1531987643,104,42.0424885,42.2466237,15.47,0,-0.2,145.7,646754.38,-281189.38,139.5,Air+FixedWing,Blue,Enemies,J-11A,Blue J-11A #004,cn,<51>YAGA,0,0,0,15.4699993133545,2.46999931335449,0,0,NaN,NaN,0,0,NaN,0.999993741512668,0,-0.00349065172486007,0,15.1708868766308,15.1708868766308,,,126.55999994278,13,0.183290749484659,0.264144468083728
2018-07-19T08:07:24Z,1531987644,104,42.0424885,42.2466237,15.47,0,-0.2,145.7,646754.38,-281189.38,139.5,Air+FixedWing,Blue,Enemies,J-11A,Blue J-11A #004,cn,<51>YAGA,0,0,0,15.4699993133545,2.46999931335449,0,0,NaN,NaN,0,0,NaN,0.999993741512668,0,-0.00349065172486007,0,15.1708868766308,15.1708868766308,,,127.55999994278,13,0.183290749484659,0.264144468083728
2018-07-19T08:07:25Z,1531987645,104,42.0424885,42.2466237,15.47,0,-0.2,145.7,646754.38,-281189.38,139.5,Air+FixedWing,Blue,Enemies,J-11A,Blue J-11A #004,cn,<51>YAGA,0,0,0,15.4699993133545,2.46999931335449,0,0,NaN,NaN,0,0,NaN,0.999993741512668,0,-0.00349065172486007,0,15.1708868766308,15.1708868766308,,,128.55999994278,13,0.183290749484659,0.264144468083728
2018-07-19T08:07:26Z,1531987646,104,42.0424885,42.2466237,15.47,0,-0.2,145.7,646754.38,-281189.38,139.5,Air+FixedWing,Blue,Enemies,J-11A,Blue J-11A #004,cn,<51>YAGA,0,0,0,15.4699993133545,2.46999931335449,0,0,NaN,NaN,0,0,NaN,0.999993741512668,0,-0.00349065172486007,0,15.1708868766308,15.1708868766308,,,129.55999994278,13,0.183290749484659,0.264144468083728
2018-07-19T08:07:27Z,1531987647,104,42.0424885,42.2466237,15.47,0,-0.2,145.7,646754.38,-281189.38,139.5,Air+FixedWing,Blue,Enemies,J-11A,Blue J-11A #004,cn,<51>YAGA,0,0,0,15.4699993133545,2.46999931335449,0,0,NaN,NaN,0,0,NaN,0.999993741512668,0,-0.00349065172486007,0,15.1708868766308,15.1708868766308,,,130.55999994278,13,0.183290749484659,0.264144468083728
2018-07-19T08:07:28Z,1531987648,104,42.0424885,42.2466237,15.47,0,-0.2,145.7,646754.38,-281189.38,139.5,Air+FixedWing,Blue,Enemies,J-11A,Blue J-11A #004,cn,<51>YAGA,0,0,0,15.4699993133545,2.46999931335449,0,0,NaN,NaN,0,0,NaN,0.999993741512668,0,-0.00349065172486007,0,15.1708868766308,15.1708868766308,,,131.55999994278,13,0.183290749484659,0.264144468083728
2018-07-19T08:07:29Z,1531987649,104,42.0424885,42.2466237,15.47,0,-0.2,145.7,646754.38,-281189.38,139.5,Air+FixedWing,Blue,Enemies,J-11A,Blue J-11A #004,cn,<51>YAGA,0,0,0,15.4699993133545,2.46999931335449,0,0,NaN,NaN,0,0,NaN,0.999993741512668,0,-0.00349065172486007,0,15.1708868766308,15.1708868766308,,,132.55999994278,13,0.183290749484659,0.264144468083728
2018-07-19T08:07:30Z,1531987650,104,42.0424885,42.2466237,15.47,0,-0.2,145.7,646754.38,-281189.38,139.5,Air+FixedWing,Blue,Enemies,J-11A,Blue J-11A #004,cn,<51>YAGA,0,0,0,15.4699993133545,2.46999931335449,0,0,NaN,NaN,0,0,NaN,0.999993741512668,0,-0.00349065172486007,0,15.1708868766308,15.1708868766308,,,133.55999994278,13,0.183290749484659,0.264144468083728
2018-07-19T08:07:31Z,1531987651,104,42.0424885,42.2466237,15.47,0,-0.2,145.7,646754.38,-281189.38,139.5,Air+FixedWing,Blue,Enemies,J-11A,Blue J-11A #004,cn,<51>YAGA,0,0,0,15.4699993133545,2.46999931335449,0,0,NaN,NaN,0,0,NaN,0.999993741512668,0,-0.00349065172486007,0,15.1708868766308,15.1708868766308,,,134.55999994278,13,0.183290749484659,0.264144468083728
2018-07-19T08:07:32Z,1531987652,104,42.0424885,42.2466237,15.47,0,-0.2,145.7,646754.38,-281189.38,139.5,Air+FixedWing,Blue,Enemies,J-11A,Blue J-11A #004,cn,<51>YAGA,0,0,0,15.4699993133545,2.46999931335449,0,0,NaN,NaN,0,0,NaN,0.999993741512668,0,-0.00349065172486007,0,15.1708868766308,15.1708868766308,,,135.55999994278,13,0.183290749484659,0.264144468083728
2018-07-19T08:07:33Z,1531987653,104,42.0424885,42.2466237,15.47,0,-0.2,145.7,646754.38,-281189.38,139.5,Air+FixedWing,Blue,Enemies,J-11A,Blue J-11A #004,cn,<51>YAGA,0,0,0,15.4699993133545,2.46999931335449,0,0,NaN,NaN,0,0,NaN,0.999993741512668,0,-0.00349065172486007,0,15.1708868766308,15.1708868766308,,,136.55999994278,13,0.183290749484659,0.264144468083728
2018-07-19T08:07:34Z,1531987654,104,42.0424885,42.2466237,15.47,0,-0.2,145.7,646754.38,-281189.38,139.5,Air+FixedWing,Blue,Enemies,J-11A,Blue J-11A #004,cn,<51>YAGA,0,0,0,15.4699993133545,2.46999931335449,0,0,NaN,NaN,0,0,NaN,0.999993741512668,0,-0.00349065172486007,0,15.1708868766308,15.1708868766308,,,137.55999994278,13,0.183290749484659,0.264144468083728
2018-07-19T08:07:35Z,1531987655,104,42.0424885,42.2466237,15.47,0,-0.2,145.7,646754.38,-281189.38,139.5,Air+FixedWing,Blue,Enemies,J-11A,Blue J-11A #004,cn,<51>YAGA,0,0,0,15.4699993133545,2.46999931335449,0,0,NaN,NaN,0,0,NaN,0.999993741512668,0,-0.00349065172486007,0,15.1708868766308,15.1708868766308,,,138.55999994278,13,0.183290749484659,0.264144468083728
2018-07-19T08:07:36Z,1531987656,104,42.0424885,42.2466237,15.47,0,-0.2,145.7,646754.38,-281189.38,139.5,Air+FixedWing,Blue,Enemies,J-11A,Blue J-11A #004,cn,<51>YAGA,0,0,0,15.4699993133545,2.46999931335449,0,0,NaN,NaN,0,0,NaN,0.999993741512668,0,-0.00349065172486007,0,15.1708868766308,15.1708868766308,,,139.55999994278,13,0.183290749484659,0.264144468083728
2018-07-19T08:07:37Z,1531987657,104,42.0424885,42.2466237,15.47,0,-0.2,145.7,646754.38,-281189.38,139.5,Air+FixedWing,Blue,Enemies,J-11A,Blue J-11A #004,cn,<51>YAGA,0,0,0,15.4699993133545,2.46999931335449,0,0,NaN,NaN,0,0,NaN,0.999993741512668,0,-0.00349065172486007,0,15.1708868766308,15.1708868766308,,,140.55999994278,13,0.183290749484659,0.264144468083728
2018-07-19T08:07:38Z,1531987658,104,42.0424885,42.2466237,15.47,0,-0.2,145.7,646754.38,-281189.38,139.5,Air+FixedWing,Blue,Enemies,J-11A,Blue J-11A #004,cn,<51>YAGA,0,0,0,15.4699993133545,2.46999931335449,0,0,NaN,NaN,0,0,NaN,0.999993741512668,0,-0.00349065172486007,0,15.1708868766308,15.1708868766308,,,141.55999994278,13,0.183290749484659,0.264144468083728
2018-07-19T08:07:39Z,1531987659,104,42.0424885,42.2466237,15.47,0,-0.2,145.7,646754.38,-281189.38,139.5,Air+FixedWing,Blue,Enemies,J-11A,Blue J-11A #004,cn,<51>YAGA,0,0,0,15.4699993133545,2.46999931335449,0,0,NaN,NaN,0,0,NaN,0.999993741512668,0,-0.00349065172486007,0,15.1708868766308,15.1708868766308,,,142.55999994278,13,0.183290749484659,0.264144468083728
2018-07-19T08:07:40Z,1531987660,104,42.0424885,42.2466237,15.47,0,-0.2,145.7,646754.38,-281189.38,139.5,Air+FixedWing,Blue,Enemies,J-11A,Blue J-11A #004,cn,<51>YAGA,0,0,0,15.4699993133545,2.46999931335449,0,0,NaN,NaN,0,0,NaN,0.999993741512668,0,-0.00349065172486007,0,15.1708868766308,15.1708868766308,,,143.55999994278,13,0.183290749484659,0.264144468083728
2018-07-19T08:07:41Z,1531987661,104,42.0424885,42.2466237,15.47,0,-0.2,145.7,646754.38,-281189.38,139.5,Air+FixedWing,Blue,Enemies,J-11A,Blue J-11A #004,cn,<51>YAGA,0,0,0,15.4699993133545,2.46999931335449,0,0,NaN,NaN,0,0,NaN,0.999993741512668,0,-0.00349065172486007,0,15.1708868766308,15.1708868766308,,,144.55999994278,13,0.183290749484659,0.264144468083728
2018-07-19T08:07:42Z,1531987662,104,42.0424885,42.2466237,15.47,0,-0.2,145.7,646754.38,-281189.38,139.5,Air+FixedWing,Blue,Enemies,J-11A,Blue J-11A #004,cn,<51>YAGA,0,0,0,15.4699993133545,2.46999931335449,0,0,NaN,NaN,0,0,NaN,0.999993741512668,0,-0.00349065172486007,0,15.1708868766308,15.1708868766308,,,145.55999994278,13,0.183290749484659,0.264144468083728
