ISOTime,UnixTime,Id,Longitude,Latitude,Altitude,Roll,Pitch,Yaw,U,V,Heading,Type,Color,Coalition,Name,Group,Country,Pilot,TAS,CAS,M,ASL,AGL,GS,VS,AOA,AOS,RRT,TRT,TRD,G,LatG,LonG,Ek,Ep,Em,FFW,FFV,RelativeTime,Elev,GroundDistance,AirDistance
2018-07-19T08:06:04Z,1531987564,105,42.0423553,42.2448503,15.5,0.1,-0.3,324.5,646764.44,-281387.72,318.4,Air+FixedWing,Blue,Enemies,J-11A,Blue J-11A #002,cn,<51P>Maximus,0.157601153315389,0,0.000463050526268905,15.4980955123901,2.49809551239014,NaN,NaN,NaN,NaN,NaN,NaN,NaN,NaN,NaN,NaN,NaN,15.1984398356581,NaN,,,0.440000057220459,13,NaN,NaN
2018-07-19T08:06:05Z,1531987565,105,42.0423552,42.2448504,15.51,0.1,-0.4,324.5,646764.44,-281387.69,318.4,Air+FixedWing,Blue,Enemies,J-11A,Blue J-11A #002,cn,<51P>Maximus,0.033440425673315,0,9.82518747948875e-05,15.5099992752075,2.50999927520752,0.03125,0.0119037628173828,NaN,NaN,0,NaN,NaN,0.996705115663195,0.003855259320889,-0.00884440958738947,5.59131034606253e-05,15.2101134392214,15.2101693523248,,,1.44000005722046,13,0.0147466679121315,0.0189516446012318
2018-07-19T08:06:06Z,1531987566,105,42.0423552,42.2448503,15.49,0.1,-0.5,324.5,646764.44,-281387.69,318.4,Air+FixedWing,Blue,Enemies,J-11A,Blue J-11A #002,cn,<51P>Maximus,0.0199995040893555,0,5.87608647165474e-05,15.4899997711182,2.48999977111816,0,-0.0199995040893555,NaN,NaN,0,0.402271248243894,NaN,1.00105635415102,0.00386285367227062,-0.0104535121220601,1.99990081910073e-05,15.1905006255436,15.1905206245518,,,2.44000005722046,13,0.0242883405778707,0.0411107095258248
2018-07-19T08:06:07Z,1531987567,105,42.0423553,42.2448502,15.48,0,-0.4,324.5,646764.44,-281387.72,318.4,Air+FixedWing,Blue,Enemies,J-11A,Blue J-11A #002,cn,<51P>Maximus,0.0325426643933127,0,9.56141160189116e-05,15.4809188842773,2.48091888427734,0.03125,-0.00908088684082031,NaN,NaN,0.199987938897973,0.0504352774299245,NaN,1.00184413803402,-0.00211567542460781,-0.00461130543677282,5.29512502907892e-05,15.1815953176498,15.1816482689001,,,3.44000005722046,13,0.0381386162473686,0.0576725196376056
2018-07-19T08:06:08Z,1531987568,105,42.0423553,42.2448501,15.49,0.1,-0.3,324.5,646764.44,-281387.72,318.4,Air+FixedWing,Blue,Enemies,J-11A,Blue J-11A #002,cn,<51P>Maximus,0.00908088684082031,0,2.66806997201356e-05,15.4899997711182,2.48999977111816,0,0.00908088684082031,NaN,NaN,0.20000001179094,0.0513960362511687,NaN,0.998392042525966,0.00174252471050895,-0.00522773006392933,4.12312529078918e-06,15.1905006255436,15.1905047486689,,,4.44000005722046,13,0.0492705645893912,0.0720385689245804
2018-07-19T08:06:09Z,1531987569,105,42.0423553,42.2448502,15.48,0.1,-0.4,324.5,646764.44,-281387.72,318.4,Air+FixedWing,Blue,Enemies,J-11A,Blue J-11A #002,cn,<51P>Maximus,0.00653839111328125,0,1.92105507045046e-05,15.4834613800049,2.48346138000488,0,-0.00653839111328125,NaN,NaN,0,0.0523391626455858,NaN,1.00028778499336,0.00174583340838073,-0.00698345077751002,2.13752791751176e-06,15.1840886542225,15.1840907917504,,,5.44000005722046,13,0.0604025129314138,0.0849486983019467
2018-07-19T08:06:10Z,1531987570,105,42.0423553,42.2448502,15.48,-0,-0.4,324.5,646764.44,-281387.72,318.3,Air+FixedWing,Blue,Enemies,J-11A,Blue J-11A #002,cn,<51P>Maximus,0.00346183776855469,0,1.01712800959636e-05,15.4799995422363,2.47999954223633,0,-0.00346183776855469,NaN,NaN,0.16075533230542,0.0523391626455858,NaN,1.0003285626356,-0.000104054190997556,-0.00698372505782876,5.99216036789585e-07,15.1806937510872,15.1806943503032,,,6.44000005722046,13,0.0604025129314138,0.0884105354428961
2018-07-19T08:06:11Z,1531987571,105,42.0423553,42.2448502,15.48,-0,-0.4,324.5,646764.44,-281387.72,318.3,Air+FixedWing,Blue,Enemies,J-11A,Blue J-11A #002,cn,<51P>Maximus,0,0,0,15.4799995422363,2.47999954223633,0,0,NaN,NaN,0.0331127570962218,0.0139882274201861,NaN,0.99997538328752,-0.000681892061008389,-0.00698126060888171,0,15.1806937510872,15.1806937510872,,,7.44000005722046,13,0.0604025129314138,0.0884105354428961
2018-07-19T08:06:12Z,1531987572,105,42.0423553,42.2448502,15.48,-0.1,-0.4,324.5,646764.44,-281387.72,318.3,Air+FixedWing,Blue,Enemies,J-11A,Blue J-11A #002,cn,<51P>Maximus,0,0,0,15.4799995422363,2.47999954223633,0,0,NaN,NaN,0.0331127570962218,0.0139882274201861,NaN,0.999974787255603,-0.00125976642458715,-0.00698126060888171,0,15.1806937510872,15.1806937510872,,,8.44000005722046,13,0.0604025129314138,0.0884105354428961
2018-07-19T08:06:13Z,1531987573,105,42.0423553,42.2448502,15.48,-0.1,-0.4,324.5,646764.44,-281387.72,318.3,Air+FixedWing,Blue,Enemies,J-11A,Blue J-11A #002,cn,<51P>Maximus,0,0,0,15.4799995422363,2.47999954223633,0,0,NaN,NaN,0.0195875417965685,0.0139882274201861,NaN,0.999974608446028,-0.00137777434149722,-0.00698126060888171,0,15.1806937510872,15.1806937510872,,,9.44000005722046,13,0.0604025129314138,0.0884105354428961
2018-07-19T08:06:14Z,1531987574,105,42.0423553,42.2448502,15.48,-0.1,-0.4,324.5,646764.44,-281387.72,318.3,Air+FixedWing,Blue,Enemies,J-11A,Blue J-11A #002,cn,<51P>Maximus,0,0,0,15.4799995422363,2.47999954223633,0,0,NaN,NaN,0.109283026720204,0.0139882274201861,NaN,0.999974906461986,-0.00118317329650815,-0.00698126060888171,0,15.1806937510872,15.1806937510872,,,10.4400000572205,13,0.0604025129314138,0.0884105354428961
2018-07-19T08:06:15Z,1531987575,105,42.0423553,42.2448502,15.48,-0,-0.4,324.5,646764.44,-281387.72,318.3,Air+FixedWing,Blue,Enemies,J-11A,Blue J-11A #002,cn,<51P>Maximus,0,0,0,15.4799995422363,2.47999954223633,0,0,NaN,NaN,0.108151563195509,0.0139882274201861,NaN,0.999975621700287,-5.80684340845803e-06,-0.00698126060888171,0,15.1806937510872,15.1806937510872,,,11.4400000572205,13,0.0604025129314138,0.0884105354428961
2018-07-19T08:06:16Z,1531987576,105,42.0423553,42.2448502,15.48,-0,-0.4,324.5,646764.44,-281387.72,318.3,Air+FixedWing,Blue,Enemies,J-11A,Blue J-11A #002,cn,<51P>Maximus,0,0,0,15.4799995422363,2.47999954223633,0,0,NaN,NaN,0.00256815112792479,0.0139882274201861,NaN,0.999975562097095,-5.04749141565402e-05,-0.00698126060888171,0,15.1806937510872,15.1806937510872,,,12.4400000572205,13,0.0604025129314138,0.0884105354428961
2018-07-19T08:06:17Z,1531987577,105,42.0423553,42.2448502,15.48,-0,-0.4,324.5,646764.44,-281387.72,318.3,Air+FixedWing,Blue,Enemies,J-11A,Blue J-11A #002,cn,<51P>Maximus,0,0,0,15.4799995422363,2.47999954223633,0,0,NaN,NaN,0.00256815112792479,0.0139882274201861,NaN,0.999975562097095,-9.51429844498861e-05,-0.00698126060888171,0,15.1806937510872,15.1806937510872,,,13.4400000572205,13,0.0604025129314138,0.0884105354428961
2018-07-19T08:06:18Z,1531987578,105,42.0423553,42.2448502,15.48,-0,-0.4,324.5,646764.44,-281387.72,318.3,Air+FixedWing,Blue,Enemies,J-11A,Blue J-11A #002,cn,<51P>Maximus,0,0,0,15.4799995422363,2.47999954223633,0,0,NaN,NaN,0.00256815112792479,0.0139882274201861,NaN,0.999975562097095,-0.000139811043829562,-0.00698126060888171,0,15.1806937510872,15.1806937510872,,,14.4400000572205,13,0.0604025129314138,0.0884105354428961
2018-07-19T08:06:19Z,1531987579,105,42.0423553,42.2448502,15.48,-0,-0.4,324.5,646764.44,-281387.72,318.3,Air+FixedWing,Blue,Enemies,J-11A,Blue J-11A #002,cn,<51P>Maximus,0,0,0,15.4799995422363,2.47999954223633,0,0,NaN,NaN,0.00256815112792479,0.0139882274201861,NaN,0.999975562097095,-0.000184479110485017,-0.00698126060888171,0,15.1806937510872,15.1806937510872,,,15.4400000572205,13,0.0604025129314138,0.0884105354428961
2018-07-19T08:06:20Z,1531987580,105,42.0423553,42.2448502,15.48,-0,-0.4,324.5,646764.44,-281387.72,318.3,Air+FixedWing,Blue,Enemies,J-11A,Blue J-11A #002,cn,<51P>Maximus,0,0,0,15.4799995422363,2.47999954223633,0,0,NaN,NaN,0.00256815112792479,0.0139882274201861,NaN,0.999975562097095,-0.000229147191692034,-0.00698126060888171,0,15.1806937510872,15.1806937510872,,,16.4400000572205,13,0.0604025129314138,0.0884105354428961
2018-07-19T08:06:21Z,1531987581,105,42.0423553,42.2448502,15.48,-0,-0.4,324.5,646764.44,-281387.72,318.3,Air+FixedWing,Blue,Enemies,J-11A,Blue J-11A #002,cn,<51P>Maximus,0,0,0,15.4799995422363,2.47999954223633,0,0,NaN,NaN,0.00256815112792479,0.0139882274201861,NaN,0.999975562097095,-0.000273815258347489,-0.00698126060888171,0,15.1806937510872,15.1806937510872,,,17.4400000572205,13,0.0604025129314138,0.0884105354428961
2018-07-19T08:06:22Z,1531987582,105,42.0423553,42.2448502,15.48,-0,-0.4,324.5,646764.44,-281387.72,318.3,Air+FixedWing,Blue,Enemies,J-11A,Blue J-11A #002,cn,<51P>Maximus,0,0,0,15.4799995422363,2.47999954223633,0,0,NaN,NaN,0.00256815112792479,0.0139882274201861,NaN,0.999975502493903,-0.000318483310451385,-0.00698126060888171,0,15.1806937510872,15.1806937510872,,,18.4400000572205,13,0.0604025129314138,0.0884105354428961
2018-07-19T08:06:23Z,1531987583,105,42.0423553,42.2448502,15.48,-0,-0.4,324.5,646764.44,-281387.72,318.3,Air+FixedWing,Blue,Enemies,J-11A,Blue J-11A #002,cn,<51P>Maximus,0,0,0,15.4799995422363,2.47999954223633,0,0,NaN,NaN,0.00256815112792479,0.0139882274201861,NaN,0.999975502493903,-0.000363151391658401,-0.00698126060888171,0,15.1806937510872,15.1806937510872,,,19.4400000572205,13,0.0604025129314138,0.0884105354428961
2018-07-19T08:06:24Z,1531987584,105,42.0423553,42.2448502,15.48,-0,-0.4,324.5,646764.44,-281387.72,318.3,Air+FixedWing,Blue,Enemies,J-11A,Blue J-11A #002,cn,<51P>Maximus,0,0,0,15.4799995422363,2.47999954223633,0,0,NaN,NaN,0.00256815112792479,0.0139882274201861,NaN,0.999975502493903,-0.000407819443762296,-0.00698126060888171,0,15.1806937510872,15.1806937510872,,,20.4400000572205,13,0.0604025129314138,0.0884105354428961
2018-07-19T08:06:25Z,1531987585,105,42.0423553,42.2448502,15.48,-0,-0.4,324.5,646764.44,-281387.72,318.3,Air+FixedWing,Blue,Enemies,J-11A,Blue J-11A #002,cn,<51P>Maximus,0,0,0,15.4799995422363,2.47999954223633,0,0,NaN,NaN,0.00256815112792479,0.0139882274201861,NaN,0.999975562097095,-0.000452487495866192,-0.00698126060888171,0,15.1806937510872,15.1806937510872,,,21.4400000572205,13,0.0604025129314138,0.0884105354428961
2018-07-19T08:06:26Z,1531987586,105,42.0423553,42.2448502,15.48,-0,-0.4,324.5,646764.44,-281387.72,318.3,Air+FixedWing,Blue,Enemies,J-11A,Blue J-11A #002,cn,<51P>Maximus,0,0,0,15.4799995422363,2.47999954223633,0,0,NaN,NaN,0.00256815112792479,0.0139882274201861,NaN,0.999975442890712,-0.00049715563527945,-0.00698126060888171,0,15.1806937510872,15.1806937510872,,,22.4400000572205,13,0.0604025129314138,0.0884105354428961
2018-07-19T08:06:27Z,1531987587,105,42.0423553,42.2448502,15.48,-0,-0.4,324.5,646764.44,-281387.72,318.3,Air+FixedWing,Blue,Enemies,J-11A,Blue J-11A #002,cn,<51P>Maximus,0,0,0,15.4799995422363,2.47999954223633,0,0,NaN,NaN,0.00256815112792479,0.0139882274201861,NaN,0.999975442890712,-0.000541823629177103,-0.00698126060888171,0,15.1806937510872,15.1806937510872,,,23.4400000572205,13,0.0604025129314138,0.0884105354428961
2018-07-19T08:06:28Z,1531987588,105,42.0423553,42.2448502,15.48,-0,-0.4,324.5,646764.44,-281387.72,318.3,Air+FixedWing,Blue,Enemies,J-11A,Blue J-11A #002,cn,<51P>Maximus,0,0,0,15.4799995422363,2.47999954223633,0,0,NaN,NaN,0.00256815112792479,0.0139882274201861,NaN,0.99997538328752,-0.000586491681280998,-0.00698126060888171,0,15.1806937510872,15.1806937510872,,,24.4400000572205,13,0.0604025129314138,0.0884105354428961
2018-07-19T08:06:29Z,1531987589,105,42.0423553,42.2448502,15.48,-0,-0.4,324.5,646764.44,-281387.72,318.3,Air+FixedWing,Blue,Enemies,J-11A,Blue J-11A #002,cn,<51P>Maximus,0,0,0,15.4799995422363,2.47999954223633,0,0,NaN,NaN,0.00256815112792479,0.0139882274201861,NaN,0.99997538328752,-0.000631159791591136,-0.00698126060888171,0,15.1806937510872,15.1806937510872,,,25.4400000572205,13,0.0604025129314138,0.0884105354428961
2018-07-19T08:06:30Z,1531987590,105,42.0423553,42.2448502,15.48,-0,-0.4,324.5,646764.44,-281387.72,318.3,Air+FixedWing,Blue,Enemies,J-11A,Blue J-11A #002,cn,<51P>Maximus,0,0,0,15.4799995422363,2.47999954223633,0,0,NaN,NaN,0.00256815112792479,0.0139882274201861,NaN,0.99997538328752,-0.000675827843695031,-0.00698126060888171,0,15.1806937510872,15.1806937510872,,,26.4400000572205,13,0.0604025129314138,0.0884105354428961
2018-07-19T08:06:31Z,1531987591,105,42.0423553,42.2448502,15.48,-0,-0.4,324.5,646764.44,-281387.72,318.3,Air+FixedWing,Blue,Enemies,J-11A,Blue J-11A #002,cn,<51P>Maximus,0,0,0,15.4799995422363,2.47999954223633,0,0,NaN,NaN,0.00256815112792479,0.0139882274201861,NaN,0.999975323684328,-0.000720495895798926,-0.00698126060888171,0,15.1806937510872,15.1806937510872,,,27.4400000572205,13,0.0604025129314138,0.0884105354428961
2018-07-19T08:06:32Z,1531987592,105,42.0423553,42.2448502,15.48,-0,-0.4,324.5,646764.44,-281387.72,318.3,Air+FixedWing,Blue,Enemies,J-11A,Blue J-11A #002,cn,<51P>Maximus,0,0,0,15.4799995422363,2.47999954223633,0,0,NaN,NaN,0.00256815112792479,0.0139882274201861,NaN,0.999975264081136,-0.000765163947902821,-0.00698126060888171,0,15.1806937510872,15.1806937510872,,,28.4400000572205,13,0.0604025129314138,0.0884105354428961
2018-07-19T08:06:33Z,1531987593,105,42.0423553,42.2448502,15.48,-0,-0.4,324.5,646764.44,-281387.72,318.3,Air+FixedWing,Blue,Enemies,J-11A,Blue J-11A #002,cn,<51P>Maximus,0,0,0,15.4799995422363,2.47999954223633,0,0,NaN,NaN,0.00256815112792479,0.0139882274201861,NaN,0.999975264081136,-0.000809832000006717,-0.00698126060888171,0,15.1806937510872,15.1806937510872,,,29.4400000572205,13,0.0604025129314138,0.0884105354428961
2018-07-19T08:06:34Z,1531987594,105,42.0423553,42.2448502,15.48,-0,-0.4,324.5,646764.44,-281387.72,318.3,Air+FixedWing,Blue,Enemies,J-11A,Blue J-11A #002,cn,<51P>Maximus,0,0,0,15.4799995422363,2.47999954223633,0,0,NaN,NaN,0.00256815112792479,0.0139882274201861,NaN,0.999975204477945,-0.00085449999390437,-0.00698126060888171,0,15.1806937510872,15.1806937510872,,,30.4400000572205,13,0.0604025129314138,0.0884105354428961
2018-07-19T08:06:35Z,1531987595,105,42.0423553,42.2448502,15.48,-0.1,-0.4,324.5,646764.44,-281387.72,318.3,Air+FixedWing,Blue,Enemies,J-11A,Blue J-11A #002,cn,<51P>Maximus,0,0,0,15.4799995422363,2.47999954223633,0,0,NaN,NaN,0.00256815112792479,0.0139882274201861,NaN,0.999975204477945,-0.000899168046008266,-0.00698126060888171,0,15.1806937510872,15.1806937510872,,,31.4400000572205,13,0.0604025129314138,0.0884105354428961
2018-07-19T08:06:36Z,1531987596,105,42.0423553,42.2448502,15.48,-0.1,-0.4,324.5,646764.44,-281387.72,318.3,Air+FixedWing,Blue,Enemies,J-11A,Blue J-11A #002,cn,<51P>Maximus,0,0,0,15.4799995422363,2.47999954223633,0,0,NaN,NaN,0.00256815112792479,0.0139882274201861,NaN,0.999975144874753,-0.000943836214524645,-0.00698126060888171,0,15.1806937510872,15.1806937510872,,,32.4400000572205,13,0.0604025129314138,0.0884105354428961
2018-07-19T08:06:37Z,1531987597,105,42.0423553,42.2448502,15.48,-0.1,-0.4,324.5,646764.44,-281387.72,318.3,Air+FixedWing,Blue,Enemies,J-11A,Blue J-11A #002,cn,<51P>Maximus,0,0,0,15.4799995422363,2.47999954223633,0,0,NaN,NaN,0.00256815112792479,0.0139882274201861,NaN,0.999975144874753,-0.00098850426662854,-0.00698126060888171,0,15.1806937510872,15.1806937510872,,,33.4400000572205,13,0.0604025129314138,0.0884105354428961
2018-07-19T08:06:38Z,1531987598,105,42.0423553,42.2448502,15.48,-0.1,-0.4,324.5,646764.44,-281387.72,318.3,Air+FixedWing,Blue,Enemies,J-11A,Blue J-11A #002,cn,<51P>Maximus,0,0,0,15.4799995422363,2.47999954223633,0,0,NaN,NaN,0.00256815112792479,0.0139882274201861,NaN,0.99997502566837,-0.00103317220231995,-0.00698126060888171,0,15.1806937510872,15.1806937510872,,,34.4400000572205,13,0.0604025129314138,0.0884105354428961
2018-07-19T08:06:39Z,1531987599,105,42.0423553,42.2448502,15.48,-0.1,-0.4,324.5,646764.44,-281387.72,318.3,Air+FixedWing,Blue,Enemies,J-11A,Blue J-11A #002,cn,<51P>Maximus,0,0,0,15.4799995422363,2.47999954223633,0,0,NaN,NaN,0.00256815112792479,0.0139882274201861,NaN,0.99997502566837,-0.00107784025442385,-0.00698126060888171,0,15.1806937510872,15.1806937510872,,,35.4400000572205,13,0.0604025129314138,0.0884105354428961
2018-07-19T08:06:40Z,1531987600,105,42.0423553,42.2448502,15.48,-0.1,-0.4,324.5,646764.44,-281387.72,318.3,Air+FixedWing,Blue,Enemies,J-11A,Blue J-11A #002,cn,<51P>Maximus,0,0,0,15.4799995422363,2.47999954223633,0,0,NaN,NaN,0.00256815112792479,0.0139882274201861,NaN,0.999974966065178,-0.00112250830652774,-0.00698126060888171,0,15.1806937510872,15.1806937510872,,,36.4400000572205,13,0.0604025129314138,0.0884105354428961
2018-07-19T08:06:41Z,1531987601,105,42.0423553,42.2448502,15.48,-0.1,-0.4,324.5,646764.44,-281387.72,318.3,Air+FixedWing,Blue,Enemies,J-11A,Blue J-11A #002,cn,<51P>Maximus,0,0,0,15.4799995422363,2.47999954223633,0,0,NaN,NaN,0.00256815112792479,0.0139882274201861,NaN,0.999974966065178,-0.00116717635863164,-0.00698126060888171,0,15.1806937510872,15.1806937510872,,,37.4400000572205,13,0.0604025129314138,0.0884105354428961
2018-07-19T08:06:42Z,1531987602,105,42.0423553,42.2448502,15.48,-0.1,-0.4,324.5,646764.44,-281387.72,318.3,Air+FixedWing,Blue,Enemies,J-11A,Blue J-11A #002,cn,<51P>Maximus,0,0,0,15.4799995422363,2.47999954223633,0,0,NaN,NaN,0.00256815112792479,0.0139882274201861,NaN,0.999974846858795,-0.00121184429432305,-0.00698126060888171,0,15.1806937510872,15.1806937510872,,,38.4400000572205,13,0.0604025129314138,0.0884105354428961
2018-07-19T08:06:43Z,1531987603,105,42.0423553,42.2448502,15.48,-0.1,-0.4,324.5,646764.44,-281387.72,318.3,Air+FixedWing,Blue,Enemies,J-11A,Blue J-11A #002,cn,<51P>Maximus,0,0,0,15.4799995422363,2.47999954223633,0,0,NaN,NaN,0.00256815112792479,0.0139882274201861,NaN,0.999974787255603,-0.00125651246283943,-0.00698126060888171,0,15.1806937510872,15.1806937510872,,,39.4400000572205,13,0.0604025129314138,0.0884105354428961
2018-07-19T08:06:44Z,1531987604,105,42.0423553,42.2448502,15.48,-0.1,-0.4,324.5,646764.44,-281387.72,318.3,Air+FixedWing,Blue,Enemies,J-11A,Blue J-11A #002,cn,<51P>Maximus,0,0,0,15.4799995422363,2.47999954223633,0,0,NaN,NaN,0.00256815112792479,0.0139882274201861,NaN,0.999974787255603,-0.00130118051494332,-0.00698126060888171,0,15.1806937510872,15.1806937510872,,,40.4400000572205,13,0.0604025129314138,0.0884105354428961
2018-07-19T08:06:45Z,1531987605,105,42.0423553,42.2448502,15.48,-0.1,-0.4,324.5,646764.44,-281387.72,318.3,Air+FixedWing,Blue,Enemies,J-11A,Blue J-11A #002,cn,<51P>Maximus,0,0,0,15.4799995422363,2.47999954223633,0,0,NaN,NaN,0.00256815112792479,0.0139882274201861,NaN,0.999974668049219,-0.00134584856704722,-0.00698126060888171,0,15.1806937510872,15.1806937510872,,,41.4400000572205,13,0.0604025129314138,0.0884105354428961
2018-07-19T08:06:46Z,1531987606,105,42.0423553,42.2448502,15.48,-0.1,-0.4,324.5,646764.44,-281387.72,318.3,Air+FixedWing,Blue,Enemies,J-11A,Blue J-11A #002,cn,<51P>Maximus,0,0,0,15.4799995422363,2.47999954223633,0,0,NaN,NaN,0.00256815112792479,0.0139882274201861,NaN,0.999974608446028,-0.00139051661915111,-0.00698126060888171,0,15.1806937510872,15.1806937510872,,,42.4400000572205,13,0.0604025129314138,0.0884105354428961
2018-07-19T08:06:47Z,1531987607,105,42.0423553,42.2448502,15.48,-0.1,-0.4,324.5,646764.44,-281387.72,318.3,Air+FixedWing,Blue,Enemies,J-11A,Blue J-11A #002,cn,<51P>Maximus,0,0,0,15.4799995422363,2.47999954223633,0,0,NaN,NaN,0.00256815112792479,0.0139882274201861,NaN,0.999974548842836,-0.00143518455484253,-0.00698126060888171,0,15.1806937510872,15.1806937510872,,,43.4400000572205,13,0.0604025129314138,0.0884105354428961
2018-07-19T08:06:48Z,1531987608,105,42.0423553,42.2448502,15.48,-0.1,-0.4,324.5,646764.44,-281387.72,318.3,Air+FixedWing,Blue,Enemies,J-11A,Blue J-11A #002,cn,<51P>Maximus,0,0,0,15.4799995422363,2.47999954223633,0,0,NaN,NaN,0.00256815112792479,0.0139882274201861,NaN,0.999974489239644,-0.00147985249053394,-0.00698126060888171,0,15.1806937510872,15.1806937510872,,,44.4400000572205,13,0.0604025129314138,0.0884105354428961
2018-07-19T08:06:49Z,1531987609,105,42.0423553,42.2448502,15.48,-0.1,-0.4,324.5,646764.44,-281387.72,318.3,Air+FixedWing,Blue,Enemies,J-11A,Blue J-11A #002,cn,<51P>Maximus,0,0,0,15.4799995422363,2.47999954223633,0,0,NaN,NaN,0.00256815112792479,0.0139882274201861,NaN,0.999974429636453,-0.00152452054263783,-0.00698126060888171,0,15.1806937510872,15.1806937510872,,,45.4400000572205,13,0.0604025129314138,0.0884105354428961
2018-07-19T08:06:50Z,1531987610,105,42.0423553,42.2448502,15.48,-0.1,-0.4,324.5,646764.44,-281387.72,318.3,Air+FixedWing,Blue,Enemies,J-11A,Blue J-11A #002,cn,<51P>Maximus,0,0,0,15.4799995422363,2.47999954223633,0,0,NaN,NaN,0.00256815112792479,0.0139882274201861,NaN,0.999974370033261,-0.00156918859474173,-0.00698126060888171,0,15.1806937510872,15.1806937510872,,,46.4400000572205,13,0.0604025129314138,0.0884105354428961
2018-07-19T08:06:51Z,1531987611,105,42.0423553,42.2448502,15.48,-0.1,-0.4,324.5,646764.44,-281387.72,318.3,Air+FixedWing,Blue,Enemies,J-11A,Blue J-11A #002,cn,<51P>Maximus,0,0,0,15.4799995422363,2.47999954223633,0,0,NaN,NaN,0.00256815112792479,0.0139882274201861,NaN,0.999974310430069,-0.00161385664684562,-0.00698126060888171,0,15.1806937510872,15.1806937510872,,,47.4400000572205,13,0.0604025129314138,0.0884105354428961
2018-07-19T08:06:52Z,1531987612,105,42.0423553,42.2448502,15.48,-0.1,-0.4,324.5,646764.44,-281387.72,318.3,Air+FixedWing,Blue,Enemies,J-11A,Blue J-11A #002,cn,<51P>Maximus,0,0,0,15.4799995422363,2.47999954223633,0,0,NaN,NaN,0.00256815112792479,0.0139882274201861,NaN,0.999974250826877,-0.00165852458253703,-0.00698126060888171,0,15.1806937510872,15.1806937510872,,,48.4400000572205,13,0.0604025129314138,0.0884105354428961
2018-07-19T08:06:53Z,1531987613,105,42.0423553,42.2448502,15.48,-0.1,-0.4,324.5,646764.44,-281387.72,318.3,Air+FixedWing,Blue,Enemies,J-11A,Blue J-11A #002,cn,<51P>Maximus,0,0,0,15.4799995422363,2.47999954223633,0,0,NaN,NaN,0.00256815112792479,0.0139882274201861,NaN,0.999974191223686,-0.00170319275105341,-0.00698126060888171,0,15.1806937510872,15.1806937510872,,,49.4400000572205,13,0.0604025129314138,0.0884105354428961
2018-07-19T08:06:54Z,1531987614,105,42.0423553,42.2448502,15.48,-0.1,-0.4,324.5,646764.44,-281387.72,318.3,Air+FixedWing,Blue,Enemies,J-11A,Blue J-11A #002,cn,<51P>Maximus,0,0,0,15.4799995422363,2.47999954223633,0,0,NaN,NaN,0.0107904449085772,0.0139882274201861,NaN,0.999974310430069,-0.0016313647351746,-0.00698126060888171,0,15.1806937510872,15.1806937510872,,,50.4400000572205,13,0.0604025129314138,0.0884105354428961
2018-07-19T08:06:55Z,1531987615,105,42.0423553,42.2448502,15.48,-0,-0.4,324.5,646764.44,-281387.72,318.3,Air+FixedWing,Blue,Enemies,J-11A,Blue J-11A #002,cn,<51P>Maximus,0,0,0,15.4799995422363,2.47999954223633,0,0,NaN,NaN,0.0737257022313523,0.0139882274201861,NaN,0.999975562097095,-3.95348181646512e-05,-0.00698126060888171,0,15.1806937510872,15.1806937510872,,,51.4400000572205,13,0.0604025129314138,0.0884105354428961
2018-07-19T08:06:56Z,1531987616,105,42.0423553,42.2448502,15.48,-0,-0.4,324.5,646764.44,-281387.72,318.3,Air+FixedWing,Blue,Enemies,J-11A,Blue J-11A #002,cn,<51P>Maximus,0,0,0,15.4799995422363,2.47999954223633,0,0,NaN,NaN,0.0161738879545902,0.0139882274201861,NaN,0.999975502493903,-0.000321926646207156,-0.00698126060888171,0,15.1806937510872,15.1806937510872,,,52.4400000572205,13,0.0604025129314138,0.0884105354428961
2018-07-19T08:06:57Z,1531987617,105,42.0423553,42.2448502,15.48,-0,-0.4,324.5,646764.44,-281387.72,318.3,Air+FixedWing,Blue,Enemies,J-11A,Blue J-11A #002,cn,<51P>Maximus,0,0,0,15.4799995422363,2.47999954223633,0,0,NaN,NaN,0.0161738879545902,0.0139882274201861,NaN,0.999975442890712,-0.000604318448784429,-0.00698126060888171,0,15.1806937510872,15.1806937510872,,,53.4400000572205,13,0.0604025129314138,0.0884105354428961
2018-07-19T08:06:58Z,1531987618,105,42.0423553,42.2448502,15.48,-0.1,-0.4,324.5,646764.44,-281387.72,318.3,Air+FixedWing,Blue,Enemies,J-11A,Blue J-11A #002,cn,<51P>Maximus,0,0,0,15.4799995422363,2.47999954223633,0,0,NaN,NaN,0.0161738879545902,0.0139882274201861,NaN,0.999975144874753,-0.000886710222258582,-0.00698126060888171,0,15.1806937510872,15.1806937510872,,,54.4400000572205,13,0.0604025129314138,0.0884105354428961
2018-07-19T08:06:59Z,1531987619,105,42.0423553,42.2448502,15.48,-0.1,-0.4,324.5,646764.44,-281387.72,318.3,Air+FixedWing,Blue,Enemies,J-11A,Blue J-11A #002,cn,<51P>Maximus,0,0,0,15.4799995422363,2.47999954223633,0,0,NaN,NaN,0.0161738879545902,0.0139882274201861,NaN,0.999974966065178,-0.00116910193752649,-0.00698126060888171,0,15.1806937510872,15.1806937510872,,,55.4400000572205,13,0.0604025129314138,0.0884105354428961
2018-07-19T08:07:00Z,1531987620,105,42.0423553,42.2448502,15.48,-0.1,-0.4,324.5,646764.44,-281387.72,318.3,Air+FixedWing,Blue,Enemies,J-11A,Blue J-11A #002,cn,<51P>Maximus,0,0,0,15.4799995422363,2.47999954223633,0,0,NaN,NaN,0.0161738879545902,0.0139882274201861,NaN,0.999974548842836,-0.00145149347817568,-0.00698126060888171,0,15.1806937510872,15.1806937510872,,,56.4400000572205,13,0.0604025129314138,0.0884105354428961
2018-07-19T08:07:01Z,1531987621,105,42.0423553,42.2448502,15.48,-0.1,-0.4,324.5,646764.44,-281387.72,318.3,Air+FixedWing,Blue,Enemies,J-11A,Blue J-11A #002,cn,<51P>Maximus,0,0,0,15.4799995422363,2.47999954223633,0,0,NaN,NaN,0.0161738879545902,0.0139882274201861,NaN,0.999974072017302,-0.00173388501882486,-0.00698126060888171,0,15.1806937510872,15.1806937510872,,,57.4400000572205,13,0.0604025129314138,0.0884105354428961
2018-07-19T08:07:02Z,1531987622,105,42.0423553,42.2448502,15.48,-0,-0.4,324.5,646764.44,-281387.72,318.3,Air+FixedWing,Blue,Enemies,J-11A,Blue J-11A #002,cn,<51P>Maximus,0,0,0,15.4799995422363,2.47999954223633,0,0,NaN,NaN,0.0110922272121007,0.0139882274201861,NaN,0.999975562097095,-0.000135435375042442,-0.00698126060888171,0,15.1806937510872,15.1806937510872,,,58.4400000572205,13,0.0604025129314138,0.0884105354428961
2018-07-19T08:07:03Z,1531987623,105,42.0423553,42.2448502,15.48,-0,-0.4,324.5,646764.44,-281387.72,318.3,Air+FixedWing,Blue,Enemies,J-11A,Blue J-11A #002,cn,<51P>Maximus,0,0,0,15.4799995422363,2.47999954223633,0,0,NaN,NaN,0.0110922272121007,0.0139882274201861,NaN,0.999975562097095,-0.000328914451064016,-0.00698126060888171,0,15.1806937510872,15.1806937510872,,,59.4400000572205,13,0.0604025129314138,0.0884105354428961
2018-07-19T08:07:04Z,1531987624,105,42.0423553,42.2448502,15.48,-0,-0.4,324.5,646764.44,-281387.72,318.3,Air+FixedWing,Blue,Enemies,J-11A,Blue J-11A #002,cn,<51P>Maximus,0,0,0,15.4799995422363,2.47999954223633,0,0,NaN,NaN,0.0110922272121007,0.0139882274201861,NaN,0.999975502493903,-0.00052239357074027,-0.00698126060888171,0,15.1806937510872,15.1806937510872,,,60.4400000572205,13,0.0604025129314138,0.0884105354428961
2018-07-19T08:07:05Z,1531987625,105,42.0423553,42.2448502,15.48,-0,-0.4,324.5,646764.44,-281387.72,318.3,Air+FixedWing,Blue,Enemies,J-11A,Blue J-11A #002,cn,<51P>Maximus,0,0,0,15.4799995422363,2.47999954223633,0,0,NaN,NaN,0.0110922272121007,0.0139882274201861,NaN,0.999975323684328,-0.000715872574004042,-0.00698126060888171,0,15.1806937510872,15.1806937510872,,,61.4400000572205,13,0.0604025129314138,0.0884105354428961
2018-07-19T08:07:06Z,1531987626,105,42.0423553,42.2448502,15.48,-0.1,-0.4,324.5,646764.44,-281387.72,318.3,Air+FixedWing,Blue,Enemies,J-11A,Blue J-11A #002,cn,<51P>Maximus,0,0,0,15.4799995422363,2.47999954223633,0,0,NaN,NaN,0.0110922272121007,0.0139882274201861,NaN,0.999975144874753,-0.000909351577267813,-0.00698126060888171,0,15.1806937510872,15.1806937510872,,,62.4400000572205,13,0.0604025129314138,0.0884105354428961
2018-07-19T08:07:07Z,1531987627,105,42.0423553,42.2448502,15.48,-0.1,-0.4,324.5,646764.44,-281387.72,318.3,Air+FixedWing,Blue,Enemies,J-11A,Blue J-11A #002,cn,<51P>Maximus,0,0,0,15.4799995422363,2.47999954223633,0,0,NaN,NaN,0.0110922272121007,0.0139882274201861,NaN,0.999974966065178,-0.00110283063873783,-0.00698126060888171,0,15.1806937510872,15.1806937510872,,,63.4400000572205,13,0.0604025129314138,0.0884105354428961
2018-07-19T08:07:08Z,1531987628,105,42.0423553,42.2448502,15.48,-0.1,-0.4,324.5,646764.44,-281387.72,318.3,Air+FixedWing,Blue,Enemies,J-11A,Blue J-11A #002,cn,<51P>Maximus,0,0,0,15.4799995422363,2.47999954223633,0,0,NaN,NaN,0.0110922272121007,0.0139882274201861,NaN,0.999974727652411,-0.00129630958379535,-0.00698126060888171,0,15.1806937510872,15.1806937510872,,,64.4400000572205,13,0.0604025129314138,0.0884105354428961
2018-07-19T08:07:09Z,1531987629,105,42.0423553,42.2448502,15.48,-0.1,-0.4,324.5,646764.44,-281387.72,318.3,Air+FixedWing,Blue,Enemies,J-11A,Blue J-11A #002,cn,<51P>Maximus,0,0,0,15.4799995422363,2.47999954223633,0,0,NaN,NaN,0.0110922272121007,0.0139882274201861,NaN,0.999974429636453,-0.00148978852885288,-0.00698126060888171,0,15.1806937510872,15.1806937510872,,,65.4400000572205,13,0.0604025129314138,0.0884105354428961
2018-07-19T08:07:10Z,1531987630,105,42.0423553,42.2448502,15.48,-0.1,-0.4,324.5,646764.44,-281387.72,318.3,Air+FixedWing,Blue,Enemies,J-11A,Blue J-11A #002,cn,<51P>Maximus,0,0,0,15.4799995422363,2.47999954223633,0,0,NaN,NaN,0.0110922272121007,0.0139882274201861,NaN,0.999974191223686,-0.00168326735749793,-0.00698126060888171,0,15.1806937510872,15.1806937510872,,,66.4400000572205,13,0.0604025129314138,0.0884105354428961
2018-07-19T08:07:11Z,1531987631,105,42.0423553,42.2448502,15.48,-0,-0.4,324.5,646764.44,-281387.72,318.3,Air+FixedWing,Blue,Enemies,J-11A,Blue J-11A #002,cn,<51P>Maximus,0,0,0,15.4799995422363,2.47999954223633,0,0,NaN,NaN,0.0410357765334366,0.0139882274201861,NaN,0.99997538328752,-0.000607581607118369,-0.00698126060888171,0,15.1806937510872,15.1806937510872,,,67.4400000572205,13,0.0604025129314138,0.0884105354428961
2018-07-19T08:07:12Z,1531987632,105,42.0423553,42.2448502,15.48,-0,-0.4,324.5,646764.44,-281387.72,318.3,Air+FixedWing,Blue,Enemies,J-11A,Blue J-11A #002,cn,<51P>Maximus,0,0,0,15.4799995422363,2.47999954223633,0,0,NaN,NaN,0.0579859181552414,0.0139882274201861,NaN,0.999975323684328,-0.000747934783885077,-0.00698126060888171,0,15.1806937510872,15.1806937510872,,,68.4400000572205,13,0.0604025129314138,0.0884105354428961
2018-07-19T08:07:13Z,1531987633,105,42.0423553,42.2448502,15.48,0,-0.4,324.5,646764.44,-281387.72,318.3,Air+FixedWing,Blue,Enemies,J-11A,Blue J-11A #002,cn,<51P>Maximus,0,0,0,15.4799995422363,2.47999954223633,0,0,NaN,NaN,0,0.0395646845203054,NaN,0.99968981631591,0,-0.00612103384293825,0,15.1806937510872,15.1806937510872,,,69.4400000572205,13,0.0604025129314138,0.0884105354428961
2018-07-19T08:07:14Z,1531987634,105,42.0423553,42.2448502,15.48,0,-0.3,324.5,646764.44,-281387.72,318.3,Air+FixedWing,Blue,Enemies,J-11A,Blue J-11A #002,cn,<51P>Maximus,0.00285720825195312,0,8.39480831589548e-06,15.4771423339844,2.47714233398438,0,-0.00285720825195312,NaN,NaN,0,0.0383083399245797,NaN,1.0005688718406,0,-0.00523901547163039,4.08181949751452e-07,15.1778917869568,15.1778921951387,,,70.4400000572205,13,0.0604025129314138,0.0912677435693121
2018-07-19T08:07:15Z,1531987635,105,42.0423553,42.2448502,15.48,-0,-0.3,324.5,646764.44,-281387.72,318.3,Air+FixedWing,Blue,Enemies,J-11A,Blue J-11A #002,cn,<51P>Maximus,0.00285720825195312,0,8.39480858609006e-06,15.4799995422363,2.47999954223633,0,0.00285720825195312,NaN,NaN,0.00573735890281071,0.0139882274201861,NaN,0.999694821663826,-4.98482947564732e-05,-0.00523443891272292,4.08181949751452e-07,15.1806937510872,15.1806941592691,,,71.4400000572205,13,0.0604025129314138,0.0941249516957281
2018-07-19T08:07:16Z,1531987636,105,42.0423553,42.2448502,15.48,-0.1,-0.3,324.5,646764.44,-281387.72,318.3,Air+FixedWing,Blue,Enemies,J-11A,Blue J-11A #002,cn,<51P>Maximus,0,0,0,15.4799995422363,2.47999954223633,0,0,NaN,NaN,0,0,NaN,0.999935864030465,-0.00174511384056652,-0.00523570882125821,0,15.1806937510872,15.1806937510872,,,72.4400000572205,13,0.0610892415199841,0.094811681599633
2018-07-19T08:07:17Z,1531987637,105,42.0423553,42.2448502,15.48,0,-0.3,324.5,646764.44,-281387.72,318.3,Air+FixedWing,Blue,Enemies,J-11A,Blue J-11A #002,cn,<51P>Maximus,0.000478744506835938,0,1.40660677152543e-06,15.4795207977295,2.47952079772949,0,-0.000478744506835938,NaN,NaN,0.0849948473512122,0,NaN,0.999729635857143,0,-0.00523462120111732,1.14598151412793e-08,15.1802242631054,15.1802242745652,,,73.4400000572205,13,0.0617759701085544,0.0956488163856782
2018-07-19T08:07:18Z,1531987638,105,42.0423553,42.2448502,15.48,0,-0.3,324.5,646764.44,-281387.72,318.3,Air+FixedWing,Blue,Enemies,J-11A,Blue J-11A #002,cn,<51P>Maximus,0.00299453735351562,0,8.7982970390443e-06,15.476526260376,2.47652626037598,0,-0.00299453735351562,NaN,NaN,0,0,NaN,0.999986268969581,0,-0.0052359649415442,4.48362698080018e-07,15.1772876251316,15.1772880734943,,,74.4400000572205,13,0.0617759701085544,0.0986433535056873
2018-07-19T08:07:19Z,1531987639,105,42.0423553,42.2448502,15.47,0,-0.3,324.5,646764.44,-281387.72,318.3,Air+FixedWing,Blue,Enemies,J-11A,Blue J-11A #002,cn,<51P>Maximus,0.00299358367919922,0,8.79549473701482e-06,15.4735326766968,2.47353267669678,0,-0.00299358367919922,NaN,NaN,0,0,NaN,0.999986074476885,0,-0.00523596392317328,4.48077162218397e-07,15.1743519223928,15.17435237047,,,75.4400000572205,13,0.0617759701085544,0.101636937042018
2018-07-19T08:07:20Z,1531987640,105,42.0423553,42.2448502,15.47,0,-0.3,324.5,646764.44,-281387.72,318.3,Air+FixedWing,Blue,Enemies,J-11A,Blue J-11A #002,cn,<51P>Maximus,0.00299453735351562,0,8.79829644555476e-06,15.4705381393433,2.47053813934326,0,-0.00299453735351562,NaN,NaN,0,0,NaN,1.00091643028844,0,-0.00524083530046164,4.48362698080018e-07,15.1714152844191,15.1714157327818,,,76.4400000572205,13,0.0617759701085544,0.104631474788156
2018-07-19T08:07:21Z,1531987641,105,42.0423554,42.2448502,15.48,0,-0.3,324.5,646764.44,-281387.72,318.3,Air+FixedWing,Blue,Enemies,J-11A,Blue J-11A #002,cn,<51P>Maximus,0.00612831115722656,0,1.80056868987848e-05,15.4766664505005,2.47666645050049,0,0.00612831115722656,NaN,NaN,0.199987938897973,0,NaN,0.999701142677172,0,-0.00523447200977777,1.87780988198938e-06,15.1774251046801,15.1774269824899,,,77.4400000572205,13,0.0700167130294502,0.114901157665463
2018-07-19T08:07:22Z,1531987642,105,42.0423553,42.2448502,15.48,0,-0.3,324.5,646764.44,-281387.72,318.3,Air+FixedWing,Blue,Enemies,J-11A,Blue J-11A #002,cn,<51P>Maximus,0.00333309173583984,0,9.79300934859305e-06,15.4799995422363,2.47999954223633,0,0.00333309173583984,NaN,NaN,0.0430769225379994,0,NaN,0.999646236145807,0.000375784123884533,-0.00523418482917877,5.55475025976193e-07,15.1806937510872,15.1806943065622,,,78.4400000572205,13,0.0782574559503459,0.123790458903646
2018-07-19T08:07:23Z,1531987643,105,42.0423553,42.2448502,15.48,0.1,-0.3,324.5,646764.44,-281387.72,318.3,Air+FixedWing,Blue,Enemies,J-11A,Blue J-11A #002,cn,<51P>Maximus,0,0,0,15.4799995422363,2.47999954223633,0,0,NaN,NaN,0.0769230845365645,0,NaN,0.999984741231454,0.00171845368485052,-0.00523596443235874,0,15.1806937510872,15.1806937510872,,,79.4400000572205,13,0.0782574559503459,0.123790458903646
2018-07-19T08:07:24Z,1531987644,105,42.0423553,42.2448502,15.48,0.1,-0.3,324.5,646764.44,-281387.72,318.3,Air+FixedWing,Blue,Enemies,J-11A,Blue J-11A #002,cn,<51P>Maximus,0,0,0,15.4799995422363,2.47999954223633,0,0,NaN,NaN,0.199987938897973,0,NaN,0.99998468162763,0.00174530439271087,-0.00523596443235874,0,15.1806937510872,15.1806937510872,,,80.4400000572205,13,0.0810043703725856,0.126537379902559
2018-07-19T08:07:25Z,1531987645,105,42.0423552,42.2448502,15.48,0.1,-0.3,324.5,646764.44,-281387.72,318.3,Air+FixedWing,Blue,Enemies,J-11A,Blue J-11A #002,cn,<51P>Maximus,0,0,0,15.4799995422363,2.47999954223633,0,0,NaN,NaN,0,0,NaN,0.99998468162763,0.00174530439271087,-0.00523596443235874,0,15.1806937510872,15.1806937510872,,,81.4400000572205,13,0.0917693053618552,0.137302340608811
2018-07-19T08:07:26Z,1531987646,105,42.0423553,42.2448502,15.48,0,-0.3,324.5,646764.44,-281387.72,318.3,Air+FixedWing,Blue,Enemies,J-11A,Blue J-11A #002,cn,<51P>Maximus,0,0,0,15.4799995422363,2.47999954223633,0,0,NaN,NaN,0.199987938897973,0,NaN,0.999986231327057,1.05354415642911e-07,-0.00523596443235874,0,15.1806937510872,15.1806937510872,,,82.4400000572205,13,0.099787325928885,0.145320380316152
2018-07-19T08:07:27Z,1531987647,105,42.0423554,42.2448501,15.48,0,-0.3,324.5,646764.44,-281387.72,318.3,Air+FixedWing,Blue,Enemies,J-11A,Blue J-11A #002,cn,<51P>Maximus,0,0,0,15.4799995422363,2.47999954223633,0,0,NaN,NaN,0.199987938897973,0,NaN,0.999986171723233,0,-0.00523596443235874,0,15.1806937510872,15.1806937510872,,,83.4400000572205,13,0.112843870336647,0.158376956489089
2018-07-19T08:07:28Z,1531987648,105,42.0423553,42.2448502,15.48,0,-0.3,324.5,646764.44,-281387.72,318.3,Air+FixedWing,Blue,Enemies,J-11A,Blue J-11A #002,cn,<51P>Maximus,0,0,0,15.4799995422363,2.47999954223633,0,0,NaN,NaN,0,0,NaN,0.999986171723233,0,-0.00523596443235874,0,15.1806937510872,15.1806937510872,,,84.4400000572205,13,0.125009128368291,0.170542244348381
2018-07-19T08:07:29Z,1531987649,105,42.0423553,42.2448502,15.48,0,-0.3,324.5,646764.44,-281387.72,318.3,Air+FixedWing,Blue,Enemies,J-11A,Blue J-11A #002,cn,<51P>Maximus,0,0,0,15.4799995422363,2.47999954223633,0,0,NaN,NaN,0,0.0242283218322616,NaN,0.999986886978927,0,-0.00510507402941585,0,15.1806937510872,15.1806937510872,,,85.4400000572205,13,0.126069312996916,0.171602431240183
2018-07-19T08:07:30Z,1531987650,105,42.0423553,42.2448502,15.48,0,-0.3,324.5,646764.44,-281387.72,318.3,Air+FixedWing,Blue,Enemies,J-11A,Blue J-11A #002,cn,<51P>Maximus,0,0,0,15.4799995422363,2.47999954223633,0,0,NaN,NaN,0.0899999819605498,0,NaN,0.999985933307936,0.000785387133878414,-0.00523596443235874,0,15.1806937510872,15.1806937510872,,,86.4400000572205,13,0.126069312996916,0.171602431240183
2018-07-19T08:07:31Z,1531987651,105,42.0423553,42.2448502,15.48,0.1,-0.3,324.5,646764.44,-281387.72,318.3,Air+FixedWing,Blue,Enemies,J-11A,Blue J-11A #002,cn,<51P>Maximus,0,0,0,15.4799995422363,2.47999954223633,0,0,NaN,NaN,0.0724546467154953,0.0242283218322616,NaN,0.999111645026783,0.00103620143925901,-0.00523138787345127,0,15.1806937510872,15.1806937510872,,,87.4400000572205,13,0.126069312996916,0.171602431240183
2018-07-19T08:07:32Z,1531987652,105,42.0423553,42.2448501,15.47,0,-0.2,324.5,646764.44,-281387.72,318.3,Air+FixedWing,Blue,Enemies,J-11A,Blue J-11A #002,cn,<51P>Maximus,0.00857162475585938,0,2.51844233265192e-05,15.4714279174805,2.47142791748047,0,-0.00857162475585938,NaN,NaN,0.0463906448427266,0.0504352774299245,NaN,1.00072128713187,0,-0.00374279716282284,3.67363754776306e-06,15.172287858696,15.1722915323335,,,88.4400000572205,13,0.135610986090014,0.184428837782393
2018-07-19T08:07:33Z,1531987653,105,42.0423553,42.2448501,15.47,-0,-0.2,324.5,646764.44,-281387.72,318.3,Air+FixedWing,Blue,Enemies,J-11A,Blue J-11A #002,cn,<51P>Maximus,0.00142860412597656,0,4.19740382020457e-06,15.4699993133545,2.46999931335449,0,-0.00142860412597656,NaN,NaN,0.0897705436333329,0.0504352774299245,NaN,1.00013911957205,-0.000795727505886722,-0.00349116023263653,1.02045487437863e-07,15.1708868766308,15.1708869786763,,,89.4400000572205,13,0.137201262028379,0.186566572031874
2018-07-19T08:07:34Z,1531987654,105,42.0423553,42.2448501,15.47,-0.1,-0.2,324.5,646764.44,-281387.72,318.3,Air+FixedWing,Blue,Enemies,J-11A,Blue J-11A #002,cn,<51P>Maximus,0,0,0,15.4699993133545,2.46999931335449,0,0,NaN,NaN,0.0347520024970249,0.0139882274201861,NaN,0.999990642090353,-0.00249315905890468,-0.00349065172486007,0,15.1708868766308,15.1708868766308,,,90.4400000572205,13,0.137201262028379,0.186566572031874
2018-07-19T08:07:35Z,1531987655,105,42.0423554,42.2448501,15.47,-0.1,-0.2,324.5,646764.44,-281387.72,318.3,Air+FixedWing,Blue,Enemies,J-11A,Blue J-11A #002,cn,<51P>Maximus,0,0,0,15.4699993133545,2.46999931335449,0,0,NaN,NaN,0,0.0139882274201861,NaN,0.999992251405786,-0.00174521224926716,-0.00349065172486007,0,15.1708868766308,15.1708868766308,,,91.4400000572205,13,0.143610729845188,0.192976055354835
2018-07-19T08:07:36Z,1531987656,105,42.0423553,42.2448501,15.47,-0.1,-0.2,324.5,646764.44,-281387.72,318.3,Air+FixedWing,Blue,Enemies,J-11A,Blue J-11A #002,cn,<51P>Maximus,0,0,0,15.4699993133545,2.46999931335449,0,0,NaN,NaN,0.137150198533856,0.0139882274201861,NaN,0.99999308586564,-0.0011967177592192,-0.00349065172486007,0,15.1708868766308,15.1708868766308,,,92.4400000572205,13,0.150020197661998,0.199385538677795
2018-07-19T08:07:37Z,1531987657,105,42.0423553,42.2448501,15.47,-0,-0.2,324.5,646764.44,-281387.72,318.3,Air+FixedWing,Blue,Enemies,J-11A,Blue J-11A #002,cn,<51P>Maximus,0,0,0,15.4699993133545,2.46999931335449,0,0,NaN,NaN,0.00469917014896877,0.0139882274201861,NaN,0.999993741512668,-4.12254694456462e-05,-0.00349065172486007,0,15.1708868766308,15.1708868766308,,,93.4400000572205,13,0.150020197661998,0.199385538677795
2018-07-19T08:07:38Z,1531987658,105,42.0423553,42.2448501,15.47,-0.1,-0.2,324.5,646764.44,-281387.72,318.3,Air+FixedWing,Blue,Enemies,J-11A,Blue J-11A #002,cn,<51P>Maximus,0,0,0,15.4699993133545,2.46999931335449,0,0,NaN,NaN,0.078738420751907,0.0139882274201861,NaN,0.999992787844263,-0.00141540863922024,-0.00349065172486007,0,15.1708868766308,15.1708868766308,,,94.4400000572205,13,0.150020197661998,0.199385538677795
2018-07-19T08:07:39Z,1531987659,105,42.0423553,42.2448501,15.47,0,-0.2,324.5,646764.44,-281387.72,318.3,Air+FixedWing,Blue,Enemies,J-11A,Blue J-11A #002,cn,<51P>Maximus,0,0,0,15.4699993133545,2.46999931335449,0,0,NaN,NaN,0.0962731838779826,0.0139882274201861,NaN,0.999993741512668,0.00022931184963404,-0.00349065172486007,0,15.1708868766308,15.1708868766308,,,95.4400000572205,13,0.150020197661998,0.199385538677795
2018-07-19T08:07:40Z,1531987660,105,42.0423553,42.2448501,15.47,0,-0.2,324.5,646764.44,-281387.72,318.3,Air+FixedWing,Blue,Enemies,J-11A,Blue J-11A #002,cn,<51P>Maximus,0,0,0,15.4699993133545,2.46999931335449,0,0,NaN,NaN,0.0364963487677028,0.0139882274201861,NaN,0.999993383887016,0.000866289293805805,-0.00349065172486007,0,15.1708868766308,15.1708868766308,,,96.4400000572205,13,0.150020197661998,0.199385538677795
2018-07-19T08:07:41Z,1531987661,105,42.0423553,42.2448501,15.47,0.1,-0.2,324.5,646764.44,-281387.72,318.3,Air+FixedWing,Blue,Enemies,J-11A,Blue J-11A #002,cn,<51P>Maximus,0,0,0,15.4699993133545,2.46999931335449,0,0,NaN,NaN,0.0364963554378094,0.0139882274201861,NaN,0.999992609031438,0.00150326638873377,-0.00349065172486007,0,15.1708868766308,15.1708868766308,,,97.4400000572205,13,0.150020197661998,0.199385538677795
2018-07-19T08:07:42Z,1531987662,105,42.0423553,42.2448501,15.47,0,-0.2,324.5,646764.44,-281387.72,318.3,Air+FixedWing,Blue,Enemies,J-11A,Blue J-11A #002,cn,<51P>Maximus,0,0,0,15.4699993133545,2.46999931335449,0,0,NaN,NaN,0.161301747439021,0.0139882274201861,NaN,0.999993801116943,1.05355213164682e-07,-0.00349065172486007,0,15.1708868766308,15.1708868766308,,,98.4400000572205,13,0.150020197661998,0.199385538677795
2018-07-19T08:07:43Z,1531987663,105,42.0423553,42.2448501,15.47,0,-0.2,324.5,646764.44,-281387.72,318.3,Air+FixedWing,Blue,Enemies,J-11A,Blue J-11A #002,cn,<51P>Maximus,0,0,0,15.4699993133545,2.46999931335449,0,0,NaN,NaN,0,0.0139882274201861,NaN,0.999993741512668,0,-0.00349065172486007,0,15.1708868766308,15.1708868766308,,,99.4400000572205,13,0.150020197661998,0.199385538677795
2018-07-19T08:07:44Z,1531987664,105,42.0423553,42.2448501,15.47,0,-0.2,324.5,646764.44,-281387.72,318.3,Air+FixedWing,Blue,Enemies,J-11A,Blue J-11A #002,cn,<51P>Maximus,0,0,0,15.4699993133545,2.46999931335449,0,0,NaN,NaN,0,0.0139882274201861,NaN,0.999993741512668,0,-0.00349065172486007,0,15.1708868766308,15.1708868766308,,,100.44000005722,13,0.150020197661998,0.199385538677795
2018-07-19T08:07:45Z,1531987665,105,42.0423553,42.2448501,15.47,0,-0.2,324.5,646764.44,-281387.72,318.3,Air+FixedWing,Blue,Enemies,J-11A,Blue J-11A #002,cn,<51P>Maximus,0,0,0,15.4699993133545,2.46999931335449,0,0,NaN,NaN,0,0.0139882274201861,NaN,0.999993741512668,0,-0.00349065172486007,0,15.1708868766308,15.1708868766308,,,101.44000005722,13,0.150020197661998,0.199385538677795
2018-07-19T08:07:46Z,1531987666,105,42.0423553,42.2448501,15.47,0,-0.2,324.5,646764.44,-281387.72,318.3,Air+FixedWing,Blue,Enemies,J-11A,Blue J-11A #002,cn,<51P>Maximus,0,0,0,15.4699993133545,2.46999931335449,0,0,NaN,NaN,0,0.0139882274201861,NaN,0.999993741512668,0,-0.00349065172486007,0,15.1708868766308,15.1708868766308,,,102.44000005722,13,0.150020197661998,0.199385538677795
2018-07-19T08:07:47Z,1531987667,105,42.0423553,42.2448501,15.47,0,-0.2,324.5,646764.44,-281387.72,318.3,Air+FixedWing,Blue,Enemies,J-11A,Blue J-11A #002,cn,<51P>Maximus,0,0,0,15.4699993133545,2.46999931335449,0,0,NaN,NaN,0,0.0139882274201861,NaN,0.999993741512668,0,-0.00349065172486007,0,15.1708868766308,15.1708868766308,,,103.44000005722,13,0.150020197661998,0.199385538677795
2018-07-19T08:07:48Z,1531987668,105,42.0423553,42.2448501,15.47,0,-0.2,324.5,646764.44,-281387.72,318.3,Air+FixedWing,Blue,Enemies,J-11A,Blue J-11A #002,cn,<51P>Maximus,0,0,0,15.4699993133545,2.46999931335449,0,0,NaN,NaN,0,0.0139882274201861,NaN,0.999993741512668,0,-0.00349065172486007,0,15.1708868766308,15.1708868766308,,,104.44000005722,13,0.150020197661998,0.199385538677795
2018-07-19T08:07:49Z,1531987669,105,42.0423553,42.2448501,15.47,0,-0.2,324.5,646764.44,-281387.72,318.3,Air+FixedWing,Blue,Enemies,J-11A,Blue J-11A #002,cn,<51P>Maximus,0,0,0,15.4699993133545,2.46999931335449,0,0,NaN,NaN,0,0.0139882274201861,NaN,0.999993741512668,0,-0.00349065172486007,0,15.1708868766308,15.1708868766308,,,105.44000005722,13,0.150020197661998,0.199385538677795
2018-07-19T08:07:50Z,1531987670,105,42.0423553,42.2448501,15.47,0,-0.2,324.5,646764.44,-281387.72,318.3,Air+FixedWing,Blue,Enemies,J-11A,Blue J-11A #002,cn,<51P>Maximus,0,0,0,15.4699993133545,2.46999931335449,0,0,NaN,NaN,0,0.0139882274201861,NaN,0.999993741512668,0,-0.00349065172486007,0,15.1708868766308,15.1708868766308,,,106.44000005722,13,0.150020197661998,0.199385538677795
2018-07-19T08:07:51Z,1531987671,105,42.0423553,42.2448501,15.47,0,-0.2,324.5,646764.44,-281387.72,318.3,Air+FixedWing,Blue,Enemies,J-11A,Blue J-11A #002,cn,<51P>Maximus,0,0,0,15.4699993133545,2.46999931335449,0,0,NaN,NaN,0,0.0139882274201861,NaN,0.999993741512668,0,-0.00349065172486007,0,15.1708868766308,15.1708868766308,,,107.44000005722,13,0.150020197661998,0.199385538677795
2018-07-19T08:07:52Z,1531987672,105,42.0423553,42.2448501,15.47,0,-0.2,324.5,646764.44,-281387.72,318.3,Air+FixedWing,Blue,Enemies,J-11A,Blue J-11A #002,cn,<51P>Maximus,0,0,0,15.4699993133545,2.46999931335449,0,0,NaN,NaN,0,0.0139882274201861,NaN,0.999993741512668,0,-0.00349065172486007,0,15.1708868766308,15.1708868766308,,,108.44000005722,13,0.150020197661998,0.199385538677795
2018-07-19T08:07:53Z,1531987673,105,42.0423553,42.2448501,15.47,0,-0.2,324.5,646764.44,-281387.72,318.3,Air+FixedWing,Blue,Enemies,J-11A,Blue J-11A #002,cn,<51P>Maximus,0,0,0,15.4699993133545,2.46999931335449,0,0,NaN,NaN,0,0.0139882274201861,NaN,0.999993741512668,0,-0.00349065172486007,0,15.1708868766308,15.1708868766308,,,109.44000005722,13,0.150020197661998,0.199385538677795
2018-07-19T08:07:54Z,1531987674,105,42.0423553,42.2448501,15.47,0,-0.2,324.5,646764.44,-281387.72,318.3,Air+FixedWing,Blue,Enemies,J-11A,Blue J-11A #002,cn,<51P>Maximus,0,0,0,15.4699993133545,2.46999931335449,0,0,NaN,NaN,0,0.0139882274201861,NaN,0.999993741512668,0,-0.00349065172486007,0,15.1708868766308,15.1708868766308,,,110.44000005722,13,0.150020197661998,0.199385538677795
2018-07-19T08:07:55Z,1531987675,105,42.0423553,42.2448501,15.47,0,-0.2,324.5,646764.44,-281387.72,318.3,Air+FixedWing,Blue,Enemies,J-11A,Blue J-11A #002,cn,<51P>Maximus,0,0,0,15.4699993133545,2.46999931335449,0,0,NaN,NaN,0,0.0139882274201861,NaN,0.999993741512668,0,-0.00349065172486007,0,15.1708868766308,15.1708868766308,,,111.44000005722,13,0.150020197661998,0.199385538677795
2018-07-19T08:07:56Z,1531987676,105,42.0423553,42.2448501,15.47,0,-0.2,324.5,646764.44,-281387.72,318.3,Air+FixedWing,Blue,Enemies,J-11A,Blue J-11A #002,cn,<51P>Maximus,0,0,0,15.4699993133545,2.46999931335449,0,0,NaN,NaN,0,0.0139882274201861,NaN,0.999993741512668,0,-0.00349065172486007,0,15.1708868766308,15.1708868766308,,,112.44000005722,13,0.150020197661998,0.199385538677795
2018-07-19T08:07:57Z,1531987677,105,42.0423553,42.2448501,15.47,0,-0.2,324.5,646764.44,-281387.72,318.3,Air+FixedWing,Blue,Enemies,J-11A,Blue J-11A #002,cn,<51P>Maximus,0,0,0,15.4699993133545,2.46999931335449,0,0,NaN,NaN,0,0.0139882274201861,NaN,0.999993741512668,0,-0.00349065172486007,0,15.1708868766308,15.1708868766308,,,113.44000005722,13,0.150020197661998,0.199385538677795
2018-07-19T08:07:58Z,1531987678,105,42.0423553,42.2448501,15.47,0,-0.2,324.5,646764.44,-281387.72,318.3,Air+FixedWing,Blue,Enemies,J-11A,Blue J-11A #002,cn,<51P>Maximus,0,0,0,15.4699993133545,2.46999931335449,0,0,NaN,NaN,0,0.0139882274201861,NaN,0.999993741512668,0,-0.00349065172486007,0,15.1708868766308,15.1708868766308,,,114.44000005722,13,0.150020197661998,0.199385538677795
2018-07-19T08:07:59Z,1531987679,105,42.0423553,42.2448501,15.47,0,-0.2,324.5,646764.44,-281387.72,318.3,Air+FixedWing,Blue,Enemies,J-11A,Blue J-11A #002,cn,<51P>Maximus,0,0,0,15.4699993133545,2.46999931335449,0,0,NaN,NaN,0,0.0139882274201861,NaN,0.999993741512668,0,-0.00349065172486007,0,15.1708868766308,15.1708868766308,,,115.44000005722,13,0.150020197661998,0.199385538677795
2018-07-19T08:08:00Z,1531987680,105,42.0423553,42.2448501,15.47,0,-0.2,324.5,646764.44,-281387.72,318.3,Air+FixedWing,Blue,Enemies,J-11A,Blue J-11A #002,cn,<51P>Maximus,0,0,0,15.4699993133545,2.46999931335449,0,0,NaN,NaN,0,0.0139882274201861,NaN,0.999993741512668,0,-0.00349065172486007,0,15.1708868766308,15.1708868766308,,,116.44000005722,13,0.150020197661998,0.199385538677795
2018-07-19T08:08:01Z,1531987681,105,42.0423553,42.2448501,15.47,0,-0.2,324.5,646764.44,-281387.72,318.3,Air+FixedWing,Blue,Enemies,J-11A,Blue J-11A #002,cn,<51P>Maximus,0,0,0,15.4699993133545,2.46999931335449,0,0,NaN,NaN,0,0.0139882274201861,NaN,0.999993741512668,0,-0.00349065172486007,0,15.1708868766308,15.1708868766308,,,117.44000005722,13,0.150020197661998,0.199385538677795
2018-07-19T08:08:02Z,1531987682,105,42.0423553,42.2448501,15.47,0,-0.2,324.5,646764.44,-281387.72,318.3,Air+FixedWing,Blue,Enemies,J-11A,Blue J-11A #002,cn,<51P>Maximus,0,0,0,15.4699993133545,2.46999931335449,0,0,NaN,NaN,0,0.0139882274201861,NaN,0.999993741512668,0,-0.00349065172486007,0,15.1708868766308,15.1708868766308,,,118.44000005722,13,0.150020197661998,0.199385538677795
2018-07-19T08:08:03Z,1531987683,105,42.0423553,42.2448501,15.47,0,-0.2,324.5,646764.44,-281387.72,318.3,Air+FixedWing,Blue,Enemies,J-11A,Blue J-11A #002,cn,<51P>Maximus,0,0,0,15.4699993133545,2.46999931335449,0,0,NaN,NaN,0,0.0139882274201861,NaN,0.999993741512668,0,-0.00349065172486007,0,15.1708868766308,15.1708868766308,,,119.44000005722,13,0.150020197661998,0.199385538677795
2018-07-19T08:08:04Z,1531987684,105,42.0423553,42.2448501,15.47,0,-0.2,324.5,646764.44,-281387.72,318.3,Air+FixedWing,Blue,Enemies,J-11A,Blue J-11A #002,cn,<51P>Maximus,0,0,0,15.4699993133545,2.46999931335449,0,0,NaN,NaN,0,0.0139882274201861,NaN,0.999993741512668,0,-0.00349065172486007,0,15.1708868766308,15.1708868766308,,,120.44000005722,13,0.150020197661998,0.199385538677795
2018-07-19T08:08:05Z,1531987685,105,42.0423553,42.2448501,15.47,0,-0.2,324.5,646764.44,-281387.72,318.3,Air+FixedWing,Blue,Enemies,J-11A,Blue J-11A #002,cn,<51P>Maximus,0,0,0,15.4699993133545,2.46999931335449,0,0,NaN,NaN,0,0.0139882274201861,NaN,0.999993741512668,0,-0.00349065172486007,0,15.1708868766308,15.1708868766308,,,121.44000005722,13,0.150020197661998,0.199385538677795
2018-07-19T08:08:06Z,1531987686,105,42.0423553,42.2448501,15.47,0,-0.2,324.5,646764.44,-281387.72,318.3,Air+FixedWing,Blue,Enemies,J-11A,Blue J-11A #002,cn,<51P>Maximus,0,0,0,15.4699993133545,2.46999931335449,0,0,NaN,NaN,0,0.0139882274201861,NaN,0.999993741512668,0,-0.00349065172486007,0,15.1708868766308,15.1708868766308,,,122.44000005722,13,0.150020197661998,0.199385538677795
2018-07-19T08:08:07Z,1531987687,105,42.0423553,42.2448501,15.47,0,-0.2,324.5,646764.44,-281387.72,318.3,Air+FixedWing,Blue,Enemies,J-11A,Blue J-11A #002,cn,<51P>Maximus,0,0,0,15.4699993133545,2.46999931335449,0,0,NaN,NaN,0,0.0139882274201861,NaN,0.999993741512668,0,-0.00349065172486007,0,15.1708868766308,15.1708868766308,,,123.44000005722,13,0.150020197661998,0.199385538677795
2018-07-19T08:08:08Z,1531987688,105,42.0423553,42.2448501,15.47,0,-0.2,324.5,646764.44,-281387.72,318.3,Air+FixedWing,Blue,Enemies,J-11A,Blue J-11A #002,cn,<51P>Maximus,0,0,0,15.4699993133545,2.46999931335449,0,0,NaN,NaN,0,0.0139882274201861,NaN,0.999993741512668,0,-0.00349065172486007,0,15.1708868766308,15.1708868766308,,,124.44000005722,13,0.150020197661998,0.199385538677795
2018-07-19T08:08:09Z,1531987689,105,42.0423553,42.2448501,15.47,0,-0.2,324.5,646764.44,-281387.72,318.3,Air+FixedWing,Blue,Enemies,J-11A,Blue J-11A #002,cn,<51P>Maximus,0,0,0,15.4699993133545,2.46999931335449,0,0,NaN,NaN,0,0.0139882274201861,NaN,0.999993741512668,0,-0.00349065172486007,0,15.1708868766308,15.1708868766308,,,125.44000005722,13,0.150020197661998,0.199385538677795
2018-07-19T08:08:10Z,1531987690,105,42.0423553,42.2448501,15.47,0,-0.2,324.5,646764.44,-281387.72,318.3,Air+FixedWing,Blue,Enemies,J-11A,Blue J-11A #002,cn,<51P>Maximus,0,0,0,15.4699993133545,2.46999931335449,0,0,NaN,NaN,0,0.0139882274201861,NaN,0.999993741512668,0,-0.00349065172486007,0,15.1708868766308,15.1708868766308,,,126.44000005722,13,0.150020197661998,0.199385538677795
2018-07-19T08:08:11Z,1531987691,105,42.0423553,42.2448501,15.47,0,-0.2,324.5,646764.44,-281387.72,318.3,Air+FixedWing,Blue,Enemies,J-11A,Blue J-11A #002,cn,<51P>Maximus,0,0,0,15.4699993133545,2.46999931335449,0,0,NaN,NaN,0,0.0139882274201861,NaN,0.999993741512668,0,-0.00349065172486007,0,15.1708868766308,15.1708868766308,,,127.44000005722,13,0.150020197661998,0.199385538677795
2018-07-19T08:08:12Z,1531987692,105,42.0423553,42.2448501,15.47,0,-0.2,324.5,646764.44,-281387.72,318.3,Air+FixedWing,Blue,Enemies,J-11A,Blue J-11A #002,cn,<51P>Maximus,0,0,0,15.4699993133545,2.46999931335449,0,0,NaN,NaN,0,0.0139882274201861,NaN,0.999993741512668,0,-0.00349065172486007,0,15.1708868766308,15.1708868766308,,,128.44000005722,13,0.150020197661998,0.199385538677795
2018-07-19T08:08:13Z,1531987693,105,42.0423553,42.2448501,15.47,0,-0.2,324.5,646764.44,-281387.72,318.3,Air+FixedWing,Blue,Enemies,J-11A,Blue J-11A #002,cn,<51P>Maximus,0,0,0,15.4699993133545,2.46999931335449,0,0,NaN,NaN,0,0.0139882274201861,NaN,0.999993741512668,0,-0.00349065172486007,0,15.1708868766308,15.1708868766308,,,129.44000005722,13,0.150020197661998,0.199385538677795
2018-07-19T08:08:14Z,1531987694,105,42.0423553,42.2448501,15.47,0,-0.2,324.5,646764.44,-281387.72,318.3,Air+FixedWing,Blue,Enemies,J-11A,Blue J-11A #002,cn,<51P>Maximus,0,0,0,15.4699993133545,2.46999931335449,0,0,NaN,NaN,0,0.0139882274201861,NaN,0.999993741512668,0,-0.00349065172486007,0,15.1708868766308,15.1708868766308,,,130.44000005722,13,0.150020197661998,0.199385538677795
2018-07-19T08:08:15Z,1531987695,105,42.0423553,42.2448501,15.47,0,-0.2,324.5,646764.44,-281387.72,318.3,Air+FixedWing,Blue,Enemies,J-11A,Blue J-11A #002,cn,<51P>Maximus,0,0,0,15.4699993133545,2.46999931335449,0,0,NaN,NaN,0,0.0139882274201861,NaN,0.999993741512668,0,-0.00349065172486007,0,15.1708868766308,15.1708868766308,,,131.44000005722,13,0.150020197661998,0.199385538677795
2018-07-19T08:08:16Z,1531987696,105,42.0423553,42.2448501,15.47,0,-0.2,324.5,646764.44,-281387.72,318.3,Air+FixedWing,Blue,Enemies,J-11A,Blue J-11A #002,cn,<51P>Maximus,0,0,0,15.4699993133545,2.46999931335449,0,0,NaN,NaN,0,0.0139882274201861,NaN,0.999993741512668,0,-0.00349065172486007,0,15.1708868766308,15.1708868766308,,,132.44000005722,13,0.150020197661998,0.199385538677795
2018-07-19T08:08:17Z,1531987697,105,42.0423553,42.2448501,15.47,0,-0.2,324.5,646764.44,-281387.72,318.3,Air+FixedWing,Blue,Enemies,J-11A,Blue J-11A #002,cn,<51P>Maximus,0,0,0,15.4699993133545,2.46999931335449,0,0,NaN,NaN,0,0.0139882274201861,NaN,0.999993741512668,0,-0.00349065172486007,0,15.1708868766308,15.1708868766308,,,133.44000005722,13,0.150020197661998,0.199385538677795
2018-07-19T08:08:18Z,1531987698,105,42.0423553,42.2448501,15.47,0,-0.2,324.5,646764.44,-281387.72,318.3,Air+FixedWing,Blue,Enemies,J-11A,Blue J-11A #002,cn,<51P>Maximus,0,0,0,15.4699993133545,2.46999931335449,0,0,NaN,NaN,0,0.0139882274201861,NaN,0.999993741512668,0,-0.00349065172486007,0,15.1708868766308,15.1708868766308,,,134.44000005722,13,0.150020197661998,0.199385538677795
2018-07-19T08:08:19Z,1531987699,105,42.0423553,42.2448501,15.47,0,-0.2,324.5,646764.44,-281387.72,318.3,Air+FixedWing,Blue,Enemies,J-11A,Blue J-11A #002,cn,<51P>Maximus,0,0,0,15.4699993133545,2.46999931335449,0,0,NaN,NaN,0,0.0139882274201861,NaN,0.999993741512668,0,-0.00349065172486007,0,15.1708868766308,15.1708868766308,,,135.44000005722,13,0.150020197661998,0.199385538677795
2018-07-19T08:08:20Z,1531987700,105,42.0423553,42.2448501,15.47,0,-0.2,324.5,646764.44,-281387.72,318.3,Air+FixedWing,Blue,Enemies,J-11A,Blue J-11A #002,cn,<51P>Maximus,0,0,0,15.4699993133545,2.46999931335449,0,0,NaN,NaN,0,0.0139882274201861,NaN,0.999993741512668,0,-0.00349065172486007,0,15.1708868766308,15.1708868766308,,,136.44000005722,13,0.150020197661998,0.199385538677795
2018-07-19T08:08:21Z,1531987701,105,42.0423553,42.2448501,15.47,0,-0.2,324.5,646764.44,-281387.72,318.3,Air+FixedWing,Blue,Enemies,J-11A,Blue J-11A #002,cn,<51P>Maximus,0,0,0,15.4699993133545,2.46999931335449,0,0,NaN,NaN,0,0.0139882274201861,NaN,0.999993741512668,0,-0.00349065172486007,0,15.1708868766308,15.1708868766308,,,137.44000005722,13,0.150020197661998,0.199385538677795
2018-07-19T08:08:22Z,1531987702,105,42.0423553,42.2448501,15.47,0,-0.2,324.5,646764.44,-281387.72,318.3,Air+FixedWing,Blue,Enemies,J-11A,Blue J-11A #002,cn,<51P>Maximus,0,0,0,15.4699993133545,2.46999931335449,0,0,NaN,NaN,0,0.0139882274201861,NaN,0.999993741512668,0,-0.00349065172486007,0,15.1708868766308,15.1708868766308,,,138.44000005722,13,0.150020197661998,0.199385538677795
2018-07-19T08:08:23Z,1531987703,105,42.0423553,42.2448501,15.47,0,-0.2,324.5,646764.44,-281387.72,318.3,Air+FixedWing,Blue,Enemies,J-11A,Blue J-11A #002,cn,<51P>Maximus,0,0,0,15.4699993133545,2.46999931335449,0,0,NaN,NaN,0,0.0139882274201861,NaN,0.999993741512668,0,-0.00349065172486007,0,15.1708868766308,15.1708868766308,,,139.44000005722,13,0.150020197661998,0.199385538677795
2018-07-19T08:08:24Z,1531987704,105,42.0423553,42.2448501,15.47,0,-0.2,324.5,646764.44,-281387.72,318.3,Air+FixedWing,Blue,Enemies,J-11A,Blue J-11A #002,cn,<51P>Maximus,0,0,0,15.4699993133545,2.46999931335449,0,0,NaN,NaN,0,0.0139882274201861,NaN,0.999993741512668,0,-0.00349065172486007,0,15.1708868766308,15.1708868766308,,,140.44000005722,13,0.150020197661998,0.199385538677795
2018-07-19T08:08:25Z,1531987705,105,42.0423553,42.2448501,15.47,0,-0.2,324.5,646764.44,-281387.72,318.3,Air+FixedWing,Blue,Enemies,J-11A,Blue J-11A #002,cn,<51P>Maximus,0,0,0,15.4699993133545,2.46999931335449,0,0,NaN,NaN,0,0.0139882274201861,NaN,0.999993741512668,0,-0.00349065172486007,0,15.1708868766308,15.1708868766308,,,141.44000005722,13,0.150020197661998,0.199385538677795
2018-07-19T08:08:26Z,1531987706,105,42.0423553,42.2448501,15.47,0,-0.2,324.5,646764.44,-281387.72,318.3,Air+FixedWing,Blue,Enemies,J-11A,Blue J-11A #002,cn,<51P>Maximus,0,0,0,15.4699993133545,2.46999931335449,0,0,NaN,NaN,0,0.0139882274201861,NaN,0.999993741512668,0,-0.00349065172486007,0,15.1708868766308,15.1708868766308,,,142.44000005722,13,0.150020197661998,0.199385538677795
2018-07-19T08:08:27Z,1531987707,105,42.0423553,42.2448501,15.47,0,-0.2,324.5,646764.44,-281387.72,318.3,Air+FixedWing,Blue,Enemies,J-11A,Blue J-11A #002,cn,<51P>Maximus,0,0,0,15.4699993133545,2.46999931335449,0,0,NaN,NaN,0,0.0139882274201861,NaN,0.999993741512668,0,-0.00349065172486007,0,15.1708868766308,15.1708868766308,,,143.44000005722,13,0.150020197661998,0.199385538677795
2018-07-19T08:08:28Z,1531987708,105,42.0423553,42.2448501,15.47,0,-0.2,324.5,646764.44,-281387.72,318.3,Air+FixedWing,Blue,Enemies,J-11A,Blue J-11A #002,cn,<51P>Maximus,0,0,0,15.4699993133545,2.46999931335449,0,0,NaN,NaN,0,0.0139882274201861,NaN,0.999993741512668,0,-0.00349065172486007,0,15.1708868766308,15.1708868766308,,,144.44000005722,13,0.150020197661998,0.199385538677795
