ISOTime,UnixTime,Id,Longitude,Latitude,Altitude,Roll,Pitch,Yaw,U,V,Heading,Type,Color,Coalition,Name,Group,Country,Pilot,TAS,CAS,M,ASL,AGL,GS,VS,AOA,AOS,RRT,TRT,TRD,G,LatG,LonG,Ek,Ep,Em,FFW,FFV,RelativeTime,Elev,GroundDistance,AirDistance
2018-07-19T08:06:42Z,1531987602,10D,42.0424296,42.2458197,15.54,0.2,-0.5,145.8,646759.06,-281279.28,139.6,Air+FixedWing,Blue,Enemies,J-11A,Blue J-11A #003,cn,<51>Frostie,0.0714302034604469,0,0.000209870354915429,15.5428562164307,2.54285621643066,NaN,NaN,NaN,NaN,NaN,NaN,NaN,NaN,NaN,NaN,NaN,15.242335091486,NaN,,,0.240000009536743,13,NaN,NaN
2018-07-19T08:06:43Z,1531987603,10D,42.0424281,42.2458211,15.16,-0.6,1.4,145.8,646758.94,-281279.16,139.6,Air+FixedWing,Blue,Enemies,J-11A,Blue J-11A #003,cn,<51>Frostie,0.417379421952617,0.455048412084579,0.00122630470156685,15.1647615432739,2.16476154327393,0.176776695296637,-0.378094673156738,NaN,NaN,1.05714935897789,NaN,NaN,1.07530464202833,-0.00801179780566128,0.0613325268688923,0.00871027909347504,14.8715508788347,14.8802611579282,,,1.24000000953674,13,0.192324577219799,0.424198660332637
2018-07-19T08:06:44Z,1531987604,10D,42.0424296,42.2458197,15.54,-0.4,0.7,145.8,646759.06,-281279.28,139.6,Air+FixedWing,Blue,Enemies,J-11A,Blue J-11A #003,cn,<51>Frostie,0.411780114602668,0.37154546380043,0.00120985841542933,15.5366659164429,2.53666591644287,0.176776695296637,0.371904373168945,NaN,NaN,0.333313231496622,0.0453270429826955,NaN,0.960194810647028,-0.00870792657317162,-0.00623752744658774,0.00847814313910931,15.2362644809484,15.2447426240876,,,2.24000000953674,13,0.393218214609558,0.846893954132913
2018-07-19T08:06:45Z,1531987605,10D,42.0424297,42.2458197,15.52,-0.2,0.2,145.8,646759.06,-281279.28,139.6,Air+FixedWing,Blue,Enemies,J-11A,Blue J-11A #003,cn,<51>Frostie,0.0195236206054688,0,5.73626813354952e-05,15.5171422958374,2.5171422958374,0,-0.0195236206054688,NaN,NaN,0.200042580411333,0.608298301667775,NaN,0.999418295439537,-0.0062765976486546,-0.00306889485939412,1.90585880773142e-05,15.2171183495474,15.2171374081355,,,3.24000000953674,13,0.401923682734501,0.86827051532769
2018-07-19T08:06:46Z,1531987606,10D,42.0424293,42.24582,15.49,-0.2,0.2,145.8,646759,-281279.25,139.6,Air+FixedWing,Blue,Enemies,J-11A,Blue J-11A #003,cn,<51>Frostie,0.07429516146516,0,0.000218287813842904,15.491904258728,2.49190425872803,0.0698771242968684,-0.025238037109375,NaN,NaN,0,0.0504352774299245,NaN,1.00303638941126,0.00414059060403717,0.014189009823848,0.000275988550856709,15.1923682898855,15.1926442784364,,,4.24000000953674,13,0.442979282565721,0.916463138698367
2018-07-19T08:06:47Z,1531987607,10D,42.0424294,42.2458199,15.5,-0.2,0.1,145.8,646759.06,-281279.25,139.6,Air+FixedWing,Blue,Enemies,J-11A,Blue J-11A #003,cn,<51>Frostie,0.0626811999773778,0,0.00018416465589891,15.4966669082642,2.49666690826416,0.0625,0.00476264953613281,NaN,NaN,0,0.0532655904281015,NaN,0.998817133760077,-0.00833981889135862,-0.00238741823058179,0.000196446641530201,15.1970388535929,15.1972353002344,,,5.24000000953674,13,0.456829481866629,0.931109359784167
2018-07-19T08:06:48Z,1531987608,10D,42.0424294,42.2458199,15.49,-0.1,0,145.8,646759.06,-281279.25,139.6,Air+FixedWing,Blue,Enemies,J-11A,Blue J-11A #003,cn,<51>Frostie,0.00666713714599609,0,1.9588822909417e-05,15.4899997711182,2.48999977111816,0,-0.00666713714599609,NaN,NaN,0.141168003952263,0.101835886039175,NaN,1.00067824824725,-0.00174640946866646,-0,2.22253588617605e-06,15.1905006255436,15.1905028480795,,,6.24000000953674,13,0.456829481866629,0.937776496369078
2018-07-19T08:06:49Z,1531987609,10D,42.0424294,42.2458199,15.49,-0.1,-0,145.8,646759.06,-281279.25,139.6,Air+FixedWing,Blue,Enemies,J-11A,Blue J-11A #003,cn,<51>Frostie,0,0,0,15.4899997711182,2.48999977111816,0,0,NaN,NaN,0,0.100870594880489,NaN,0.998976736083658,-0.00380874984480193,0.00160943807548484,0,15.1905006255436,15.1905006255436,,,7.24000000953674,13,0.456829481866629,0.937776496369078
2018-07-19T08:06:50Z,1531987610,10D,42.0424294,42.2458199,15.48,-0.1,-0.1,145.8,646759.06,-281279.28,139.6,Air+FixedWing,Blue,Enemies,J-11A,Blue J-11A #003,cn,<51>Frostie,0.0328110816293688,0,9.64027559394178e-05,15.4799995422363,2.47999954223633,0.03125,-0.0100002288818359,NaN,NaN,0,0.0541761800424684,NaN,1.00101537482524,0.00238362196737107,-0.00660055609154625,5.38283538844553e-05,15.1806937510872,15.1807475794411,,,8.24000000953674,13,0.456829481866629,0.947776725696887
2018-07-19T08:06:51Z,1531987611,10D,42.0424294,42.2458199,15.48,-0.1,-0.1,145.8,646759.06,-281279.25,139.6,Air+FixedWing,Blue,Enemies,J-11A,Blue J-11A #003,cn,<51>Frostie,0.03125,0,9.1816117406208e-05,15.4799995422363,2.47999954223633,0.03125,0,NaN,NaN,0,0.0139882274201861,NaN,0.999997531570087,-0.00381053136331025,0.0006813955203393,4.8828125e-05,15.1806937510872,15.1807425792122,,,9.24000000953674,13,0.456829481866629,0.947776725696887
2018-07-19T08:06:52Z,1531987612,10D,42.0424294,42.2458199,15.48,-0.1,-0.2,145.8,646759.06,-281279.25,139.6,Air+FixedWing,Blue,Enemies,J-11A,Blue J-11A #003,cn,<51>Frostie,0,0,0,15.4799995422363,2.47999954223633,0,0,NaN,NaN,0.0389238206770878,0.0532655904281015,NaN,0.999992847448539,-0.00140554040639201,-0.00349065172486007,0,15.1806937510872,15.1806937510872,,,10.2400000095367,13,0.456829481866629,0.947776725696887
2018-07-19T08:06:53Z,1531987613,10D,42.0424294,42.2458199,15.48,-0,-0.2,145.8,646759.06,-281279.25,139.6,Air+FixedWing,Blue,Enemies,J-11A,Blue J-11A #003,cn,<51>Frostie,0,0,0,15.4799995422363,2.47999954223633,0,0,NaN,NaN,0.0671100370301735,0.0532655904281015,NaN,0.999993741512668,-0.000234256909020569,-0.00349065172486007,0,15.1806937510872,15.1806937510872,,,11.2400000095367,13,0.456829481866629,0.947776725696887
2018-07-19T08:06:54Z,1531987614,10D,42.0424294,42.2458199,15.48,0,-0.2,145.8,646759.06,-281279.25,139.6,Air+FixedWing,Blue,Enemies,J-11A,Blue J-11A #003,cn,<51>Frostie,0,0,0,15.4799995422363,2.47999954223633,0,0,NaN,NaN,0,0.0171320104161963,NaN,1.00000221237183,-0.00206530655055262,-0.00106393945101649,0,15.1806937510872,15.1806937510872,,,12.2400000095367,13,0.456829481866629,0.947776725696887
2018-07-19T08:06:55Z,1531987615,10D,42.0424294,42.2458199,15.48,0,-0.2,145.8,646759.06,-281279.28,139.6,Air+FixedWing,Blue,Enemies,J-11A,Blue J-11A #003,cn,<51>Frostie,0.03125,0,9.1816117406208e-05,15.4799995422363,2.47999954223633,0.03125,0,NaN,NaN,0,0.0484566469995765,NaN,0.99998390935067,0.00206530655055262,-0.00615902170944076,4.8828125e-05,15.1806937510872,15.1807425792122,,,13.2400000095367,13,0.456829481866629,0.947776725696887
2018-07-19T08:06:56Z,1531987616,10D,42.0424294,42.2458199,15.48,0,-0.3,145.8,646759.06,-281279.28,139.6,Air+FixedWing,Blue,Enemies,J-11A,Blue J-11A #003,cn,<51>Frostie,0,0,0,15.4799995422363,2.47999954223633,0,0,NaN,NaN,0,0.0523391626455858,NaN,0.999986171723233,0,-0.00523596443235874,0,15.1806937510872,15.1806937510872,,,14.2400000095367,13,0.456829481866629,0.947776725696887
2018-07-19T08:06:57Z,1531987617,10D,42.0424294,42.2458199,15.48,0,-0.3,145.8,646759.06,-281279.28,139.6,Air+FixedWing,Blue,Enemies,J-11A,Blue J-11A #003,cn,<51>Frostie,0,0,0,15.4799995422363,2.47999954223633,0,0,NaN,NaN,0,0.0139882274201861,NaN,0.999973465465254,0.00206530655055262,-0.00766265855781466,0,15.1806937510872,15.1806937510872,,,15.2400000095367,13,0.456829481866629,0.947776725696887
2018-07-19T08:06:58Z,1531987618,10D,42.0424294,42.2458199,15.48,0,-0.3,145.8,646759.06,-281279.25,139.6,Air+FixedWing,Blue,Enemies,J-11A,Blue J-11A #003,cn,<51>Frostie,0.03125,0,9.1816117406208e-05,15.4799995422363,2.47999954223633,0.03125,0,NaN,NaN,0,0.00989117029631303,NaN,0.999998877981212,-0.00206530655055262,-0.00280927030690282,4.8828125e-05,15.1806937510872,15.1807425792122,,,16.2400000095367,13,0.456829481866629,0.947776725696887
2018-07-19T08:06:59Z,1531987619,10D,42.0424294,42.2458199,15.48,0,-0.3,145.8,646759.06,-281279.25,139.6,Air+FixedWing,Blue,Enemies,J-11A,Blue J-11A #003,cn,<51>Frostie,0,0,0,15.4799995422363,2.47999954223633,0,0,NaN,NaN,0,0.00989117029631303,NaN,0.999986171723233,0,-0.00523596443235874,0,15.1806937510872,15.1806937510872,,,17.2400000095367,13,0.456829481866629,0.947776725696887
2018-07-19T08:07:00Z,1531987620,10D,42.0424294,42.2458199,15.48,0,-0.3,145.8,646759.06,-281279.25,139.6,Air+FixedWing,Blue,Enemies,J-11A,Blue J-11A #003,cn,<51>Frostie,0,0,0,15.4799995422363,2.47999954223633,0,0,NaN,NaN,0,0.00989117029631303,NaN,0.999986171723233,0,-0.00523596443235874,0,15.1806937510872,15.1806937510872,,,18.2400000095367,13,0.456829481866629,0.947776725696887
2018-07-19T08:07:01Z,1531987621,10D,42.0424294,42.2458199,15.48,0,-0.3,145.8,646759.06,-281279.25,139.6,Air+FixedWing,Blue,Enemies,J-11A,Blue J-11A #003,cn,<51>Frostie,0,0,0,15.4799995422363,2.47999954223633,0,0,NaN,NaN,0,0.00989117029631303,NaN,0.999998877981212,-0.00206530655055262,-0.00280927030690282,0,15.1806937510872,15.1806937510872,,,19.2400000095367,13,0.456829481866629,0.947776725696887
2018-07-19T08:07:02Z,1531987622,10D,42.0424294,42.2458199,15.48,0,-0.3,145.8,646759.06,-281279.28,139.6,Air+FixedWing,Blue,Enemies,J-11A,Blue J-11A #003,cn,<51>Frostie,0.03125,0,9.1816117406208e-05,15.4799995422363,2.47999954223633,0.03125,0,NaN,NaN,0,0.00989117029631303,NaN,0.999973465465254,0.00206530655055262,-0.00766265855781466,4.8828125e-05,15.1806937510872,15.1807425792122,,,20.2400000095367,13,0.456829481866629,0.947776725696887
2018-07-19T08:07:03Z,1531987623,10D,42.0424294,42.2458199,15.48,0,-0.3,145.8,646759.06,-281279.28,139.6,Air+FixedWing,Blue,Enemies,J-11A,Blue J-11A #003,cn,<51>Frostie,0,0,0,15.4799995422363,2.47999954223633,0,0,NaN,NaN,0,0.00989117029631303,NaN,0.999986171723233,0,-0.00523596443235874,0,15.1806937510872,15.1806937510872,,,21.2400000095367,13,0.456829481866629,0.947776725696887
2018-07-19T08:07:04Z,1531987624,10D,42.0424294,42.2458199,15.48,0,-0.3,145.8,646759.06,-281279.28,139.6,Air+FixedWing,Blue,Enemies,J-11A,Blue J-11A #003,cn,<51>Frostie,0,0,0,15.4799995422363,2.47999954223633,0,0,NaN,NaN,0,0.00989117029631303,NaN,0.999986171723233,0,-0.00523596443235874,0,15.1806937510872,15.1806937510872,,,22.2400000095367,13,0.456829481866629,0.947776725696887
2018-07-19T08:07:05Z,1531987625,10D,42.0424294,42.2458199,15.48,0,-0.3,145.8,646759.06,-281279.28,139.6,Air+FixedWing,Blue,Enemies,J-11A,Blue J-11A #003,cn,<51>Frostie,0,0,0,15.4799995422363,2.47999954223633,0,0,NaN,NaN,0,0.00989117029631303,NaN,0.999973465465254,0.00206530655055262,-0.00766265855781466,0,15.1806937510872,15.1806937510872,,,23.2400000095367,13,0.456829481866629,0.947776725696887
2018-07-19T08:07:06Z,1531987626,10D,42.0424294,42.2458199,15.48,0,-0.3,145.8,646759.06,-281279.25,139.6,Air+FixedWing,Blue,Enemies,J-11A,Blue J-11A #003,cn,<51>Frostie,0.03125,0,9.1816117406208e-05,15.4799995422363,2.47999954223633,0.03125,0,NaN,NaN,0,0.00989117029631303,NaN,0.999998877981212,-0.00206530655055262,-0.00280927030690282,4.8828125e-05,15.1806937510872,15.1807425792122,,,24.2400000095367,13,0.456829481866629,0.947776725696887
2018-07-19T08:07:07Z,1531987627,10D,42.0424294,42.2458199,15.48,0,-0.3,145.8,646759.06,-281279.25,139.6,Air+FixedWing,Blue,Enemies,J-11A,Blue J-11A #003,cn,<51>Frostie,0,0,0,15.4799995422363,2.47999954223633,0,0,NaN,NaN,0,0.00989117029631303,NaN,0.999986171723233,0,-0.00523596443235874,0,15.1806937510872,15.1806937510872,,,25.2400000095367,13,0.456829481866629,0.947776725696887
2018-07-19T08:07:08Z,1531987628,10D,42.0424294,42.2458199,15.48,0,-0.3,145.8,646759.06,-281279.25,139.6,Air+FixedWing,Blue,Enemies,J-11A,Blue J-11A #003,cn,<51>Frostie,0,0,0,15.4799995422363,2.47999954223633,0,0,NaN,NaN,0,0.00989117029631303,NaN,0.999998877981212,-0.00206530655055262,-0.00280927030690282,0,15.1806937510872,15.1806937510872,,,26.2400000095367,13,0.456829481866629,0.947776725696887
2018-07-19T08:07:09Z,1531987629,10D,42.0424294,42.2458199,15.48,0,-0.3,145.8,646759.06,-281279.28,139.6,Air+FixedWing,Blue,Enemies,J-11A,Blue J-11A #003,cn,<51>Frostie,0.03125,0,9.1816117406208e-05,15.4799995422363,2.47999954223633,0.03125,0,NaN,NaN,0,0.00989117029631303,NaN,0.999973465465254,0.00206530655055262,-0.00766265855781466,4.8828125e-05,15.1806937510872,15.1807425792122,,,27.2400000095367,13,0.456829481866629,0.947776725696887
2018-07-19T08:07:10Z,1531987630,10D,42.0424294,42.2458199,15.48,0,-0.3,145.8,646759.06,-281279.28,139.6,Air+FixedWing,Blue,Enemies,J-11A,Blue J-11A #003,cn,<51>Frostie,0,0,0,15.4799995422363,2.47999954223633,0,0,NaN,NaN,0,0.00989117029631303,NaN,0.999973465465254,0.00206530655055262,-0.00766265855781466,0,15.1806937510872,15.1806937510872,,,28.2400000095367,13,0.456829481866629,0.947776725696887
2018-07-19T08:07:11Z,1531987631,10D,42.0424294,42.2458199,15.48,0,-0.3,145.8,646759.06,-281279.25,139.6,Air+FixedWing,Blue,Enemies,J-11A,Blue J-11A #003,cn,<51>Frostie,0.03125,0,9.1816117406208e-05,15.4799995422363,2.47999954223633,0.03125,0,NaN,NaN,0,0.00989117029631303,NaN,0.999998877981212,-0.00206530655055262,-0.00280927030690282,4.8828125e-05,15.1806937510872,15.1807425792122,,,29.2400000095367,13,0.456829481866629,0.947776725696887
2018-07-19T08:07:12Z,1531987632,10D,42.0424294,42.2458199,15.48,0,-0.3,145.8,646759.06,-281279.25,139.6,Air+FixedWing,Blue,Enemies,J-11A,Blue J-11A #003,cn,<51>Frostie,0,0,0,15.4799995422363,2.47999954223633,0,0,NaN,NaN,0,0.00989117029631303,NaN,0.999998877981212,-0.00206530655055262,-0.00280927030690282,0,15.1806937510872,15.1806937510872,,,30.2400000095367,13,0.456829481866629,0.947776725696887
2018-07-19T08:07:13Z,1531987633,10D,42.0424294,42.2458199,15.48,0,-0.3,145.8,646759.06,-281279.28,139.6,Air+FixedWing,Blue,Enemies,J-11A,Blue J-11A #003,cn,<51>Frostie,0.03125,0,9.1816117406208e-05,15.4799995422363,2.47999954223633,0.03125,0,NaN,NaN,0,0.00989117029631303,NaN,0.999960759207275,0.00413061310110525,-0.0100893526832706,4.8828125e-05,15.1806937510872,15.1807425792122,,,31.2400000095367,13,0.456829481866629,0.947776725696887
2018-07-19T08:07:14Z,1531987634,10D,42.0424294,42.2458199,15.48,0,-0.3,145.8,646759.06,-281279.25,139.6,Air+FixedWing,Blue,Enemies,J-11A,Blue J-11A #003,cn,<51>Frostie,0.03125,0,9.1816117406208e-05,15.4799995422363,2.47999954223633,0.03125,0,NaN,NaN,0,0.00989117029631303,NaN,1.00001158423919,-0.00413061310110525,-0.000382576181446908,4.8828125e-05,15.1806937510872,15.1807425792122,,,32.2400000095367,13,0.456829481866629,0.947776725696887
2018-07-19T08:07:15Z,1531987635,10D,42.0424294,42.2458199,15.48,0,-0.3,145.8,646759.06,-281279.28,139.6,Air+FixedWing,Blue,Enemies,J-11A,Blue J-11A #003,cn,<51>Frostie,0.03125,0,9.1816117406208e-05,15.4799995422363,2.47999954223633,0.03125,0,NaN,NaN,0,0.00989117029631303,NaN,0.999973465465254,0.00206530655055262,-0.00766265855781466,4.8828125e-05,15.1806937510872,15.1807425792122,,,33.2400000095367,13,0.456829481866629,0.947776725696887
2018-07-19T08:07:16Z,1531987636,10D,42.0424294,42.2458199,15.48,0,-0.3,145.8,646759.06,-281279.28,139.6,Air+FixedWing,Blue,Enemies,J-11A,Blue J-11A #003,cn,<51>Frostie,0,0,0,15.4799995422363,2.47999954223633,0,0,NaN,NaN,0,0.00989117029631303,NaN,0.999973465465254,0.00206530655055262,-0.00766265855781466,0,15.1806937510872,15.1806937510872,,,34.2400000095367,13,0.456829481866629,0.947776725696887
2018-07-19T08:07:17Z,1531987637,10D,42.0424294,42.2458199,15.48,0,-0.3,145.8,646759.06,-281279.25,139.6,Air+FixedWing,Blue,Enemies,J-11A,Blue J-11A #003,cn,<51>Frostie,0.03125,0,9.1816117406208e-05,15.4799995422363,2.47999954223633,0.03125,0,NaN,NaN,0,0.00989117029631303,NaN,0.999998877981212,-0.00206530655055262,-0.00280927030690282,4.8828125e-05,15.1806937510872,15.1807425792122,,,35.2400000095367,13,0.456829481866629,0.947776725696887
2018-07-19T08:07:18Z,1531987638,10D,42.0424294,42.2458199,15.48,0,-0.3,145.8,646759.06,-281279.25,139.6,Air+FixedWing,Blue,Enemies,J-11A,Blue J-11A #003,cn,<51>Frostie,0,0,0,15.4799995422363,2.47999954223633,0,0,NaN,NaN,0,0.00989117029631303,NaN,0.999998877981212,-0.00206530655055262,-0.00280927030690282,0,15.1806937510872,15.1806937510872,,,36.2400000095367,13,0.456829481866629,0.947776725696887
2018-07-19T08:07:19Z,1531987639,10D,42.0424294,42.2458199,15.48,0,-0.3,145.8,646759.06,-281279.28,139.6,Air+FixedWing,Blue,Enemies,J-11A,Blue J-11A #003,cn,<51>Frostie,0.03125,0,9.1816117406208e-05,15.4799995422363,2.47999954223633,0.03125,0,NaN,NaN,0,0.00989117029631303,NaN,0.999960759207275,0.00413061310110525,-0.0100893526832706,4.8828125e-05,15.1806937510872,15.1807425792122,,,37.2400000095367,13,0.456829481866629,0.947776725696887
2018-07-19T08:07:20Z,1531987640,10D,42.0424294,42.2458199,15.48,0,-0.3,145.8,646759.06,-281279.25,139.6,Air+FixedWing,Blue,Enemies,J-11A,Blue J-11A #003,cn,<51>Frostie,0.03125,0,9.1816117406208e-05,15.4799995422363,2.47999954223633,0.03125,0,NaN,NaN,0,0.00989117029631303,NaN,0.999998877981212,-0.00206530655055262,-0.00280927030690282,4.8828125e-05,15.1806937510872,15.1807425792122,,,38.2400000095367,13,0.456829481866629,0.947776725696887
2018-07-19T08:07:21Z,1531987641,10D,42.0424294,42.2458199,15.48,0,-0.3,145.8,646759.06,-281279.25,139.6,Air+FixedWing,Blue,Enemies,J-11A,Blue J-11A #003,cn,<51>Frostie,0,0,0,15.4799995422363,2.47999954223633,0,0,NaN,NaN,0,0.00989117029631303,NaN,0.999998877981212,-0.00206530655055262,-0.00280927030690282,0,15.1806937510872,15.1806937510872,,,39.2400000095367,13,0.456829481866629,0.947776725696887
2018-07-19T08:07:22Z,1531987642,10D,42.0424294,42.2458199,15.48,0,-0.3,145.8,646759.06,-281279.28,139.6,Air+FixedWing,Blue,Enemies,J-11A,Blue J-11A #003,cn,<51>Frostie,0.03125,0,9.1816117406208e-05,15.4799995422363,2.47999954223633,0.03125,0,NaN,NaN,0,0.00989117029631303,NaN,0.999973465465254,0.00206530655055262,-0.00766265855781466,4.8828125e-05,15.1806937510872,15.1807425792122,,,40.2400000095367,13,0.456829481866629,0.947776725696887
2018-07-19T08:07:23Z,1531987643,10D,42.0424294,42.2458199,15.48,0,-0.3,145.8,646759.06,-281279.28,139.6,Air+FixedWing,Blue,Enemies,J-11A,Blue J-11A #003,cn,<51>Frostie,0,0,0,15.4799995422363,2.47999954223633,0,0,NaN,NaN,0,0.00989117029631303,NaN,0.999986171723233,0,-0.00523596443235874,0,15.1806937510872,15.1806937510872,,,41.2400000095367,13,0.456829481866629,0.947776725696887
2018-07-19T08:07:24Z,1531987644,10D,42.0424294,42.2458199,15.48,0,-0.3,145.8,646759.06,-281279.28,139.6,Air+FixedWing,Blue,Enemies,J-11A,Blue J-11A #003,cn,<51>Frostie,0,0,0,15.4799995422363,2.47999954223633,0,0,NaN,NaN,0,0.00989117029631303,NaN,0.999973465465254,0.00206530655055262,-0.00766265855781466,0,15.1806937510872,15.1806937510872,,,42.2400000095367,13,0.456829481866629,0.947776725696887
2018-07-19T08:07:25Z,1531987645,10D,42.0424294,42.2458199,15.48,0,-0.3,145.8,646759.06,-281279.25,139.6,Air+FixedWing,Blue,Enemies,J-11A,Blue J-11A #003,cn,<51>Frostie,0.03125,0,9.1816117406208e-05,15.4799995422363,2.47999954223633,0.03125,0,NaN,NaN,0,0.00989117029631303,NaN,0.999998877981212,-0.00206530655055262,-0.00280927030690282,4.8828125e-05,15.1806937510872,15.1807425792122,,,43.2400000095367,13,0.456829481866629,0.947776725696887
2018-07-19T08:07:26Z,1531987646,10D,42.0424294,42.2458199,15.48,0,-0.3,145.8,646759.06,-281279.25,139.6,Air+FixedWing,Blue,Enemies,J-11A,Blue J-11A #003,cn,<51>Frostie,0,0,0,15.4799995422363,2.47999954223633,0,0,NaN,NaN,0,0.00989117029631303,NaN,0.999986171723233,0,-0.00523596443235874,0,15.1806937510872,15.1806937510872,,,44.2400000095367,13,0.456829481866629,0.947776725696887
2018-07-19T08:07:27Z,1531987647,10D,42.0424294,42.2458199,15.48,0,-0.3,145.8,646759.06,-281279.25,139.6,Air+FixedWing,Blue,Enemies,J-11A,Blue J-11A #003,cn,<51>Frostie,0,0,0,15.4799995422363,2.47999954223633,0,0,NaN,NaN,0,0.00989117029631303,NaN,0.999998877981212,-0.00206530655055262,-0.00280927030690282,0,15.1806937510872,15.1806937510872,,,45.2400000095367,13,0.456829481866629,0.947776725696887
2018-07-19T08:07:28Z,1531987648,10D,42.0424294,42.2458199,15.48,0,-0.3,145.8,646759.06,-281279.28,139.6,Air+FixedWing,Blue,Enemies,J-11A,Blue J-11A #003,cn,<51>Frostie,0.03125,0,9.1816117406208e-05,15.4799995422363,2.47999954223633,0.03125,0,NaN,NaN,0,0.00989117029631303,NaN,0.999973465465254,0.00206530655055262,-0.00766265855781466,4.8828125e-05,15.1806937510872,15.1807425792122,,,46.2400000095367,13,0.456829481866629,0.947776725696887
2018-07-19T08:07:29Z,1531987649,10D,42.0424294,42.2458199,15.48,0,-0.3,145.8,646759.06,-281279.28,139.6,Air+FixedWing,Blue,Enemies,J-11A,Blue J-11A #003,cn,<51>Frostie,0,0,0,15.4799995422363,2.47999954223633,0,0,NaN,NaN,0,0.00989117029631303,NaN,0.999973465465254,0.00206530655055262,-0.00766265855781466,0,15.1806937510872,15.1806937510872,,,47.2400000095367,13,0.456829481866629,0.947776725696887
2018-07-19T08:07:30Z,1531987650,10D,42.0424294,42.2458199,15.48,0,-0.3,145.8,646759.06,-281279.25,139.6,Air+FixedWing,Blue,Enemies,J-11A,Blue J-11A #003,cn,<51>Frostie,0.03125,0,9.1816117406208e-05,15.4799995422363,2.47999954223633,0.03125,0,NaN,NaN,0,0.00989117029631303,NaN,0.999998877981212,-0.00206530655055262,-0.00280927030690282,4.8828125e-05,15.1806937510872,15.1807425792122,,,48.2400000095367,13,0.456829481866629,0.947776725696887
2018-07-19T08:07:31Z,1531987651,10D,42.0424294,42.2458199,15.48,0,-0.3,145.8,646759.06,-281279.25,139.6,Air+FixedWing,Blue,Enemies,J-11A,Blue J-11A #003,cn,<51>Frostie,0,0,0,15.4799995422363,2.47999954223633,0,0,NaN,NaN,0,0.00989117029631303,NaN,0.999998877981212,-0.00206530655055262,-0.00280927030690282,0,15.1806937510872,15.1806937510872,,,49.2400000095367,13,0.456829481866629,0.947776725696887
2018-07-19T08:07:32Z,1531987652,10D,42.0424294,42.2458199,15.48,0,-0.3,145.8,646759.06,-281279.28,139.6,Air+FixedWing,Blue,Enemies,J-11A,Blue J-11A #003,cn,<51>Frostie,0.03125,0,9.1816117406208e-05,15.4799995422363,2.47999954223633,0.03125,0,NaN,NaN,0,0.00989117029631303,NaN,0.999973465465254,0.00206530655055262,-0.00766265855781466,4.8828125e-05,15.1806937510872,15.1807425792122,,,50.2400000095367,13,0.456829481866629,0.947776725696887
2018-07-19T08:07:33Z,1531987653,10D,42.0424294,42.2458199,15.48,0,-0.3,145.8,646759.06,-281279.28,139.6,Air+FixedWing,Blue,Enemies,J-11A,Blue J-11A #003,cn,<51>Frostie,0,0,0,15.4799995422363,2.47999954223633,0,0,NaN,NaN,0,0.00989117029631303,NaN,0.999973465465254,0.00206530655055262,-0.00766265855781466,0,15.1806937510872,15.1806937510872,,,51.2400000095367,13,0.456829481866629,0.947776725696887
2018-07-19T08:07:34Z,1531987654,10D,42.0424294,42.2458199,15.48,0,-0.3,145.8,646759.06,-281279.25,139.6,Air+FixedWing,Blue,Enemies,J-11A,Blue J-11A #003,cn,<51>Frostie,0.03125,0,9.1816117406208e-05,15.4799995422363,2.47999954223633,0.03125,0,NaN,NaN,0,0.00989117029631303,NaN,1.00001158423919,-0.00413061310110525,-0.000382576181446908,4.8828125e-05,15.1806937510872,15.1807425792122,,,52.2400000095367,13,0.456829481866629,0.947776725696887
2018-07-19T08:07:35Z,1531987655,10D,42.0424294,42.2458199,15.48,0,-0.3,145.8,646759.06,-281279.28,139.6,Air+FixedWing,Blue,Enemies,J-11A,Blue J-11A #003,cn,<51>Frostie,0.03125,0,9.1816117406208e-05,15.4799995422363,2.47999954223633,0.03125,0,NaN,NaN,0,0.00989117029631303,NaN,0.999973465465254,0.00206530655055262,-0.00766265855781466,4.8828125e-05,15.1806937510872,15.1807425792122,,,53.2400000095367,13,0.456829481866629,0.947776725696887
2018-07-19T08:07:36Z,1531987656,10D,42.0424294,42.2458199,15.48,0,-0.3,145.8,646759.06,-281279.28,139.6,Air+FixedWing,Blue,Enemies,J-11A,Blue J-11A #003,cn,<51>Frostie,0,0,0,15.4799995422363,2.47999954223633,0,0,NaN,NaN,0,0.00989117029631303,NaN,0.999973465465254,0.00206530655055262,-0.00766265855781466,0,15.1806937510872,15.1806937510872,,,54.2400000095367,13,0.456829481866629,0.947776725696887
2018-07-19T08:07:37Z,1531987657,10D,42.0424294,42.2458199,15.48,0,-0.3,145.8,646759.06,-281279.25,139.6,Air+FixedWing,Blue,Enemies,J-11A,Blue J-11A #003,cn,<51>Frostie,0.03125,0,9.1816117406208e-05,15.4799995422363,2.47999954223633,0.03125,0,NaN,NaN,0,0.00989117029631303,NaN,1.00001158423919,-0.00413061310110525,-0.000382576181446908,4.8828125e-05,15.1806937510872,15.1807425792122,,,55.2400000095367,13,0.456829481866629,0.947776725696887
2018-07-19T08:07:38Z,1531987658,10D,42.0424294,42.2458199,15.48,0,-0.3,145.8,646759.06,-281279.28,139.6,Air+FixedWing,Blue,Enemies,J-11A,Blue J-11A #003,cn,<51>Frostie,0.03125,0,9.1816117406208e-05,15.4799995422363,2.47999954223633,0.03125,0,NaN,NaN,0,0.00989117029631303,NaN,0.999960759207275,0.00413061310110525,-0.0100893526832706,4.8828125e-05,15.1806937510872,15.1807425792122,,,56.2400000095367,13,0.456829481866629,0.947776725696887
2018-07-19T08:07:39Z,1531987659,10D,42.0424294,42.2458199,15.48,0,-0.3,145.8,646759.06,-281279.25,139.6,Air+FixedWing,Blue,Enemies,J-11A,Blue J-11A #003,cn,<51>Frostie,0.03125,0,9.1816117406208e-05,15.4799995422363,2.47999954223633,0.03125,0,NaN,NaN,0,0.00989117029631303,NaN,0.999998877981212,-0.00206530655055262,-0.00280927030690282,4.8828125e-05,15.1806937510872,15.1807425792122,,,57.2400000095367,13,0.456829481866629,0.947776725696887
2018-07-19T08:07:40Z,1531987660,10D,42.0424294,42.2458199,15.48,0,-0.3,145.8,646759.06,-281279.25,139.6,Air+FixedWing,Blue,Enemies,J-11A,Blue J-11A #003,cn,<51>Frostie,0,0,0,15.4799995422363,2.47999954223633,0,0,NaN,NaN,0,0.00989117029631303,NaN,0.999986171723233,0,-0.00523596443235874,0,15.1806937510872,15.1806937510872,,,58.2400000095367,13,0.456829481866629,0.947776725696887
2018-07-19T08:07:41Z,1531987661,10D,42.0424294,42.2458199,15.48,0,-0.3,145.8,646759.06,-281279.25,139.6,Air+FixedWing,Blue,Enemies,J-11A,Blue J-11A #003,cn,<51>Frostie,0,0,0,15.4799995422363,2.47999954223633,0,0,NaN,NaN,0,0.00989117029631303,NaN,0.999998877981212,-0.00206530655055262,-0.00280927030690282,0,15.1806937510872,15.1806937510872,,,59.2400000095367,13,0.456829481866629,0.947776725696887
2018-07-19T08:07:42Z,1531987662,10D,42.0424294,42.2458199,15.48,0,-0.3,145.8,646759.06,-281279.28,139.6,Air+FixedWing,Blue,Enemies,J-11A,Blue J-11A #003,cn,<51>Frostie,0.03125,0,9.1816117406208e-05,15.4799995422363,2.47999954223633,0.03125,0,NaN,NaN,0,0.00989117029631303,NaN,0.999973465465254,0.00206530655055262,-0.00766265855781466,4.8828125e-05,15.1806937510872,15.1807425792122,,,60.2400000095367,13,0.456829481866629,0.947776725696887
2018-07-19T08:07:43Z,1531987663,10D,42.0424294,42.2458199,15.48,0,-0.3,145.8,646759.06,-281279.28,139.6,Air+FixedWing,Blue,Enemies,J-11A,Blue J-11A #003,cn,<51>Frostie,0,0,0,15.4799995422363,2.47999954223633,0,0,NaN,NaN,0,0.00989117029631303,NaN,0.999986171723233,0,-0.00523596443235874,0,15.1806937510872,15.1806937510872,,,61.2400000095367,13,0.456829481866629,0.947776725696887
2018-07-19T08:07:44Z,1531987664,10D,42.0424294,42.2458199,15.48,0,-0.3,145.8,646759.06,-281279.28,139.6,Air+FixedWing,Blue,Enemies,J-11A,Blue J-11A #003,cn,<51>Frostie,0,0,0,15.4799995422363,2.47999954223633,0,0,NaN,NaN,0,0.00989117029631303,NaN,0.999973465465254,0.00206530655055262,-0.00766265855781466,0,15.1806937510872,15.1806937510872,,,62.2400000095367,13,0.456829481866629,0.947776725696887
2018-07-19T08:07:45Z,1531987665,10D,42.0424294,42.2458199,15.48,0,-0.3,145.8,646759.06,-281279.25,139.6,Air+FixedWing,Blue,Enemies,J-11A,Blue J-11A #003,cn,<51>Frostie,0.03125,0,9.1816117406208e-05,15.4799995422363,2.47999954223633,0.03125,0,NaN,NaN,0,0.00989117029631303,NaN,0.999998877981212,-0.00206530655055262,-0.00280927030690282,4.8828125e-05,15.1806937510872,15.1807425792122,,,63.2400000095367,13,0.456829481866629,0.947776725696887
2018-07-19T08:07:46Z,1531987666,10D,42.0424294,42.2458199,15.48,0,-0.3,145.8,646759.06,-281279.25,139.6,Air+FixedWing,Blue,Enemies,J-11A,Blue J-11A #003,cn,<51>Frostie,0,0,0,15.4799995422363,2.47999954223633,0,0,NaN,NaN,0,0.00989117029631303,NaN,0.999986171723233,0,-0.00523596443235874,0,15.1806937510872,15.1806937510872,,,64.2400000095367,13,0.456829481866629,0.947776725696887
2018-07-19T08:07:47Z,1531987667,10D,42.0424294,42.2458199,15.48,0,-0.3,145.8,646759.06,-281279.25,139.6,Air+FixedWing,Blue,Enemies,J-11A,Blue J-11A #003,cn,<51>Frostie,0,0,0,15.4799995422363,2.47999954223633,0,0,NaN,NaN,0,0.00989117029631303,NaN,0.999998877981212,-0.00206530655055262,-0.00280927030690282,0,15.1806937510872,15.1806937510872,,,65.2400000095367,13,0.456829481866629,0.947776725696887
2018-07-19T08:07:48Z,1531987668,10D,42.0424294,42.2458199,15.48,0,-0.3,145.8,646759.06,-281279.28,139.6,Air+FixedWing,Blue,Enemies,J-11A,Blue J-11A #003,cn,<51>Frostie,0.03125,0,9.1816117406208e-05,15.4799995422363,2.47999954223633,0.03125,0,NaN,NaN,0,0.00989117029631303,NaN,0.999960759207275,0.00413061310110525,-0.0100893526832706,4.8828125e-05,15.1806937510872,15.1807425792122,,,66.2400000095367,13,0.456829481866629,0.947776725696887
2018-07-19T08:07:49Z,1531987669,10D,42.0424294,42.2458199,15.48,0,-0.3,145.8,646759.06,-281279.25,139.6,Air+FixedWing,Blue,Enemies,J-11A,Blue J-11A #003,cn,<51>Frostie,0.03125,0,9.1816117406208e-05,15.4799995422363,2.47999954223633,0.03125,0,NaN,NaN,0,0.00989117029631303,NaN,0.999998877981212,-0.00206530655055262,-0.00280927030690282,4.8828125e-05,15.1806937510872,15.1807425792122,,,67.2400000095367,13,0.456829481866629,0.947776725696887
2018-07-19T08:07:50Z,1531987670,10D,42.0424294,42.2458199,15.48,0,-0.3,145.8,646759.06,-281279.25,139.6,Air+FixedWing,Blue,Enemies,J-11A,Blue J-11A #003,cn,<51>Frostie,0,0,0,15.4799995422363,2.47999954223633,0,0,NaN,NaN,0,0.00989117029631303,NaN,0.999986171723233,0,-0.00523596443235874,0,15.1806937510872,15.1806937510872,,,68.2400000095367,13,0.456829481866629,0.947776725696887
2018-07-19T08:07:51Z,1531987671,10D,42.0424294,42.2458199,15.48,0,-0.3,145.8,646759.06,-281279.25,139.6,Air+FixedWing,Blue,Enemies,J-11A,Blue J-11A #003,cn,<51>Frostie,0,0,0,15.4799995422363,2.47999954223633,0,0,NaN,NaN,0,0.00989117029631303,NaN,0.999998877981212,-0.00206530655055262,-0.00280927030690282,0,15.1806937510872,15.1806937510872,,,69.2400000095367,13,0.456829481866629,0.947776725696887
2018-07-19T08:07:52Z,1531987672,10D,42.0424294,42.2458199,15.48,0,-0.3,145.8,646759.06,-281279.28,139.6,Air+FixedWing,Blue,Enemies,J-11A,Blue J-11A #003,cn,<51>Frostie,0.03125,0,9.1816117406208e-05,15.4799995422363,2.47999954223633,0.03125,0,NaN,NaN,0,0.00989117029631303,NaN,0.999973465465254,0.00206530655055262,-0.00766265855781466,4.8828125e-05,15.1806937510872,15.1807425792122,,,70.2400000095367,13,0.456829481866629,0.947776725696887
2018-07-19T08:07:53Z,1531987673,10D,42.0424294,42.2458199,15.48,0,-0.3,145.8,646759.06,-281279.28,139.6,Air+FixedWing,Blue,Enemies,J-11A,Blue J-11A #003,cn,<51>Frostie,0,0,0,15.4799995422363,2.47999954223633,0,0,NaN,NaN,0,0.00989117029631303,NaN,0.999981343747294,0,-0.00609274860471487,0,15.1806937510872,15.1806937510872,,,71.2400000095367,13,0.456829481866629,0.947776725696887
2018-07-19T08:07:54Z,1531987674,10D,42.0424294,42.2458199,15.48,0,-0.3,145.8,646759.06,-281279.28,139.6,Air+FixedWing,Blue,Enemies,J-11A,Blue J-11A #003,cn,<51>Frostie,0,0,0,15.4799995422363,2.47999954223633,0,0,NaN,NaN,0,0.00989117029631303,NaN,0.999973465465254,0.00206530655055262,-0.00766265855781466,0,15.1806937510872,15.1806937510872,,,72.2400000095367,13,0.456829481866629,0.947776725696887
2018-07-19T08:07:55Z,1531987675,10D,42.0424294,42.2458199,15.48,0,-0.3,145.8,646759.06,-281279.25,139.6,Air+FixedWing,Blue,Enemies,J-11A,Blue J-11A #003,cn,<51>Frostie,0.03125,0,9.1816117406208e-05,15.4799995422363,2.47999954223633,0.03125,0,NaN,NaN,0,0.00989117029631303,NaN,1.00001158423919,-0.00413061310110525,-0.000382576181446908,4.8828125e-05,15.1806937510872,15.1807425792122,,,73.2400000095367,13,0.456829481866629,0.947776725696887
2018-07-19T08:07:56Z,1531987676,10D,42.0424294,42.2458199,15.48,0,-0.3,145.8,646759.06,-281279.28,139.6,Air+FixedWing,Blue,Enemies,J-11A,Blue J-11A #003,cn,<51>Frostie,0.03125,0,9.1816117406208e-05,15.4799995422363,2.47999954223633,0.03125,0,NaN,NaN,0,0.00989117029631303,NaN,0.999960759207275,0.00413061310110525,-0.0100893526832706,4.8828125e-05,15.1806937510872,15.1807425792122,,,74.2400000095367,13,0.456829481866629,0.947776725696887
2018-07-19T08:07:57Z,1531987677,10D,42.0424294,42.2458199,15.48,0,-0.3,145.8,646759.06,-281279.25,139.6,Air+FixedWing,Blue,Enemies,J-11A,Blue J-11A #003,cn,<51>Frostie,0.03125,0,9.1816117406208e-05,15.4799995422363,2.47999954223633,0.03125,0,NaN,NaN,0,0.00989117029631303,NaN,1.00001158423919,-0.00413061310110525,-0.000382576181446908,4.8828125e-05,15.1806937510872,15.1807425792122,,,75.2400000095367,13,0.456829481866629,0.947776725696887
2018-07-19T08:07:58Z,1531987678,10D,42.0424294,42.2458199,15.48,0,-0.3,145.8,646759.06,-281279.28,139.6,Air+FixedWing,Blue,Enemies,J-11A,Blue J-11A #003,cn,<51>Frostie,0.03125,0,9.1816117406208e-05,15.4799995422363,2.47999954223633,0.03125,0,NaN,NaN,0,0.00989117029631303,NaN,0.999960759207275,0.00413061310110525,-0.0100893526832706,4.8828125e-05,15.1806937510872,15.1807425792122,,,76.2400000095367,13,0.456829481866629,0.947776725696887
2018-07-19T08:07:59Z,1531987679,10D,42.0424294,42.2458199,15.48,0,-0.3,145.8,646759.06,-281279.25,139.6,Air+FixedWing,Blue,Enemies,J-11A,Blue J-11A #003,cn,<51>Frostie,0.03125,0,9.1816117406208e-05,15.4799995422363,2.47999954223633,0.03125,0,NaN,NaN,0,0.00989117029631303,NaN,1.00001158423919,-0.00413061310110525,-0.000382576181446908,4.8828125e-05,15.1806937510872,15.1807425792122,,,77.2400000095367,13,0.456829481866629,0.947776725696887
2018-07-19T08:08:00Z,1531987680,10D,42.0424294,42.2458199,15.48,0,-0.3,145.8,646759.06,-281279.28,139.6,Air+FixedWing,Blue,Enemies,J-11A,Blue J-11A #003,cn,<51>Frostie,0.03125,0,9.1816117406208e-05,15.4799995422363,2.47999954223633,0.03125,0,NaN,NaN,0,0.00989117029631303,NaN,0.999973465465254,0.00206530655055262,-0.00766265855781466,4.8828125e-05,15.1806937510872,15.1807425792122,,,78.2400000095367,13,0.456829481866629,0.947776725696887
2018-07-19T08:08:01Z,1531987681,10D,42.0424294,42.2458199,15.48,0,-0.3,145.8,646759.06,-281279.28,139.6,Air+FixedWing,Blue,Enemies,J-11A,Blue J-11A #003,cn,<51>Frostie,0,0,0,15.4799995422363,2.47999954223633,0,0,NaN,NaN,0,0.00989117029631303,NaN,0.999973465465254,0.00206530655055262,-0.00766265855781466,0,15.1806937510872,15.1806937510872,,,79.2400000095367,13,0.456829481866629,0.947776725696887
2018-07-19T08:08:02Z,1531987682,10D,42.0424294,42.2458199,15.48,0,-0.3,145.8,646759.06,-281279.25,139.6,Air+FixedWing,Blue,Enemies,J-11A,Blue J-11A #003,cn,<51>Frostie,0.03125,0,9.1816117406208e-05,15.4799995422363,2.47999954223633,0.03125,0,NaN,NaN,0,0.00989117029631303,NaN,1.00001158423919,-0.00413061310110525,-0.000382576181446908,4.8828125e-05,15.1806937510872,15.1807425792122,,,80.2400000095367,13,0.456829481866629,0.947776725696887
2018-07-19T08:08:03Z,1531987683,10D,42.0424294,42.2458199,15.48,0,-0.3,145.8,646759.06,-281279.28,139.6,Air+FixedWing,Blue,Enemies,J-11A,Blue J-11A #003,cn,<51>Frostie,0.03125,0,9.1816117406208e-05,15.4799995422363,2.47999954223633,0.03125,0,NaN,NaN,0.00228571213357419,0.00989117029631303,NaN,0.999973424269401,0.00208525262453126,-0.00766265855781466,4.8828125e-05,15.1806937510872,15.1807425792122,,,81.2400000095367,13,0.456829481866629,0.947776725696887
2018-07-19T08:08:04Z,1531987684,10D,42.0424294,42.2458199,15.48,0.1,-0.3,145.8,646759.06,-281279.28,139.6,Air+FixedWing,Blue,Enemies,J-11A,Blue J-11A #003,cn,<51>Frostie,0,0,0,15.4799995422363,2.47999954223633,0,0,NaN,NaN,0.0571428700404208,0.00989117029631303,NaN,0.998965970090713,0.00101622612801749,-0.0052306251134756,0,15.1806937510872,15.1806937510872,,,82.2400000095367,13,0.456829481866629,0.947776725696887
2018-07-19T08:08:05Z,1531987685,10D,42.0424293,42.2458199,15.47,0.1,-0.3,145.8,646759.06,-281279.28,139.6,Air+FixedWing,Blue,Enemies,J-11A,Blue J-11A #003,cn,<51>Frostie,0.0100002288818359,0,2.9381826741432e-05,15.4699993133545,2.46999931335449,0,-0.0100002288818359,NaN,NaN,0.0834285062156711,0.0504352774299245,NaN,1.00200583025634,0.00431260170837151,-0.0076743675934694,5.00022888445528e-06,15.1708868766308,15.1708918768597,,,83.2400000095367,13,0.465070099225147,0.960734837489105
2018-07-19T08:08:06Z,1531987686,10D,42.0424293,42.2458199,15.48,0.1,-0.3,145.8,646759.06,-281279.25,139.7,Air+FixedWing,Blue,Enemies,J-11A,Blue J-11A #003,cn,<51>Frostie,0.0328110816293688,0,9.64027559394178e-05,15.4799995422363,2.47999954223633,0.03125,0.0100002288818359,NaN,NaN,0.0666626462993244,0.0504352774299245,NaN,0.998997602543985,-0.00237856129158668,-0.000370035313118426,5.38283538844553e-05,15.1806937510872,15.1807475794411,,,84.2400000095367,13,0.465070099225147,0.970735066074062
2018-07-19T08:08:07Z,1531987687,10D,42.0424293,42.2458199,15.48,0.1,-0.3,145.8,646759.06,-281279.28,139.7,Air+FixedWing,Blue,Enemies,J-11A,Blue J-11A #003,cn,<51>Frostie,0.03125,0,9.1816117406208e-05,15.4799995422363,2.47999954223633,0.03125,0,NaN,NaN,0,0.0139882274201861,NaN,0.999952036958153,0.00586739032134701,-0.0100965542327149,4.8828125e-05,15.1806937510872,15.1807425792122,,,85.2400000095367,13,0.465070099225147,0.970735066074062
2018-07-19T08:08:08Z,1531987688,10D,42.0424294,42.2458199,15.48,-0,-0.3,145.8,646759.06,-281279.25,139.7,Air+FixedWing,Blue,Enemies,J-11A,Blue J-11A #003,cn,<51>Frostie,0.03125,0,9.1816117406208e-05,15.4799995422363,2.47999954223633,0.03125,0,NaN,NaN,0.276212850035316,0.0139882274201861,NaN,0.999997288122538,-0.00272591324173346,-0.00280566953218065,4.8828125e-05,15.1806937510872,15.1807425792122,,,86.2400000095367,13,0.473310716583666,0.978975703542403
2018-07-19T08:08:09Z,1531987689,10D,42.0424293,42.2458199,15.48,0,-0.3,145.8,646759.06,-281279.25,139.7,Air+FixedWing,Blue,Enemies,J-11A,Blue J-11A #003,cn,<51>Frostie,0,0,0,15.4799995422363,2.47999954223633,0,0,NaN,NaN,0.0761858776734527,0.0139882274201861,NaN,0.999986171723233,0,-0.00523596443235874,0,15.1806937510872,15.1806937510872,,,87.2400000095367,13,0.481551333942184,0.987216341010743
2018-07-19T08:08:10Z,1531987690,10D,42.0424294,42.2458199,15.48,0,-0.3,145.8,646759.06,-281279.25,139.7,Air+FixedWing,Blue,Enemies,J-11A,Blue J-11A #003,cn,<51>Frostie,0,0,0,15.4799995422363,2.47999954223633,0,0,NaN,NaN,0,0.0139882274201861,NaN,0.999977313477012,-0.00692172455731307,-0.0069277492290111,0,15.1806937510872,15.1806937510872,,,88.2400000095367,13,0.486903488677834,0.99256850827605
2018-07-19T08:08:11Z,1531987691,10D,42.0424292,42.2458199,15.48,0.1,-0.3,145.8,646759,-281279.28,139.7,Air+FixedWing,Blue,Enemies,J-11A,Blue J-11A #003,cn,<51>Frostie,0.0698771242968684,0,0.000205307079950383,15.4799995422363,2.47999954223633,0.0698771242968684,0,NaN,NaN,0.152381013454882,0.0139882274201861,NaN,0.999984645076238,0.0151732190400257,-0.00185239483905403,0.000244140625,15.1806937510872,15.1809378917122,,,89.2400000095367,13,0.498534210144636,1.00419925777866
2018-07-19T08:08:12Z,1531987692,10D,42.0424293,42.2458199,15.48,0,-0.3,145.8,646759.06,-281279.25,139.7,Air+FixedWing,Blue,Enemies,J-11A,Blue J-11A #003,cn,<51>Frostie,0.0698771242968684,0,0.000205307079950383,15.4799995422363,2.47999954223633,0.0698771242968684,0,NaN,NaN,0,0.0139882274201861,NaN,0.999977313477012,-0.00692172455731307,-0.0069277492290111,0.000244140625,15.1806937510872,15.1809378917122,,,90.2400000095367,13,0.506751276496804,1.01241634393234
2018-07-19T08:08:13Z,1531987693,10D,42.0424293,42.2458199,15.48,0,-0.3,145.8,646759.06,-281279.25,139.7,Air+FixedWing,Blue,Enemies,J-11A,Blue J-11A #003,cn,<51>Frostie,0,0,0,15.4799995422363,2.47999954223633,0,0,NaN,NaN,0,0.0370093733476075,NaN,0.999987065792851,0,-0.00507362000644207,0,15.1806937510872,15.1806937510872,,,91.2400000095367,13,0.512052198493879,1.01771727834732
2018-07-19T08:08:14Z,1531987694,10D,42.0424294,42.2458199,15.48,0,-0.2,145.8,646759.06,-281279.25,139.7,Air+FixedWing,Blue,Enemies,J-11A,Blue J-11A #003,cn,<51>Frostie,0,0,0,15.4799995422363,2.47999954223633,0,0,NaN,NaN,0,0.0532655904281015,NaN,0.999979352572507,-0.00486065644817079,-0.00761276224926766,0,15.1806937510872,15.1806937510872,,,92.2400000095367,13,0.520050445315569,1.02571554462116
2018-07-19T08:08:15Z,1531987695,10D,42.0424292,42.2458199,15.48,0,-0.2,145.8,646759,-281279.25,139.7,Air+FixedWing,Blue,Enemies,J-11A,Blue J-11A #003,cn,<51>Frostie,0.0625,0,0.000183632234812416,15.4799995422363,2.47999954223633,0.0625,0,NaN,NaN,0,0.0197823405926261,NaN,1.00002251939299,0.00972131289634157,0.00475356932395509,0.0001953125,15.1806937510872,15.1808890635872,,,93.2400000095367,13,0.532249790394424,1.03791491939698
2018-07-19T08:08:16Z,1531987696,10D,42.0424293,42.2458199,15.48,0,-0.3,145.8,646759.06,-281279.25,139.7,Air+FixedWing,Blue,Enemies,J-11A,Blue J-11A #003,cn,<51>Frostie,0.0625,0,0.000183632234812416,15.4799995422363,2.47999954223633,0.0625,0,NaN,NaN,0,0.0197823405926261,NaN,0.999981716511206,-0.00692172455731307,-0.00626291624687218,0.0001953125,15.1806937510872,15.1808890635872,,,94.2400000095367,13,0.53645088865159,1.04211602789896
2018-07-19T08:08:17Z,1531987697,10D,42.0424293,42.2458199,15.48,0.1,-0.2,145.8,646759.06,-281279.28,139.7,Air+FixedWing,Blue,Enemies,J-11A,Blue J-11A #003,cn,<51>Frostie,0.03125,0,9.1816117406208e-05,15.4799995422363,2.47999954223633,0.03125,0,NaN,NaN,0.20000001179094,0.0197823405926261,NaN,0.998960439369436,0.00380458820279421,-0.00591740524581373,4.8828125e-05,15.1806937510872,15.1807425792122,,,95.2400000095367,13,0.53645088865159,1.04211602789896
2018-07-19T08:08:18Z,1531987698,10D,42.0424293,42.2458199,15.47,0.1,-0.2,145.8,646759.06,-281279.28,139.7,Air+FixedWing,Blue,Enemies,J-11A,Blue J-11A #003,cn,<51>Frostie,0.0100002288818359,0,2.9381826741432e-05,15.4699993133545,2.46999931335449,0,-0.0100002288818359,NaN,NaN,0,0.0197823405926261,NaN,1.000999902128,0.00380814774106217,-0.00592452435489578,5.00022888445528e-06,15.1708868766308,15.1708918768597,,,96.2400000095367,13,0.53645088865159,1.05211625648392
2018-07-19T08:08:19Z,1531987699,10D,42.0424293,42.2458199,15.47,0.1,-0.2,145.8,646759.06,-281279.25,139.7,Air+FixedWing,Blue,Enemies,J-11A,Blue J-11A #003,cn,<51>Frostie,0.03125,0,9.18161070630596e-05,15.4699993133545,2.46999931335449,0.03125,0,NaN,NaN,0.0769352508110236,0.0197823405926261,NaN,1.00000368944566,-0.00114807340171468,-0.00106033864936539,4.8828125e-05,15.1708868766308,15.1709357047558,,,97.2400000095367,13,0.53645088865159,1.05211625648392
2018-07-19T08:08:20Z,1531987700,10D,42.0424293,42.2458199,15.47,0,-0.2,145.8,646759.06,-281279.25,139.7,Air+FixedWing,Blue,Enemies,J-11A,Blue J-11A #003,cn,<51>Frostie,0,0,0,15.4699993133545,2.46999931335449,0,0,NaN,NaN,0.0277032472735717,0.0197823405926261,NaN,0.999993741512668,0,-0.00349065172486007,0,15.1708868766308,15.1708868766308,,,98.2400000095367,13,0.536495022820841,1.05216039096502
2018-07-19T08:08:21Z,1531987701,10D,42.0424293,42.2458199,15.47,0,-0.2,145.8,646759.06,-281279.25,139.7,Air+FixedWing,Blue,Enemies,J-11A,Blue J-11A #003,cn,<51>Frostie,0,0,0,15.4699993133545,2.46999931335449,0,0,NaN,NaN,0,0.0197823405926261,NaN,0.999993741512668,0,-0.00349065172486007,0,15.1708868766308,15.1708868766308,,,99.2400000095367,13,0.536632941116742,1.05229830926092
2018-07-19T08:08:22Z,1531987702,10D,42.0424293,42.2458199,15.47,0,-0.2,145.8,646759.06,-281279.25,139.7,Air+FixedWing,Blue,Enemies,J-11A,Blue J-11A #003,cn,<51>Frostie,0,0,0,15.4699993133545,2.46999931335449,0,0,NaN,NaN,0,0.0197823405926261,NaN,0.999993741512668,0,-0.00349065172486007,0,15.1708868766308,15.1708868766308,,,100.240000009537,13,0.536770860036332,1.05243622883817
2018-07-19T08:08:23Z,1531987703,10D,42.0424293,42.2458199,15.47,0,-0.2,145.8,646759.06,-281279.25,139.7,Air+FixedWing,Blue,Enemies,J-11A,Blue J-11A #003,cn,<51>Frostie,0,0,0,15.4699993133545,2.46999931335449,0,0,NaN,NaN,0,0.0197823405926261,NaN,0.999993741512668,0,-0.00349065172486007,0,15.1708868766308,15.1708868766308,,,101.240000009537,13,0.536908777986409,1.05257414678825
2018-07-19T08:08:24Z,1531987704,10D,42.0424293,42.2458199,15.47,0,-0.2,145.8,646759.06,-281279.25,139.7,Air+FixedWing,Blue,Enemies,J-11A,Blue J-11A #003,cn,<51>Frostie,0,0,0,15.4699993133545,2.46999931335449,0,0,NaN,NaN,0,0.0197823405926261,NaN,0.999993741512668,0,-0.00349065172486007,0,15.1708868766308,15.1708868766308,,,102.240000009537,13,0.537046695970466,1.05271206542997
2018-07-19T08:08:25Z,1531987705,10D,42.0424293,42.2458199,15.47,0,-0.2,145.8,646759.06,-281279.25,139.7,Air+FixedWing,Blue,Enemies,J-11A,Blue J-11A #003,cn,<51>Frostie,0,0,0,15.4699993133545,2.46999931335449,0,0,NaN,NaN,0,0.0197823405926261,NaN,0.999993741512668,0,-0.00349065172486007,0,15.1708868766308,15.1708868766308,,,103.240000009537,13,0.537184614266367,1.05284998372588
2018-07-19T08:08:26Z,1531987706,10D,42.0424293,42.2458199,15.47,0,-0.2,145.8,646759.06,-281279.25,139.7,Air+FixedWing,Blue,Enemies,J-11A,Blue J-11A #003,cn,<51>Frostie,0,0,0,15.4699993133545,2.46999931335449,0,0,NaN,NaN,0,0.0197823405926261,NaN,0.999993741512668,0,-0.00349065172486007,0,15.1708868766308,15.1708868766308,,,104.240000009537,13,0.5373225319046,1.05298790170993
2018-07-19T08:08:27Z,1531987707,10D,42.0424293,42.2458199,15.47,0,-0.2,145.8,646759.06,-281279.25,139.7,Air+FixedWing,Blue,Enemies,J-11A,Blue J-11A #003,cn,<51>Frostie,0,0,0,15.4699993133545,2.46999931335449,0,0,NaN,NaN,0,0.0197823405926261,NaN,0.999993741512668,0,-0.00349065172486007,0,15.1708868766308,15.1708868766308,,,105.240000009537,13,0.53746045082419,1.05312582094137
2018-07-19T08:08:28Z,1531987708,10D,42.0424293,42.2458199,15.47,0,-0.2,145.8,646759.06,-281279.25,139.7,Air+FixedWing,Blue,Enemies,J-11A,Blue J-11A #003,cn,<51>Frostie,0,0,0,15.4699993133545,2.46999931335449,0,0,NaN,NaN,0,0.0197823405926261,NaN,0.999993741512668,0,-0.00349065172486007,0,15.1708868766308,15.1708868766308,,,106.240000009537,13,0.53759836912009,1.05326373958309
2018-07-19T08:08:29Z,1531987709,10D,42.0424293,42.2458199,15.47,0,-0.2,145.8,646759.06,-281279.25,139.7,Air+FixedWing,Blue,Enemies,J-11A,Blue J-11A #003,cn,<51>Frostie,0,0,0,15.4699993133545,2.46999931335449,0,0,NaN,NaN,0,0.0197823405926261,NaN,0.999993741512668,0,-0.00349065172486007,0,15.1708868766308,15.1708868766308,,,107.240000009537,13,0.537736286758323,1.05340165753317
2018-07-19T08:08:30Z,1531987710,10D,42.0424293,42.2458199,15.47,0,-0.2,145.8,646759.06,-281279.25,139.7,Air+FixedWing,Blue,Enemies,J-11A,Blue J-11A #003,cn,<51>Frostie,0,0,0,15.4699993133545,2.46999931335449,0,0,NaN,NaN,0,0.0197823405926261,NaN,0.999993741512668,0,-0.00349065172486007,0,15.1708868766308,15.1708868766308,,,108.240000009537,13,0.537874205677913,1.05353957711043
2018-07-19T08:08:31Z,1531987711,10D,42.0424293,42.2458199,15.47,0,-0.2,145.8,646759.06,-281279.25,139.7,Air+FixedWing,Blue,Enemies,J-11A,Blue J-11A #003,cn,<51>Frostie,0,0,0,15.4699993133545,2.46999931335449,0,0,NaN,NaN,0,0.0197823405926261,NaN,0.999993741512668,0,-0.00349065172486007,0,15.1708868766308,15.1708868766308,,,109.240000009537,13,0.538012124319637,1.05367749609798
2018-07-19T08:08:32Z,1531987712,10D,42.0424293,42.2458199,15.47,0,-0.2,145.8,646759.06,-281279.25,139.7,Air+FixedWing,Blue,Enemies,J-11A,Blue J-11A #003,cn,<51>Frostie,0,0,0,15.4699993133545,2.46999931335449,0,0,NaN,NaN,0,0.0197823405926261,NaN,0.999993741512668,0,-0.00349065172486007,0,15.1708868766308,15.1708868766308,,,110.240000009537,13,0.538150042269715,1.05381541404805
2018-07-19T08:08:33Z,1531987713,10D,42.0424293,42.2458199,15.47,0,-0.2,145.8,646759.06,-281279.25,139.7,Air+FixedWing,Blue,Enemies,J-11A,Blue J-11A #003,cn,<51>Frostie,0,0,0,15.4699993133545,2.46999931335449,0,0,NaN,NaN,0,0.0197823405926261,NaN,0.999993741512668,0,-0.00349065172486007,0,15.1708868766308,15.1708868766308,,,111.240000009537,13,0.538287959941929,1.05395333237793
2018-07-19T08:08:34Z,1531987714,10D,42.0424293,42.2458199,15.47,0,-0.2,145.8,646759.06,-281279.25,139.7,Air+FixedWing,Blue,Enemies,J-11A,Blue J-11A #003,cn,<51>Frostie,0,0,0,15.4699993133545,2.46999931335449,0,0,NaN,NaN,0,0.0197823405926261,NaN,0.999993741512668,0,-0.00349065172486007,0,15.1708868766308,15.1708868766308,,,112.240000009537,13,0.538425879173365,1.05409125192122
2018-07-19T08:08:35Z,1531987715,10D,42.0424293,42.2458199,15.47,0,-0.2,145.8,646759.06,-281279.25,139.7,Air+FixedWing,Blue,Enemies,J-11A,Blue J-11A #003,cn,<51>Frostie,0,0,0,15.4699993133545,2.46999931335449,0,0,NaN,NaN,0,0.0197823405926261,NaN,0.999993741512668,0,-0.00349065172486007,0,15.1708868766308,15.1708868766308,,,113.240000009537,13,0.538563796811598,1.05422916990527
2018-07-19T08:08:36Z,1531987716,10D,42.0424293,42.2458199,15.47,0,-0.2,145.8,646759.06,-281279.25,139.7,Air+FixedWing,Blue,Enemies,J-11A,Blue J-11A #003,cn,<51>Frostie,0,0,0,15.4699993133545,2.46999931335449,0,0,NaN,NaN,0,0.0197823405926261,NaN,0.999993741512668,0,-0.00349065172486007,0,15.1708868766308,15.1708868766308,,,114.240000009537,13,0.538701715107498,1.05436708820117
2018-07-19T08:08:37Z,1531987717,10D,42.0424293,42.2458199,15.47,0,-0.2,145.8,646759.06,-281279.25,139.7,Air+FixedWing,Blue,Enemies,J-11A,Blue J-11A #003,cn,<51>Frostie,0,0,0,15.4699993133545,2.46999931335449,0,0,NaN,NaN,0,0.0197823405926261,NaN,0.999993741512668,0,-0.00349065172486007,0,15.1708868766308,15.1708868766308,,,115.240000009537,13,0.538839634027088,1.05450500746659
2018-07-19T08:08:38Z,1531987718,10D,42.0424293,42.2458199,15.47,0,-0.2,145.8,646759.06,-281279.25,139.7,Air+FixedWing,Blue,Enemies,J-11A,Blue J-11A #003,cn,<51>Frostie,0,0,0,15.4699993133545,2.46999931335449,0,0,NaN,NaN,0,0.0197823405926261,NaN,0.999993741512668,0,-0.00349065172486007,0,15.1708868766308,15.1708868766308,,,116.240000009537,13,0.538977551665321,1.05464292572851
2018-07-19T08:08:39Z,1531987719,10D,42.0424293,42.2458199,15.47,0,-0.2,145.8,646759.06,-281279.25,139.7,Air+FixedWing,Blue,Enemies,J-11A,Blue J-11A #003,cn,<51>Frostie,0,0,0,15.4699993133545,2.46999931335449,0,0,NaN,NaN,0,0.0197823405926261,NaN,0.999993741512668,0,-0.00349065172486007,0,15.1708868766308,15.1708868766308,,,117.240000009537,13,0.539115469961222,1.05478084437023
2018-07-19T08:08:40Z,1531987720,10D,42.0424293,42.2458199,15.47,0,-0.2,145.8,646759.06,-281279.25,139.7,Air+FixedWing,Blue,Enemies,J-11A,Blue J-11A #003,cn,<51>Frostie,0,0,0,15.4699993133545,2.46999931335449,0,0,NaN,NaN,0,0.0197823405926261,NaN,0.999993741512668,0,-0.00349065172486007,0,15.1708868766308,15.1708868766308,,,118.240000009537,13,0.539253387945279,1.05491876235429
2018-07-19T08:08:41Z,1531987721,10D,42.0424293,42.2458199,15.47,0,-0.2,145.8,646759.06,-281279.25,139.7,Air+FixedWing,Blue,Enemies,J-11A,Blue J-11A #003,cn,<51>Frostie,0,0,0,15.4699993133545,2.46999931335449,0,0,NaN,NaN,0,0.0197823405926261,NaN,0.999993741512668,0,-0.00349065172486007,0,15.1708868766308,15.1708868766308,,,119.240000009537,13,0.539391306241179,1.05505668099601
2018-07-19T08:08:42Z,1531987722,10D,42.0424293,42.2458199,15.47,0,-0.2,145.8,646759.06,-281279.25,139.7,Air+FixedWing,Blue,Enemies,J-11A,Blue J-11A #003,cn,<51>Frostie,0,0,0,15.4699993133545,2.46999931335449,0,0,NaN,NaN,0,0.0197823405926261,NaN,0.999993741512668,0,-0.00349065172486007,0,15.1708868766308,15.1708868766308,,,120.240000009537,13,0.539529225472615,1.0551946005393
2018-07-19T08:08:43Z,1531987723,10D,42.0424293,42.2458199,15.47,0,-0.2,145.8,646759.06,-281279.25,139.7,Air+FixedWing,Blue,Enemies,J-11A,Blue J-11A #003,cn,<51>Frostie,0,0,0,15.4699993133545,2.46999931335449,0,0,NaN,NaN,0,0.0197823405926261,NaN,0.999993741512668,0,-0.00349065172486007,0,15.1708868766308,15.1708868766308,,,121.240000009537,13,0.539667143144829,1.05533251886918
2018-07-19T08:08:44Z,1531987724,10D,42.0424293,42.2458199,15.47,0,-0.2,145.8,646759.06,-281279.25,139.7,Air+FixedWing,Blue,Enemies,J-11A,Blue J-11A #003,cn,<51>Frostie,0,0,0,15.4699993133545,2.46999931335449,0,0,NaN,NaN,0,0.0197823405926261,NaN,0.999993741512668,0,-0.00349065172486007,0,15.1708868766308,15.1708868766308,,,122.240000009537,13,0.539805062030445,1.05547043775479
2018-07-19T08:08:45Z,1531987725,10D,42.0424293,42.2458199,15.47,0,-0.2,145.8,646759.06,-281279.25,139.7,Air+FixedWing,Blue,Enemies,J-11A,Blue J-11A #003,cn,<51>Frostie,0,0,0,15.4699993133545,2.46999931335449,0,0,NaN,NaN,0,0.0197823405926261,NaN,0.999993741512668,0,-0.00349065172486007,0,15.1708868766308,15.1708868766308,,,123.240000009537,13,0.539942980014502,1.05560835639652
2018-07-19T08:08:46Z,1531987726,10D,42.0424293,42.2458199,15.47,0,-0.2,145.8,646759.06,-281279.25,139.7,Air+FixedWing,Blue,Enemies,J-11A,Blue J-11A #003,cn,<51>Frostie,0,0,0,15.4699993133545,2.46999931335449,0,0,NaN,NaN,0,0.0197823405926261,NaN,0.999993741512668,0,-0.00349065172486007,0,15.1708868766308,15.1708868766308,,,124.240000009537,13,0.540080898310402,1.05574627503824
2018-07-19T08:08:47Z,1531987727,10D,42.0424293,42.2458199,15.47,0,-0.2,145.8,646759.06,-281279.25,139.7,Air+FixedWing,Blue,Enemies,J-11A,Blue J-11A #003,cn,<51>Frostie,0,0,0,15.4699993133545,2.46999931335449,0,0,NaN,NaN,0,0.0197823405926261,NaN,0.999993741512668,0,-0.00349065172486007,0,15.1708868766308,15.1708868766308,,,125.240000009537,13,0.540218815636792,1.05588419267648
2018-07-19T08:08:48Z,1531987728,10D,42.0424293,42.2458199,15.47,0,-0.2,145.8,646759.06,-281279.25,139.7,Air+FixedWing,Blue,Enemies,J-11A,Blue J-11A #003,cn,<51>Frostie,0,0,0,15.4699993133545,2.46999931335449,0,0,NaN,NaN,0,0.0197823405926261,NaN,0.999993741512668,0,-0.00349065172486007,0,15.1708868766308,15.1708868766308,,,126.240000009537,13,0.540356733932692,1.0560221113182
2018-07-19T08:08:49Z,1531987729,10D,42.0424293,42.2458199,15.47,0,-0.2,145.8,646759.06,-281279.25,139.7,Air+FixedWing,Blue,Enemies,J-11A,Blue J-11A #003,cn,<51>Frostie,0,0,0,15.4699993133545,2.46999931335449,0,0,NaN,NaN,0,0.0197823405926261,NaN,0.999993741512668,0,-0.00349065172486007,0,15.1708868766308,15.1708868766308,,,127.240000009537,13,0.540494653164128,1.05616003086148
2018-07-19T08:08:50Z,1531987730,10D,42.0424294,42.2458199,15.47,0,-0.2,145.8,646759.06,-281279.25,139.7,Air+FixedWing,Blue,Enemies,J-11A,Blue J-11A #003,cn,<51>Frostie,0,0,0,15.4699993133545,2.46999931335449,0,0,NaN,NaN,0,0.0197823405926261,NaN,0.999993741512668,0,-0.00349065172486007,0,15.1708868766308,15.1708868766308,,,128.240000009537,13,0.540632570802361,1.05629794884554
2018-07-19T08:08:51Z,1531987731,10D,42.0424294,42.2458199,15.47,0,-0.2,145.8,646759.06,-281279.25,139.7,Air+FixedWing,Blue,Enemies,J-11A,Blue J-11A #003,cn,<51>Frostie,0,0,0,15.4699993133545,2.46999931335449,0,0,NaN,NaN,0,0.0197823405926261,NaN,0.999993741512668,0,-0.00349065172486007,0,15.1708868766308,15.1708868766308,,,129.240000009537,13,0.540770488786418,1.05643586714144
2018-07-19T08:08:52Z,1531987732,10D,42.0424294,42.2458199,15.47,0,-0.2,145.8,646759.06,-281279.25,139.7,Air+FixedWing,Blue,Enemies,J-11A,Blue J-11A #003,cn,<51>Frostie,0,0,0,15.4699993133545,2.46999931335449,0,0,NaN,NaN,0,0.0197823405926261,NaN,0.999993741512668,0,-0.00349065172486007,0,15.1708868766308,15.1708868766308,,,130.240000009537,13,0.540908407706008,1.05657378640685
2018-07-19T08:08:53Z,1531987733,10D,42.0424294,42.2458199,15.47,0,-0.2,145.8,646759.06,-281279.25,139.7,Air+FixedWing,Blue,Enemies,J-11A,Blue J-11A #003,cn,<51>Frostie,0,0,0,15.4699993133545,2.46999931335449,0,0,NaN,NaN,0,0.0197823405926261,NaN,0.999993741512668,0,-0.00349065172486007,0,15.1708868766308,15.1708868766308,,,131.240000009537,13,0.541046326001909,1.0567117050146
2018-07-19T08:08:54Z,1531987734,10D,42.0424294,42.2458199,15.47,0,-0.2,145.8,646759.06,-281279.25,139.7,Air+FixedWing,Blue,Enemies,J-11A,Blue J-11A #003,cn,<51>Frostie,0,0,0,15.4699993133545,2.46999931335449,0,0,NaN,NaN,0,0.0197823405926261,NaN,0.999993741512668,0,-0.00349065172486007,0,15.1708868766308,15.1708868766308,,,132.240000009537,13,0.541184244297809,1.05684962365632
2018-07-19T08:08:55Z,1531987735,10D,42.0424294,42.2458199,15.47,0,-0.2,145.8,646759.06,-281279.25,139.7,Air+FixedWing,Blue,Enemies,J-11A,Blue J-11A #003,cn,<51>Frostie,0,0,0,15.4699993133545,2.46999931335449,0,0,NaN,NaN,0,0.0197823405926261,NaN,0.999993741512668,0,-0.00349065172486007,0,15.1708868766308,15.1708868766308,,,133.240000009537,13,0.541322162593709,1.05698754195222
2018-07-19T08:08:56Z,1531987736,10D,42.0424294,42.2458199,15.47,0,-0.2,145.8,646759.06,-281279.25,139.7,Air+FixedWing,Blue,Enemies,J-11A,Blue J-11A #003,cn,<51>Frostie,0,0,0,15.4699993133545,2.46999931335449,0,0,NaN,NaN,0,0.0197823405926261,NaN,0.999993741512668,0,-0.00349065172486007,0,15.1708868766308,15.1708868766308,,,134.240000009537,13,0.541460081167478,1.05712546118366
2018-07-19T08:08:57Z,1531987737,10D,42.0424294,42.2458199,15.47,0,-0.2,145.8,646759.06,-281279.25,139.7,Air+FixedWing,Blue,Enemies,J-11A,Blue J-11A #003,cn,<51>Frostie,0,0,0,15.4699993133545,2.46999931335449,0,0,NaN,NaN,0,0.0197823405926261,NaN,0.999993741512668,0,-0.00349065172486007,0,15.1708868766308,15.1708868766308,,,135.240000009537,13,0.541597998839692,1.05726337916771
2018-07-19T08:08:58Z,1531987738,10D,42.0424294,42.2458199,15.47,0,-0.2,145.8,646759.06,-281279.25,139.7,Air+FixedWing,Blue,Enemies,J-11A,Blue J-11A #003,cn,<51>Frostie,0,0,0,15.4699993133545,2.46999931335449,0,0,NaN,NaN,0,0.0197823405926261,NaN,0.999993741512668,0,-0.00349065172486007,0,15.1708868766308,15.1708868766308,,,136.240000009537,13,0.541735917135592,1.05740129780944
2018-07-19T08:08:59Z,1531987739,10D,42.0424294,42.2458199,15.47,0,-0.2,145.8,646759.06,-281279.25,139.7,Air+FixedWing,Blue,Enemies,J-11A,Blue J-11A #003,cn,<51>Frostie,0,0,0,15.4699993133545,2.46999931335449,0,0,NaN,NaN,0,0.0197823405926261,NaN,0.999993741512668,0,-0.00349065172486007,0,15.1708868766308,15.1708868766308,,,137.240000009537,13,0.541873836367029,1.0575392173867
2018-07-19T08:09:00Z,1531987740,10D,42.0424294,42.2458199,15.47,0,-0.2,145.8,646759.06,-281279.25,139.7,Air+FixedWing,Blue,Enemies,J-11A,Blue J-11A #003,cn,<51>Frostie,0,0,0,15.4699993133545,2.46999931335449,0,0,NaN,NaN,0,0.0197823405926261,NaN,0.999993741512668,0,-0.00349065172486007,0,15.1708868766308,15.1708868766308,,,138.240000009537,13,0.542011754005262,1.05767713502493
2018-07-19T08:09:01Z,1531987741,10D,42.0424294,42.2458199,15.47,0,-0.2,145.8,646759.06,-281279.25,139.7,Air+FixedWing,Blue,Enemies,J-11A,Blue J-11A #003,cn,<51>Frostie,0,0,0,15.4699993133545,2.46999931335449,0,0,NaN,NaN,0,0.0197823405926261,NaN,0.999993741512668,0,-0.00349065172486007,0,15.1708868766308,15.1708868766308,,,139.240000009537,13,0.542149671989319,1.0578150539785
2018-07-19T08:09:02Z,1531987742,10D,42.0424294,42.2458199,15.47,0,-0.2,145.8,646759.06,-281279.25,139.7,Air+FixedWing,Blue,Enemies,J-11A,Blue J-11A #003,cn,<51>Frostie,0,0,0,15.4699993133545,2.46999931335449,0,0,NaN,NaN,0,0.0197823405926261,NaN,0.999993741512668,0,-0.00349065172486007,0,15.1708868766308,15.1708868766308,,,140.240000009537,13,0.542287589627552,1.05795297161673
2018-07-19T08:09:03Z,1531987743,10D,42.0424294,42.2458199,15.47,0,-0.2,145.8,646759.06,-281279.25,139.7,Air+FixedWing,Blue,Enemies,J-11A,Blue J-11A #003,cn,<51>Frostie,0,0,0,15.4699993133545,2.46999931335449,0,0,NaN,NaN,0,0.0197823405926261,NaN,0.999993741512668,0,-0.00349065172486007,0,15.1708868766308,15.1708868766308,,,141.240000009537,13,0.542425507923452,1.05809089025845
2018-07-19T08:09:04Z,1531987744,10D,42.0424294,42.2458199,15.47,0,-0.2,145.8,646759.06,-281279.25,139.7,Air+FixedWing,Blue,Enemies,J-11A,Blue J-11A #003,cn,<51>Frostie,0,0,0,15.4699993133545,2.46999931335449,0,0,NaN,NaN,0,0.0197823405926261,NaN,0.999993741512668,0,-0.00349065172486007,0,15.1708868766308,15.1708868766308,,,142.240000009537,13,0.542563427154888,1.05822880980174
2018-07-19T08:09:05Z,1531987745,10D,42.0424294,42.2458199,15.47,0,-0.2,145.8,646759.06,-281279.25,139.7,Air+FixedWing,Blue,Enemies,J-11A,Blue J-11A #003,cn,<51>Frostie,0,0,0,15.4699993133545,2.46999931335449,0,0,NaN,NaN,0,0.0197823405926261,NaN,0.999993741512668,0,-0.00349065172486007,0,15.1708868766308,15.1708868766308,,,143.240000009537,13,0.542701344827102,1.05836672813162
2018-07-19T08:09:06Z,1531987746,10D,42.0424294,42.2458199,15.47,0,-0.2,145.8,646759.06,-281279.25,139.7,Air+FixedWing,Blue,Enemies,J-11A,Blue J-11A #003,cn,<51>Frostie,0,0,0,15.4699993133545,2.46999931335449,0,0,NaN,NaN,0,0.0197823405926261,NaN,0.999993741512668,0,-0.00349065172486007,0,15.1708868766308,15.1708868766308,,,144.240000009537,13,0.542839264370386,1.05850464736305
