ISOTime,UnixTime,Id,Longitude,Latitude,Altitude,Roll,Pitch,Yaw,U,V,Heading,Type,Color,Coalition,Name,Group,Country,Pilot,TAS,CAS,M,ASL,AGL,GS,VS,AOA,AOS,RRT,TRT,TRD,G,LatG,LonG,Ek,Ep,Em,FFW,FFV,RelativeTime,Elev,GroundDistance,AirDistance
2018-07-19T08:00:00Z,1531987200,202,43.0302755,42.9428581,8998.06,0,0.3,240.6,719080.88,-194569.75,233.7,Air+FixedWing,Blue,Enemies,E-2C,Blue AWACS,us,,NaN,NaN,NaN,8998.0595703125,6364.49853515625,NaN,NaN,NaN,NaN,NaN,NaN,NaN,NaN,NaN,NaN,NaN,8824.08208852051,NaN,,,0,2633.56103515625,NaN,NaN
2018-07-19T08:00:01Z,1531987201,202,43.0286594,42.9421873,8994.96,0.4,2.4,240.6,718957.88,-194660.22,233.7,Air+FixedWing,Blue,Enemies,E-2C,Blue AWACS,us,,152.719437321505,96.2994689941406,0.502394148230151,8994.9560546875,6336.73852539062,152.687899738527,-3.103515625,4.18125062687201,0.00681303319289834,0.657173481181947,0.13318365389101,5000,0.765557951117136,0.00406048597446757,0.0306967267743828,1166.16132678986,8821.03857937012,9987.19990615997,,,1,2658.21752929688,151.393279069971,151.638585169594
2018-07-19T08:00:02Z,1531987202,202,43.0270426,42.9415166,8989.56,0.2,3.9,240.6,718834.88,-194750.67,233.7,Air+FixedWing,Blue,Enemies,E-2C,Blue AWACS,us,,152.77398294826,96.3657379150391,0.502535288995218,8989.5595703125,6323.05078125,152.678642325198,-5.396484375,5.87617735910404,-0.00831842650711751,0.390476231918796,1.57392019092059,5000,1.08412483978122,-0.00231921549386075,0.101662447539414,1166.99449329376,8815.74643602051,9982.74092931427,,,2,2666.5087890625,302.830685009842,303.38548245323
2018-07-19T08:00:03Z,1531987203,202,43.025424,42.9408453,8985.03,0,5.1,240.6,718711.62,-194841.23,233.7,Air+FixedWing,Blue,Enemies,E-2C,Blue AWACS,us,,153.011877287688,96.5471420288086,0.503285641547644,8985.03125,6308.904296875,152.944855769163,-4.5283203125,6.48118165448787,0.00266856984565856,0.0380851348119911,1.11908562109327,5000,1.19348418648817,0.00177581006900044,0.0288290795120107,1170.63172955513,8811.30567078125,9981.93740033638,,,3,2676.126953125,454.434869795315,455.270808274651
2018-07-19T08:00:04Z,1531987204,202,43.0238128,42.940177,8982.38,-0.1,5.8,240.6,718589,-194931.36,233.7,Air+FixedWing,Blue,Enemies,E-2C,Blue AWACS,us,,152.205260018727,96.032112121582,0.500613776259204,8982.37890625,6282.95971679688,152.182148263191,-2.65234375,6.4332386762442,-0.0396629186401562,0.199987938897973,0.735832927871576,5000,1.18647016237072,-0.00390941198949017,0.0634207247045556,1158.32205886841,8808.70461009766,9967.02666896607,,,4,2699.41918945312,605.342455094032,606.414223401948
2018-07-19T08:00:05Z,1531987205,202,43.022208,42.9395113,8981.56,-0.1,6.2,240.6,718466.81,-195021.14,233.7,Air+FixedWing,Blue,Enemies,E-2C,Blue AWACS,us,,151.628265572123,95.6576309204102,0.498710225978948,8981.55859375,6249.12133789062,151.626046600881,-0.8203125,6.20268175900958,-0.0249282508678166,0,0.421511597651129,5000,1.12941823596876,0.0048455602987579,0.166929886854084,1149.55654602051,8807.90015833984,9957.45670436035,,,5,2732.43725585938,755.664334753817,756.950027917443
2018-07-19T08:00:06Z,1531987206,202,43.0205983,42.9388432,8982.12,-0.1,6.3,240.6,718344.31,-195111.23,233.7,Air+FixedWing,Blue,Enemies,E-2C,Blue AWACS,us,,152.063960233389,95.9407806396484,0.50014719730418,8982.119140625,6205.908203125,152.062927069889,0.560546875,5.89718818169665,-0.0454619408503356,0,0.183454198691701,5000,1.08985240004192,-0.00245669936799504,0.0642194132817265,1156.17240009308,8808.44986704102,9964.62226713409,,,6,2776.2109375,906.459742645246,907.958829744934
2018-07-19T08:00:07Z,1531987207,202,43.0189945,42.9381774,8983.57,-0.1,6.4,240.6,718222.25,-195201,233.7,Air+FixedWing,Blue,Enemies,E-2C,Blue AWACS,us,,151.522978752211,95.5774993896484,0.498378053102553,8983.5654296875,6150.78833007812,151.516076169793,1.4462890625,5.74924722513417,-0.0364544243510368,0,0.0504352774299245,5000,1.0480665993508,-0.0012581554306718,0.04636383531882,1147.96065449715,8809.86819210449,9957.82884660164,,,7,2832.77709960938,1056.71349576581,1058.4311480679
2018-07-19T08:00:08Z,1531987208,202,43.0173986,42.9375147,8985.47,-0.1,6.3,240.6,718100.75,-195290.36,233.7,Air+FixedWing,Blue,Enemies,E-2C,Blue AWACS,us,,150.834260852695,95.1145477294922,0.496126111336807,8985.4697265625,6084.88452148438,150.822239409149,1.904296875,5.53106069093522,-0.0532757417803453,0,0.0504352774299245,5000,1.00874095452486,-0.00160200619978224,0.127395314255517,1137.54871234894,8811.73566939941,9949.28438174835,,,8,2900.58520507812,1206.23896073314,1208.17934966038
2018-07-19T08:00:09Z,1531987209,202,43.0158011,42.9368512,8987.54,-0.1,6.3,240.6,717979.12,-195379.81,233.7,Air+FixedWing,Blue,Enemies,E-2C,Blue AWACS,us,,150.992636472641,95.2070236206055,0.496661538920604,8987.537109375,6032.99780273438,150.978482563793,2.0673828125,5.52045400549753,-0.0467964186153887,0,0.0998959722426529,5000,0.99188656102455,0.00300911880564291,0.0732278748452675,1139.93881344795,8813.76307936523,9953.70189281319,,,9,2954.53930664062,1355.91880859472,1358.08434619741
2018-07-19T08:00:10Z,1531987210,202,43.0142071,42.936189,8989.54,0,6.2,240.6,717857.81,-195469.09,233.7,Air+FixedWing,Blue,Enemies,E-2C,Blue AWACS,us,,150.638293832769,94.963493347168,0.495510043051326,8989.544921875,6008.30200195312,150.624912474041,2.0078125,5.46298376373267,-0.0502089972480052,0,0.0998959722426529,5000,0.982616868583101,0.000650193640312827,0.0435912466724036,1134.59477844238,8815.73207081055,9950.32684925293,,,10,2981.24291992188,1505.28856973953,1507.67808502844
2018-07-19T08:00:11Z,1531987211,202,43.0126195,42.9355294,8991.37,0,6.1,240.6,717737,-195558.02,233.7,Air+FixedWing,Blue,Enemies,E-2C,Blue AWACS,us,,150.020326893319,94.5482864379883,0.49349003225597,8991.3720703125,6004.70288085938,150.009199750434,1.8271484375,5.442653773094,-0.0453844760842022,0,0.0839293978716497,5000,0.97021487367725,-0.00233046998877102,0.125823096600401,1125.30492405891,8817.52389133301,9942.82881539192,,,11,2986.66918945312,1654.05639196078,1656.66681075376
2018-07-19T08:00:12Z,1531987212,202,43.0110302,42.9348689,8992.98,0,6,240.6,717616,-195647.05,233.7,Air+FixedWing,Blue,Enemies,E-2C,Blue AWACS,us,,150.233694632622,94.6792297363281,0.494203154064722,8992.984375,6001.45947265625,150.225042774374,1.6123046875,5.43097877624482,-0.044009618038546,0,0.0720088301298065,5000,0.979161237042488,0.000333245114729638,0.00774211553491824,1128.50815014839,8819.10502210937,9947.61317225776,,,12,2991.52490234375,1803.00204205834,1805.83116486951
2018-07-19T08:00:13Z,1531987213,202,43.0094507,42.9342124,8994.35,0,5.9,240.6,717495.75,-195735.53,233.6,Air+FixedWing,Blue,Enemies,E-2C,Blue AWACS,us,,149.303066461835,94.0619277954102,0.491151249499228,8994.34765625,6004.76318359375,149.296842294607,1.36328125,5.44018402565805,0.0378895720811568,0,0.0839293978716497,5000,0.970242257954517,-0.00115177446477256,0.1156581310942,1114.57028274536,8820.44194431641,9935.01222706177,,,13,2989.58447265625,1951.02960549481,1954.07372730399
2018-07-19T08:00:14Z,1531987214,202,43.0078697,42.9335553,8995.49,0,5.9,240.6,717375.38,-195824.09,233.6,Air+FixedWing,Blue,Enemies,E-2C,Blue AWACS,us,,149.448156167529,94.1506805419922,0.491636439015103,8995.4853515625,6019.22045898438,149.44382567122,1.1376953125,5.50531395563331,0.0494877713853601,0,0.0523391626455858,5000,0.977237154966397,0.00473776592603216,0.0567376369530105,1116.7375690937,8821.55764229004,9938.29521138374,,,14,2976.26489257812,2099.19995116198,2102.45739522195
2018-07-19T08:00:15Z,1531987215,202,43.006293,42.9328998,8996.41,0,5.9,240.6,717255.38,-195912.44,233.6,Air+FixedWing,Blue,Enemies,E-2C,Blue AWACS,us,,149.014986555026,93.8621215820312,0.490217825345154,8996.40625,6057.97631835938,149.012140995499,0.9208984375,5.54726106949517,0.0569973259336836,0,0.0523391626455858,5000,0.978427146193166,-0.0064775466920433,0.0877747824260627,1110.27331089973,8822.46073515625,9932.73404605598,,,15,2938.42993164062,2246.97369886428,2250.44243351124
2018-07-19T08:00:16Z,1531987216,202,43.0047182,42.9322452,8997.15,0,5.8,240.6,717135.44,-196000.66,233.6,Air+FixedWing,Blue,Enemies,E-2C,Blue AWACS,us,,148.889589534878,93.7756805419922,0.48981047174304,8997.1533203125,6122.07421875,148.887715268294,0.7470703125,5.5421048092776,0.0370434073451559,0,0.0523391626455858,5000,0.977740858846353,0.00910776578894319,0.121982457369606,1108.40549359322,8823.19336086426,9931.59885445747,,,16,2875.0791015625,2394.57085433772,2398.24967242654
2018-07-19T08:00:17Z,1531987217,202,43.0031403,42.9315892,8997.75,0,5.8,240.6,717015.38,-196089.08,233.6,Air+FixedWing,Blue,Enemies,E-2C,Blue AWACS,us,,149.11000163716,93.9168930053711,0.490539734539667,8997.75390625,6195.31298828125,149.10879211088,0.6005859375,5.59553922523447,0.0538074265864449,0,0.0171320104161963,5000,0.990331236434252,-0.00706555299328188,0.0157699051113408,1111.6896294117,8823.78233447265,9935.47196388435,,,17,2802.44091796875,2542.46173751824,2546.35039877282
2018-07-19T08:00:18Z,1531987218,202,43.001572,42.9309371,8998.23,0,5.8,240.6,716895.94,-196176.95,233.6,Air+FixedWing,Blue,Enemies,E-2C,Blue AWACS,us,,148.282010078693,93.3721923828125,0.487819070542154,8998.2255859375,6264.20532226562,148.281259878819,0.4716796875,5.63482938691076,0.0394737148477761,0,0.0171320104161963,5000,0.985475779849033,0.00256488506342894,0.102001812824495,1099.37772564888,8824.2448942334,9923.62261988228,,,18,2734.02026367188,2689.46074500058,2693.55754154233
2018-07-19T08:00:19Z,1531987219,202,43.0000029,42.9302847,8998.61,0,5.8,240.6,716776.5,-196264.86,233.6,Air+FixedWing,Blue,Enemies,E-2C,Blue AWACS,us,,148.300270563395,93.3821716308594,0.487881768259229,8998.6064453125,6309.54345703125,148.299781507973,0.380859375,5.67114989212116,0.0609077677865703,0,0.0171320104161963,5000,0.990695271329961,-0.000392004200825716,0.0525877252891437,1099.6485124588,8824.61838969238,9924.26690215118,,,19,2689.06298828125,2836.52964930453,2840.83442634654
2018-07-19T08:00:20Z,1531987220,202,42.9984391,42.9296345,8998.9,0,5.8,240.6,716657.44,-196352.48,233.6,Air+FixedWing,Blue,Enemies,E-2C,Blue AWACS,us,,147.831339000523,93.0737991333008,0.486341071616835,8998.8984375,6360.71313476562,147.831050632978,0.2919921875,5.69872633277504,0.0460007226574713,0,0.0171320104161963,5000,0.984597832892176,-0.000890438330888754,0.147105081346519,1092.70523953438,8824.90473621094,9917.60997574532,,,20,2638.18530273438,2983.10815450848,2987.62002588452
2018-07-19T08:00:21Z,1531987221,202,42.9968706,42.9289822,8999.14,0,5.8,240.6,716538,-196440.38,233.6,Air+FixedWing,Blue,Enemies,E-2C,Blue AWACS,us,,148.290710034902,93.3729248046875,0.487853962690953,8999.1357421875,6382.89868164062,148.290520159384,0.2373046875,5.72049006390484,0.0392091705911763,0,0.0171320104161963,5000,0.994879324959801,0.00338998936084674,0.0478565607863045,1099.50673413277,8825.1374526123,9924.64418674507,,,21,2616.23706054688,3130.14123201347,3134.860745976
2018-07-19T08:00:22Z,1531987222,202,42.9953069,42.928332,8999.32,0,5.8,240.6,716419,-196527.98,233.6,Air+FixedWing,Blue,Enemies,E-2C,Blue AWACS,us,,147.771569167045,93.0322647094727,0.486147335178452,8999.3203125,6400.27270507812,147.771453900578,0.1845703125,5.73461356884852,0.0674990746600279,0,0.0171320104161963,5000,0.991616607649788,-0.00263021909689989,0.090816865804742,1091.82183270454,8825.31845425781,9917.14028696236,,,22,2599.04760742188,3276.70843085173,3281.63485975244
2018-07-19T08:00:23Z,1531987223,202,42.9937447,42.9276823,8999.46,0,5.8,240.6,716300.06,-196615.52,233.6,Air+FixedWing,Blue,Enemies,E-2C,Blue AWACS,us,,147.674875863615,92.9680709838867,0.485830206348251,8999.462890625,6417.14721679688,147.674807034959,0.142578125,5.7516876577503,0.0416566635128276,0,0.0171320104161963,5000,0.987777075387479,-0.00223821489607418,0.138470397628183,1090.39344806671,8825.45827563476,9915.85172370148,,,23,2582.31567382812,3423.14306109242,3428.27617490332
2018-07-19T08:00:24Z,1531987224,202,42.9921791,42.9270312,8999.57,0,5.8,240.6,716180.81,-196703.25,233.6,Air+FixedWing,Blue,Enemies,E-2C,Blue AWACS,us,,148.046935915972,93.2108993530273,0.487054992290321,8999.5732421875,6442.53784179688,148.046894788917,0.1103515625,5.76255450665155,0.048469693076693,0,0.0171320104161963,5000,1.00115825164775,0.00319398726043388,0.0244725828438939,1095.8947617054,8825.5664935498,9921.4612552552,,,24,2557.03540039062,3569.9069081915,3575.24714645406
2018-07-19T08:00:25Z,1531987225,202,42.9906207,42.9263831,8999.67,0,5.8,240.6,716062.19,-196790.56,233.6,Air+FixedWing,Blue,Enemies,E-2C,Blue AWACS,us,,147.293490828136,92.717529296875,0.484576911805831,8999.6689453125,6487.89868164062,147.293459736846,0.095703125,5.76801323363594,0.0422044689351692,0,0.0171320104161963,5000,0.994521671387304,-0.000196002100412858,0.0769981662513176,1084.76862201691,8825.66034625488,9910.42896827179,,,25,2511.77026367188,3715.99334059167,3721.53973971349
2018-07-19T08:00:26Z,1531987226,202,42.989065,42.9257361,8999.74,0,5.8,240.6,715943.75,-196877.73,233.6,Air+FixedWing,Blue,Enemies,E-2C,Blue AWACS,us,,147.059110123344,92.5640411376953,0.48380629610526,8999.7373046875,6547.67114257812,147.05909423516,0.068359375,5.77387403419752,0.0539265284463654,0,0.0171320104161963,5000,0.990052204290167,-0.00352065742778865,0.137751133579249,1081.31909351349,8825.72738390137,9907.04647741485,,,26,2452.06616210938,3861.8268752193,3867.57906492793
2018-07-19T08:00:27Z,1531987227,202,42.9875059,42.9250876,8999.79,0,5.8,240.6,715825,-196965.09,233.6,Air+FixedWing,Blue,Enemies,E-2C,Blue AWACS,us,,147.421932629209,92.8008728027344,0.485000331980424,8999.794921875,6590.38500976562,147.421921369892,0.0576171875,5.78130117789831,0.0531897270507678,0,0.0171320104161963,5000,0.999949876149536,0.000694436230475896,0.030456369631426,1086.66131100655,8825.78388706055,9912.44519806709,,,27,2409.40991210938,4007.98879466723,4013.94723510765
2018-07-19T08:00:28Z,1531987228,202,42.9859539,42.924442,8999.83,0,5.8,240.6,715706.81,-197052.05,233.6,Air+FixedWing,Blue,Enemies,E-2C,Blue AWACS,us,,146.728090291605,92.34716796875,0.482717927591207,8999.83203125,6637.58154296875,146.728085598891,0.037109375,5.78554451009009,0.0613734329379759,0,0.0171320104161963,5000,0.992277858038005,0.00404332969555627,0.127664876071361,1076.45662403107,8825.82027892578,9902.27690295685,,,28,2362.25048828125,4153.48244034998,4159.64618303038
2018-07-19T08:00:29Z,1531987229,202,42.9843988,42.9237952,8999.87,0,5.8,240.6,715588.44,-197139.19,233.6,Air+FixedWing,Blue,Enemies,E-2C,Blue AWACS,us,,146.990239815197,92.518180847168,0.483580628400368,8999.8701171875,6692.55883789062,146.990234881065,0.0380859375,5.7889767211183,0.0512372278478514,0,0.0171320104161963,5000,0.997911524659368,-0.00160911269906923,0.0603776193230058,1080.30653004646,8825.85762847168,9906.16415851814,,,29,2307.31127929688,4299.26795459485,4305.63741245517
2018-07-19T08:00:30Z,1531987230,202,42.9828483,42.9231502,8999.9,0,5.8,240.6,715470.38,-197226.08,233.6,Air+FixedWing,Blue,Enemies,E-2C,Blue AWACS,us,,146.590365873141,92.2566833496094,0.482265276334695,8999.8974609375,6730.09985351562,146.590363322903,0.02734375,5.7896721327559,0.0496371682528561,0,0.0171320104161963,5000,0.99135612841267,-0.00230354892954513,0.130826688758129,1074.43676834106,8825.88444353027,9900.32121187134,,,30,2269.79760742188,4444.63003544767,4451.20460935007
2018-07-19T08:00:31Z,1531987231,202,42.9812947,42.9225039,8999.92,0,5.8,240.6,715352.06,-197313.12,233.6,Air+FixedWing,Blue,Enemies,E-2C,Blue AWACS,us,,146.884330709607,92.4487609863281,0.483232539797022,8999.919921875,6754.50073242188,146.884328992291,0.0224609375,5.79274549544934,0.0488020582973253,0,0.0171320104161963,5000,1.0010236759671,-0.000522672267767621,0.037622335163079,1078.75033040047,8825.90647018555,9904.65680058601,,,31,2245.41918945312,4590.27959979145,4597.0596951198
2018-07-19T08:00:32Z,1531987232,202,42.979748,42.9218605,8999.94,0,5.9,240.6,715234.25,-197399.8,233.6,Air+FixedWing,Blue,Enemies,E-2C,Blue AWACS,us,,146.259356807472,92.0402221679688,0.481176580335357,8999.939453125,6753.35473632812,146.259355503385,0.01953125,5.89580455511801,0.0575813609010124,0,0.0523391626455858,5000,0.992700767288465,0.00391266162861436,0.113445933741126,1069.58997268677,8825.92562379883,9895.5155964856,,,32,2246.58471679688,4735.28902388945,4742.27373743165
2018-07-19T08:00:33Z,1531987233,202,42.9781995,42.9212163,8999.95,0,5.9,240.5,715116.38,-197486.56,233.6,Air+FixedWing,Blue,Enemies,E-2C,Blue AWACS,us,,146.365260297774,92.1091918945312,0.481525063780337,8999.9501953125,6754.28955078125,146.365259903574,0.0107421875,5.89424587238144,0.0557337304035045,0,0.0523391626455858,5000,0.99990563733893,-0.00552177432768359,0.0514759290660737,1071.13947110176,8825.93615828613,9897.07562938789,,,33,2245.66064453125,4880.46313993467,4887.65270350843
2018-07-19T08:00:34Z,1531987234,202,42.9766573,42.9205747,8999.96,0,5.9,240.5,714998.88,-197572.98,233.6,Air+FixedWing,Blue,Enemies,E-2C,Blue AWACS,us,,145.859489145832,91.7788696289062,0.479861200385251,8999.9599609375,6775.2734375,145.859488818917,0.009765625,5.89693407348556,0.0551689385627727,0,0.0139882274201861,5000,0.988679020611957,0.00430466582944008,0.16108245885727,1063.74952869415,8825.94573509277,9889.69526378693,,,34,2224.6865234375,5025.05579677315,5032.44939006819
2018-07-19T08:00:35Z,1531987235,202,42.9751086,42.9199303,8999.97,0,5.9,240.5,714880.94,-197659.78,233.6,Air+FixedWing,Blue,Enemies,E-2C,Blue AWACS,us,,146.434120038272,92.1541366577148,0.481751737389574,8999.9697265625,6832.12524414062,146.434119712639,0.009765625,5.89693243285283,0.055451318208494,0,0.0139882274201861,5000,1.00566791070087,-0.00347956153202228,-0.0100970404409579,1072.14757556915,8825.95531189941,9898.10288746857,,,35,2167.84448242188,5170.26407796673,5177.86256988945
2018-07-19T08:00:36Z,1531987236,202,42.9735717,42.9192908,8999.97,0,5.9,240.5,714763.88,-197745.89,233.6,Air+FixedWing,Blue,Enemies,E-2C,Blue AWACS,us,,145.321895727119,91.4277420043945,0.478092664645536,8999.97265625,6905.1337890625,145.321895697588,0.0029296875,5.89616621100293,0.0455190443122899,0,0.0139882274201861,5000,0.988353554947476,0.00308755733119656,0.168106980430431,1055.92266888618,8825.95818494141,9881.88085382759,,,36,2094.8388671875,5314.3596135749,5322.1614338139
2018-07-19T08:00:37Z,1531987237,202,42.9720278,42.9186484,8999.98,0,5.9,240.5,714646.31,-197832.41,233.6,Air+FixedWing,Blue,Enemies,E-2C,Blue AWACS,us,,145.965389124,91.8480377197266,0.48020973178745,8999.9794921875,6976.71728515625,145.965388963927,0.0068359375,5.89999926828606,0.0609897328920226,0,0.0139882274201861,5000,0.996465935145938,-0.000196002100412858,0.0789486706170193,1065.29474110603,8825.96488870605,9891.25962981209,,,37,2023.26220703125,5459.11668436953,5467.12276663716
2018-07-19T08:00:38Z,1531987238,202,42.9704864,42.918007,8999.98,0,5.9,240.5,714528.94,-197918.78,233.6,Air+FixedWing,Blue,Enemies,E-2C,Blue AWACS,us,,145.731023636012,91.6949844360352,0.479438695661681,8999.9794921875,7006.71435546875,145.731023636012,0,5.89577758209747,0.0609892685001086,0,0.0139882274201861,5000,0.999164971803319,-0.00154377866559828,0.0702683667431973,1061.8765625,8825.96488870605,9887.84145120605,,,38,1993.26513671875,5603.64308646142,5611.8531051848
2018-07-19T08:00:39Z,1531987239,202,42.9689486,42.917367,8999.99,0,5.9,240.5,714411.81,-198004.95,233.6,Air+FixedWing,Blue,Enemies,E-2C,Blue AWACS,us,,145.409276806572,91.4847183227539,0.478380257318912,8999.990234375,7018.17150878906,145.409276409779,0.0107421875,5.89999926828606,0.0618485760184176,0,0.0139882274201861,5000,0.99105929472635,0.00147844463212733,0.127392614382507,1057.19288907051,8825.97542319336,9883.16831226387,,,39,1981.81872558594,5747.84257167968,5756.25606607795
2018-07-19T08:00:40Z,1531987240,202,42.9674084,42.916726,8999.99,0,5.9,240.5,714294.5,-198091.28,233.6,Air+FixedWing,Blue,Enemies,E-2C,Blue AWACS,us,,145.652901866958,91.6437835693359,0.479181756519212,8999.990234375,7015.76293945312,145.652901866958,0,5.89999926828606,0.0444262721528741,0,0.0139882274201861,5000,1.00053199334002,-0.00173978076601114,0.0463835685569136,1060.73839111328,8825.97542319336,9886.71381430664,,,40,1984.22729492188,5892.26735320475,5900.8846409094
2018-07-19T08:00:41Z,1531987241,202,42.965874,42.9160874,8999.99,0,5.9,240.5,714177.62,-198177.27,233.6,Air+FixedWing,Blue,Enemies,E-2C,Blue AWACS,us,,145.096789658285,91.2807922363281,0.477352209551333,8999.990234375,7007.93530273438,145.096789658285,0,5.89999926828606,0.0650986792089317,0,0.0139882274201861,5000,0.991718778345021,-0.0035859914612596,0.13166731999183,1052.65391845703,8825.97542319336,9878.62934165039,,,41,1992.05493164062,6036.14082055247,6044.96112362085
2018-07-19T08:00:42Z,1531987242,202,42.964337,42.9154477,8999.99,0,5.9,240.5,714060.5,-198263.39,233.6,Air+FixedWing,Blue,Enemies,E-2C,Blue AWACS,us,,145.381502434113,91.4666213989258,0.478288882739961,8999.990234375,6960.15966796875,145.381502434113,0,5.89883761273313,0.0458232745517465,0,0.0523391626455858,5000,0.997469524262425,0.00878109562158843,0.0857061162157745,1056.7890625,8825.97542319336,9882.76448569336,,,42,2039.83056640625,6180.27186030358,6189.29554218742
2018-07-19T08:00:43Z,1531987243,202,42.9628009,42.9148083,9000,0,6,240.5,713943.56,-198349.48,233.6,Air+FixedWing,Blue,Enemies,E-2C,Blue AWACS,us,,145.211958153177,91.3556137084961,0.477731166910354,9000,6910.08276367188,145.211957824803,0.009765625,5.99729702308703,0.0480345615077471,0,0.0523391626455858,5000,0.998824131943794,-0.00423933179596913,0.0540675441751031,1054.325639534,8825.985,9880.31063953399,,,43,2089.91723632812,6324.31413061862,6333.54106649898
2018-07-19T08:00:44Z,1531987244,202,42.9612705,42.9141713,9000,0,6,240.5,713827,-198435.25,233.6,Air+FixedWing,Blue,Enemies,E-2C,Blue AWACS,us,,144.715440910397,91.0316696166992,0.476097680489532,9000,6880.46264648438,144.715440910397,0,5.99999314935044,0.0697523501679806,0,0.0139882274201861,5000,0.992955227737499,-0.00115177446477256,0.119433277373306,1047.12794189453,8825.985,9873.11294189453,,,44,2119.53735351562,6467.82921598351,6477.25866174559
2018-07-19T08:00:45Z,1531987245,202,42.959739,42.9135338,9000,0,6,240.5,713710.31,-198521.09,233.6,Air+FixedWing,Blue,Enemies,E-2C,Blue AWACS,us,,144.862424632175,91.1275329589844,0.476581240561407,9000,6871.23046875,144.862424632175,0,5.99999314935044,0.0594477549622959,0,0.0139882274201861,5000,0.996286029038107,-0.00141311059865637,0.0877427751924311,1049.25610351562,8825.985,9875.24110351562,,,45,2128.76953125,6611.44978237043,6621.08188685521
2018-07-19T08:00:46Z,1531987246,202,42.9582093,42.9128969,9000,0,6,240.5,713593.75,-198606.83,233.6,Air+FixedWing,Blue,Enemies,E-2C,Blue AWACS,us,,144.696922783073,91.0195388793945,0.476036757913402,9000,6896.9443359375,144.696922783073,0,5.99999314935044,0.0505663460568549,0,0.0139882274201861,5000,0.991628370622641,0.00532577222727074,0.132057497342366,1046.85997314453,8825.985,9872.84497314453,,,46,2103.0556640625,6754.90759942232,6764.74213297898
2018-07-19T08:00:47Z,1531987247,202,42.9566758,42.9122585,9000,0,6,240.5,713477,-198692.77,233.6,Air+FixedWing,Blue,Enemies,E-2C,Blue AWACS,us,,144.968328976539,91.1964340209961,0.476929654057495,9000,6935.8408203125,144.968328976539,0,5.99999314935044,0.0547269508756175,0,0.0139882274201861,5000,1.00324412571315,-0.00578311046156741,0.0215408141763765,1050.7908203125,8825.985,9876.7758203125,,,47,2064.1591796875,6898.7172162471,6908.75467528998
2018-07-19T08:00:48Z,1531987248,202,42.955152,42.9116241,9000,0,6,240.5,713360.88,-198778.17,233.6,Air+FixedWing,Blue,Enemies,E-2C,Blue AWACS,us,,144.150071675537,90.6627960205078,0.474237678684309,9000,6951.66625976562,144.150071675537,0,5.99999314935044,0.0519834298337541,0,0.0139882274201861,5000,0.989962969972337,0.00545644029421264,0.147902748432804,1038.96215820312,8825.985,9864.94715820312,,,48,2048.33374023438,7041.62141180336,7051.86051871894
2018-07-19T08:00:49Z,1531987249,202,42.9536228,42.9109873,9000,0,6,240.5,713244.44,-198863.88,233.6,Air+FixedWing,Blue,Enemies,E-2C,Blue AWACS,us,,144.577719725467,90.941780090332,0.475644593132114,9000,6919.11303710938,144.577719725467,0,5.99999314935044,0.0661966526235247,0,0.0139882274201861,5000,0.999715661696656,-0.00295688926425466,0.055111954126788,1045.13585205078,8825.985,9871.12085205078,,,49,2080.88696289062,7185.04082109454,7195.48230288569
2018-07-19T08:00:50Z,1531987250,202,42.9520993,42.910353,9000,0,6,240.5,713128.38,-198949.27,233.6,Air+FixedWing,Blue,Enemies,E-2C,Blue AWACS,us,,144.090467221606,90.6239700317383,0.474041586670319,9000,6896.12353515625,144.090467221606,0,5.99999314935044,0.0555817035159197,0,0.0139882274201861,5000,0.991190995729254,0.000261336133883811,0.136218847348512,1038.10313720703,8825.985,9864.08813720703,,,50,2103.87646484375,7327.9246994071,7338.56780040248
2018-07-19T08:00:51Z,1531987251,202,42.9505727,42.9097173,9000,0,6,240.5,713012.06,-199034.84,233.6,Air+FixedWing,Blue,Enemies,E-2C,Blue AWACS,us,,144.402954037532,90.8274841308594,0.475069633486265,9000,6848.01049804688,144.402954037532,0,5.99999314935044,0.0584510042605911,0,0.0139882274201861,5000,0.998882961371504,-0.0028915552307837,0.0630345796720067,1042.61065673828,8825.985,9868.59565673828,,,51,2151.98950195312,7471.10333198053,7481.9484680994
2018-07-19T08:00:52Z,1531987252,202,42.9490505,42.9090834,9000,0,6,240.5,712896.06,-199120.16,233.6,Air+FixedWing,Blue,Enemies,E-2C,Blue AWACS,us,,143.993828535288,90.5607299804688,0.473723656157086,9000,6799.77734375,143.993828535288,0,5.99999314935044,0.0478007391676403,0,0.0139882274201861,5000,0.994225302956038,0.00384732759514341,0.107349301821942,1036.7111328125,8825.985,9862.6961328125,,,52,2200.22265625,7613.87147147685,7624.91806348343
2018-07-19T08:00:53Z,1531987253,202,42.9475274,42.9084491,9000,0,6,240.5,712780.06,-199205.52,233.6,Air+FixedWing,Blue,Enemies,E-2C,Blue AWACS,us,,144.021605672172,90.5790176391602,0.47381503984329,9000,6742.58056640625,144.021605672172,0,5.99999314935044,0.0575869453958281,0,0.0139882274201861,5000,0.993787928062651,-0.00121710849824352,0.111510651828087,1037.11114501953,8825.985,9863.09614501953,,,53,2257.41943359375,7756.72710943296,7767.97528079536
2018-07-19T08:00:54Z,1531987254,202,42.9460042,42.9078147,9000,0,6.1,240.5,712664,-199290.91,233.6,Air+FixedWing,Blue,Enemies,E-2C,Blue AWACS,us,,144.090467221606,90.6239700317383,0.474041586670319,9000,6676.53173828125,144.090467221606,0,6.09998740397696,0.0632150470067548,0,0.0523391626455858,5000,0.997623488202005,0.00102110639783066,0.07551935762999,1038.10313720703,8825.985,9864.08813720703,,,54,2323.46826171875,7899.59431681213,7911.04408385426
2018-07-19T08:00:55Z,1531987255,202,42.9444841,42.9071815,9000,0,6.1,240.5,712548.19,-199376.12,233.6,Air+FixedWing,Blue,Enemies,E-2C,Blue AWACS,us,,143.787240420743,90.4261016845703,0.473044004272443,9000,6615.46069335938,143.787240420743,0,6.09998740397696,0.0517089628709891,0,0.0523391626455858,5000,0.996131381071638,-0.00141311059865637,0.089481388163807,1033.73852539062,8825.985,9859.72352539062,,,55,2384.53930664062,8042.1810809119,8053.83204790876
2018-07-19T08:00:56Z,1531987256,202,42.9429656,42.906549,9000,0,6.1,240.5,712432.5,-199461.23,233.6,Air+FixedWing,Blue,Enemies,E-2C,Blue AWACS,us,,143.621737105289,90.3180313110352,0.472499516800301,9000,6563.93505859375,143.621737105289,0,6.09998740397696,0.0506491046049004,0,0.0139882274201861,5000,0.998470014045262,0.000955772364359706,0.0675981973924355,1031.36016845703,8825.985,9857.34516845703,,,56,2436.06494140625,8184.61524417248,8196.46719579361
2018-07-19T08:00:57Z,1531987257,202,42.9414514,42.9059183,9000,0,6.1,240.5,712317.12,-199546.12,233.6,Air+FixedWing,Blue,Enemies,E-2C,Blue AWACS,us,,143.240388291468,90.0693130493164,0.471244921681943,9000,6518.84375,143.240388291468,0,6.09998740397696,0.0721167926383207,0,0.0139882274201861,5000,0.992644805420533,0.000130668066941905,0.122106174084671,1025.89044189453,8825.985,9851.87544189453,,,57,2481.15625,8326.65080006168,8338.70317384467
2018-07-19T08:00:58Z,1531987258,202,42.9399353,42.9052867,9000,0,6.1,240.5,712201.62,-199631.11,233.6,Air+FixedWing,Blue,Enemies,E-2C,Blue AWACS,us,,143.396631739175,90.1715698242188,0.471758945220668,9000,6477.8115234375,143.396631739175,0,6.09998740397696,0.0503637586230134,0,0.0139882274201861,5000,0.991253170568241,-0.0035859914612596,0.135128059647842,1028.12969970703,8825.985,9854.11469970703,,,58,2522.1884765625,8468.86485007849,8481.11789789067
2018-07-19T08:00:59Z,1531987259,202,42.9384168,42.904654,9000,0,6.1,240.5,712085.88,-199716.23,233.6,Air+FixedWing,Blue,Enemies,E-2C,Blue AWACS,us,,143.681342299548,90.3569946289062,0.47269561124989,9000,6443.38793945312,143.681342299548,0,6.09998740397696,0.0509347621557708,0,0.0139882274201861,5000,0.996576017802598,0.00365132549473055,0.0853208078088364,1032.21640625,8825.985,9858.20140625,,,59,2556.61206054688,8611.31327167333,8623.76732422916
2018-07-19T08:01:00Z,1531987260,202,42.9368999,42.9040221,9000,0,6.1,240.5,711970.31,-199801.27,233.6,Air+FixedWing,Blue,Enemies,E-2C,Blue AWACS,us,,143.47475346838,90.2224502563477,0.472015957007637,9000,6425.5390625,143.47475346838,0,6.09998740397696,0.0667297819920689,0,0.0139882274201861,5000,0.998369541767188,0.00223821489607418,0.0685383423630815,1029.25024414062,8825.985,9855.23524414062,,,60,2574.4609375,8753.60830491818,8766.26314577605
2018-07-19T08:01:01Z,1531987261,202,42.9353869,42.9033918,9000,0,6.1,240.5,711855.06,-199886.09,233.6,Air+FixedWing,Blue,Enemies,E-2C,Blue AWACS,us,,143.102666959829,89.9796142578125,0.470791833841868,9000,6414.04833984375,143.102666959829,0,6.09998740397696,0.0593288576898879,0,0.0139882274201861,5000,0.996977906914896,-0.00147844463212733,0.0815602279262525,1023.91866455078,8825.985,9849.90366455078,,,61,2585.95166015625,8895.53533971641,8908.39044960495
2018-07-19T08:01:02Z,1531987262,202,42.9338764,42.9027624,9000,0,6.1,240.5,711740,-199970.77,233.6,Air+FixedWing,Blue,Enemies,E-2C,Blue AWACS,us,,142.859040043903,89.8206787109375,0.469990328426502,9000,6421.68969726562,142.859040043903,0,6.09998740397696,0.049793999329491,0,0.0139882274201861,5000,0.985126545109288,-0.00056376816353399,0.192456471252015,1020.43526611328,8825.985,9846.42026611328,,,62,2578.31030273438,9037.2352993905,9050.29035789095
2018-07-19T08:01:03Z,1531987263,202,42.9323572,42.9021293,9000,0,6.1,240.5,711624.25,-200055.94,233.6,Air+FixedWing,Blue,Enemies,E-2C,Blue AWACS,us,,143.709118677332,90.3749465942383,0.47278699243874,9000,6446.97509765625,143.709118677332,0,6.09998740397696,0.0529431319722772,0,0.0139882274201861,5000,1.00310453237385,-0.00450066792985294,0.0242318163220793,1032.61553955078,8825.985,9858.60053955078,,,63,2553.02490234375,9179.75927463146,9193.01544448697
2018-07-19T08:01:04Z,1531987264,202,42.9308471,42.9015,9000,0,6.1,240.5,711509.12,-200140.59,233.6,Air+FixedWing,Blue,Enemies,E-2C,Blue AWACS,us,,142.90012697357,89.8475723266602,0.470125499848361,9000,6494.60424804688,142.90012697357,0,6.09998740397696,0.0604893257871346,0,0.0139882274201861,5000,0.999660704341405,0.00723731695599015,0.0564566017705565,1021.02231445313,8825.985,9847.00731445312,,,64,2505.39575195312,9321.43584283366,9334.8919282934
2018-07-19T08:01:05Z,1531987265,202,42.9293415,42.9008726,9000,0,6.1,240.5,711394.44,-200225.02,233.6,Air+FixedWing,Blue,Enemies,E-2C,Blue AWACS,us,,142.408832713303,89.5274200439453,0.468509196458208,9000,6547.77026367188,142.408832713303,0,6.09998740397696,0.0535197853315116,0,0.0139882274201861,5000,0.985427961943511,-0.0044110957586774,0.189636036340077,1014.01378173828,8825.985,9839.99878173828,,,65,2452.22973632812,9462.68020626341,9476.33559745691
2018-07-19T08:01:06Z,1531987266,202,42.9278275,42.9002416,9000,0,6.1,240.5,711279.06,-200309.89,233.6,Air+FixedWing,Blue,Enemies,E-2C,Blue AWACS,us,,143.231128774439,90.0635681152344,0.471214458902351,9000,6601.98022460938,143.231128774439,0,6.09998740397696,0.0560027834505046,0,0.0312786278555019,5000,1.00628969119073,-0.0021971190003078,-0.00557253468684662,1025.7578125,8825.985,9851.7428125,,,66,2398.01977539062,9604.72530253922,9618.58112935567
2018-07-19T08:01:07Z,1531987267,202,42.9263257,42.8996157,9000,0,6.2,240.5,711164.56,-200394.09,233.6,Air+FixedWing,Blue,Enemies,E-2C,Blue AWACS,us,,142.12816842472,89.3445205688477,0.467585842212455,9000,6655.85961914062,142.12816842472,0,6.20000822753505,0.0574605339513079,0,0.0523391626455858,5000,0.982762067435597,0.00341422749855133,0.212835167443559,1010.02081298828,8825.985,9836.00581298828,,,67,2344.14038085938,9745.62809251714,9759.68274308232
2018-07-19T08:01:08Z,1531987268,202,42.9248123,42.8989849,9000,0,6.2,240.5,711049.25,-200478.94,233.6,Air+FixedWing,Blue,Enemies,E-2C,Blue AWACS,us,,143.162266572978,90.0187225341797,0.470987909930226,9000,6701.7568359375,143.162266572978,0,6.20000822753505,0.0634246973116567,0,0.0261695779877396,5000,1.00599158645564,0.0016502085948356,-0.000995958527694742,1024.77172851562,8825.985,9850.75672851562,,,68,2298.2431640625,9887.61639000398,9901.87139604584
2018-07-19T08:01:09Z,1531987269,202,42.9233104,42.8983588,9000,0,6.2,240.5,710934.81,-200563.16,233.6,Air+FixedWing,Blue,Enemies,E-2C,Blue AWACS,us,,142.087083360214,89.3178634643555,0.467450676926768,9000,6706.81201171875,142.087083360214,0,6.20000822753505,0.0586240251916169,0,0.0171320104161963,5000,0.987472283577214,-0.00204221279566132,0.169476937759119,1009.43696289063,8825.985,9835.42196289062,,,69,2293.18798828125,10028.5365797439,10042.9904340873
2018-07-19T08:01:10Z,1531987270,202,42.9218023,42.8977302,9000,0,6.2,240.5,710819.88,-200647.72,233.6,Air+FixedWing,Blue,Enemies,E-2C,Blue AWACS,us,,142.693536337495,89.7130355834961,0.469445839668165,9000,6684.4482421875,142.693536337495,0,6.20000822753505,0.0586240251916169,0,0.0171320104161963,5000,1.00427088134304,0.00178087666177751,0.0148433841368426,1018.072265625,8825.985,9844.057265625,,,70,2315.5517578125,10170.0341966554,10184.6877140901
2018-07-19T08:01:11Z,1531987271,202,42.9203035,42.8971053,9000,0,6.2,240.5,710705.69,-200731.75,233.6,Air+FixedWing,Blue,Enemies,E-2C,Blue AWACS,us,,141.774596218125,89.114387512207,0.466422629037784,9000,6637.0361328125,141.774596218125,0,6.20000822753505,0.038531718806969,0,0.0171320104161963,5000,0.984132986692055,-0.00306331919349198,0.20021565483242,1005.00180664063,8825.985,9830.98680664062,,,71,2362.9638671875,10310.6707480895,10325.522713592
2018-07-19T08:01:12Z,1531987272,202,42.9187957,42.8964768,9000,0,6.2,240.5,710590.75,-200816.3,233.6,Air+FixedWing,Blue,Enemies,E-2C,Blue AWACS,us,,142.68427726458,89.7068710327148,0.46941537834966,9000,6585.78247070312,142.68427726458,0,6.20000822753505,0.070005539712585,0,0.0171320104161963,5000,0.996629821676394,0.00108644043130161,0.0851804578714865,1017.94014892578,8825.985,9843.92514892578,,,72,2414.21752929688,10452.1452333261,10467.1968292794
2018-07-19T08:01:13Z,1531987273,202,42.9172902,42.8958491,9000,0,6.2,240.5,710476,-200900.72,233.6,Air+FixedWing,Blue,Enemies,E-2C,Blue AWACS,us,,142.459171268527,89.560188293457,0.468674804697596,9000,6525.64135742188,142.459171268527,0,6.20000822753505,0.0595000006673117,0,0.0171320104161963,5000,1.00027545858165,-0.00173978076601114,0.0516218360308636,1014.73077392578,8825.985,9840.71577392578,,,73,2474.35864257812,10593.4169317847,10608.6678720432
2018-07-19T08:01:14Z,1531987274,202,42.9157907,42.8952238,9000,0,6.2,240.5,710361.69,-200984.8,233.6,Air+FixedWing,Blue,Enemies,E-2C,Blue AWACS,us,,141.903061135994,89.197998046875,0.466845264307639,9000,6454.63452148438,141.903061135994,0,6.20000822753505,0.0475800965705478,0,0.0171320104161963,5000,0.990096787082149,0.00795599132417063,0.145317998476238,1006.82393798828,8825.985,9832.80893798828,,,74,2545.36547851562,10734.1173428005,10749.5668212366
2018-07-19T08:01:15Z,1531987275,202,42.9142864,42.8945966,9000,0,6.2,240.5,710247.12,-201069.16,233.6,Air+FixedWing,Blue,Enemies,E-2C,Blue AWACS,us,,142.271116382211,89.4375610351562,0.468056125069377,9000,6384.69189453125,142.271116382211,0,6.20000822753505,0.0518896851192299,0,0.0171320104161963,5000,0.999269546849278,-0.0105862104210705,0.060881400904982,1012.05352783203,8825.985,9838.03852783203,,,75,2615.30810546875,10875.2764094374,10890.9250732473
2018-07-19T08:01:16Z,1531987276,202,42.9127886,42.893972,9000,0,6.2,240.5,710132.88,-201153.16,233.6,Air+FixedWing,Blue,Enemies,E-2C,Blue AWACS,us,,141.806426159043,89.1349105834961,0.466527345997808,9000,6315.4560546875,141.806426159043,0,6.20000822753505,0.0697072539303722,0,0.0171320104161963,5000,0.99353819730734,0.00769465519028682,0.113639313147163,1005.453125,8825.985,9831.438125,,,76,2684.5439453125,11015.8369567913,11031.6839614215
2018-07-19T08:01:17Z,1531987277,202,42.911289,42.8933466,9000,0,6.2,240.5,710018.62,-201237.25,233.6,Air+FixedWing,Blue,Enemies,E-2C,Blue AWACS,us,,141.861979716422,89.1709136962891,0.466710111013379,9000,6255.310546875,141.861979716422,0,6.20000822753505,0.0615552200246193,0,0.0171320104161963,5000,0.996177922480225,-0.00397799566208531,0.0893402561806586,1006.24106445313,8825.985,9832.22606445312,,,77,2744.689453125,11156.5604180512,11172.6059933849
2018-07-19T08:01:18Z,1531987278,202,42.9097917,42.8927222,9000,0,6.2,240.5,709904.5,-201321.2,233.6,Air+FixedWing,Blue,Enemies,E-2C,Blue AWACS,us,,141.677954609267,89.0512390136719,0.466104688909718,9000,6212.82958984375,141.677954609267,0,6.20000822753505,0.0487223811490932,0,0.0171320104161963,5000,0.993290524791235,6.53340334709527e-05,0.115919174944787,1003.63214111328,8825.985,9829.61714111328,,,78,2787.17041015625,11297.0643491065,11313.3081853713
2018-07-19T08:01:19Z,1531987279,202,42.9082939,42.8920975,9000,0,6.2,240.5,709790.31,-201405.2,233.6,Air+FixedWing,Blue,Enemies,E-2C,Blue AWACS,us,,141.756076258656,89.1019897460938,0.466361700434101,9000,6177.10961914062,141.756076258656,0,6.20000822753505,0.0516001591555771,0,0.0171320104161963,5000,0.996527708336362,0.00236888296301608,0.0861204261272606,1004.7392578125,8825.985,9830.7242578125,,,79,2822.89038085938,11437.6331446738,11454.0753333979
2018-07-19T08:01:20Z,1531987280,202,42.906798,42.8914736,9000,0,6.2,240.5,709676.31,-201489.09,233.6,Air+FixedWing,Blue,Enemies,E-2C,Blue AWACS,us,,141.540230898818,88.961669921875,0.465651593243623,9000,6167.01342773438,141.540230898818,0,6.20000822753505,0.0669761054258693,0,0.0171320104161963,5000,0.991569819678639,0.000196002100412858,0.131758517609324,1001.68184814453,8825.985,9827.66684814453,,,80,2832.98657226562,11578.0146184768,11594.6548953361
2018-07-19T08:01:21Z,1531987281,202,42.9052997,42.8908487,9000,0,6.2,240.5,709562.12,-201573.12,233.6,Air+FixedWing,Blue,Enemies,E-2C,Blue AWACS,us,,141.774596218125,89.114387512207,0.466422629037784,9000,6194.16284179688,141.774596218125,0,6.20000822753505,0.0482010122588638,0,0.0523391626455858,5000,0.998758980149118,-0.00417399776249817,0.0655812421838526,1005.00180664063,8825.985,9830.98680664062,,,81,2805.83715820312,11718.6270531446,11735.465744041
2018-07-19T08:01:22Z,1531987282,202,42.9038062,42.8902257,9000,0,6.3,240.5,709448.25,-201656.88,233.6,Air+FixedWing,Blue,Enemies,E-2C,Blue AWACS,us,,141.356210068748,88.8417205810547,0.465046185211096,9000,6238.52197265625,141.356210068748,0,6.30000282459342,0.0552783254228267,0,0.0523391626455858,5000,0.993753290899821,0.00256488506342894,0.111613933170078,999.07890625,8825.985,9825.06390625,,,82,2761.47802734375,11858.7940157619,11875.8304921032
2018-07-19T08:01:23Z,1531987283,202,42.9023122,42.8896025,9000,0,6.3,240.5,709334.38,-201740.66,233.6,Air+FixedWing,Blue,Enemies,E-2C,Blue AWACS,us,,141.374727149383,88.853759765625,0.465107104343735,9000,6315.01440429688,141.374727149383,0,6.30000282459342,0.0570280827437871,0,0,5000,0.99102701914766,0.00404332969555627,0.136308189023172,999.340673828125,8825.985,9825.32567382812,,,83,2684.98559570312,11999.0104321334,12016.2447637027
2018-07-19T08:01:24Z,1531987284,202,42.9008153,42.888978,9000,0,6.3,240.5,709220.31,-201824.62,233.6,Air+FixedWing,Blue,Enemies,E-2C,Blue AWACS,us,,141.636876846436,89.0244903564453,0.465969547645727,9000,6397.09619140625,141.636876846436,0,6.30000282459342,0.0633416239854041,0,0,5000,0.995353738973383,-0.0064775466920433,0.0971172586632902,1003.05024414063,8825.985,9829.03524414062,,,84,2602.90380859375,12139.5068312748,12156.9394131466
2018-07-19T08:01:25Z,1531987285,202,42.8993205,42.8883543,9000,0,6.3,240.5,709106.31,-201908.47,233.6,Air+FixedWing,Blue,Enemies,E-2C,Blue AWACS,us,,141.512453211943,88.9434356689453,0.465560207748012,9000,6464.44848632812,141.512453211943,0,6.30000282459342,0.0510318221309888,0,0,5000,1.00259877161903,0.000629102197004943,0.031492586554277,1001.28872070313,8825.985,9827.27372070312,,,85,2535.55151367188,12279.8068112179,12297.4373662314
2018-07-19T08:01:26Z,1531987286,202,42.8978335,42.8877339,9000,0,6.3,240.5,708992.94,-201991.86,233.6,Air+FixedWing,Blue,Enemies,E-2C,Blue AWACS,us,,140.740495106741,88.4410858154297,0.463020551571658,9000,6527.02758789062,140.740495106741,0,6.30000282459342,0.0599702575840125,0,0,5000,0.987634081932773,0.00302222329772561,0.167041023932784,990.394348144531,8825.985,9816.37934814453,,,86,2472.97241210938,12419.3740562453,12437.2015504603
2018-07-19T08:01:27Z,1531987287,202,42.8963401,42.8871108,9000,0,6.3,240.5,708879.12,-202075.61,233.6,Air+FixedWing,Blue,Enemies,E-2C,Blue AWACS,us,,141.305865611623,88.80908203125,0.464880557555111,9000,6600.05102539062,141.305865611623,0,6.30000282459342,0.0464850727308508,0,0,5000,0.995605389942404,0.00115177446477256,0.0948378331402268,998.3673828125,8825.985,9824.3523828125,,,87,2399.94897460938,12559.5406435034,12577.565922633
2018-07-19T08:01:28Z,1531987288,202,42.8948486,42.8864885,9000,0,6.3,240.5,708765.44,-202159.28,233.6,Air+FixedWing,Blue,Enemies,E-2C,Blue AWACS,us,,141.158883256654,88.7134323120117,0.464397001979884,9000,6673.060546875,141.158883256654,0,6.30000282459342,0.0696840176834525,0,0,5000,0.996790823522261,-0.0027608871638418,0.0841003121668929,996.291516113281,8825.985,9822.27651611328,,,88,2326.939453125,12699.5352223072,12717.7580436363
2018-07-19T08:01:29Z,1531987289,202,42.8933599,42.8858672,9000,0,6.3,240.5,708651.94,-202242.78,233.6,Air+FixedWing,Blue,Enemies,E-2C,Blue AWACS,us,,140.905997033483,88.5487213134766,0.463565034475091,9000,6737.9345703125,140.905997033483,0,6.30000282459342,0.0536438351393562,0,0,5000,0.995501636318977,0.00243421699648703,0.0957776215235902,992.725,8825.985,9818.71,,,89,2262.0654296875,12839.2791529022,12857.6991627478
2018-07-19T08:01:30Z,1531987290,202,42.8918723,42.8852464,9000,0,6.3,240.5,708538.56,-202326.22,233.6,Air+FixedWing,Blue,Enemies,E-2C,Blue AWACS,us,,140.768274235532,88.4590301513672,0.463111941811015,9000,6795.53466796875,140.768274235532,0,6.30000282459342,0.0590841795858304,0,0,5000,0.987382430963753,-0.00460709785909026,0.169320449455847,990.7853515625,8825.985,9816.7703515625,,,90,2204.46533203125,12978.9179081317,12997.5349580843
2018-07-19T08:01:31Z,1531987291,202,42.890379,42.8846232,9000,0,6.3,240.5,708424.69,-202409.97,233.6,Air+FixedWing,Blue,Enemies,E-2C,Blue AWACS,us,,141.356210068748,88.8417205810547,0.465046185211096,9000,6837.91967773438,141.356210068748,0,6.30000282459342,0.0542278241621345,0,0,5000,1.00085042619987,0.000759770263946848,0.0473288982007644,999.07890625,8825.985,9825.06390625,,,91,2162.08032226562,13119.0874468669,13137.9022858994
2018-07-19T08:01:32Z,1531987292,202,42.8888925,42.8840028,9000,0,6.3,240.5,708311.31,-202493.36,233.6,Air+FixedWing,Blue,Enemies,E-2C,Blue AWACS,us,,140.740495106741,88.4410858154297,0.463020551571658,9000,6877.76928710938,140.740495106741,0,6.30000282459342,0.0582010442705903,0,0,5000,0.994523709985973,0.00378199356167246,0.104635565730197,990.394348144531,8825.985,9816.37934814453,,,92,2122.23071289062,13258.6274493197,13277.6391891125
2018-07-19T08:01:33Z,1531987293,202,42.8874059,42.8833823,9000,0,6.3,240.5,708198,-202576.75,233.6,Air+FixedWing,Blue,Enemies,E-2C,Blue AWACS,us,,140.690152441955,88.4083023071289,0.46285492981227,9000,6909.6787109375,140.690152441955,0,6.30000282459342,0.0502374582061163,0,0,5000,0.991442033641365,-0.00108644043130161,0.132549035489719,989.685949707031,8825.985,9815.67094970703,,,93,2090.3212890625,13398.1746604505,13417.3833111746
2018-07-19T08:01:34Z,1531987294,202,42.8859171,42.8827608,9000,0,6.3,240.5,708084.5,-202660.27,233.6,Air+FixedWing,Blue,Enemies,E-2C,Blue AWACS,us,,140.915256871428,88.5549621582031,0.463595498310461,9000,6958.40173339844,140.915256871428,0,6.30000282459342,0.060859292997162,0,0,5000,0.998539168941417,-0.0028915552307837,0.0682640005204054,992.855480957031,8825.985,9818.84048095703,,,94,2041.59826660156,13537.9403749819,13557.3462449618
2018-07-19T08:01:35Z,1531987295,202,42.8844329,42.8821413,9000,0,6.3,240.5,707971.31,-202743.52,233.6,Air+FixedWing,Blue,Enemies,E-2C,Blue AWACS,us,,140.506130315549,88.2887802124023,0.462249517514939,9000,7025.20703125,140.506130315549,0,6.30000282459342,0.060266273389727,0,0,5000,0.99102701914766,0.00404332969555627,0.136308189023172,987.0986328125,8825.985,9813.0836328125,,,95,1974.79296875,13677.2749263062,13696.87740714
2018-07-19T08:01:36Z,1531987296,202,42.8829459,42.8815206,9000,0,6.3,240.5,707857.94,-202826.95,233.6,Air+FixedWing,Blue,Enemies,E-2C,Blue AWACS,us,,140.768274235532,88.4590301513672,0.463111941811015,9000,7111.67102050781,140.768274235532,0,6.30000282459342,0.0642333680746174,0,0,5000,0.997457488984987,-0.000261336133883811,0.0780617331103759,990.7853515625,8825.985,9816.7703515625,,,96,1888.32897949219,13816.8715855384,13836.671047078
2018-07-19T08:01:37Z,1531987297,202,42.8814616,42.8809009,9000,0,6.3,240.5,707744.81,-202910.2,233.6,Air+FixedWing,Blue,Enemies,E-2C,Blue AWACS,us,,140.455787082626,88.2559356689453,0.462083893886443,9000,7186.828125,140.455787082626,0,6.30000282459342,0.0399150193887736,0,0,5000,0.994938724479678,-0.00134777656518542,0.100876412196744,986.39140625,8825.985,9812.37640625,,,97,1813.171875,13956.2157860653,13976.2118720758
2018-07-19T08:01:38Z,1531987298,202,42.8799787,42.8802818,9000,0,6.3,240.5,707631.75,-202993.39,233.6,Air+FixedWing,Blue,Enemies,E-2C,Blue AWACS,us,,140.368404787188,88.1988220214844,0.46179641586812,9000,7231.68017578125,140.368404787188,0,6.30000282459342,0.0605626183443591,0,0,5000,0.9935016399308,-0.00506443609338693,0.113893358693141,985.164453125,8825.985,9811.149453125,,,98,1768.31982421875,14095.4391248896,14115.6316648249
2018-07-19T08:01:39Z,1531987299,202,42.8784961,42.8796627,9000,0,6.4,240.5,707518.62,-203076.56,233.6,Air+FixedWing,Blue,Enemies,E-2C,Blue AWACS,us,,140.409495462435,88.2258148193359,0.46193159961252,9000,7225.4365234375,140.409495462435,0,6.39999669631503,0.0571784163192053,0,0.0504352774299245,5000,0.992247446272776,0.00775998922375777,0.125023128338265,985.741320800781,8825.985,9811.72632080078,,,99,1774.5634765625,14234.6328021563,14255.0217541623
2018-07-19T08:01:40Z,1531987300,202,42.8770113,42.8790428,9000,0,6.4,240.5,707405.44,-203159.88,233.6,Air+FixedWing,Blue,Enemies,E-2C,Blue AWACS,us,,140.543170636285,88.312614440918,0.462371376044176,9000,7203.04748535156,140.543170636285,0,6.39999669631503,0.0554104572636983,0,0.0504352774299245,5000,0.999095740573186,-0.000392004200825716,0.0639691615549068,987.619140625,8825.985,9813.604140625,,,100,1796.95251464844,14374.0352540522,14394.6209127246
2018-07-19T08:01:41Z,1531987301,202,42.8755313,42.8784247,9000,0,6.4,240.5,707292.62,-203242.91,233.6,Air+FixedWing,Blue,Enemies,E-2C,Blue AWACS,us,,140.074439612702,88.0076599121094,0.460829303189354,9000,7178.49279785156,140.074439612702,0,6.39999669631503,0.0657389837254895,0,0.00989117029631303,5000,0.991525401637546,-0.00493376802644502,0.131460306304287,981.042431640625,8825.985,9807.02743164062,,,101,1821.50720214844,14512.99332096,14533.7750592403
2018-07-19T08:01:42Z,1531987302,202,42.8740499,42.8778061,9000,0,6.4,240.5,707179.62,-203326.02,233.6,Air+FixedWing,Blue,Enemies,E-2C,Blue AWACS,us,,140.271765558471,88.1361923217773,0.461478483570452,9000,7191.62854003906,140.271765558471,0,6.39999669631503,0.0482710204470918,0,0.00989117029631303,5000,0.996326375834154,0.00108644043130161,0.0886586236853178,983.808410644531,8825.985,9809.79341064453,,,102,1808.37145996094,14652.083783079,14673.0617877858
2018-07-19T08:01:43Z,1531987303,202,42.8725705,42.8771884,9000,0,6.4,240.5,707066.81,-203409,233.6,Air+FixedWing,Blue,Enemies,E-2C,Blue AWACS,us,,140.046658833371,87.9896240234375,0.460737907519905,9000,7230.07592773438,140.046658833371,0,6.39999669631503,0.0508294369804307,0,0.00989117029631303,5000,0.995332991846718,0.00243421699648703,0.0975148483613456,980.653332519531,8825.985,9806.63833251953,,,103,1769.92407226562,14790.9826956745,14812.1566965188
2018-07-19T08:01:44Z,1531987304,202,42.8710928,42.8765712,9000,0,6.4,240.5,706954.12,-203491.92,233.6,Air+FixedWing,Blue,Enemies,E-2C,Blue AWACS,us,,139.908934703133,87.8997573852539,0.460284810472754,9000,7276.65588378906,139.908934703133,0,6.39999669631503,0.0757651595197331,0,0.00989117029631303,5000,0.984887894560409,0.000653340334709527,0.190635061189973,978.725500488281,8825.985,9804.71050048828,,,104,1723.34411621094,14929.7356441979,14951.1054352136
2018-07-19T08:01:45Z,1531987305,202,42.8696066,42.8759505,9000,0,6.4,240.5,706840.81,-203575.31,233.6,Air+FixedWing,Blue,Enemies,E-2C,Blue AWACS,us,,140.690152441955,88.4083023071289,0.46285492981227,9000,7317.83337402344,140.690152441955,0,6.39999669631503,0.053465556060262,0,0.00989117029631303,5000,1.00473986366289,-0.00463133599679484,0.0136506313452485,989.685949707031,8825.985,9815.67094970703,,,105,1682.16662597656,15069.2847403773,15090.8514449848
2018-07-19T08:01:46Z,1531987306,202,42.868131,42.8753341,9000,0,6.4,240.5,706728.25,-203658.09,233.6,Air+FixedWing,Blue,Enemies,E-2C,Blue AWACS,us,,139.724914592253,87.7803192138672,0.45967940480628,9000,7349.24523925781,139.724914592253,0,6.39999669631503,0.056292960039472,0,0.00989117029631303,5000,0.993451617483485,0.00384732759514341,0.114287691764565,976.152587890625,8825.985,9802.13758789062,,,106,1650.75476074219,15207.8395302274,15229.6017453898
2018-07-19T08:01:47Z,1531987307,202,42.8666548,42.8747175,9000,0,6.4,240.5,706615.69,-203740.92,233.6,Air+FixedWing,Blue,Enemies,E-2C,Blue AWACS,us,,139.752691198651,87.7984008789062,0.459770786747245,9000,7388.43273925781,139.752691198651,0,6.39999669631503,0.0586607805096177,0,0.00989117029631303,5000,0.98399990418461,0.000718674368180479,0.198551679917164,976.540734863281,8825.985,9802.52573486328,,,107,1611.56726074219,15346.4574909395,15368.4153057968
2018-07-19T08:01:48Z,1531987308,202,42.8651694,42.874097,9000,0,6.4,240.5,706502.44,-203824.27,233.6,Air+FixedWing,Blue,Enemies,E-2C,Blue AWACS,us,,140.612030651941,88.3575439453125,0.462597917825247,9000,7429.47302246094,140.612030651941,0,6.39999669631503,0.0465281578525487,0,0.00989117029631303,5000,1.00818643155445,-0.00361022959896418,-0.0170762376146818,988.587158203125,8825.985,9814.57215820312,,,108,1570.52697753906,15485.9392503346,15508.0938837664
2018-07-19T08:01:49Z,1531987309,202,42.8636981,42.8734824,9000,0,6.4,240.5,706390.19,-203906.83,233.6,Air+FixedWing,Blue,Enemies,E-2C,Blue AWACS,us,,139.343564279984,87.5322875976562,0.458424804758191,9000,7506.38403320312,139.343564279984,0,6.39999669631503,0.0647588925630115,0,0.00989117029631303,5000,0.986242300865459,0.0056524423946255,0.178560247530934,970.8314453125,8825.985,9796.8164453125,,,109,1493.61596679688,15624.096349054,15646.4459318711
2018-07-19T08:01:50Z,1531987310,202,42.8622189,42.8728644,9000,0,6.4,240.5,706277.44,-203989.83,233.6,Air+FixedWing,Blue,Enemies,E-2C,Blue AWACS,us,,140.005580245932,87.9629440307617,0.460602763543044,9000,7556.16723632812,140.005580245932,0,6.39999669631503,0.0479797315177249,0,0.00989117029631303,5000,0.997952121491409,-0.00795599132417063,0.0741647633162728,980.078125,8825.985,9806.063125,,,110,1443.83276367188,15763.0074559529,15785.553052114
2018-07-19T08:01:51Z,1531987311,202,42.8607445,42.8722484,9000,0,6.4,240.5,706164.94,-204072.55,233.6,Air+FixedWing,Blue,Enemies,E-2C,Blue AWACS,us,,139.637536506351,87.7232894897461,0.459391940636859,9000,7590.25646972656,139.637536506351,0,6.39999669631503,0.0583636447149843,0,0.00989117029631303,5000,0.989794262368653,0.00539110626074169,0.146893772622168,974.932080078125,8825.985,9800.91708007812,,,111,1409.74353027344,15901.4649356106,15924.2059050166
2018-07-19T08:01:52Z,1531987312,202,42.859266,42.8716307,9000,0,6.4,240.5,706052.19,-204155.52,233.6,Air+FixedWing,Blue,Enemies,E-2C,Blue AWACS,us,,139.987056460812,87.9507904052734,0.460541822353397,9000,7622.48937988281,139.987056460812,0,6.39999669631503,0.0635566334679114,0,0.00989117029631303,5000,1.00285848929965,-0.00321822539813847,0.0304234747484679,979.818798828125,8825.985,9805.80379882812,,,112,1377.51062011719,16040.3093333525,16063.2462219706
2018-07-19T08:01:53Z,1531987313,202,42.8577963,42.8710166,9000,0,6.4,240.5,705940.06,-204237.98,233.6,Air+FixedWing,Blue,Enemies,E-2C,Blue AWACS,us,,139.187321087671,87.4308853149414,0.457910782059684,9000,7654.93481445312,139.187321087671,0,6.39999669631503,0.0488545768656521,0,0.00989117029631303,5000,0.986347694477096,0.00436999986291103,0.177620641582098,968.655517578125,8825.985,9794.64051757812,,,113,1345.06518554688,16178.3330056079,16201.4646553378
2018-07-19T08:01:54Z,1531987314,202,42.8563193,42.8703994,9000,0,6.4,240.5,705827.44,-204320.88,233.6,Air+FixedWing,Blue,Enemies,E-2C,Blue AWACS,us,,139.840074148617,87.85498046875,0.460058266918892,9000,7699.22143554688,139.840074148617,0,6.39999669631503,0.0583636447149843,0,0.00989117029631303,5000,0.99309059516587,-0.00249955102995799,0.117506280747576,977.762316894531,8825.985,9803.74731689453,,,114,1300.77856445312,16317.0498892584,16340.3772782693
2018-07-19T08:01:55Z,1531987315,202,42.8548421,42.869782,9000,0,6.4,240.5,705714.75,-204403.78,233.6,Air+FixedWing,Blue,Enemies,E-2C,Blue AWACS,us,,139.899674571861,87.8938598632812,0.460254345672369,9000,7722.26940917969,139.899674571861,0,6.39999669631503,0.0681453542087165,0,0.00989117029631303,5000,0.999983730948985,-0.000457338234296669,0.0560525428277151,978.595947265625,8825.985,9804.58094726562,,,115,1277.73059082031,16455.7840248429,16479.3071774788
2018-07-19T08:01:56Z,1531987316,202,42.8533702,42.869167,9000,0,6.4,240.5,705602.5,-204486.36,233.6,Air+FixedWing,Blue,Enemies,E-2C,Blue AWACS,us,,139.352822822201,87.5381927490234,0.458455264330759,9000,7723.18127441406,139.352822822201,0,6.39999669631503,0.0503192018174344,0,0.00989117029631303,5000,0.990893039967725,0.0027608871638418,0.137097941997304,970.960461425781,8825.985,9796.94546142578,,,116,1276.81872558594,16594.0155823462,16617.733789434
2018-07-19T08:01:57Z,1531987317,202,42.851896,42.8685507,9000,0,6.4,240.5,705490.06,-204569.11,233.6,Air+FixedWing,Blue,Enemies,E-2C,Blue AWACS,us,,139.605708716549,87.7028274536133,0.459287230753764,9000,7717.1279296875,139.605708716549,0,6.39999669631503,0.058958248895594,0,0.00989117029631303,5000,1.00353569245218,-0.000718674368180479,0.0243860679189486,974.4876953125,8825.985,9800.4726953125,,,117,1282.8720703125,16732.4819358777,16756.3955287319
2018-07-19T08:01:58Z,1531987318,202,42.8504307,42.8679384,9000,0,6.4,240.5,705378.31,-204651.34,233.6,Air+FixedWing,Blue,Enemies,E-2C,Blue AWACS,us,,138.746369075521,87.1442413330078,0.456460099058124,9000,7704.23156738281,138.746369075521,0,6.39999669631503,0.0451048065401667,0,0.00989117029631303,5000,0.978988142764729,-0.00273664902613721,0.243232574433805,962.527746582031,8825.985,9788.51274658203,,,118,1295.76843261719,16870.0990985833,16894.2068789348
2018-07-19T08:01:59Z,1531987319,202,42.8489518,42.8673203,9000,0,6.4,240.5,705265.5,-204734.33,233.6,Air+FixedWing,Blue,Enemies,E-2C,Blue AWACS,us,,140.046658833371,87.9896240234375,0.460737907519905,9000,7667.23254394531,140.046658833371,0,6.39999669631503,0.0601514595459318,0,0.00989117029631303,5000,1.00630505719121,-0.0021971190003078,-0.000303394211462395,980.653332519531,8825.985,9806.63833251953,,,119,1332.76745605469,17009.0007936854,17033.3045741003
2018-07-19T08:02:00Z,1531987320,202,42.847485,42.8667071,9000,0,6.4,240.5,705153.56,-204816.64,233.6,Air+FixedWing,Blue,Enemies,E-2C,Blue AWACS,us,,138.94369925441,87.2724609375,0.457109293365717,9000,7609.58056640625,138.94369925441,0,6.39999669631503,0.0739446755396707,0,0.0383083399245797,5000,0.988123675228693,0.00423933179596913,0.161787404127715,965.267578125,8825.985,9791.252578125,,,120,1390.41943359375,17146.7804137614,17171.2786109123
2018-07-19T08:02:01Z,1531987321,202,42.8460126,42.8660915,9000,0,6.5,240.5,705041.25,-204899.28,233.6,Air+FixedWing,Blue,Enemies,E-2C,Blue AWACS,us,,139.440204233358,87.595344543457,0.458742739439899,9000,7543.09155273438,139.440204233358,0,6.49999046451537,0.0459877510732468,0,0.0513960362511687,5000,0.997973751826066,0.000955772364359706,0.0745671832996409,972.178527832031,8825.985,9798.16352783203,,,121,1456.90844726562,17285.0754903128,17309.7688315461
2018-07-19T08:02:02Z,1531987322,202,42.8445441,42.8654777,9000,0,6.5,240.5,704929.25,-204981.7,233.6,Air+FixedWing,Blue,Enemies,E-2C,Blue AWACS,us,,139.058856167148,87.34716796875,0.457488146781096,9000,7478.11999511719,139.058856167148,0,6.49999046451537,0.0537707046270133,0,0.0221173298063182,5000,0.992562920091144,0.00134777656518542,0.122057526525509,966.868273925781,8825.985,9792.85327392578,,,122,1521.88000488281,17423.0095392918,17447.8975151717
2018-07-19T08:02:03Z,1531987323,202,42.8430743,42.8648632,9000,0,6.5,240.5,704817.19,-205064.19,233.6,Air+FixedWing,Blue,Enemies,E-2C,Blue AWACS,us,,139.146239709849,87.4040451049805,0.457775628902774,9000,7440.43029785156,139.146239709849,0,6.49999046451537,0.0570331949383137,0,0.0139882274201861,5000,0.989597898573223,-0.00608554249121759,0.148081231651897,968.083801269531,8825.985,9794.06880126953,,,123,1559.56970214844,17561.0702538813,17586.1530431415
2018-07-19T08:02:04Z,1531987324,202,42.8416022,42.8642477,9000,0,6.5,240.4,704704.81,-205146.83,233.6,Air+FixedWing,Blue,Enemies,E-2C,Blue AWACS,us,,139.490549950133,87.6276321411133,0.458908371239992,9000,7371.58471679688,139.490549950133,0,6.49999046451537,0.0540656339327995,0,0.0139882274201861,5000,1.00057213442041,0.00204221279566132,0.0517614323018498,972.880676269531,8825.985,9798.86567626953,,,124,1628.41528320312,17699.360552879,17724.6384794802
2018-07-19T08:02:05Z,1531987325,202,42.8401358,42.8636346,9000,0,6.5,240.4,704592.94,-205229.12,233.6,Air+FixedWing,Blue,Enemies,E-2C,Blue AWACS,us,,138.884092896795,87.2337036132812,0.45691319508882,9000,7286.81494140625,138.884092896795,0,6.49999046451537,0.0604625266728895,0,0.0139882274201861,5000,0.993464725380297,0.00128244253171447,0.114142469321198,964.439562988281,8825.985,9790.42456298828,,,125,1713.18505859375,17837.1003999404,17862.572687155
2018-07-19T08:02:06Z,1531987326,202,42.8386692,42.8630214,9000,0,6.5,240.4,704481.06,-205311.44,233.6,Air+FixedWing,Blue,Enemies,E-2C,Blue AWACS,us,,138.893352185229,87.2396392822266,0.456943657116358,9000,7240.865234375,138.893352185229,0,6.49999046451537,0.0576307220818485,0,0.0139882274201861,5000,0.989964537496798,0.000261336133883811,0.1448632775233,964.5681640625,8825.985,9790.5531640625,,,126,1759.134765625,17974.8734588281,18000.5401535212
2018-07-19T08:02:07Z,1531987327,202,42.8371993,42.8624068,9000,0,6.5,240.4,704368.94,-205393.94,233.6,Air+FixedWing,Blue,Enemies,E-2C,Blue AWACS,us,,139.205839047793,87.4427337646484,0.457971704085736,9000,7220.49633789062,139.205839047793,0,6.49999046451537,0.0647716700002493,0,0.0139882274201861,5000,0.998768523842104,0.00217288086260322,0.0675915467104724,968.91328125,8825.985,9794.89828125,,,127,1779.50366210938,18112.9480734168,18138.8096011045
