ISOTime,UnixTime,Id,Longitude,Latitude,Altitude,Roll,Pitch,Yaw,U,V,Heading,Type,Color,Coalition,Name,Group,Country,Pilot,TAS,CAS,M,ASL,AGL,GS,VS,AOA,AOS,RRT,TRT,TRD,G,LatG,LonG,Ek,Ep,Em,FFW,FFV,RelativeTime,Elev,GroundDistance,AirDistance
2018-07-19T08:16:09Z,1531988169,20E,42.0530948,42.2433542,14.96,-0.1,0.8,116.1,647669.31,-281459.03,109.9,Air+FixedWing,Blue,Enemies,F-14B,Blue F-14B #001,us,<51>Chimango,1.85673184851766,1.85772728919983,0.00545526114547839,14.960000038147,1.96000003814697,NaN,NaN,NaN,NaN,NaN,NaN,NaN,NaN,NaN,NaN,NaN,14.6707484374094,NaN,,,0.289999961853027,13,NaN,NaN
2018-07-19T08:16:10Z,1531988170,20E,42.0530948,42.2433542,14.96,-0.1,0.8,116.1,647669.31,-281459.03,109.9,Air+FixedWing,Blue,Enemies,F-14B,Blue F-14B #001,us,<51>Chimango,0,0,0,14.960000038147,1.96000003814697,0,0,NaN,NaN,0,NaN,NaN,0.999900937231501,-0.00174505288541682,0.0139622921124101,0,14.6707484374094,14.6707484374094,,,1.28999996185303,13,0.00512992956523053,0.00512994197516323
2018-07-19T08:16:11Z,1531988171,20E,42.0530948,42.2433543,14.96,-0.1,0.8,116.1,647669.31,-281459.03,109.9,Air+FixedWing,Blue,Enemies,F-14B,Blue F-14B #001,us,<51>Chimango,0,0,0,14.960000038147,1.96000003814697,0,0,NaN,NaN,0,0.00989117029631303,NaN,0.999900937231501,-0.00174505288541682,0.0139622921124101,0,14.6707484374094,14.6707484374094,,,2.28999996185303,13,0.0102598597822928,0.0102598832836328
2018-07-19T08:16:12Z,1531988172,20E,42.0530948,42.2433543,14.96,-0.1,0.8,116.1,647669.31,-281459.03,109.9,Air+FixedWing,Blue,Enemies,F-14B,Blue F-14B #001,us,<51>Chimango,0,0,0,14.960000038147,1.96000003814697,0,0,NaN,NaN,0,0.00989117029631303,NaN,0.999900937231501,-0.00174505288541682,0.0139622921124101,0,14.6707484374094,14.6707484374094,,,3.28999996185303,13,0.0113146736774215,0.0113147002157187
2018-07-19T08:16:13Z,1531988173,20E,42.0530948,42.2433543,14.96,-0.1,0.8,116.1,647669.31,-281459.03,109.9,Air+FixedWing,Blue,Enemies,F-14B,Blue F-14B #001,us,<51>Chimango,0,0,0,14.960000038147,1.96000003814697,0,0,NaN,NaN,0,0.00989117029631303,NaN,0.999900937231501,-0.00174505288541682,0.0139622921124101,0,14.6707484374094,14.6707484374094,,,4.28999996185303,13,0.0123160022879912,0.0123160311450744
2018-07-19T08:16:14Z,1531988174,20E,42.0530948,42.2433543,14.96,-0.1,0.8,116.1,647669.31,-281459.03,109.9,Air+FixedWing,Blue,Enemies,F-14B,Blue F-14B #001,us,<51>Chimango,0,0,0,14.960000038147,1.96000003814697,0,0,NaN,NaN,0,0.00989117029631303,NaN,0.999900937231501,-0.00174505288541682,0.0139622921124101,0,14.6707484374094,14.6707484374094,,,5.28999996185303,13,0.0133173321800522,0.0133173633220654
2018-07-19T08:16:15Z,1531988175,20E,42.0530948,42.2433543,14.96,-0.1,0.8,116.1,647669.31,-281459.03,109.9,Air+FixedWing,Blue,Enemies,F-14B,Blue F-14B #001,us,<51>Chimango,0,0,0,14.960000038147,1.96000003814697,0,0,NaN,NaN,0,0.00989117029631303,NaN,0.999900937231501,-0.00174505288541682,0.0139622921124101,0,14.6707484374094,14.6707484374094,,,6.28999996185303,13,0.0143186607906219,0.014318694251421
2018-07-19T08:16:16Z,1531988176,20E,42.0530949,42.2433543,14.96,-0.1,0.8,116.1,647669.31,-281459.03,109.9,Air+FixedWing,Blue,Enemies,F-14B,Blue F-14B #001,us,<51>Chimango,0,0,0,14.960000038147,1.96000003814697,0,0,NaN,NaN,0,0.00989117029631303,NaN,0.999900937231501,-0.00174505288541682,0.0139622921124101,0,14.6707484374094,14.6707484374094,,,7.28999996185303,13,0.0153199900588653,0.0153200258384503
2018-07-19T08:16:17Z,1531988177,20E,42.0530949,42.2433543,14.96,-0.1,0.8,116.1,647669.31,-281459.03,109.9,Air+FixedWing,Blue,Enemies,F-14B,Blue F-14B #001,us,<51>Chimango,0,0,0,14.960000038147,1.96000003814697,0,0,NaN,NaN,0,0.00989117029631303,NaN,0.999900937231501,-0.00174505288541682,0.0139622921124101,0,14.6707484374094,14.6707484374094,,,8.28999996185303,13,0.0163213199509262,0.0163213583612059
2018-07-19T08:16:18Z,1531988178,20E,42.0530949,42.2433543,14.96,-0.1,0.8,116.1,647669.31,-281459.03,109.9,Air+FixedWing,Blue,Enemies,F-14B,Blue F-14B #001,us,<51>Chimango,0,0,0,14.960000038147,1.96000003814697,0,0,NaN,NaN,0,0.00989117029631303,NaN,0.999900937231501,-0.00174505288541682,0.0139622921124101,0,14.6707484374094,14.6707484374094,,,9.28999996185303,13,0.0173226485614959,0.0173226889447966
2018-07-19T08:16:19Z,1531988179,20E,42.0530949,42.2433543,14.96,-0.1,0.8,116.1,647669.31,-281459.03,109.9,Air+FixedWing,Blue,Enemies,F-14B,Blue F-14B #001,us,<51>Chimango,0,0,0,14.960000038147,1.96000003814697,0,0,NaN,NaN,0,0.00989117029631303,NaN,0.999900937231501,-0.00174505288541682,0.0139622921124101,0,14.6707484374094,14.6707484374094,,,10.289999961853,13,0.018323976860157,0.0183240198741522
2018-07-19T08:16:20Z,1531988180,20E,42.0530948,42.2433543,14.96,-0.1,0.8,116.1,647669.31,-281459.03,109.9,Air+FixedWing,Blue,Enemies,F-14B,Blue F-14B #001,us,<51>Chimango,0,0,0,14.960000038147,1.96000003814697,0,0,NaN,NaN,0,0.00989117029631303,NaN,0.999900937231501,-0.00174505288541682,0.0139622921124101,0,14.6707484374094,14.6707484374094,,,11.289999961853,13,0.0259971271634149,0.0259971883142196
2018-07-19T08:16:21Z,1531988181,20E,42.0530949,42.2433543,14.96,-0.1,0.8,116.1,647669.31,-281459.03,109.9,Air+FixedWing,Blue,Enemies,F-14B,Blue F-14B #001,us,<51>Chimango,0,0,0,14.960000038147,1.96000003814697,0,0,NaN,NaN,0,0.00989117029631303,NaN,0.999894713994992,-0.00174504202446375,0.0139622052131545,0,14.6707484374094,14.6707484374094,,,12.289999961853,13,0.0316805332498585,0.0316806075879925
2018-07-19T08:16:22Z,1531988182,20E,42.0530949,42.2433543,14.96,-0.1,0.8,116.1,647669.31,-281459.03,109.9,Air+FixedWing,Blue,Enemies,F-14B,Blue F-14B #001,us,<51>Chimango,6.103515625e-05,0,1.79327303743794e-07,14.9599390029907,1.95993900299072,0,-6.103515625e-05,NaN,NaN,0,0.00989117029631303,NaN,0.999896561518331,-0.0017450452488092,0.013962231011371,1.86264514923096e-10,14.6706885823679,14.6706885825542,,,13.289999961853,13,0.0340107298753369,0.034011609136385
2018-07-19T08:16:23Z,1531988183,20E,42.0530949,42.2433543,14.96,-0.1,0.8,116.1,647669.31,-281459.03,109.9,Air+FixedWing,Blue,Enemies,F-14B,Blue F-14B #001,us,<51>Chimango,0.000103950500488281,0,3.05416813831015e-07,14.9598350524902,1.95983505249023,0,-0.000103950500488281,NaN,NaN,0,0.00989117029631303,NaN,0.999900937231501,-0.00174505288541682,0.0139622921124101,5.40285327588208e-10,14.6705866417503,14.6705866422906,,,14.289999961853,13,0.0340107298753369,0.0341155595045845
2018-07-19T08:16:24Z,1531988184,20E,42.0530949,42.2433543,14.96,-0.1,0.8,116.1,647669.31,-281459.03,109.9,Air+FixedWing,Blue,Enemies,F-14B,Blue F-14B #001,us,<51>Chimango,0.000103950500488281,0,3.05416813473381e-07,14.9597311019897,1.95973110198975,0,-0.000103950500488281,NaN,NaN,0,0.00989117029631303,NaN,0.999900937231501,-0.00174505288541682,0.0139622921124101,5.40285327588208e-10,14.6704847011328,14.6704847016731,,,15.289999961853,13,0.0340107298753369,0.0342195101287536
2018-07-19T08:16:25Z,1531988185,20E,42.0530949,42.2433543,14.96,-0.1,0.8,116.1,647669.31,-281459.03,109.9,Air+FixedWing,Blue,Enemies,F-14B,Blue F-14B #001,us,<51>Chimango,0.000103950500488281,0,3.05416813115748e-07,14.9596271514893,1.95962715148926,0,-0.000103950500488281,NaN,NaN,0,0.00989117029631303,NaN,0.999900937231501,-0.00174505288541682,0.0139622921124101,5.40285327588208e-10,14.6703827605152,14.6703827610555,,,16.289999961853,13,0.0340107298753369,0.034323461123064
2018-07-19T08:16:26Z,1531988186,20E,42.0530949,42.2433543,14.96,-0.1,0.8,116.1,647669.31,-281459.03,109.9,Air+FixedWing,Blue,Enemies,F-14B,Blue F-14B #001,us,<51>Chimango,0.000103950500488281,0,3.05416812758114e-07,14.9595232009888,1.95952320098877,0,-0.000103950500488281,NaN,NaN,0,0.00989117029631303,NaN,0.999900937231501,-0.00174505288541682,0.0139622921124101,5.40285327588208e-10,14.6702808198977,14.6702808204379,,,17.289999961853,13,0.0340107298753369,0.0344274114912634
2018-07-19T08:16:27Z,1531988187,20E,42.0530949,42.2433543,14.96,-0.1,0.8,116.1,647669.31,-281459.03,109.9,Air+FixedWing,Blue,Enemies,F-14B,Blue F-14B #001,us,<51>Chimango,0.000103950500488281,0,3.0541681240048e-07,14.9594192504883,1.95941925048828,0,-0.000103950500488281,NaN,NaN,0,0.00989117029631303,NaN,0.999900937231501,-0.00174505288541682,0.0139622921124101,5.40285327588208e-10,14.6701788792801,14.6701788798204,,,18.289999961853,13,0.0340107298753369,0.0345313618594629
2018-07-19T08:16:28Z,1531988188,20E,42.0530949,42.2433543,14.96,-0.1,0.8,116.1,647669.31,-281459.03,109.9,Air+FixedWing,Blue,Enemies,F-14B,Blue F-14B #001,us,<51>Chimango,0.000103950500488281,0,3.05416812042847e-07,14.9593152999878,1.95931529998779,0,-0.000103950500488281,NaN,NaN,0,0.00989117029631303,NaN,0.999900937231501,-0.00174505288541682,0.0139622921124101,5.40285327588208e-10,14.6700769386625,14.6700769392028,,,19.289999961853,13,0.0340107298753369,0.0346353121109371
2018-07-19T08:16:29Z,1531988189,20E,42.0530949,42.2433543,14.96,-0.1,0.8,116.1,647669.31,-281459.03,109.9,Air+FixedWing,Blue,Enemies,F-14B,Blue F-14B #001,us,<51>Chimango,0.000103950500488281,0,3.05416811685213e-07,14.9592113494873,1.9592113494873,0,-0.000103950500488281,NaN,NaN,0,0.00989117029631303,NaN,0.999900937231501,-0.00174505288541682,0.0139622921124101,5.40285327588208e-10,14.669974998045,14.6699749985853,,,20.289999961853,13,0.0340107298753369,0.0347392625042019
2018-07-19T08:16:30Z,1531988190,20E,42.0530949,42.2433543,14.96,-0.1,0.8,116.1,647669.31,-281459.03,109.9,Air+FixedWing,Blue,Enemies,F-14B,Blue F-14B #001,us,<51>Chimango,0.000103950500488281,0,3.05416811327579e-07,14.9591073989868,1.95910739898682,0,-0.000103950500488281,NaN,NaN,0,0.00989117029631303,NaN,0.999900937231501,-0.00174505288541682,0.0139622921124101,5.40285327588208e-10,14.6698730574274,14.6698730579677,,,21.289999961853,13,0.0340107298753369,0.0348432128724014
2018-07-19T08:16:31Z,1531988191,20E,42.0530949,42.2433543,14.96,-0.1,0.8,116.1,647669.31,-281459.03,109.9,Air+FixedWing,Blue,Enemies,F-14B,Blue F-14B #001,us,<51>Chimango,0.000103950500488281,0,3.05416810969946e-07,14.9590034484863,1.95900344848633,0,-0.000103950500488281,NaN,NaN,0,0.00989117029631303,NaN,0.999900937231501,-0.00174505288541682,0.0139622921124101,5.40285327588208e-10,14.6697711168098,14.6697711173501,,,22.289999961853,13,0.0340107298753369,0.0349471638667118
2018-07-19T08:16:32Z,1531988192,20E,42.0530949,42.2433543,14.96,-0.1,0.8,116.1,647669.31,-281459.03,109.9,Air+FixedWing,Blue,Enemies,F-14B,Blue F-14B #001,us,<51>Chimango,0.000103950500488281,0,3.05416810612312e-07,14.9588994979858,1.95889949798584,0,-0.000103950500488281,NaN,NaN,0,0.00989117029631303,NaN,0.999900937231501,-0.00174505288541682,0.0139622921124101,5.40285327588208e-10,14.6696691761923,14.6696691767326,,,23.289999961853,13,0.0340107298753369,0.0350511142349113
2018-07-19T08:16:33Z,1531988193,20E,42.0530949,42.2433543,14.96,-0.1,0.8,116.1,647669.31,-281459.03,109.9,Air+FixedWing,Blue,Enemies,F-14B,Blue F-14B #001,us,<51>Chimango,0.000103950500488281,0,3.05416810254678e-07,14.9587955474854,1.95879554748535,0,-0.000103950500488281,NaN,NaN,0,0.00989117029631303,NaN,0.999900937231501,-0.00174505288541682,0.0139622921124101,5.40285327588208e-10,14.6695672355747,14.669567236115,,,24.289999961853,13,0.0340107298753369,0.0351550646031108
2018-07-19T08:16:34Z,1531988194,20E,42.0530949,42.2433543,14.96,-0.1,0.8,116.1,647669.31,-281459.03,109.9,Air+FixedWing,Blue,Enemies,F-14B,Blue F-14B #001,us,<51>Chimango,0.000103950500488281,0,3.05416809897045e-07,14.9586915969849,1.95869159698486,0,-0.000103950500488281,NaN,NaN,0,0.00989117029631303,NaN,0.999900937231501,-0.00174505288541682,0.0139622921124101,5.40285327588208e-10,14.6694652949572,14.6694652954974,,,25.289999961853,13,0.0340107298753369,0.0352590149713103
2018-07-19T08:16:35Z,1531988195,20E,42.0530949,42.2433543,14.96,-0.1,0.8,116.1,647669.31,-281459.03,109.9,Air+FixedWing,Blue,Enemies,F-14B,Blue F-14B #001,us,<51>Chimango,0.000103950500488281,0,3.05416809539411e-07,14.9585876464844,1.95858764648438,0,-0.000103950500488281,NaN,NaN,0,0.00989117029631303,NaN,0.999900937231501,-0.00174505288541682,0.0139622921124101,5.40285327588208e-10,14.6693633543396,14.6693633548799,,,26.289999961853,13,0.0340107298753369,0.0353629659656207
2018-07-19T08:16:36Z,1531988196,20E,42.0530949,42.2433543,14.96,-0.1,0.8,116.1,647669.31,-281459.03,109.9,Air+FixedWing,Blue,Enemies,F-14B,Blue F-14B #001,us,<51>Chimango,0.000103950500488281,0,3.05416809181777e-07,14.9584836959839,1.95848369598389,0,-0.000103950500488281,NaN,NaN,0,0.00989117029631303,NaN,0.999900937231501,-0.00174505288541682,0.0139622921124101,5.40285327588208e-10,14.669261413722,14.6692614142623,,,27.289999961853,13,0.0340107298753369,0.0354669163338202
2018-07-19T08:16:37Z,1531988197,20E,42.0530949,42.2433543,14.96,-0.1,0.8,116.1,647669.31,-281459.03,109.9,Air+FixedWing,Blue,Enemies,F-14B,Blue F-14B #001,us,<51>Chimango,0.000103950500488281,0,3.05416808824144e-07,14.9583797454834,1.9583797454834,0,-0.000103950500488281,NaN,NaN,0,0.00989117029631303,NaN,0.999900937231501,-0.00174505288541682,0.0139622921124101,5.40285327588208e-10,14.6691594731045,14.6691594736448,,,28.289999961853,13,0.0340107298753369,0.0355708662151462
2018-07-19T08:16:38Z,1531988198,20E,42.0530949,42.2433543,14.96,-0.1,0.8,116.1,647669.31,-281459.03,109.9,Air+FixedWing,Blue,Enemies,F-14B,Blue F-14B #001,us,<51>Chimango,0.000103950500488281,0,3.0541680846651e-07,14.9582757949829,1.95827579498291,0,-0.000103950500488281,NaN,NaN,0,0.00989117029631303,NaN,0.999900937231501,-0.00174505288541682,0.0139622921124101,5.40285327588208e-10,14.6690575324869,14.6690575330272,,,29.289999961853,13,0.0340107298753369,0.0356748172094566
2018-07-19T08:16:39Z,1531988199,20E,42.0530949,42.2433543,14.96,-0.1,0.8,116.1,647669.31,-281459.03,109.9,Air+FixedWing,Blue,Enemies,F-14B,Blue F-14B #001,us,<51>Chimango,0.000103950500488281,0,3.05416808108876e-07,14.9581718444824,1.95817184448242,0,-0.000103950500488281,NaN,NaN,0,0.00989117029631303,NaN,0.999900937231501,-0.00174505288541682,0.0139622921124101,5.40285327588208e-10,14.6689555918694,14.6689555924096,,,30.289999961853,13,0.0340107298753369,0.0357787675776561
2018-07-19T08:16:40Z,1531988200,20E,42.0530949,42.2433543,14.96,-0.1,0.8,116.1,647669.31,-281459.03,109.9,Air+FixedWing,Blue,Enemies,F-14B,Blue F-14B #001,us,<51>Chimango,0.000103950500488281,0,3.05416807751243e-07,14.9580678939819,1.95806789398193,0,-0.000103950500488281,NaN,NaN,0,0.00989117029631303,NaN,0.999900937231501,-0.00174505288541682,0.0139622921124101,5.40285327588208e-10,14.6688536512518,14.6688536517921,,,31.289999961853,13,0.0340107298753369,0.0358827179458555
2018-07-19T08:16:41Z,1531988201,20E,42.0530949,42.2433543,14.96,-0.1,0.8,116.1,647669.31,-281459.03,109.9,Air+FixedWing,Blue,Enemies,F-14B,Blue F-14B #001,us,<51>Chimango,0.000103950500488281,0,3.05416807393609e-07,14.9579639434814,1.95796394348145,0,-0.000103950500488281,NaN,NaN,0,0.00989117029631303,NaN,0.999900937231501,-0.00174505288541682,0.0139622921124101,5.40285327588208e-10,14.6687517106342,14.6687517111745,,,32.289999961853,13,0.0340107298753369,0.0359866687092626
2018-07-19T08:16:42Z,1531988202,20E,42.0530949,42.2433543,14.96,-0.1,0.8,116.1,647669.31,-281459.03,109.9,Air+FixedWing,Blue,Enemies,F-14B,Blue F-14B #001,us,<51>Chimango,0.000103950500488281,0,3.05416807035975e-07,14.957859992981,1.95785999298096,0,-0.000103950500488281,NaN,NaN,0,0.00989117029631303,NaN,0.999900937231501,-0.00174505288541682,0.0139622921124101,5.40285327588208e-10,14.6686497700167,14.668649770557,,,33.289999961853,13,0.0340107298753369,0.036090619077462
2018-07-19T08:16:43Z,1531988203,20E,42.0530949,42.2433543,14.96,-0.1,0.8,116.1,647669.31,-281459.03,109.9,Air+FixedWing,Blue,Enemies,F-14B,Blue F-14B #001,us,<51>Chimango,0.000103950500488281,0,3.05416806678342e-07,14.9577560424805,1.95775604248047,0,-0.000103950500488281,NaN,NaN,0,0.00989117029631303,NaN,0.999900937231501,-0.00174505288541682,0.0139622921124101,5.40285327588208e-10,14.6685478293991,14.6685478299394,,,34.289999961853,13,0.0340107298753369,0.0361945697016311
2018-07-19T08:16:44Z,1531988204,20E,42.0530949,42.2433543,14.96,-0.1,0.8,116.1,647669.31,-281459.03,109.9,Air+FixedWing,Blue,Enemies,F-14B,Blue F-14B #001,us,<51>Chimango,0.000103950500488281,0,3.05416806320708e-07,14.95765209198,1.95765209197998,0,-0.000103950500488281,NaN,NaN,0,0.00989117029631303,NaN,0.999900937231501,-0.00174505288541682,0.0139622921124101,5.40285327588208e-10,14.6684458887815,14.6684458893218,,,35.289999961853,13,0.0340107298753369,0.0362985206959415
2018-07-19T08:16:45Z,1531988205,20E,42.0530949,42.2433543,14.96,-0.1,0.8,116.1,647669.31,-281459.03,109.9,Air+FixedWing,Blue,Enemies,F-14B,Blue F-14B #001,us,<51>Chimango,0.000103950500488281,0,3.05416805963074e-07,14.9575481414795,1.95754814147949,0,-0.000103950500488281,NaN,NaN,0,0.00989117029631303,NaN,0.999900937231501,-0.00174505288541682,0.0139622921124101,5.40285327588208e-10,14.668343948164,14.6683439487043,,,36.289999961853,13,0.0340107298753369,0.036402471064141
2018-07-19T08:16:46Z,1531988206,20E,42.0530949,42.2433543,14.96,-0.1,0.8,116.1,647669.31,-281459.03,109.9,Air+FixedWing,Blue,Enemies,F-14B,Blue F-14B #001,us,<51>Chimango,0.000103950500488281,0,3.05416805605441e-07,14.957444190979,1.957444190979,0,-0.000103950500488281,NaN,NaN,0,0.00989117029631303,NaN,0.999900937231501,-0.00174505288541682,0.0139622921124101,5.40285327588208e-10,14.6682420075464,14.6682420080867,,,37.289999961853,13,0.0340107298753369,0.0365064206894998
2018-07-19T08:16:47Z,1531988207,20E,42.0530949,42.2433543,14.96,-0.1,0.8,116.1,647669.31,-281459.03,109.9,Air+FixedWing,Blue,Enemies,F-14B,Blue F-14B #001,us,<51>Chimango,0.000103950500488281,0,3.05416805247807e-07,14.9573402404785,1.95734024047852,0,-0.000103950500488281,NaN,NaN,0,0.00989117029631303,NaN,0.999900937231501,-0.00174505288541682,0.0139622921124101,5.40285327588208e-10,14.6681400669289,14.6681400674691,,,38.289999961853,13,0.0340107298753369,0.0366103710576992
2018-07-19T08:16:48Z,1531988208,20E,42.0530949,42.2433543,14.96,-0.1,0.8,116.1,647669.31,-281459.03,109.9,Air+FixedWing,Blue,Enemies,F-14B,Blue F-14B #001,us,<51>Chimango,0.000103950500488281,0,3.05416804890173e-07,14.957236289978,1.95723628997803,0,-0.000103950500488281,NaN,NaN,0,0.00989117029631303,NaN,0.999900937231501,-0.00174505288541682,0.0139622921124101,5.40285327588208e-10,14.6680381263113,14.6680381268516,,,39.289999961853,13,0.0340107298753369,0.0367143223079777
2018-07-19T08:16:49Z,1531988209,20E,42.0530949,42.2433543,14.96,-0.1,0.8,116.1,647669.31,-281459.03,109.9,Air+FixedWing,Blue,Enemies,F-14B,Blue F-14B #001,us,<51>Chimango,0.000103950500488281,0,3.0541680453254e-07,14.9571323394775,1.95713233947754,0,-0.000103950500488281,NaN,NaN,0,0.00989117029631303,NaN,0.999900937231501,-0.00174505288541682,0.0139622921124101,5.40285327588208e-10,14.6679361856937,14.667936186234,,,40.289999961853,13,0.0340107298753369,0.0368182726761772
2018-07-19T08:16:50Z,1531988210,20E,42.0530949,42.2433543,14.96,-0.1,0.8,116.1,647669.31,-281459.03,109.9,Air+FixedWing,Blue,Enemies,F-14B,Blue F-14B #001,us,<51>Chimango,0.000103950500488281,0,3.05416804174906e-07,14.9570283889771,1.95702838897705,0,-0.000103950500488281,NaN,NaN,0,0.00989117029631303,NaN,0.999900937231501,-0.00174505288541682,0.0139622921124101,5.40285327588208e-10,14.6678342450762,14.6678342456165,,,41.289999961853,13,0.0340107298753369,0.0369222230443766
2018-07-19T08:16:51Z,1531988211,20E,42.0530949,42.2433543,14.96,-0.1,0.8,116.1,647669.31,-281459.03,109.9,Air+FixedWing,Blue,Enemies,F-14B,Blue F-14B #001,us,<51>Chimango,0.000103950500488281,0,3.05416803817273e-07,14.9569244384766,1.95692443847656,0,-0.000103950500488281,NaN,NaN,0,0.00989117029631303,NaN,0.999900937231501,-0.00174505288541682,0.0139622921124101,5.40285327588208e-10,14.6677323044586,14.6677323049989,,,42.289999961853,13,0.0340107298753369,0.037026174038687
2018-07-19T08:16:52Z,1531988212,20E,42.0530949,42.2433543,14.96,-0.1,0.8,116.1,647669.31,-281459.03,109.9,Air+FixedWing,Blue,Enemies,F-14B,Blue F-14B #001,us,<51>Chimango,0.000103950500488281,0,3.05416803459639e-07,14.9568204879761,1.95682048797607,0,-0.000103950500488281,NaN,NaN,0,0.00989117029631303,NaN,0.999900937231501,-0.00174505288541682,0.0139622921124101,5.40285327588208e-10,14.6676303638411,14.6676303643813,,,43.289999961853,13,0.0340107298753369,0.0371301244068865
2018-07-19T08:16:53Z,1531988213,20E,42.0530949,42.2433543,14.96,-0.1,0.8,116.1,647669.31,-281459.03,109.9,Air+FixedWing,Blue,Enemies,F-14B,Blue F-14B #001,us,<51>Chimango,0.000103950500488281,0,3.05416803102005e-07,14.9567165374756,1.95671653747559,0,-0.000103950500488281,NaN,NaN,0,0.00989117029631303,NaN,0.999900937231501,-0.00174505288541682,0.0139622921124101,5.40285327588208e-10,14.6675284232235,14.6675284237638,,,44.289999961853,13,0.0340107298753369,0.0372340745441812
2018-07-19T08:16:54Z,1531988214,20E,42.0530949,42.2433543,14.96,-0.1,0.8,116.1,647669.31,-281459.03,109.9,Air+FixedWing,Blue,Enemies,F-14B,Blue F-14B #001,us,<51>Chimango,0.000103950500488281,0,3.05416802744372e-07,14.9566125869751,1.9566125869751,0,-0.000103950500488281,NaN,NaN,0,0.00989117029631303,NaN,0.999900937231501,-0.00174505288541682,0.0139622921124101,5.40285327588208e-10,14.6674264826059,14.6674264831462,,,45.289999961853,13,0.0340107298753369,0.0373380255384916
2018-07-19T08:16:55Z,1531988215,20E,42.0530949,42.2433543,14.96,-0.1,0.8,116.1,647669.31,-281459.03,109.9,Air+FixedWing,Blue,Enemies,F-14B,Blue F-14B #001,us,<51>Chimango,0.000103950500488281,0,3.05416802386738e-07,14.9565086364746,1.95650863647461,0,-0.000103950500488281,NaN,NaN,0,0.00989117029631303,NaN,0.999900937231501,-0.00174505288541682,0.0139622921124101,5.40285327588208e-10,14.6673245419884,14.6673245425287,,,46.289999961853,13,0.0340107298753369,0.0374419754198176
2018-07-19T08:16:56Z,1531988216,20E,42.0530949,42.2433543,14.96,-0.1,0.8,116.1,647669.31,-281459.03,109.9,Air+FixedWing,Blue,Enemies,F-14B,Blue F-14B #001,us,<51>Chimango,0.000103950500488281,0,3.05416802029104e-07,14.9564046859741,1.95640468597412,0,-0.000103950500488281,NaN,NaN,0,0.00989117029631303,NaN,0.999900937231501,-0.00174505288541682,0.0139622921124101,5.40285327588208e-10,14.6672226013708,14.6672226019111,,,47.289999961853,13,0.0340107298753369,0.0375459257880171
2018-07-19T08:16:57Z,1531988217,20E,42.0530949,42.2433543,14.96,-0.1,0.8,116.1,647669.31,-281459.03,109.9,Air+FixedWing,Blue,Enemies,F-14B,Blue F-14B #001,us,<51>Chimango,0.000103950500488281,0,3.05416801671471e-07,14.9563007354736,1.95630073547363,0,-0.000103950500488281,NaN,NaN,0,0.00989117029631303,NaN,0.999900937231501,-0.00174505288541682,0.0139622921124101,5.40285327588208e-10,14.6671206607533,14.6671206612935,,,48.289999961853,13,0.0340107298753369,0.0376498767823275
2018-07-19T08:16:58Z,1531988218,20E,42.0530949,42.2433543,14.96,-0.1,0.8,116.1,647669.31,-281459.03,109.9,Air+FixedWing,Blue,Enemies,F-14B,Blue F-14B #001,us,<51>Chimango,0.000103950500488281,0,3.05416801313837e-07,14.9561967849731,1.95619678497314,0,-0.000103950500488281,NaN,NaN,0,0.00989117029631303,NaN,0.999900937231501,-0.00174505288541682,0.0139622921124101,5.40285327588208e-10,14.6670187201357,14.667018720676,,,49.289999961853,13,0.0340107298753369,0.037753827150527
2018-07-19T08:16:59Z,1531988219,20E,42.0530949,42.2433543,14.96,-0.1,0.8,116.1,647669.31,-281459.03,109.9,Air+FixedWing,Blue,Enemies,F-14B,Blue F-14B #001,us,<51>Chimango,0.000103950500488281,0,3.05416800956204e-07,14.9560928344727,1.95609283447266,0,-0.000103950500488281,NaN,NaN,0,0.00989117029631303,NaN,0.999900937231501,-0.00174505288541682,0.0139622921124101,5.40285327588208e-10,14.6669167795181,14.6669167800584,,,50.289999961853,13,0.0340107298753369,0.0378577775187265
2018-07-19T08:17:00Z,1531988220,20E,42.0530949,42.2433543,14.96,-0.1,0.8,116.1,647669.31,-281459.03,109.9,Air+FixedWing,Blue,Enemies,F-14B,Blue F-14B #001,us,<51>Chimango,0.000103950500488281,0,3.0541680059857e-07,14.9559888839722,1.95598888397217,0,-0.000103950500488281,NaN,NaN,0,0.00989117029631303,NaN,0.999900937231501,-0.00174505288541682,0.0139622921124101,5.40285327588208e-10,14.6668148389006,14.6668148394409,,,51.289999961853,13,0.0340107298753369,0.0379617285130369
2018-07-19T08:17:01Z,1531988221,20E,42.0530949,42.2433543,14.96,-0.1,0.8,116.1,647669.31,-281459.03,109.9,Air+FixedWing,Blue,Enemies,F-14B,Blue F-14B #001,us,<51>Chimango,0.000103950500488281,0,3.05416800240936e-07,14.9558849334717,1.95588493347168,0,-0.000103950500488281,NaN,NaN,0,0.00989117029631303,NaN,0.999900937231501,-0.00174505288541682,0.0139622921124101,5.40285327588208e-10,14.666712898283,14.6667128988233,,,52.289999961853,13,0.0340107298753369,0.0380656788812364
2018-07-19T08:17:02Z,1531988222,20E,42.0530949,42.2433543,14.96,-0.1,0.8,116.1,647669.31,-281459.03,109.9,Air+FixedWing,Blue,Enemies,F-14B,Blue F-14B #001,us,<51>Chimango,0.000103950500488281,0,3.05416799883303e-07,14.9557809829712,1.95578098297119,0,-0.000103950500488281,NaN,NaN,0,0.00989117029631303,NaN,0.999900937231501,-0.00174505288541682,0.0139622921124101,5.40285327588208e-10,14.6666109576654,14.6666109582057,,,53.289999961853,13,0.0340107298753369,0.0381696295054054
2018-07-19T08:17:03Z,1531988223,20E,42.0530949,42.2433543,14.96,-0.1,0.8,116.1,647669.31,-281459.03,109.9,Air+FixedWing,Blue,Enemies,F-14B,Blue F-14B #001,us,<51>Chimango,0.000103950500488281,0,3.05416799525669e-07,14.9556770324707,1.9556770324707,0,-0.000103950500488281,NaN,NaN,0,0.00989117029631303,NaN,0.999900937231501,-0.00174505288541682,0.0139622921124101,5.40285327588208e-10,14.6665090170479,14.6665090175882,,,54.289999961853,13,0.0340107298753369,0.0382735798736049
2018-07-19T08:17:04Z,1531988224,20E,42.0530949,42.2433543,14.96,-0.1,0.8,116.1,647669.31,-281459.03,109.9,Air+FixedWing,Blue,Enemies,F-14B,Blue F-14B #001,us,<51>Chimango,0.000103950500488281,0,3.05416799168035e-07,14.9555730819702,1.95557308197021,0,-0.000103950500488281,NaN,NaN,0,0.00989117029631303,NaN,0.999900937231501,-0.00174505288541682,0.0139622921124101,5.40285327588208e-10,14.6664070764303,14.6664070769706,,,55.289999961853,13,0.0340107298753369,0.0383775298941761
2018-07-19T08:17:05Z,1531988225,20E,42.0530949,42.2433543,14.96,-0.1,0.8,116.1,647669.31,-281459.03,109.9,Air+FixedWing,Blue,Enemies,F-14B,Blue F-14B #001,us,<51>Chimango,0.000103950500488281,0,3.05416798810402e-07,14.9554691314697,1.95546913146973,0,-0.000103950500488281,NaN,NaN,0,0.00989117029631303,NaN,0.999900937231501,-0.00174505288541682,0.0139622921124101,5.40285327588208e-10,14.6663051358128,14.666305136353,,,56.289999961853,13,0.0340107298753369,0.0384814802623756
2018-07-19T08:17:06Z,1531988226,20E,42.0530949,42.2433543,14.96,-0.1,0.8,116.1,647669.31,-281459.03,109.9,Air+FixedWing,Blue,Enemies,F-14B,Blue F-14B #001,us,<51>Chimango,0.000103950500488281,0,3.05416798452768e-07,14.9553651809692,1.95536518096924,0,-0.000103950500488281,NaN,NaN,0,0.00989117029631303,NaN,0.999900937231501,-0.00174505288541682,0.0139622921124101,5.40285327588208e-10,14.6662031951952,14.6662031957355,,,57.289999961853,13,0.0340107298753369,0.0385854306305751
2018-07-19T08:17:07Z,1531988227,20E,42.0530949,42.2433543,14.96,-0.1,0.8,116.1,647669.31,-281459.03,109.9,Air+FixedWing,Blue,Enemies,F-14B,Blue F-14B #001,us,<51>Chimango,0.000103950500488281,0,3.05416798095135e-07,14.9552612304688,1.95526123046875,0,-0.000103950500488281,NaN,NaN,0,0.00989117029631303,NaN,0.999900937231501,-0.00174505288541682,0.0139622921124101,5.40285327588208e-10,14.6661012545776,14.6661012551179,,,58.289999961853,13,0.0340107298753369,0.0386893818808535
2018-07-19T08:17:08Z,1531988228,20E,42.0530949,42.2433543,14.96,-0.1,0.8,116.1,647669.31,-281459.03,109.9,Air+FixedWing,Blue,Enemies,F-14B,Blue F-14B #001,us,<51>Chimango,0.000103950500488281,0,3.05416797737501e-07,14.9551572799683,1.95515727996826,0,-0.000103950500488281,NaN,NaN,0,0.00989117029631303,NaN,0.999900937231501,-0.00174505288541682,0.0139622921124101,5.40285327588208e-10,14.6659993139601,14.6659993145004,,,59.289999961853,13,0.0340107298753369,0.038793332249053
2018-07-19T08:17:09Z,1531988229,20E,42.0530949,42.2433543,14.96,-0.1,0.8,116.1,647669.31,-281459.03,109.9,Air+FixedWing,Blue,Enemies,F-14B,Blue F-14B #001,us,<51>Chimango,0.000103950500488281,0,3.05416797379867e-07,14.9550533294678,1.95505332946777,0,-0.000103950500488281,NaN,NaN,0,0.00989117029631303,NaN,0.999900937231501,-0.00174505288541682,0.0139622921124101,5.40285327588208e-10,14.6658973733425,14.6658973738828,,,60.289999961853,13,0.0340107298753369,0.0388972826172525
2018-07-19T08:17:10Z,1531988230,20E,42.0530949,42.2433543,14.95,-0.1,0.8,116.1,647669.31,-281459.03,109.9,Air+FixedWing,Blue,Enemies,F-14B,Blue F-14B #001,us,<51>Chimango,0.000103950500488281,0,3.05416797022234e-07,14.9549493789673,1.95494937896729,0,-0.000103950500488281,NaN,NaN,0,0.00989117029631303,NaN,0.999900937231501,-0.00174505288541682,0.0139622921124101,5.40285327588208e-10,14.665795432725,14.6657954332652,,,61.289999961853,13,0.0340107298753369,0.0390012336115629
2018-07-19T08:17:11Z,1531988231,20E,42.0530949,42.2433543,14.95,-0.1,0.8,116.1,647669.31,-281459.03,109.9,Air+FixedWing,Blue,Enemies,F-14B,Blue F-14B #001,us,<51>Chimango,0.000103950500488281,0,3.054167966646e-07,14.9548454284668,1.9548454284668,0,-0.000103950500488281,NaN,NaN,0,0.00989117029631303,NaN,0.999900937231501,-0.00174505288541682,0.0139622921124101,5.40285327588208e-10,14.6656934921074,14.6656934926477,,,62.289999961853,13,0.0340107298753369,0.0391051839797624
2018-07-19T08:17:12Z,1531988232,20E,42.0530949,42.2433543,14.95,-0.1,0.8,116.1,647669.31,-281459.03,109.9,Air+FixedWing,Blue,Enemies,F-14B,Blue F-14B #001,us,<51>Chimango,0.000103950500488281,0,3.05416796306967e-07,14.9547414779663,1.95474147796631,0,-0.000103950500488281,NaN,NaN,0,0.00989117029631303,NaN,0.999900937231501,-0.00174505288541682,0.0139622921124101,5.40285327588208e-10,14.6655915514898,14.6655915520301,,,63.289999961853,13,0.0340107298753369,0.0392091343479619
2018-07-19T08:17:13Z,1531988233,20E,42.0530949,42.2433543,14.95,-0.1,0.8,116.1,647669.31,-281459.03,109.9,Air+FixedWing,Blue,Enemies,F-14B,Blue F-14B #001,us,<51>Chimango,0.000103950500488281,0,3.05416795949333e-07,14.9546375274658,1.95463752746582,0,-0.000103950500488281,NaN,NaN,0,0.00989117029631303,NaN,0.999900937231501,-0.00174505288541682,0.0139622921124101,5.40285327588208e-10,14.6654896108723,14.6654896114126,,,64.289999961853,13,0.0340107298753369,0.0393130846244993
2018-07-19T08:17:14Z,1531988234,20E,42.0530949,42.2433543,14.95,-0.1,0.8,116.1,647669.31,-281459.03,109.9,Air+FixedWing,Blue,Enemies,F-14B,Blue F-14B #001,us,<51>Chimango,0.000103950500488281,0,3.05416795591699e-07,14.9545335769653,1.95453357696533,0,-0.000103950500488281,NaN,NaN,0,0.00989117029631303,NaN,0.999900937231501,-0.00174505288541682,0.0139622921124101,5.40285327588208e-10,14.6653876702547,14.665387670795,,,65.289999961853,13,0.0340107298753369,0.0394170349926988
2018-07-19T08:17:15Z,1531988235,20E,42.0530949,42.2433543,14.95,-0.1,0.8,116.1,647669.31,-281459.03,109.9,Air+FixedWing,Blue,Enemies,F-14B,Blue F-14B #001,us,<51>Chimango,0.000103950500488281,0,3.05416795234066e-07,14.9544296264648,1.95442962646484,0,-0.000103950500488281,NaN,NaN,0,0.00989117029631303,NaN,0.999900937231501,-0.00174505288541682,0.0139622921124101,5.40285327588208e-10,14.6652857296371,14.6652857301774,,,66.289999961853,13,0.0340107298753369,0.0395209853608983
2018-07-19T08:17:16Z,1531988236,20E,42.0530949,42.2433543,14.95,-0.1,0.8,116.1,647669.31,-281459.03,109.9,Air+FixedWing,Blue,Enemies,F-14B,Blue F-14B #001,us,<51>Chimango,0.000103950500488281,0,3.05416794876432e-07,14.9543256759644,1.95432567596436,0,-0.000103950500488281,NaN,NaN,0,0.00989117029631303,NaN,0.999900937231501,-0.00174505288541682,0.0139622921124101,5.40285327588208e-10,14.6651837890196,14.6651837895599,,,67.289999961853,13,0.0340107298753369,0.0396249357290978
2018-07-19T08:17:17Z,1531988237,20E,42.0530949,42.2433543,14.95,-0.1,0.8,116.1,647669.31,-281459.03,109.9,Air+FixedWing,Blue,Enemies,F-14B,Blue F-14B #001,us,<51>Chimango,0.000103950500488281,0,3.05416794518798e-07,14.9542217254639,1.95422172546387,0,-0.000103950500488281,NaN,NaN,0,0.00989117029631303,NaN,0.999900937231501,-0.00174505288541682,0.0139622921124101,5.40285327588208e-10,14.665081848402,14.6650818489423,,,68.289999961853,13,0.0340107298753369,0.0397288867234082
2018-07-19T08:17:18Z,1531988238,20E,42.0530949,42.2433543,14.95,-0.1,0.8,116.1,647669.31,-281459.03,109.9,Air+FixedWing,Blue,Enemies,F-14B,Blue F-14B #001,us,<51>Chimango,0.000103950500488281,0,3.05416794161165e-07,14.9541177749634,1.95411777496338,0,-0.000103950500488281,NaN,NaN,0,0.00989117029631303,NaN,0.999900937231501,-0.00174505288541682,0.0139622921124101,5.40285327588208e-10,14.6649799077845,14.6649799083247,,,69.289999961853,13,0.0340107298753369,0.0398328370916077
2018-07-19T08:17:19Z,1531988239,20E,42.0530949,42.2433543,14.95,-0.1,0.8,116.1,647669.31,-281459.03,109.9,Air+FixedWing,Blue,Enemies,F-14B,Blue F-14B #001,us,<51>Chimango,0.000103950500488281,0,3.05416793803531e-07,14.9540138244629,1.95401382446289,0,-0.000103950500488281,NaN,NaN,0,0.00989117029631303,NaN,0.999900937231501,-0.00174505288541682,0.0139622921124101,5.40285327588208e-10,14.6648779671669,14.6648779677072,,,70.289999961853,13,0.0340107298753369,0.0399367874598072
2018-07-19T08:17:20Z,1531988240,20E,42.0530949,42.2433543,14.95,-0.1,0.8,116.1,647669.31,-281459.03,109.9,Air+FixedWing,Blue,Enemies,F-14B,Blue F-14B #001,us,<51>Chimango,0.000103950500488281,0,3.05416793445898e-07,14.9539098739624,1.9539098739624,0,-0.000103950500488281,NaN,NaN,0,0.00989117029631303,NaN,0.999900937231501,-0.00174505288541682,0.0139622921124101,5.40285327588208e-10,14.6647760265493,14.6647760270896,,,71.289999961853,13,0.0340107298753369,0.0400407384541175
2018-07-19T08:17:21Z,1531988241,20E,42.0530949,42.2433543,14.95,-0.1,0.8,116.1,647669.31,-281459.03,109.9,Air+FixedWing,Blue,Enemies,F-14B,Blue F-14B #001,us,<51>Chimango,0.000103950500488281,0,3.05416793088264e-07,14.9538059234619,1.95380592346191,0,-0.000103950500488281,NaN,NaN,0,0.00989117029631303,NaN,0.999900937231501,-0.00174505288541682,0.0139622921124101,5.40285327588208e-10,14.6646740859318,14.6646740864721,,,72.289999961853,13,0.0340107298753369,0.0401446890782866
2018-07-19T08:17:22Z,1531988242,20E,42.0530949,42.2433543,14.95,-0.1,0.8,116.1,647669.31,-281459.03,109.9,Air+FixedWing,Blue,Enemies,F-14B,Blue F-14B #001,us,<51>Chimango,0.000103950500488281,0,3.0541679273063e-07,14.9537019729614,1.95370197296143,0,-0.000103950500488281,NaN,NaN,0,0.00989117029631303,NaN,0.999900937231501,-0.00174505288541682,0.0139622921124101,5.40285327588208e-10,14.6645721453142,14.6645721458545,,,73.289999961853,13,0.0340107298753369,0.0402486394464861
2018-07-19T08:17:23Z,1531988243,20E,42.0530949,42.2433543,14.95,-0.1,0.8,116.1,647669.31,-281459.03,109.9,Air+FixedWing,Blue,Enemies,F-14B,Blue F-14B #001,us,<51>Chimango,0.000103950500488281,0,3.05416792372997e-07,14.9535980224609,1.95359802246094,0,-0.000103950500488281,NaN,NaN,0,0.00989117029631303,NaN,0.999900937231501,-0.00174505288541682,0.0139622921124101,5.40285327588208e-10,14.6644702046967,14.6644702052369,,,74.289999961853,13,0.0340107298753369,0.0403525894670573
2018-07-19T08:17:24Z,1531988244,20E,42.0530949,42.2433543,14.95,-0.1,0.8,116.1,647669.31,-281459.03,109.9,Air+FixedWing,Blue,Enemies,F-14B,Blue F-14B #001,us,<51>Chimango,0.000103950500488281,0,3.05416792015363e-07,14.9534940719604,1.95349407196045,0,-0.000103950500488281,NaN,NaN,0,0.00989117029631303,NaN,0.999900937231501,-0.00174505288541682,0.0139622921124101,5.40285327588208e-10,14.6643682640791,14.6643682646194,,,75.289999961853,13,0.0340107298753369,0.0404565398352568
2018-07-19T08:17:25Z,1531988245,20E,42.0530949,42.2433543,14.95,-0.1,0.8,116.1,647669.31,-281459.03,109.9,Air+FixedWing,Blue,Enemies,F-14B,Blue F-14B #001,us,<51>Chimango,0.000103950500488281,0,3.0541679165773e-07,14.95339012146,1.95339012145996,0,-0.000103950500488281,NaN,NaN,0,0.00989117029631303,NaN,0.999900937231501,-0.00174505288541682,0.0139622921124101,5.40285327588208e-10,14.6642663234615,14.6642663240018,,,76.289999961853,13,0.0340107298753369,0.0405604902034563
2018-07-19T08:17:26Z,1531988246,20E,42.0530949,42.2433543,14.95,-0.1,0.8,116.1,647669.31,-281459.03,109.9,Air+FixedWing,Blue,Enemies,F-14B,Blue F-14B #001,us,<51>Chimango,0.000103950500488281,0,3.05416791300096e-07,14.9532861709595,1.95328617095947,0,-0.000103950500488281,NaN,NaN,0,0.00989117029631303,NaN,0.999900937231501,-0.00174505288541682,0.0139622921124101,5.40285327588208e-10,14.664164382844,14.6641643833843,,,77.289999961853,13,0.0340107298753369,0.0406644414537347
2018-07-19T08:17:27Z,1531988247,20E,42.0530949,42.2433543,14.95,-0.1,0.8,116.1,647669.31,-281459.03,109.9,Air+FixedWing,Blue,Enemies,F-14B,Blue F-14B #001,us,<51>Chimango,0.000103950500488281,0,3.05416790942462e-07,14.953182220459,1.95318222045898,0,-0.000103950500488281,NaN,NaN,0,0.00989117029631303,NaN,0.999900937231501,-0.00174505288541682,0.0139622921124101,5.40285327588208e-10,14.6640624422264,14.6640624427667,,,78.289999961853,13,0.0340107298753369,0.0407683918219342
2018-07-19T08:17:28Z,1531988248,20E,42.0530949,42.2433543,14.95,-0.1,0.8,116.1,647669.31,-281459.03,109.9,Air+FixedWing,Blue,Enemies,F-14B,Blue F-14B #001,us,<51>Chimango,0.000103950500488281,0,3.05416790584829e-07,14.9530782699585,1.9530782699585,0,-0.000103950500488281,NaN,NaN,0,0.00989117029631303,NaN,0.999900937231501,-0.00174505288541682,0.0139622921124101,5.40285327588208e-10,14.6639605016088,14.6639605021491,,,79.289999961853,13,0.0340107298753369,0.0408723421901337
2018-07-19T08:17:29Z,1531988249,20E,42.0530949,42.2433543,14.95,-0.1,0.8,116.1,647669.31,-281459.03,109.9,Air+FixedWing,Blue,Enemies,F-14B,Blue F-14B #001,us,<51>Chimango,0.000103950500488281,0,3.05416790227195e-07,14.952974319458,1.95297431945801,0,-0.000103950500488281,NaN,NaN,0,0.00989117029631303,NaN,0.999900937231501,-0.00174505288541682,0.0139622921124101,5.40285327588208e-10,14.6638585609913,14.6638585615316,,,80.289999961853,13,0.0340107298753369,0.0409762925583332
2018-07-19T08:17:30Z,1531988250,20E,42.0530949,42.2433543,14.95,-0.1,0.8,116.1,647669.31,-281459.03,109.9,Air+FixedWing,Blue,Enemies,F-14B,Blue F-14B #001,us,<51>Chimango,0.000103950500488281,0,3.05416789869562e-07,14.9528703689575,1.95287036895752,0,-0.000103950500488281,NaN,NaN,0,0.00989117029631303,NaN,0.999900937231501,-0.00174505288541682,0.0139622921124101,5.40285327588208e-10,14.6637566203737,14.663756620914,,,81.289999961853,13,0.0340107298753369,0.0410802435526436
2018-07-19T08:17:31Z,1531988251,20E,42.0530949,42.2433543,14.95,-0.1,0.8,116.1,647669.31,-281459.03,109.9,Air+FixedWing,Blue,Enemies,F-14B,Blue F-14B #001,us,<51>Chimango,0.000103950500488281,0,3.05416789511928e-07,14.952766418457,1.95276641845703,0,-0.000103950500488281,NaN,NaN,0,0.00989117029631303,NaN,0.999900937231501,-0.00174505288541682,0.0139622921124101,5.40285327588208e-10,14.6636546797562,14.6636546802964,,,82.289999961853,13,0.0340107298753369,0.041184193920843
2018-07-19T08:17:32Z,1531988252,20E,42.0530949,42.2433543,14.95,-0.1,0.8,116.1,647669.31,-281459.03,109.9,Air+FixedWing,Blue,Enemies,F-14B,Blue F-14B #001,us,<51>Chimango,0.000103950500488281,0,3.05416789154295e-07,14.9526624679565,1.95266246795654,0,-0.000103950500488281,NaN,NaN,0,0.00989117029631303,NaN,0.999900937231501,-0.00174505288541682,0.0139622921124101,5.40285327588208e-10,14.6635527391386,14.6635527396789,,,83.289999961853,13,0.0340107298753369,0.0412881438021691
2018-07-19T08:17:33Z,1531988253,20E,42.0530949,42.2433543,14.95,-0.1,0.8,116.1,647669.31,-281459.03,109.9,Air+FixedWing,Blue,Enemies,F-14B,Blue F-14B #001,us,<51>Chimango,0.000103950500488281,0,3.05416788796661e-07,14.9525585174561,1.95255851745605,0,-0.000103950500488281,NaN,NaN,0,0.00989117029631303,NaN,0.999900937231501,-0.00174505288541682,0.0139622921124101,5.40285327588208e-10,14.663450798521,14.6634507990613,,,84.289999961853,13,0.0340107298753369,0.0413920947964795
2018-07-19T08:17:34Z,1531988254,20E,42.0530949,42.2433543,14.95,-0.1,0.8,116.1,647669.31,-281459.03,109.9,Air+FixedWing,Blue,Enemies,F-14B,Blue F-14B #001,us,<51>Chimango,0.000103950500488281,0,3.05416788439027e-07,14.9524545669556,1.95245456695557,0,-0.000103950500488281,NaN,NaN,0,0.00989117029631303,NaN,0.999900937231501,-0.00174505288541682,0.0139622921124101,5.40285327588208e-10,14.6633488579035,14.6633488584438,,,85.289999961853,13,0.0340107298753369,0.0414960449337742
2018-07-19T08:17:35Z,1531988255,20E,42.0530949,42.2433543,14.95,-0.1,0.8,116.1,647669.31,-281459.03,109.9,Air+FixedWing,Blue,Enemies,F-14B,Blue F-14B #001,us,<51>Chimango,0.000103950500488281,0,3.05416788081394e-07,14.9523506164551,1.95235061645508,0,-0.000103950500488281,NaN,NaN,0,0.00989117029631303,NaN,0.999900937231501,-0.00174505288541682,0.0139622921124101,5.40285327588208e-10,14.6632469172859,14.6632469178262,,,86.289999961853,13,0.0340107298753369,0.0415999953019736
2018-07-19T08:17:36Z,1531988256,20E,42.0530949,42.2433543,14.95,-0.1,0.8,116.1,647669.31,-281459.03,109.9,Air+FixedWing,Blue,Enemies,F-14B,Blue F-14B #001,us,<51>Chimango,0.000103950500488281,0,3.0541678772376e-07,14.9522466659546,1.95224666595459,0,-0.000103950500488281,NaN,NaN,0,0.00989117029631303,NaN,0.999900937231501,-0.00174505288541682,0.0139622921124101,5.40285327588208e-10,14.6631449766684,14.6631449772086,,,87.289999961853,13,0.0340107298753369,0.041703946296284
2018-07-19T08:17:37Z,1531988257,20E,42.0530949,42.2433543,14.95,-0.1,0.8,116.1,647669.31,-281459.03,109.9,Air+FixedWing,Blue,Enemies,F-14B,Blue F-14B #001,us,<51>Chimango,0.000103950500488281,0,3.05416787366127e-07,14.9521427154541,1.9521427154541,0,-0.000103950500488281,NaN,NaN,0,0.00989117029631303,NaN,0.999900937231501,-0.00174505288541682,0.0139622921124101,5.40285327588208e-10,14.6630430360508,14.6630430365911,,,88.289999961853,13,0.0340107298753369,0.0418078966644835
2018-07-19T08:17:38Z,1531988258,20E,42.0530949,42.2433543,14.95,-0.1,0.8,116.1,647669.31,-281459.03,109.9,Air+FixedWing,Blue,Enemies,F-14B,Blue F-14B #001,us,<51>Chimango,0.000103950500488281,0,3.05416787008493e-07,14.9520387649536,1.95203876495361,0,-0.000103950500488281,NaN,NaN,0,0.00989117029631303,NaN,0.999900937231501,-0.00174505288541682,0.0139622921124101,5.40285327588208e-10,14.6629410954332,14.6629410959735,,,89.289999961853,13,0.0340107298753369,0.041911847032683
2018-07-19T08:17:39Z,1531988259,20E,42.0530949,42.2433543,14.95,-0.1,0.8,116.1,647669.31,-281459.03,109.9,Air+FixedWing,Blue,Enemies,F-14B,Blue F-14B #001,us,<51>Chimango,0.000103950500488281,0,3.05416786650859e-07,14.9519348144531,1.95193481445312,0,-0.000103950500488281,NaN,NaN,0,0.00989117029631303,NaN,0.999900937231501,-0.00174505288541682,0.0139622921124101,5.40285327588208e-10,14.6628391548157,14.662839155356,,,90.289999961853,13,0.0340107298753369,0.0420157980269934
2018-07-19T08:17:40Z,1531988260,20E,42.0530949,42.2433543,14.95,-0.1,0.8,116.1,647669.31,-281459.03,109.9,Air+FixedWing,Blue,Enemies,F-14B,Blue F-14B #001,us,<51>Chimango,0.000103950500488281,0,3.05416786293226e-07,14.9518308639526,1.95183086395264,0,-0.000103950500488281,NaN,NaN,0,0.00989117029631303,NaN,0.999900937231501,-0.00174505288541682,0.0139622921124101,5.40285327588208e-10,14.6627372141981,14.6627372147384,,,91.289999961853,13,0.0340107298753369,0.0421197486511625
2018-07-19T08:17:41Z,1531988261,20E,42.0530949,42.2433543,14.95,-0.1,0.8,116.1,647669.31,-281459.03,109.9,Air+FixedWing,Blue,Enemies,F-14B,Blue F-14B #001,us,<51>Chimango,0.000103950500488281,0,3.05416785935592e-07,14.9517269134521,1.95172691345215,0,-0.000103950500488281,NaN,NaN,0,0.00989117029631303,NaN,0.999900937231501,-0.00174505288541682,0.0139622921124101,5.40285327588208e-10,14.6626352735806,14.6626352741208,,,92.289999961853,13,0.0340107298753369,0.0422236982765212
2018-07-19T08:17:42Z,1531988262,20E,42.0530949,42.2433543,14.95,-0.1,0.8,116.1,647669.31,-281459.03,109.9,Air+FixedWing,Blue,Enemies,F-14B,Blue F-14B #001,us,<51>Chimango,0.000103950500488281,0,3.05416785577959e-07,14.9516229629517,1.95162296295166,0,-0.000103950500488281,NaN,NaN,0,0.00989117029631303,NaN,0.999900937231501,-0.00174505288541682,0.0139622921124101,5.40285327588208e-10,14.662533332963,14.6625333335033,,,93.289999961853,13,0.0340107298753369,0.0423276492708316
2018-07-19T08:17:43Z,1531988263,20E,42.0530949,42.2433543,14.95,-0.1,0.8,116.1,647669.31,-281459.03,109.9,Air+FixedWing,Blue,Enemies,F-14B,Blue F-14B #001,us,<51>Chimango,0.000103950500488281,0,3.05416785220325e-07,14.9515190124512,1.95151901245117,0,-0.000103950500488281,NaN,NaN,0,0.00989117029631303,NaN,0.999900937231501,-0.00174505288541682,0.0139622921124101,5.40285327588208e-10,14.6624313923454,14.6624313928857,,,94.289999961853,13,0.0340107298753369,0.0424315996390311
2018-07-19T08:17:44Z,1531988264,20E,42.0530949,42.2433543,14.95,-0.1,0.8,116.1,647669.31,-281459.03,109.9,Air+FixedWing,Blue,Enemies,F-14B,Blue F-14B #001,us,<51>Chimango,0.000103950500488281,0,3.05416784862692e-07,14.9514150619507,1.95141506195068,0,-0.000103950500488281,NaN,NaN,0,0.00989117029631303,NaN,0.999900937231501,-0.00174505288541682,0.0139622921124101,5.40285327588208e-10,14.6623294517279,14.6623294522682,,,95.289999961853,13,0.0340107298753369,0.0425355500072306
2018-07-19T08:17:45Z,1531988265,20E,42.0530949,42.2433543,14.95,-0.1,0.8,116.1,647669.31,-281459.03,109.9,Air+FixedWing,Blue,Enemies,F-14B,Blue F-14B #001,us,<51>Chimango,0.000103950500488281,0,3.05416784505058e-07,14.9513111114502,1.9513111114502,0,-0.000103950500488281,NaN,NaN,0,0.00989117029631303,NaN,0.999900937231501,-0.00174505288541682,0.0139622921124101,5.40285327588208e-10,14.6622275111103,14.6622275116506,,,96.289999961853,13,0.0340107298753369,0.0426395006313997
2018-07-19T08:17:46Z,1531988266,20E,42.0530949,42.2433543,14.95,-0.1,0.8,116.1,647669.31,-281459.03,109.9,Air+FixedWing,Blue,Enemies,F-14B,Blue F-14B #001,us,<51>Chimango,0.000103950500488281,0,3.05416784147424e-07,14.9512071609497,1.95120716094971,0,-0.000103950500488281,NaN,NaN,0,0.00989117029631303,NaN,0.999900937231501,-0.00174505288541682,0.0139622921124101,5.40285327588208e-10,14.6621255704927,14.662125571033,,,97.289999961853,13,0.0340107298753369,0.0427434513948067
2018-07-19T08:17:47Z,1531988267,20E,42.0530949,42.2433543,14.95,-0.1,0.8,116.1,647669.31,-281459.03,109.9,Air+FixedWing,Blue,Enemies,F-14B,Blue F-14B #001,us,<51>Chimango,0.000103950500488281,0,3.05416783789791e-07,14.9511032104492,1.95110321044922,0,-0.000103950500488281,NaN,NaN,0,0.00989117029631303,NaN,0.999900937231501,-0.00174505288541682,0.0139622921124101,5.40285327588208e-10,14.6620236298752,14.6620236304155,,,98.289999961853,13,0.0340107298753369,0.0428474017630062
2018-07-19T08:17:48Z,1531988268,20E,42.0530949,42.2433543,14.95,-0.1,0.8,116.1,647669.31,-281459.03,109.9,Air+FixedWing,Blue,Enemies,F-14B,Blue F-14B #001,us,<51>Chimango,0.000103950500488281,0,3.05416783432157e-07,14.9509992599487,1.95099925994873,0,-0.000103950500488281,NaN,NaN,0,0.00989117029631303,NaN,0.999900937231501,-0.00174505288541682,0.0139622921124101,5.40285327588208e-10,14.6619216892576,14.6619216897979,,,99.289999961853,13,0.0340107298753369,0.0429513521312056
2018-07-19T08:17:49Z,1531988269,20E,42.0530949,42.2433543,14.95,-0.1,0.8,116.1,647669.31,-281459.03,109.9,Air+FixedWing,Blue,Enemies,F-14B,Blue F-14B #001,us,<51>Chimango,0.000103950500488281,0,3.05416783074524e-07,14.9508953094482,1.95089530944824,0,-0.000103950500488281,NaN,NaN,0,0.00989117029631303,NaN,0.999901034469572,-0.00174505305511921,0.0139622934702109,5.40285327588208e-10,14.6618197486401,14.6618197491803,,,100.289999961853,13,0.0340107298753369,0.043055303125516
2018-07-19T08:17:50Z,1531988270,20E,42.0530949,42.2433543,14.95,-0.1,0.8,116.1,647669.31,-281459.03,109.9,Air+FixedWing,Blue,Enemies,F-14B,Blue F-14B #001,us,<51>Chimango,0.000102996826171875,0,3.02614793887876e-07,14.9507923126221,1.95079231262207,0,-0.000102996826171875,NaN,NaN,0,0.00989117029631303,NaN,0.999900839993431,-0.00174505271571443,0.0139622907546092,5.30417310073972e-10,14.6617187432575,14.6617187437879,,,101.289999961853,13,0.0340107298753369,0.0431582994231322
2018-07-19T08:17:51Z,1531988271,20E,42.0530949,42.2433543,14.95,-0.1,0.8,116.1,647669.31,-281459.03,109.9,Air+FixedWing,Blue,Enemies,F-14B,Blue F-14B #001,us,<51>Chimango,0.000103950500488281,0,3.05416782362538e-07,14.9506883621216,1.95068836212158,0,-0.000103950500488281,NaN,NaN,0,0.00989117029631303,NaN,0.999900937231501,-0.00174505288541682,0.0139622921124101,5.40285327588208e-10,14.66161680264,14.6616168031802,,,102.289999961853,13,0.0340107298753369,0.0432622497913317
2018-07-19T08:17:52Z,1531988272,20E,42.0530949,42.2433543,14.95,-0.1,0.8,116.1,647669.31,-281459.03,109.9,Air+FixedWing,Blue,Enemies,F-14B,Blue F-14B #001,us,<51>Chimango,0.000103950500488281,0,3.05416782004904e-07,14.9505844116211,1.95058441162109,0,-0.000103950500488281,NaN,NaN,0,0.00989117029631303,NaN,0.999900937231501,-0.00174505288541682,0.0139622921124101,5.40285327588208e-10,14.6615148620224,14.6615148625627,,,103.289999961853,13,0.0340107298753369,0.0433662001595312
2018-07-19T08:17:53Z,1531988273,20E,42.0530949,42.2433543,14.95,-0.1,0.8,116.1,647669.31,-281459.03,109.9,Air+FixedWing,Blue,Enemies,F-14B,Blue F-14B #001,us,<51>Chimango,0.000103950500488281,0,3.05416781647271e-07,14.9504804611206,1.95048046112061,0,-0.000103950500488281,NaN,NaN,0,0.00989117029631303,NaN,0.999900937231501,-0.00174505288541682,0.0139622921124101,5.40285327588208e-10,14.6614129214048,14.6614129219451,,,104.289999961853,13,0.0340107298753369,0.0434701511538416
2018-07-19T08:17:54Z,1531988274,20E,42.0530949,42.2433543,14.95,-0.1,0.8,116.1,647669.31,-281459.03,109.9,Air+FixedWing,Blue,Enemies,F-14B,Blue F-14B #001,us,<51>Chimango,0.000103950500488281,0,3.05416781289637e-07,14.9503765106201,1.95037651062012,0,-0.000103950500488281,NaN,NaN,0,0.00989117029631303,NaN,0.999900937231501,-0.00174505288541682,0.0139622921124101,5.40285327588208e-10,14.6613109807873,14.6613109813276,,,105.289999961853,13,0.0340107298753369,0.0435741015220411
2018-07-19T08:17:55Z,1531988275,20E,42.0530949,42.2433543,14.95,-0.1,0.8,116.1,647669.31,-281459.03,109.9,Air+FixedWing,Blue,Enemies,F-14B,Blue F-14B #001,us,<51>Chimango,0.000103950500488281,0,3.05416780932003e-07,14.9502725601196,1.95027256011963,0,-0.000103950500488281,NaN,NaN,0,0.00989117029631303,NaN,0.999900937231501,-0.00174505288541682,0.0139622921124101,5.40285327588208e-10,14.6612090401697,14.66120904071,,,106.289999961853,13,0.0340107298753369,0.0436780518902406
2018-07-19T08:17:56Z,1531988276,20E,42.0530949,42.2433543,14.95,-0.1,0.8,116.1,647669.31,-281459.03,109.9,Air+FixedWing,Blue,Enemies,F-14B,Blue F-14B #001,us,<51>Chimango,0.000103950500488281,0,3.0541678057437e-07,14.9501686096191,1.95016860961914,0,-0.000103950500488281,NaN,NaN,0,0.00989117029631303,NaN,0.999900937231501,-0.00174505288541682,0.0139622921124101,5.40285327588208e-10,14.6611070995522,14.6611071000924,,,107.289999961853,13,0.0340107298753369,0.0437820025144096
2018-07-19T08:17:57Z,1531988277,20E,42.0530949,42.2433543,14.95,-0.1,0.8,116.1,647669.31,-281459.03,109.9,Air+FixedWing,Blue,Enemies,F-14B,Blue F-14B #001,us,<51>Chimango,0.000103950500488281,0,3.05416780216736e-07,14.9500646591187,1.95006465911865,0,-0.000103950500488281,NaN,NaN,0,0.00989117029631303,NaN,1.00054688973355,-0.00174618021840465,0.0139713119835772,5.40285327588208e-10,14.6610051589346,14.6610051594749,,,108.289999961853,13,0.0340107298753369,0.04388595350872
2018-07-19T08:17:58Z,1531988278,20E,42.0530949,42.2433543,14.96,0,0.8,116.1,647669.31,-281459.03,109.9,Air+FixedWing,Blue,Enemies,F-14B,Blue F-14B #001,us,<51>Chimango,0.00623130798339844,0,1.83081961652679e-05,14.9562959671021,1.95629596710205,0,0.00623130798339844,NaN,NaN,0.199987938897973,0.00989117029631303,NaN,0.999644745948524,0,0.0139586939401095,1.94145995919826e-06,14.6671159845781,14.6671179260381,,,109.289999961853,13,0.0340107298753369,0.0501172615260843
2018-07-19T08:17:59Z,1531988279,20E,42.0530949,42.2433543,14.96,-0.1,0.8,116.1,647669.31,-281459.03,109.9,Air+FixedWing,Blue,Enemies,F-14B,Blue F-14B #001,us,<51>Chimango,0.00370407104492188,0,1.08829257534339e-05,14.960000038147,1.96000003814697,0,0.00370407104492188,NaN,NaN,0.102452837550191,0.00989117029631303,NaN,0.999523264565843,-0.00174439376132759,0.0139570184138382,6.86007115291432e-07,14.6707484374094,14.6707491234165,,,110.289999961853,13,0.0340107298753369,0.053821333120845
2018-07-19T08:18:00Z,1531988280,20E,42.0530949,42.2433543,14.96,-0.1,0.8,116,647669.31,-281459.03,109.9,Air+FixedWing,Blue,Enemies,F-14B,Blue F-14B #001,us,<51>Chimango,0,0,0,14.960000038147,1.96000003814697,0,0,NaN,NaN,0,0.00989117029631303,NaN,0.999900937231501,-0.00174505288541682,0.0139622921124101,0,14.6707484374094,14.6707484374094,,,111.289999961853,13,0.0340107298753369,0.053821333120845
2018-07-19T08:18:01Z,1531988281,20E,42.0530949,42.2433543,14.96,-0.1,0.8,116,647669.31,-281459.03,109.9,Air+FixedWing,Blue,Enemies,F-14B,Blue F-14B #001,us,<51>Chimango,0,0,0,14.960000038147,1.96000003814697,0,0,NaN,NaN,0,0,NaN,0.999900937231501,-0.00174505288541682,0.0139622921124101,0,14.6707484374094,14.6707484374094,,,112.289999961853,13,0.0340107298753369,0.053821333120845
2018-07-19T08:18:02Z,1531988282,20E,42.0530949,42.2433543,14.96,-0.1,0.8,116,647669.31,-281459.03,109.9,Air+FixedWing,Blue,Enemies,F-14B,Blue F-14B #001,us,<51>Chimango,0,0,0,14.960000038147,1.96000003814697,0,0,NaN,NaN,0,0.0171320104161963,NaN,0.999900937231501,-0.00174505288541682,0.0139622921124101,0,14.6707484374094,14.6707484374094,,,113.289999961853,13,0.0340107298753369,0.053821333120845
2018-07-19T08:18:03Z,1531988283,20E,42.0530949,42.2433543,14.96,-0.1,0.8,116,647669.31,-281459.03,109.9,Air+FixedWing,Blue,Enemies,F-14B,Blue F-14B #001,us,<51>Chimango,0,0,0,14.960000038147,1.96000003814697,0,0,NaN,NaN,0,0.0139882274201861,NaN,0.999900937231501,-0.00174505288541682,0.0139622921124101,0,14.6707484374094,14.6707484374094,,,114.289999961853,13,0.0340107298753369,0.053821333120845
2018-07-19T08:18:04Z,1531988284,20E,42.0530949,42.2433543,14.96,-0.1,0.8,116,647669.31,-281459.03,109.8,Air+FixedWing,Blue,Enemies,F-14B,Blue F-14B #001,us,<51>Chimango,0,0,0,14.960000038147,1.96000003814697,0,0,NaN,NaN,0,0.0197823405926261,NaN,0.999900937231501,-0.00174505288541682,0.0139622921124101,0,14.6707484374094,14.6707484374094,,,115.289999961853,13,0.0340107298753369,0.053821333120845
2018-07-19T08:18:05Z,1531988285,20E,42.0530949,42.2433543,14.96,-0.1,0.8,116,647669.31,-281459.03,109.8,Air+FixedWing,Blue,Enemies,F-14B,Blue F-14B #001,us,<51>Chimango,0,0,0,14.960000038147,1.96000003814697,0,0,NaN,NaN,0,0.0197823405926261,NaN,0.999900937231501,-0.00174505288541682,0.0139622921124101,0,14.6707484374094,14.6707484374094,,,116.289999961853,13,0.0340107298753369,0.053821333120845
2018-07-19T08:18:06Z,1531988286,20E,42.0530949,42.2433543,14.96,-0.1,0.8,116,647669.31,-281459.03,109.8,Air+FixedWing,Blue,Enemies,F-14B,Blue F-14B #001,us,<51>Chimango,0,0,0,14.960000038147,1.96000003814697,0,0,NaN,NaN,0,0.0197823405926261,NaN,0.999900937231501,-0.00174505288541682,0.0139622921124101,0,14.6707484374094,14.6707484374094,,,117.289999961853,13,0.0340107298753369,0.053821333120845
2018-07-19T08:18:07Z,1531988287,20E,42.0530949,42.2433543,14.96,-0.1,0.8,116,647669.31,-281459.03,109.8,Air+FixedWing,Blue,Enemies,F-14B,Blue F-14B #001,us,<51>Chimango,0,0,0,14.960000038147,1.96000003814697,0,0,NaN,NaN,0,0.0197823405926261,NaN,0.999900937231501,-0.00174505288541682,0.0139622921124101,0,14.6707484374094,14.6707484374094,,,118.289999961853,13,0.0340107298753369,0.053821333120845
2018-07-19T08:18:08Z,1531988288,20E,42.0530949,42.2433542,14.96,-0.1,0.8,116,647669.31,-281459.03,109.8,Air+FixedWing,Blue,Enemies,F-14B,Blue F-14B #001,us,<51>Chimango,0,0,0,14.960000038147,1.96000003814697,0,0,NaN,NaN,0,0.0139882274201861,NaN,0.999900937231501,-0.00174505288541682,0.0139622921124101,0,14.6707484374094,14.6707484374094,,,119.289999961853,13,0.0455376473227719,0.065348276783518
2018-07-19T08:18:09Z,1531988289,20E,42.053095,42.2433542,14.96,-0.1,0.8,116,647669.31,-281459.03,109.8,Air+FixedWing,Blue,Enemies,F-14B,Blue F-14B #001,us,<51>Chimango,0,0,0,14.960000038147,1.96000003814697,0,0,NaN,NaN,0,0.0139882274201861,NaN,0.999900937231501,-0.00174505288541682,0.0139622921124101,0,14.6707484374094,14.6707484374094,,,120.289999961853,13,0.0508006470184351,0.0706112890426928
2018-07-19T08:18:10Z,1531988290,20E,42.053095,42.2433542,14.96,-0.1,0.8,116,647669.31,-281459.03,109.8,Air+FixedWing,Blue,Enemies,F-14B,Blue F-14B #001,us,<51>Chimango,0,0,0,14.960000038147,1.96000003814697,0,0,NaN,NaN,0,0.0139882274201861,NaN,0.999900937231501,-0.00174505288541682,0.0139622921124101,0,14.6707484374094,14.6707484374094,,,121.289999961853,13,0.0509954231590474,0.0708060654952142
2018-07-19T08:18:11Z,1531988291,20E,42.053095,42.2433542,14.96,-0.1,0.8,116,647669.31,-281459.03,109.8,Air+FixedWing,Blue,Enemies,F-14B,Blue F-14B #001,us,<51>Chimango,0,0,0,14.960000038147,1.96000003814697,0,0,NaN,NaN,0,0.0139882274201861,NaN,0.999900937231501,-0.00174505288541682,0.0139622921124101,0,14.6707484374094,14.6707484374094,,,122.289999961853,13,0.0511901979843124,0.0710008409781529
2018-07-19T08:18:12Z,1531988292,20E,42.053095,42.2433542,14.96,-0.1,0.8,116,647669.31,-281459.03,109.8,Air+FixedWing,Blue,Enemies,F-14B,Blue F-14B #001,us,<51>Chimango,0,0,0,14.960000038147,1.96000003814697,0,0,NaN,NaN,0,0.0139882274201861,NaN,0.999900937231501,-0.00174505288541682,0.0139622921124101,0,14.6707484374094,14.6707484374094,,,123.289999961853,13,0.0513849731214865,0.0711956164610916
2018-07-19T08:18:13Z,1531988293,20E,42.053095,42.2433542,14.96,-0.1,0.8,116,647669.31,-281459.03,109.8,Air+FixedWing,Blue,Enemies,F-14B,Blue F-14B #001,us,<51>Chimango,0,0,0,14.960000038147,1.96000003814697,0,0,NaN,NaN,0,0.0139882274201861,NaN,0.999900937231501,-0.00174505288541682,0.0139622921124101,0,14.6707484374094,14.6707484374094,,,124.289999961853,13,0.0515797482925166,0.0713903922897953
2018-07-19T08:18:14Z,1531988294,20E,42.053095,42.2433542,14.96,-0.1,0.8,116,647669.31,-281459.03,109.8,Air+FixedWing,Blue,Enemies,F-14B,Blue F-14B #001,us,<51>Chimango,0,0,0,14.960000038147,1.96000003814697,0,0,NaN,NaN,0,0.0139882274201861,NaN,0.999900937231501,-0.00174505288541682,0.0139622921124101,0,14.6707484374094,14.6707484374094,,,125.289999961853,13,0.0517745240873644,0.0715851680846431
2018-07-19T08:18:15Z,1531988295,20E,42.053095,42.2433542,14.96,-0.1,0.8,116,647669.31,-281459.03,109.8,Air+FixedWing,Blue,Enemies,F-14B,Blue F-14B #001,us,<51>Chimango,0,0,0,14.960000038147,1.96000003814697,0,0,NaN,NaN,0,0.0139882274201861,NaN,0.999900937231501,-0.00174505288541682,0.0139622921124101,0,14.6707484374094,14.6707484374094,,,126.289999961853,13,0.0519692989126294,0.0717799435675817
2018-07-19T08:18:16Z,1531988296,20E,42.053095,42.2433542,14.96,-0.1,0.8,116,647669.31,-281459.03,109.8,Air+FixedWing,Blue,Enemies,F-14B,Blue F-14B #001,us,<51>Chimango,0,0,0,14.960000038147,1.96000003814697,0,0,NaN,NaN,0,0.0139882274201861,NaN,0.999900937231501,-0.00174505288541682,0.0139622921124101,0,14.6707484374094,14.6707484374094,,,127.289999961853,13,0.0521640740836595,0.0719747193962855
2018-07-19T08:18:17Z,1531988297,20E,42.053095,42.2433542,14.96,-0.1,0.8,116,647669.31,-281459.03,109.8,Air+FixedWing,Blue,Enemies,F-14B,Blue F-14B #001,us,<51>Chimango,0,0,0,14.960000038147,1.96000003814697,0,0,NaN,NaN,0,0.0139882274201861,NaN,0.999900937231501,-0.00174505288541682,0.0139622921124101,0,14.6707484374094,14.6707484374094,,,128.289999961853,13,0.0523588492208336,0.0721694948792242
2018-07-19T08:18:18Z,1531988298,20E,42.053095,42.2433542,14.96,-0.1,0.8,116,647669.31,-281459.03,109.8,Air+FixedWing,Blue,Enemies,F-14B,Blue F-14B #001,us,<51>Chimango,0,0,0,14.960000038147,1.96000003814697,0,0,NaN,NaN,0,0.0139882274201861,NaN,0.999900937231501,-0.00174505288541682,0.0139622921124101,0,14.6707484374094,14.6707484374094,,,129.289999961853,13,0.0525536247037722,0.0723642706740719
