ISOTime,UnixTime,Id,Longitude,Latitude,Altitude,Roll,Pitch,Yaw,U,V,Heading,Type,Color,Coalition,Name,Group,Country,Pilot,TAS,CAS,M,ASL,AGL,GS,VS,AOA,AOS,RRT,TRT,TRD,G,LatG,LonG,Ek,Ep,Em,FFW,FFV,RelativeTime,Elev,GroundDistance,AirDistance
2018-07-19T08:07:16Z,1531987636,50B,42.043693,42.2465079,15.51,0.1,-0,145.8,646855.25,-281191.62,139.6,Air+FixedWing,Blue,Enemies,J-11A,Blue J-11A #005,cn,<51>Teknetinium,0.0944508854226062,0,0.000277507729991638,15.5104751586914,2.51047515869141,NaN,NaN,NaN,NaN,0.199987938897973,NaN,NaN,NaN,NaN,NaN,NaN,15.2105801214981,NaN,,,0.619999885559082,13,NaN,NaN
2018-07-19T08:07:17Z,1531987637,50B,42.0436933,42.2465075,15.54,0.1,-0.2,145.7,646855.25,-281191.66,139.6,Air+FixedWing,Blue,Enemies,J-11A,Blue J-11A #005,cn,<51>Teknetinium,0.0429915864063246,0,0.00012631434281386,15.539999961853,2.53999996185303,0.03125,0.0295248031616211,NaN,NaN,0,0.0964072530208705,NaN,0.992878604248546,0.00586352173412669,-0.00831932911966707,9.24138250866235e-05,15.2395340625906,15.2396264764157,,,1.61999988555908,13,0.0468616662561144,0.0553871877530014
2018-07-19T08:07:18Z,1531987638,50B,42.0436932,42.2465077,15.5,0.1,-0.5,145.7,646855.25,-281191.62,139.6,Air+FixedWing,Blue,Enemies,J-11A,Blue J-11A #005,cn,<51>Teknetinium,0.0507598211998786,0,0.000149138264090862,15.5,2.5,0.03125,-0.0399999618530273,NaN,NaN,0,0.217156206346182,NaN,1.00202929698357,-0.000316436976825947,-0.00548495713307263,0.000128827972412182,15.2003075,15.2004363279724,,,2.61999988555908,13,0.0694924201378063,0.101345327164612
2018-07-19T08:07:19Z,1531987639,50B,42.043693,42.2465077,15.48,0,-0.4,145.7,646855.25,-281191.62,139.6,Air+FixedWing,Blue,Enemies,J-11A,Blue J-11A #005,cn,<51>Teknetinium,0.0200004577636719,0,5.87636601026304e-05,15.4799995422363,2.47999954223633,0,-0.0200004577636719,NaN,NaN,0.199987938897973,0.0171320104161963,NaN,1.00201666324946,0,-0.00674566401665792,2.00009155378211e-05,15.1806937510872,15.1807137520027,,,3.61999988555908,13,0.0820494176017997,0.124960941401764
2018-07-19T08:07:20Z,1531987640,50B,42.0436932,42.2465077,15.48,0,-0.3,145.7,646855.25,-281191.62,139.6,Air+FixedWing,Blue,Enemies,J-11A,Blue J-11A #005,cn,<51>Teknetinium,0,0,0,15.4799995422363,2.47999954223633,0,0,NaN,NaN,0,0.00989117029631303,NaN,1.00100589692862,0,-0.00524130375124188,0,15.1806937510872,15.1806937510872,,,4.61999988555908,13,0.0966734497956694,0.139585008553934
2018-07-19T08:07:21Z,1531987641,50B,42.0436931,42.2465077,15.49,0,-0.3,145.7,646855.25,-281191.62,139.6,Air+FixedWing,Blue,Enemies,J-11A,Blue J-11A #005,cn,<51>Teknetinium,0.0100002288818359,0,2.93818333611996e-05,15.4899997711182,2.48999977111816,0,0.0100002288818359,NaN,NaN,0,0.00989117029631303,NaN,0.998238071371136,0,-0.00522681131427336,5.00022888445528e-06,15.1905006255436,15.1905056257725,,,5.61999988555908,13,0.105259164690514,0.152765274857603
2018-07-19T08:07:22Z,1531987642,50B,42.043693,42.2465077,15.48,0,-0.3,145.7,646855.25,-281191.62,139.6,Air+FixedWing,Blue,Enemies,J-11A,Blue J-11A #005,cn,<51>Teknetinium,0.00714302062988281,0,2.09870221407117e-05,15.4828567504883,2.48285675048828,0,-0.00714302062988281,NaN,NaN,0,0.00989117029631303,NaN,1.00042319681126,0,-0.00523825271188009,2.55113718594657e-06,15.1834957152176,15.1834982663548,,,6.61999988555908,13,0.111297481989539,0.162118573565832
2018-07-19T08:07:23Z,1531987643,50B,42.0436931,42.2465077,15.48,0,-0.3,145.7,646855.25,-281191.62,139.6,Air+FixedWing,Blue,Enemies,J-11A,Blue J-11A #005,cn,<51>Teknetinium,0.00285720825195312,0,8.39480858609006e-06,15.4799995422363,2.47999954223633,0,-0.00285720825195312,NaN,NaN,0,0.00989117029631303,NaN,1.00027752178192,0,-0.00523748995203964,4.08181949751452e-07,15.1806937510872,15.1806941592691,,,7.61999988555908,13,0.115553577523167,0.167244787689182
2018-07-19T08:07:24Z,1531987644,50B,42.0436931,42.2465077,15.48,0,-0.3,145.7,646855.25,-281191.62,139.6,Air+FixedWing,Blue,Enemies,J-11A,Blue J-11A #005,cn,<51>Teknetinium,0,0,0,15.4799995422363,2.47999954223633,0,0,NaN,NaN,0,0.00989117029631303,NaN,0.999986171723233,0,-0.00523596443235874,0,15.1806937510872,15.1806937510872,,,8.61999988555908,13,0.118821441623177,0.170512660027026
2018-07-19T08:07:25Z,1531987645,50B,42.043693,42.2465077,15.48,0,-0.3,145.7,646855.25,-281191.62,139.6,Air+FixedWing,Blue,Enemies,J-11A,Blue J-11A #005,cn,<51>Teknetinium,0,0,0,15.4799995422363,2.47999954223633,0,0,NaN,NaN,0,0.00989117029631303,NaN,0.999986171723233,0,-0.00523596443235874,0,15.1806937510872,15.1806937510872,,,9.61999988555908,13,0.124792837782687,0.176484071035013
2018-07-19T08:07:26Z,1531987646,50B,42.043693,42.2465077,15.48,0,-0.3,145.7,646855.25,-281191.62,139.6,Air+FixedWing,Blue,Enemies,J-11A,Blue J-11A #005,cn,<51>Teknetinium,0,0,0,15.4799995422363,2.47999954223633,0,0,NaN,NaN,0,0.00989117029631303,NaN,0.999986171723233,0,-0.00523596443235874,0,15.1806937510872,15.1806937510872,,,10.6199998855591,13,0.125750476229148,0.177441711766331
2018-07-19T08:07:27Z,1531987647,50B,42.043693,42.2465077,15.48,0,-0.3,145.7,646855.25,-281191.62,139.6,Air+FixedWing,Blue,Enemies,J-11A,Blue J-11A #005,cn,<51>Teknetinium,0,0,0,15.4799995422363,2.47999954223633,0,0,NaN,NaN,0,0.00989117029631303,NaN,0.999986171723233,0,-0.00523596443235874,0,15.1806937510872,15.1806937510872,,,11.6199998855591,13,0.126554430763495,0.178245668273682
2018-07-19T08:07:28Z,1531987648,50B,42.043693,42.2465077,15.48,0,-0.3,145.7,646855.25,-281191.62,139.6,Air+FixedWing,Blue,Enemies,J-11A,Blue J-11A #005,cn,<51>Teknetinium,0,0,0,15.4799995422363,2.47999954223633,0,0,NaN,NaN,0,0.00989117029631303,NaN,0.999986171723233,0,-0.00523596443235874,0,15.1806937510872,15.1806937510872,,,12.6199998855591,13,0.127358385297841,0.179049624781033
2018-07-19T08:07:29Z,1531987649,50B,42.043693,42.2465077,15.48,0,-0.3,145.7,646855.25,-281191.62,139.6,Air+FixedWing,Blue,Enemies,J-11A,Blue J-11A #005,cn,<51>Teknetinium,0,0,0,15.4799995422363,2.47999954223633,0,0,NaN,NaN,0,0.00989117029631303,NaN,0.999986171723233,0,-0.00523596443235874,0,15.1806937510872,15.1806937510872,,,13.6199998855591,13,0.128162338896632,0.179853580352828
2018-07-19T08:07:30Z,1531987650,50B,42.043693,42.2465077,15.48,0,-0.3,145.7,646855.25,-281191.62,139.6,Air+FixedWing,Blue,Enemies,J-11A,Blue J-11A #005,cn,<51>Teknetinium,0,0,0,15.4799995422363,2.47999954223633,0,0,NaN,NaN,0,0.00989117029631303,NaN,0.999986171723233,0,-0.00523596443235874,0,15.1806937510872,15.1806937510872,,,14.6199998855591,13,0.128966291871719,0.180657535300919
2018-07-19T08:07:31Z,1531987651,50B,42.0436931,42.2465077,15.48,0,-0.3,145.7,646855.25,-281191.62,139.6,Air+FixedWing,Blue,Enemies,J-11A,Blue J-11A #005,cn,<51>Teknetinium,0,0,0,15.4799995422363,2.47999954223633,0,0,NaN,NaN,0,0.00989117029631303,NaN,0.999986171723233,0,-0.00523596443235874,0,15.1806937510872,15.1806937510872,,,15.6199998855591,13,0.12977024606025,0.181461491462454
2018-07-19T08:07:32Z,1531987652,50B,42.0436931,42.2465077,15.48,0,-0.3,145.7,646855.25,-281191.62,139.6,Air+FixedWing,Blue,Enemies,J-11A,Blue J-11A #005,cn,<51>Teknetinium,0,0,0,15.4799995422363,2.47999954223633,0,0,NaN,NaN,0,0.00989117029631303,NaN,0.999986171723233,0,-0.00523596443235874,0,15.1806937510872,15.1806937510872,,,16.6199998855591,13,0.130574200282744,0.182265447657953
2018-07-19T08:07:33Z,1531987653,50B,42.0436931,42.2465077,15.48,0,-0.3,145.7,646855.25,-281191.62,139.6,Air+FixedWing,Blue,Enemies,J-11A,Blue J-11A #005,cn,<51>Teknetinium,0,0,0,15.4799995422363,2.47999954223633,0,0,NaN,NaN,0,0.00989117029631303,NaN,0.999986171723233,0,-0.00523596443235874,0,15.1806937510872,15.1806937510872,,,17.6199998855591,13,0.131378153535718,0.183069403229747
2018-07-19T08:07:34Z,1531987654,50B,42.0436931,42.2465077,15.48,0,-0.3,145.7,646855.25,-281191.62,139.6,Air+FixedWing,Blue,Enemies,J-11A,Blue J-11A #005,cn,<51>Teknetinium,0,0,0,15.4799995422363,2.47999954223633,0,0,NaN,NaN,0,0.00989117029631303,NaN,0.999986171723233,0,-0.00523596443235874,0,15.1806937510872,15.1806937510872,,,18.6199998855591,13,0.132182107134509,0.18387335848969
2018-07-19T08:07:35Z,1531987655,50B,42.0436931,42.2465077,15.48,0,-0.3,145.7,646855.25,-281191.62,139.6,Air+FixedWing,Blue,Enemies,J-11A,Blue J-11A #005,cn,<51>Teknetinium,0,0,0,15.4799995422363,2.47999954223633,0,0,NaN,NaN,0,0.00989117029631303,NaN,0.999986171723233,0,-0.00523596443235874,0,15.1806937510872,15.1806937510872,,,19.6199998855591,13,0.132986061011187,0.184677314339373
2018-07-19T08:07:36Z,1531987656,50B,42.043693,42.2465077,15.48,0,-0.3,145.7,646855.25,-281191.62,139.6,Air+FixedWing,Blue,Enemies,J-11A,Blue J-11A #005,cn,<51>Teknetinium,0,0,0,15.4799995422363,2.47999954223633,0,0,NaN,NaN,0,0.00989117029631303,NaN,0.999986171723233,0,-0.00523596443235874,0,15.1806937510872,15.1806937510872,,,20.6199998855591,13,0.138184180218765,0.189875446076609
2018-07-19T08:07:37Z,1531987657,50B,42.0436931,42.2465077,15.48,0,-0.3,145.7,646855.25,-281191.62,139.6,Air+FixedWing,Blue,Enemies,J-11A,Blue J-11A #005,cn,<51>Teknetinium,0,0,0,15.4799995422363,2.47999954223633,0,0,NaN,NaN,0,0.0139882274201861,NaN,0.999986171723233,0,-0.00523596443235874,0,15.1806937510872,15.1806937510872,,,21.6199998855591,13,0.141167014749924,0.192858287530264
2018-07-19T08:07:38Z,1531987658,50B,42.0436931,42.2465077,15.48,0,-0.3,145.7,646855.25,-281191.62,139.6,Air+FixedWing,Blue,Enemies,J-11A,Blue J-11A #005,cn,<51>Teknetinium,0,0,0,15.4799995422363,2.47999954223633,0,0,NaN,NaN,0,0.0139882274201861,NaN,0.999985992909309,0,-0.00527364993467927,0,15.1806937510872,15.1806937510872,,,22.6199998855591,13,0.143792316224255,0.195483595269424
2018-07-19T08:07:39Z,1531987659,50B,42.0436931,42.2465077,15.48,0,-0.3,145.7,646855.25,-281191.62,139.6,Air+FixedWing,Blue,Enemies,J-11A,Blue J-11A #005,cn,<51>Teknetinium,0,0,0,15.4799995422363,2.47999954223633,0,0,NaN,NaN,0,0.0139882274201861,NaN,0.999985694886103,0,-0.00533253327012062,0,15.1806937510872,15.1806937510872,,,23.6199998855591,13,0.143792316224255,0.195483595269424
2018-07-19T08:07:40Z,1531987660,50B,42.0436931,42.2465077,15.48,0,-0.3,145.7,646855.25,-281191.62,139.6,Air+FixedWing,Blue,Enemies,J-11A,Blue J-11A #005,cn,<51>Teknetinium,0,0,0,15.4799995422363,2.47999954223633,0,0,NaN,NaN,0,0.0139882274201861,NaN,0.999985396862897,0,-0.00539141660556197,0,15.1806937510872,15.1806937510872,,,24.6199998855591,13,0.143792316224255,0.195483595269424
2018-07-19T08:07:41Z,1531987661,50B,42.0436931,42.2465077,15.48,0,-0.3,145.7,646855.25,-281191.62,139.6,Air+FixedWing,Blue,Enemies,J-11A,Blue J-11A #005,cn,<51>Teknetinium,0,0,0,15.4799995422363,2.47999954223633,0,0,NaN,NaN,0,0.0171320104161963,NaN,0.99998503923505,0,-0.00545029994100332,0,15.1806937510872,15.1806937510872,,,25.6199998855591,13,0.143792316224255,0.195483595269424
2018-07-19T08:07:42Z,1531987662,50B,42.0436931,42.2465077,15.48,0,-0.3,145.7,646855.25,-281191.62,139.6,Air+FixedWing,Blue,Enemies,J-11A,Blue J-11A #005,cn,<51>Teknetinium,0,0,0,15.4799995422363,2.47999954223633,0,0,NaN,NaN,0,0.0139882274201861,NaN,0.999984741211843,0,-0.00550918327644467,0,15.1806937510872,15.1806937510872,,,26.6199998855591,13,0.143792316224255,0.195483595269424
2018-07-19T08:07:43Z,1531987663,50B,42.0436931,42.2465077,15.48,0,-0.3,145.7,646855.25,-281191.62,139.6,Air+FixedWing,Blue,Enemies,J-11A,Blue J-11A #005,cn,<51>Teknetinium,0,0,0,15.4799995422363,2.47999954223633,0,0,NaN,NaN,0,0.0139882274201861,NaN,0.999984383583996,0,-0.00556806661188602,0,15.1806937510872,15.1806937510872,,,27.6199998855591,13,0.143792316224255,0.195483595269424
2018-07-19T08:07:44Z,1531987664,50B,42.0436931,42.2465077,15.48,0,-0.3,145.7,646855.25,-281191.62,139.6,Air+FixedWing,Blue,Enemies,J-11A,Blue J-11A #005,cn,<51>Teknetinium,0,0,0,15.4799995422363,2.47999954223633,0,0,NaN,NaN,0,0.0139882274201861,NaN,0.999984145165431,0,-0.00562694994732738,0,15.1806937510872,15.1806937510872,,,28.6199998855591,13,0.143792316224255,0.195483595269424
2018-07-19T08:07:45Z,1531987665,50B,42.0436931,42.2465077,15.48,0,-0.3,145.7,646855.25,-281191.62,139.6,Air+FixedWing,Blue,Enemies,J-11A,Blue J-11A #005,cn,<51>Teknetinium,0,0,0,15.4799995422363,2.47999954223633,0,0,NaN,NaN,0,0.0139882274201861,NaN,0.999983727932943,0,-0.00568583328276873,0,15.1806937510872,15.1806937510872,,,29.6199998855591,13,0.143792316224255,0.195483595269424
2018-07-19T08:07:46Z,1531987666,50B,42.0436931,42.2465077,15.48,0,-0.3,145.7,646855.25,-281191.62,139.6,Air+FixedWing,Blue,Enemies,J-11A,Blue J-11A #005,cn,<51>Teknetinium,0,0,0,15.4799995422363,2.47999954223633,0,0,NaN,NaN,0,0.0139882274201861,NaN,0.999983370305095,0,-0.00574471661821008,0,15.1806937510872,15.1806937510872,,,30.6199998855591,13,0.143792316224255,0.195483595269424
2018-07-19T08:07:47Z,1531987667,50B,42.0436931,42.2465077,15.48,0,-0.3,145.7,646855.25,-281191.62,139.6,Air+FixedWing,Blue,Enemies,J-11A,Blue J-11A #005,cn,<51>Teknetinium,0,0,0,15.4799995422363,2.47999954223633,0,0,NaN,NaN,0,0.0139882274201861,NaN,0.999983012677248,0,-0.00580359995365143,0,15.1806937510872,15.1806937510872,,,31.6199998855591,13,0.143792316224255,0.195483595269424
2018-07-19T08:07:48Z,1531987668,50B,42.0436931,42.2465077,15.48,0,-0.3,145.7,646855.25,-281191.62,139.6,Air+FixedWing,Blue,Enemies,J-11A,Blue J-11A #005,cn,<51>Teknetinium,0,0,0,15.4799995422363,2.47999954223633,0,0,NaN,NaN,0,0.0139882274201861,NaN,0.999982774258683,0,-0.00586248328909278,0,15.1806937510872,15.1806937510872,,,32.6199998855591,13,0.143792316224255,0.195483595269424
2018-07-19T08:07:49Z,1531987669,50B,42.0436931,42.2465077,15.48,0,-0.3,145.7,646855.25,-281191.62,139.6,Air+FixedWing,Blue,Enemies,J-11A,Blue J-11A #005,cn,<51>Teknetinium,0,0,0,15.4799995422363,2.47999954223633,0,0,NaN,NaN,0,0.0139882274201861,NaN,0.999982357026194,0,-0.00592136662453413,0,15.1806937510872,15.1806937510872,,,33.6199998855591,13,0.143792316224255,0.195483595269424
2018-07-19T08:07:50Z,1531987670,50B,42.0436931,42.2465077,15.48,0,-0.3,145.7,646855.25,-281191.62,139.6,Air+FixedWing,Blue,Enemies,J-11A,Blue J-11A #005,cn,<51>Teknetinium,0,0,0,15.4799995422363,2.47999954223633,0,0,NaN,NaN,0,0.0139882274201861,NaN,0.999982059002989,0,-0.00598024902865291,0,15.1806937510872,15.1806937510872,,,34.6199998855591,13,0.143792316224255,0.195483595269424
2018-07-19T08:07:51Z,1531987671,50B,42.0436931,42.2465077,15.48,0,-0.3,145.7,646855.25,-281191.62,139.6,Air+FixedWing,Blue,Enemies,J-11A,Blue J-11A #005,cn,<51>Teknetinium,0,0,0,15.4799995422363,2.47999954223633,0,0,NaN,NaN,0,0.0139882274201861,NaN,0.999981701375141,0,-0.00603913282975554,0,15.1806937510872,15.1806937510872,,,35.6199998855591,13,0.143792316224255,0.195483595269424
2018-07-19T08:07:52Z,1531987672,50B,42.0436931,42.2465077,15.48,0,-0.3,145.7,646855.25,-281191.62,139.6,Air+FixedWing,Blue,Enemies,J-11A,Blue J-11A #005,cn,<51>Teknetinium,0,0,0,15.4799995422363,2.47999954223633,0,0,NaN,NaN,0,0.0139882274201861,NaN,0.999981343747294,0,-0.00609801569953561,0,15.1806937510872,15.1806937510872,,,36.6199998855591,13,0.143792316224255,0.195483595269424
2018-07-19T08:07:53Z,1531987673,50B,42.0436931,42.2465077,15.48,0,-0.4,145.7,646855.25,-281191.62,139.6,Air+FixedWing,Blue,Enemies,J-11A,Blue J-11A #005,cn,<51>Teknetinium,0,0,0,15.4799995422363,2.47999954223633,0,0,NaN,NaN,0,0.00989117029631303,NaN,0.999980986119446,0,-0.00615689856931567,0,15.1806937510872,15.1806937510872,,,37.6199998855591,13,0.143792316224255,0.195483595269424
2018-07-19T08:07:54Z,1531987674,50B,42.0436931,42.2465077,15.48,0,-0.4,145.7,646855.25,-281191.62,139.6,Air+FixedWing,Blue,Enemies,J-11A,Blue J-11A #005,cn,<51>Teknetinium,0,0,0,15.4799995422363,2.47999954223633,0,0,NaN,NaN,0,0.0197823405926261,NaN,0.999980628491599,0,-0.00621578190475702,0,15.1806937510872,15.1806937510872,,,38.6199998855591,13,0.143792316224255,0.195483595269424
2018-07-19T08:07:55Z,1531987675,50B,42.0436931,42.2465077,15.48,0,-0.4,145.7,646855.25,-281191.62,139.6,Air+FixedWing,Blue,Enemies,J-11A,Blue J-11A #005,cn,<51>Teknetinium,0,0,0,15.4799995422363,2.47999954223633,0,0,NaN,NaN,0,0.00989117029631303,NaN,0.999980211259111,0,-0.00627466570585966,0,15.1806937510872,15.1806937510872,,,39.6199998855591,13,0.143792316224255,0.195483595269424
2018-07-19T08:07:56Z,1531987676,50B,42.0436931,42.2465077,15.48,0,-0.4,145.7,646855.25,-281191.62,139.6,Air+FixedWing,Blue,Enemies,J-11A,Blue J-11A #005,cn,<51>Teknetinium,0,0,0,15.4799995422363,2.47999954223633,0,0,NaN,NaN,0,0.0197823405926261,NaN,0.999979853631263,0,-0.00633354810997844,0,15.1806937510872,15.1806937510872,,,40.6199998855591,13,0.143792316224255,0.195483595269424
2018-07-19T08:07:57Z,1531987677,50B,42.0436931,42.2465077,15.48,0,-0.4,145.7,646855.25,-281191.62,139.6,Air+FixedWing,Blue,Enemies,J-11A,Blue J-11A #005,cn,<51>Teknetinium,0,0,0,15.4799995422363,2.47999954223633,0,0,NaN,NaN,0,0.0139882274201861,NaN,0.999979436398775,0,-0.00639243144541979,0,15.1806937510872,15.1806937510872,,,41.6199998855591,13,0.143792316224255,0.195483595269424
2018-07-19T08:07:58Z,1531987678,50B,42.0436931,42.2465077,15.48,0,-0.4,145.7,646855.25,-281191.62,139.6,Air+FixedWing,Blue,Enemies,J-11A,Blue J-11A #005,cn,<51>Teknetinium,0,0,0,15.4799995422363,2.47999954223633,0,0,NaN,NaN,0,0.0242283218322616,NaN,0.999979078770927,0,-0.00645131431519985,0,15.1806937510872,15.1806937510872,,,42.6199998855591,13,0.143792316224255,0.195483595269424
2018-07-19T08:07:59Z,1531987679,50B,42.0436931,42.2465077,15.48,0,-0.4,145.7,646855.25,-281191.62,139.6,Air+FixedWing,Blue,Enemies,J-11A,Blue J-11A #005,cn,<51>Teknetinium,0,0,0,15.4799995422363,2.47999954223633,0,0,NaN,NaN,0,0.0171320104161963,NaN,0.99997872114308,0,-0.00651019718497992,0,15.1806937510872,15.1806937510872,,,43.6199998855591,13,0.143792316224255,0.195483595269424
2018-07-19T08:08:00Z,1531987680,50B,42.0436931,42.2465077,15.48,0,-0.4,145.7,646855.25,-281191.62,139.6,Air+FixedWing,Blue,Enemies,J-11A,Blue J-11A #005,cn,<51>Teknetinium,0,0,0,15.4799995422363,2.47999954223633,0,0,NaN,NaN,0,0.0197823405926261,NaN,0.99997824430595,0,-0.00656908052042127,0,15.1806937510872,15.1806937510872,,,44.6199998855591,13,0.143792316224255,0.195483595269424
2018-07-19T08:08:01Z,1531987681,50B,42.0436931,42.2465077,15.48,0,-0.4,145.7,646855.25,-281191.62,139.6,Air+FixedWing,Blue,Enemies,J-11A,Blue J-11A #005,cn,<51>Teknetinium,0,0,0,15.4799995422363,2.47999954223633,0,0,NaN,NaN,0,0.0139882274201861,NaN,0.999977946282744,0,-0.00662796339020133,0,15.1806937510872,15.1806937510872,,,45.6199998855591,13,0.143792316224255,0.195483595269424
2018-07-19T08:08:02Z,1531987682,50B,42.0436931,42.2465077,15.48,0,-0.4,145.7,646855.25,-281191.62,139.6,Air+FixedWing,Blue,Enemies,J-11A,Blue J-11A #005,cn,<51>Teknetinium,0,0,0,15.4799995422363,2.47999954223633,0,0,NaN,NaN,0,0.0171320104161963,NaN,0.999977529050256,0,-0.00668684625998139,0,15.1806937510872,15.1806937510872,,,46.6199998855591,13,0.143792316224255,0.195483595269424
2018-07-19T08:08:03Z,1531987683,50B,42.0436931,42.2465077,15.48,0,-0.4,145.7,646855.25,-281191.62,139.6,Air+FixedWing,Blue,Enemies,J-11A,Blue J-11A #005,cn,<51>Teknetinium,0,0,0,15.4799995422363,2.47999954223633,0,0,NaN,NaN,0,0.0139882274201861,NaN,0.999977111817767,0,-0.00674572912976146,0,15.1806937510872,15.1806937510872,,,47.6199998855591,13,0.143792316224255,0.195483595269424
2018-07-19T08:08:04Z,1531987684,50B,42.0436931,42.2465077,15.48,0,-0.4,145.7,646855.25,-281191.62,139.6,Air+FixedWing,Blue,Enemies,J-11A,Blue J-11A #005,cn,<51>Teknetinium,0,0,0,15.4799995422363,2.47999954223633,0,0,NaN,NaN,0,0.0197823405926261,NaN,0.99997675418992,0,-0.00680461199954152,0,15.1806937510872,15.1806937510872,,,48.6199998855591,13,0.143792316224255,0.195483595269424
2018-07-19T08:08:05Z,1531987685,50B,42.0436931,42.2465077,15.48,0,-0.4,145.7,646855.25,-281191.62,139.6,Air+FixedWing,Blue,Enemies,J-11A,Blue J-11A #005,cn,<51>Teknetinium,0,0,0,15.4799995422363,2.47999954223633,0,0,NaN,NaN,0,0.0171320104161963,NaN,0.999976336957431,0,-0.00686349486932158,0,15.1806937510872,15.1806937510872,,,49.6199998855591,13,0.143792316224255,0.195483595269424
2018-07-19T08:08:06Z,1531987686,50B,42.0436931,42.2465077,15.48,0,-0.4,145.7,646855.25,-281191.62,139.6,Air+FixedWing,Blue,Enemies,J-11A,Blue J-11A #005,cn,<51>Teknetinium,0,0,0,15.4799995422363,2.47999954223633,0,0,NaN,NaN,0,0.0139882274201861,NaN,0.999975979329584,0,-0.00692237773910165,0,15.1806937510872,15.1806937510872,,,50.6199998855591,13,0.143792316224255,0.195483595269424
2018-07-19T08:08:07Z,1531987687,50B,42.0436931,42.2465077,15.48,0,-0.4,145.7,646855.25,-281191.62,139.6,Air+FixedWing,Blue,Enemies,J-11A,Blue J-11A #005,cn,<51>Teknetinium,0,0,0,15.4799995422363,2.47999954223633,0,0,NaN,NaN,0,0.0504352774299245,NaN,0.999975562097095,0,-0.00698126060888171,0,15.1806937510872,15.1806937510872,,,51.6199998855591,13,0.143792316224255,0.195483595269424
2018-07-19T08:08:08Z,1531987688,50B,42.0436931,42.2465077,15.48,0,-0.3,145.7,646855.25,-281191.62,139.6,Air+FixedWing,Blue,Enemies,J-11A,Blue J-11A #005,cn,<51>Teknetinium,0,0,0,15.4799995422363,2.47999954223633,0,0,NaN,NaN,0,0.0504352774299245,NaN,0.999986171723233,0,-0.00523596443235874,0,15.1806937510872,15.1806937510872,,,52.6199998855591,13,0.145594930961638,0.197286213952816
2018-07-19T08:08:09Z,1531987689,50B,42.043693,42.2465077,15.48,0,-0.3,145.7,646855.25,-281191.62,139.6,Air+FixedWing,Blue,Enemies,J-11A,Blue J-11A #005,cn,<51>Teknetinium,0,0,0,15.4799995422363,2.47999954223633,0,0,NaN,NaN,0,0.00989117029631303,NaN,0.999986171723233,0,-0.00523596443235874,0,15.1806937510872,15.1806937510872,,,53.6199998855591,13,0.148813887052681,0.20050517796984
2018-07-19T08:08:10Z,1531987690,50B,42.043693,42.2465077,15.48,0,-0.3,145.7,646855.25,-281191.62,139.6,Air+FixedWing,Blue,Enemies,J-11A,Blue J-11A #005,cn,<51>Teknetinium,0,0,0,15.4799995422363,2.47999954223633,0,0,NaN,NaN,0,0.0370093733476075,NaN,0.999986171723233,0,-0.00523596443235874,0,15.1806937510872,15.1806937510872,,,54.6199998855591,13,0.152032842831872,0.203724141329196
2018-07-19T08:08:11Z,1531987691,50B,42.043693,42.2465077,15.48,0,-0.3,145.7,646855.25,-281191.62,139.6,Air+FixedWing,Blue,Enemies,J-11A,Blue J-11A #005,cn,<51>Teknetinium,0,0,0,15.4799995422363,2.47999954223633,0,0,NaN,NaN,0,0.00989117029631303,NaN,0.999986171723233,0,-0.00523596443235874,0,15.1806937510872,15.1806937510872,,,55.6199998855591,13,0.152862424900666,0.204553724713326
2018-07-19T08:08:12Z,1531987692,50B,42.0436931,42.2465077,15.48,0,-0.3,145.7,646855.25,-281191.62,139.6,Air+FixedWing,Blue,Enemies,J-11A,Blue J-11A #005,cn,<51>Teknetinium,0,0,0,15.4799995422363,2.47999954223633,0,0,NaN,NaN,0,0.0370093733476075,NaN,0.999986171723233,0,-0.00523596443235874,0,15.1806937510872,15.1806937510872,,,56.6199998855591,13,0.158392981483408,0.210084295141062
2018-07-19T08:08:13Z,1531987693,50B,42.0436931,42.2465077,15.48,0,-0.3,145.7,646855.25,-281191.62,139.6,Air+FixedWing,Blue,Enemies,J-11A,Blue J-11A #005,cn,<51>Teknetinium,0,0,0,15.4799995422363,2.47999954223633,0,0,NaN,NaN,0,0.00989117029631303,NaN,0.999986171723233,0,-0.00523596443235874,0,15.1806937510872,15.1806937510872,,,57.6199998855591,13,0.160342697764615,0.212034016371762
2018-07-19T08:08:14Z,1531987694,50B,42.043693,42.2465077,15.48,0,-0.3,145.7,646855.25,-281191.62,139.6,Air+FixedWing,Blue,Enemies,J-11A,Blue J-11A #005,cn,<51>Teknetinium,0,0,0,15.4799995422363,2.47999954223633,0,0,NaN,NaN,0.00958083941740378,0.00989117029631303,NaN,0.999986171723233,8.36074452898556e-05,-0.00523596443235874,0,15.1806937510872,15.1806937510872,,,58.6199998855591,13,0.164753120134944,0.216444448952928
2018-07-19T08:08:15Z,1531987695,50B,42.043693,42.2465077,15.48,0,-0.3,145.7,646855.25,-281191.62,139.6,Air+FixedWing,Blue,Enemies,J-11A,Blue J-11A #005,cn,<51>Teknetinium,0,0,0,15.4799995422363,2.47999954223633,0,0,NaN,NaN,0.0199600839260784,0.00989117029631303,NaN,0.999986112119409,0.000431971788537825,-0.00523596443235874,0,15.1806937510872,15.1806937510872,,,59.6199998855591,13,0.164753120134944,0.216444448952928
2018-07-19T08:08:16Z,1531987696,50B,42.043693,42.2465077,15.48,0,-0.3,145.7,646855.25,-281191.62,139.6,Air+FixedWing,Blue,Enemies,J-11A,Blue J-11A #005,cn,<51>Teknetinium,0,0,0,15.4799995422363,2.47999954223633,0,0,NaN,NaN,0.0199600805910251,0.00989117029631303,NaN,0.999985873704112,0.00078033605902722,-0.00523596443235874,0,15.1806937510872,15.1806937510872,,,60.6199998855591,13,0.164753120134944,0.216444448952928
2018-07-19T08:08:17Z,1531987697,50B,42.043693,42.2465077,15.48,0.1,-0.3,145.7,646855.25,-281191.62,139.6,Air+FixedWing,Blue,Enemies,J-11A,Blue J-11A #005,cn,<51>Teknetinium,0,0,0,15.4799995422363,2.47999954223633,0,0,NaN,NaN,0.0199600739209185,0.00989117029631303,NaN,0.999985575684992,0.00112870015489604,-0.00523596443235874,0,15.1806937510872,15.1806937510872,,,61.6199998855591,13,0.164753120134944,0.216444448952928
2018-07-19T08:08:18Z,1531987698,50B,42.043693,42.2465077,15.48,0.1,-0.3,145.7,646855.25,-281191.62,139.6,Air+FixedWing,Blue,Enemies,J-11A,Blue J-11A #005,cn,<51>Teknetinium,0,0,0,15.4799995422363,2.47999954223633,0,0,NaN,NaN,0.0199600805910251,0.00989117029631303,NaN,1.00000091533834,-0.000588221759414363,-0.00280927030690282,0,15.1806937510872,15.1806937510872,,,62.6199998855591,13,0.164753120134944,0.216444448952928
2018-07-19T08:08:19Z,1531987699,50B,42.043693,42.2465077,15.48,0.1,-0.3,145.7,646855.25,-281191.66,139.6,Air+FixedWing,Blue,Enemies,J-11A,Blue J-11A #005,cn,<51>Teknetinium,0.03125,0,9.1816117406208e-05,15.4799995422363,2.47999954223633,0.03125,0,NaN,NaN,0.0298260353830573,0.00989117029631303,NaN,0.999967729435454,0.00397680223886124,-0.00766265855781466,4.8828125e-05,15.1806937510872,15.1807425792122,,,63.6199998855591,13,0.164753120134944,0.216444448952928
2018-07-19T08:08:20Z,1531987700,50B,42.0436929,42.2465077,15.48,0.1,-0.3,145.7,646855.25,-281191.66,139.6,Air+FixedWing,Blue,Enemies,J-11A,Blue J-11A #005,cn,<51>Teknetinium,0,0,0,15.4799995422363,2.47999954223633,0,0,NaN,NaN,0,0.00989117029631303,NaN,0.999968370749175,0.00381058582530905,-0.00766265855781466,0,15.1806937510872,15.1806937510872,,,64.6199998855591,13,0.169997091566204,0.221688433259662
2018-07-19T08:08:21Z,1531987701,50B,42.043693,42.2465077,15.48,0.1,-0.3,145.7,646855.25,-281191.62,139.6,Air+FixedWing,Blue,Enemies,J-11A,Blue J-11A #005,cn,<51>Teknetinium,0.03125,0,9.1816117406208e-05,15.4799995422363,2.47999954223633,0.03125,0,NaN,NaN,0,0.00989117029631303,NaN,1.00000099250609,-0.000319977039887307,-0.00280927030690282,4.8828125e-05,15.1806937510872,15.1807425792122,,,65.6199998855591,13,0.175241062997464,0.226932417566396
2018-07-19T08:08:22Z,1531987702,50B,42.0436931,42.2465078,15.48,-0.1,-0.2,145.7,646855.25,-281191.62,139.6,Air+FixedWing,Blue,Enemies,J-11A,Blue J-11A #005,cn,<51>Teknetinium,0,0,0,15.4799995422363,2.47999954223633,0,0,NaN,NaN,0.352383119659298,0.0523391626455858,NaN,0.999968827991274,-0.00618311407743481,-0.00803686511597101,0,15.1806937510872,15.1806937510872,,,66.6199998855591,13,0.187066540310027,0.238757922990391
2018-07-19T08:08:23Z,1531987703,50B,42.0436929,42.2465077,15.48,0,-0.2,145.7,646855.19,-281191.62,139.6,Air+FixedWing,Blue,Enemies,J-11A,Blue J-11A #005,cn,<51>Teknetinium,0.0625,0,0.000183632234812416,15.4799995422363,2.47999954223633,0.0625,0,NaN,NaN,0.047616130190215,0.0523391626455858,NaN,1.00002497217531,0.0097069095999593,0.0042571055342344,0.0001953125,15.1806937510872,15.1808890635872,,,67.6199998855591,13,0.205601931835325,0.257293359181754
2018-07-19T08:08:24Z,1531987704,50B,42.0436931,42.2465077,15.48,0,-0.2,145.7,646855.25,-281191.62,139.6,Air+FixedWing,Blue,Enemies,J-11A,Blue J-11A #005,cn,<51>Teknetinium,0.0625,0,0.000183632234812416,15.4799995422363,2.47999954223633,0.0625,0,NaN,NaN,0.0208333126057886,0.0171320104161963,NaN,0.999980205364266,-0.00467165375921526,-0.00762123907925069,0.0001953125,15.1806937510872,15.1808890635872,,,68.6199998855591,13,0.222082984704742,0.273774451958965
2018-07-19T08:08:25Z,1531987705,50B,42.043693,42.2465077,15.48,0.1,-0.2,145.7,646855.25,-281191.62,139.6,Air+FixedWing,Blue,Enemies,J-11A,Blue J-11A #005,cn,<51>Teknetinium,0,0,0,15.4799995422363,2.47999954223633,0,0,NaN,NaN,0.0750000260994489,0.0171320104161963,NaN,0.999992251405786,0.00174531760448032,-0.00349065172486007,0,15.1806937510872,15.1806937510872,,,69.6199998855591,13,0.226520187859839,0.278211665670715
2018-07-19T08:08:26Z,1531987706,50B,42.043693,42.2465077,15.48,0.1,-0.2,145.7,646855.25,-281191.62,139.6,Air+FixedWing,Blue,Enemies,J-11A,Blue J-11A #005,cn,<51>Teknetinium,0,0,0,15.4799995422363,2.47999954223633,0,0,NaN,NaN,0.102666667827938,0.0171320104161963,NaN,0.999992787844263,0.00136590042012785,-0.00349065172486007,0,15.1806937510872,15.1806937510872,,,70.6199998855591,13,0.230323511312359,0.282014998018737
2018-07-19T08:08:27Z,1531987707,50B,42.043693,42.2465077,15.48,0.1,-0.2,145.7,646855.25,-281191.62,139.6,Air+FixedWing,Blue,Enemies,J-11A,Blue J-11A #005,cn,<51>Teknetinium,0,0,0,15.4799995422363,2.47999954223633,0,0,NaN,NaN,0.0642770426491388,0.0171320104161963,NaN,0.997953837650177,0.00105749621707734,-0.00348353295523716,0,15.1806937510872,15.1806937510872,,,71.6199998855591,13,0.230323511312359,0.282014998018737
2018-07-19T08:08:28Z,1531987708,50B,42.043693,42.2465077,15.46,0,-0.2,145.7,646855.25,-281191.62,139.6,Air+FixedWing,Blue,Enemies,J-11A,Blue J-11A #005,cn,<51>Teknetinium,0.0199995040893555,0,5.87608448588262e-05,15.460000038147,2.46000003814697,0,-0.0199995040893555,NaN,NaN,0.199987938897973,0.0171320104161963,NaN,1.00305274551319,0,-0.00350132970956554,1.99990081910073e-05,15.1610809374094,15.1611009364176,,,72.6199998855591,13,0.23297397239255,0.302189365045768
2018-07-19T08:08:29Z,1531987709,50B,42.043693,42.2465077,15.47,0,-0.2,145.7,646855.25,-281191.62,139.6,Air+FixedWing,Blue,Enemies,J-11A,Blue J-11A #005,cn,<51>Teknetinium,0.00999927520751953,0,2.93790247362115e-05,15.4699993133545,2.46999931335449,0,0.00999927520751953,NaN,NaN,0,0.0171320104161963,NaN,0.998974105928186,0,-0.00348709250977752,4.99927523378574e-06,15.1708868766308,15.170891875906,,,73.6199998855591,13,0.23562443347274,0.312533950238617
2018-07-19T08:08:30Z,1531987710,50B,42.043693,42.2465077,15.47,0,-0.2,145.7,646855.25,-281191.62,139.6,Air+FixedWing,Blue,Enemies,J-11A,Blue J-11A #005,cn,<51>Teknetinium,0,0,0,15.4699993133545,2.46999931335449,0,0,NaN,NaN,0.0624999995158521,0.0171320104161963,NaN,0.999993503095567,0.000785393253797756,-0.00349065172486007,0,15.1708868766308,15.1708868766308,,,74.6199998855591,13,0.23562443347274,0.312533950238617
2018-07-19T08:08:31Z,1531987711,50B,42.043693,42.2465077,15.47,0.1,-0.2,145.7,646855.25,-281191.62,139.6,Air+FixedWing,Blue,Enemies,J-11A,Blue J-11A #005,cn,<51>Teknetinium,0,0,0,15.4699993133545,2.46999931335449,0,0,NaN,NaN,0.0475000169743248,0.0171320104161963,NaN,0.999992251405786,0.00174531760448032,-0.00349065172486007,0,15.1708868766308,15.1708868766308,,,75.6199998855591,13,0.236925567279236,0.313835087333453
2018-07-19T08:08:32Z,1531987712,50B,42.043693,42.2465077,15.47,0,-0.2,145.7,646855.25,-281191.62,139.6,Air+FixedWing,Blue,Enemies,J-11A,Blue J-11A #005,cn,<51>Teknetinium,0,0,0,15.4699993133545,2.46999931335449,0,0,NaN,NaN,0.199987938897973,0.0171320104161963,NaN,0.999993741512668,0,-0.00349065172486007,0,15.1708868766308,15.1708868766308,,,76.6199998855591,13,0.23797886972089,0.314888392093928
2018-07-19T08:08:33Z,1531987713,50B,42.0436931,42.2465077,15.47,0,-0.2,145.7,646855.25,-281191.62,139.6,Air+FixedWing,Blue,Enemies,J-11A,Blue J-11A #005,cn,<51>Teknetinium,0,0,0,15.4699993133545,2.46999931335449,0,0,NaN,NaN,0.0756784960037413,0.0171320104161963,NaN,0.999993741512668,0,-0.00349065172486007,0,15.1708868766308,15.1708868766308,,,77.6199998855591,13,0.242563824680638,0.319473358579849
2018-07-19T08:08:34Z,1531987714,50B,42.043693,42.2465078,15.47,0,-0.2,145.7,646855.25,-281191.62,139.6,Air+FixedWing,Blue,Enemies,J-11A,Blue J-11A #005,cn,<51>Teknetinium,0,0,0,15.4699993133545,2.46999931335449,0,0,NaN,NaN,0,0.0171320104161963,NaN,0.999993741512668,0,-0.00349065172486007,0,15.1708868766308,15.1708868766308,,,78.6199998855591,13,0.255234835884498,0.332144400550441
2018-07-19T08:08:35Z,1531987715,50B,42.043693,42.2465077,15.47,0,-0.2,145.7,646855.25,-281191.62,139.5,Air+FixedWing,Blue,Enemies,J-11A,Blue J-11A #005,cn,<51>Teknetinium,0,0,0,15.4699993133545,2.46999931335449,0,0,NaN,NaN,0,0.0504352774299245,NaN,0.999993741512668,0,-0.00349065172486007,0,15.1708868766308,15.1708868766308,,,79.6199998855591,13,0.265836692608421,0.342746283061632
2018-07-19T08:08:36Z,1531987716,50B,42.043693,42.2465078,15.47,0,-0.2,145.7,646855.25,-281191.62,139.5,Air+FixedWing,Blue,Enemies,J-11A,Blue J-11A #005,cn,<51>Teknetinium,0,0,0,15.4699993133545,2.46999931335449,0,0,NaN,NaN,0,0.0504352774299245,NaN,0.999993741512668,0,-0.00349065172486007,0,15.1708868766308,15.1708868766308,,,80.6199998855591,13,0.275464321509807,0.352373935254617
2018-07-19T08:08:37Z,1531987717,50B,42.043693,42.2465078,15.47,0,-0.2,145.7,646855.25,-281191.62,139.5,Air+FixedWing,Blue,Enemies,J-11A,Blue J-11A #005,cn,<51>Teknetinium,0,0,0,15.4699993133545,2.46999931335449,0,0,NaN,NaN,0,0,NaN,0.999993741512668,0,-0.00349065172486007,0,15.1708868766308,15.1708868766308,,,81.6199998855591,13,0.275745352448907,0.35265496690597
2018-07-19T08:08:38Z,1531987718,50B,42.043693,42.2465077,15.47,0,-0.2,145.7,646855.25,-281191.62,139.5,Air+FixedWing,Blue,Enemies,J-11A,Blue J-11A #005,cn,<51>Teknetinium,0,0,0,15.4699993133545,2.46999931335449,0,0,NaN,NaN,0,0,NaN,0.999993741512668,0,-0.00349065172486007,0,15.1708868766308,15.1708868766308,,,82.6199998855591,13,0.284637151913337,0.361546787421665
2018-07-19T08:08:39Z,1531987719,50B,42.043693,42.2465078,15.47,0,-0.2,145.7,646855.25,-281191.62,139.5,Air+FixedWing,Blue,Enemies,J-11A,Blue J-11A #005,cn,<51>Teknetinium,0,0,0,15.4699993133545,2.46999931335449,0,0,NaN,NaN,0,0,NaN,0.999993741512668,0,-0.00349065172486007,0,15.1708868766308,15.1708868766308,,,83.6199998855591,13,0.289989049651808,0.36689869782531
2018-07-19T08:08:40Z,1531987720,50B,42.043693,42.2465078,15.47,0,-0.2,145.7,646855.25,-281191.62,139.5,Air+FixedWing,Blue,Enemies,J-11A,Blue J-11A #005,cn,<51>Teknetinium,0,0,0,15.4699993133545,2.46999931335449,0,0,NaN,NaN,0,0,NaN,0.999993741512668,0,-0.00349065172486007,0,15.1708868766308,15.1708868766308,,,84.6199998855591,13,0.294462072156638,0.371371730941809
2018-07-19T08:08:41Z,1531987721,50B,42.043693,42.2465078,15.47,0,-0.2,145.7,646855.25,-281191.62,139.5,Air+FixedWing,Blue,Enemies,J-11A,Blue J-11A #005,cn,<51>Teknetinium,0,0,0,15.4699993133545,2.46999931335449,0,0,NaN,NaN,0,0,NaN,0.999993741512668,0,-0.00349065172486007,0,15.1708868766308,15.1708868766308,,,85.6199998855591,13,0.297099974877927,0.374009639748429
2018-07-19T08:08:42Z,1531987722,50B,42.043693,42.2465077,15.47,0,-0.2,145.7,646855.25,-281191.62,139.5,Air+FixedWing,Blue,Enemies,J-11A,Blue J-11A #005,cn,<51>Teknetinium,0,0,0,15.4699993133545,2.46999931335449,0,0,NaN,NaN,0,0,NaN,0.999993741512668,0,-0.00349065172486007,0,15.1708868766308,15.1708868766308,,,86.6199998855591,13,0.299737878041381,0.37664754901197
2018-07-19T08:08:43Z,1531987723,50B,42.043693,42.2465077,15.47,0,-0.2,145.7,646855.25,-281191.62,139.5,Air+FixedWing,Blue,Enemies,J-11A,Blue J-11A #005,cn,<51>Teknetinium,0,0,0,15.4699993133545,2.46999931335449,0,0,NaN,NaN,0,0,NaN,0.999993741512668,0,-0.00349065172486007,0,15.1708868766308,15.1708868766308,,,87.6199998855591,13,0.302375780515415,0.379285458260755
2018-07-19T08:08:44Z,1531987724,50B,42.043693,42.2465077,15.47,0,-0.2,145.7,646855.25,-281191.62,139.5,Air+FixedWing,Blue,Enemies,J-11A,Blue J-11A #005,cn,<51>Teknetinium,0,0,0,15.4699993133545,2.46999931335449,0,0,NaN,NaN,0,0,NaN,0.999993741512668,0,-0.00349065172486007,0,15.1708868766308,15.1708868766308,,,88.6199998855591,13,0.305013682989448,0.381923367314631
2018-07-19T08:08:45Z,1531987725,50B,42.043693,42.2465077,15.47,0,-0.2,145.7,646855.25,-281191.62,139.5,Air+FixedWing,Blue,Enemies,J-11A,Blue J-11A #005,cn,<51>Teknetinium,0,0,0,15.4699993133545,2.46999931335449,0,0,NaN,NaN,0,0,NaN,0.999993741512668,0,-0.00349065172486007,0,15.1708868766308,15.1708868766308,,,89.6199998855591,13,0.309830437856755,0.386740133273363
2018-07-19T08:08:46Z,1531987726,50B,42.043693,42.2465078,15.47,0,-0.2,145.7,646855.25,-281191.62,139.5,Air+FixedWing,Blue,Enemies,J-11A,Blue J-11A #005,cn,<51>Teknetinium,0,0,0,15.4699993133545,2.46999931335449,0,0,NaN,NaN,0,0,NaN,0.999993741512668,0,-0.00349065172486007,0,15.1708868766308,15.1708868766308,,,90.6199998855591,13,0.315568556706964,0.392478267494079
2018-07-19T08:08:47Z,1531987727,50B,42.043693,42.2465078,15.47,0,-0.2,145.7,646855.25,-281191.62,139.5,Air+FixedWing,Blue,Enemies,J-11A,Blue J-11A #005,cn,<51>Teknetinium,0,0,0,15.4699993133545,2.46999931335449,0,0,NaN,NaN,0,0,NaN,0.999993741512668,0,-0.00349065172486007,0,15.1708868766308,15.1708868766308,,,91.6199998855591,13,0.317359324135384,0.394269039448837
2018-07-19T08:08:48Z,1531987728,50B,42.043693,42.2465078,15.47,0,-0.2,145.7,646855.25,-281191.62,139.5,Air+FixedWing,Blue,Enemies,J-11A,Blue J-11A #005,cn,<51>Teknetinium,0,0,0,15.4699993133545,2.46999931335449,0,0,NaN,NaN,0,0,NaN,0.999993741512668,0,-0.00349065172486007,0,15.1708868766308,15.1708868766308,,,92.6199998855591,13,0.31954634734631,0.396456067860766
2018-07-19T08:08:49Z,1531987729,50B,42.043693,42.2465077,15.47,0,-0.2,145.7,646855.25,-281191.62,139.5,Air+FixedWing,Blue,Enemies,J-11A,Blue J-11A #005,cn,<51>Teknetinium,0,0,0,15.4699993133545,2.46999931335449,0,0,NaN,NaN,0,0,NaN,0.999993741512668,0,-0.00349065172486007,0,15.1708868766308,15.1708868766308,,,93.6199998855591,13,0.321733369672908,0.398643095620866
2018-07-19T08:08:50Z,1531987730,50B,42.043693,42.2465077,15.47,0,-0.2,145.7,646855.25,-281191.62,139.5,Air+FixedWing,Blue,Enemies,J-11A,Blue J-11A #005,cn,<51>Teknetinium,0,0,0,15.4699993133545,2.46999931335449,0,0,NaN,NaN,0,0,NaN,0.999993741512668,0,-0.00349065172486007,0,15.1708868766308,15.1708868766308,,,94.6199998855591,13,0.323920393573255,0.400830124722215
2018-07-19T08:08:51Z,1531987731,50B,42.043693,42.2465077,15.47,0,-0.2,145.7,646855.25,-281191.62,139.5,Air+FixedWing,Blue,Enemies,J-11A,Blue J-11A #005,cn,<51>Teknetinium,0,0,0,15.4699993133545,2.46999931335449,0,0,NaN,NaN,0,0,NaN,0.999993741512668,0,-0.00349065172486007,0,15.1708868766308,15.1708868766308,,,95.6199998855591,13,0.326107416574517,0.403017153343809
2018-07-19T08:08:52Z,1531987732,50B,42.043693,42.2465078,15.47,0,-0.2,145.7,646855.25,-281191.62,139.5,Air+FixedWing,Blue,Enemies,J-11A,Blue J-11A #005,cn,<51>Teknetinium,0,0,0,15.4699993133545,2.46999931335449,0,0,NaN,NaN,0,0,NaN,0.999993741512668,0,-0.00349065172486007,0,15.1708868766308,15.1708868766308,,,96.6199998855591,13,0.332590933143854,0.409500685260818
2018-07-19T08:08:53Z,1531987733,50B,42.043693,42.2465078,15.47,0,-0.2,145.7,646855.25,-281191.62,139.5,Air+FixedWing,Blue,Enemies,J-11A,Blue J-11A #005,cn,<51>Teknetinium,0,0,0,15.4699993133545,2.46999931335449,0,0,NaN,NaN,0,0,NaN,0.999993741512668,0,-0.00349065172486007,0,15.1708868766308,15.1708868766308,,,97.6199998855591,13,0.333859945036306,0.410769699648939
2018-07-19T08:08:54Z,1531987734,50B,42.043693,42.2465077,15.47,0,-0.2,145.7,646855.25,-281191.62,139.5,Air+FixedWing,Blue,Enemies,J-11A,Blue J-11A #005,cn,<51>Teknetinium,0,0,0,15.4699993133545,2.46999931335449,0,0,NaN,NaN,0,0,NaN,0.999993741512668,0,-0.00349065172486007,0,15.1708868766308,15.1708868766308,,,98.6199998855591,13,0.34068936185806,0.417599132740286
2018-07-19T08:08:55Z,1531987735,50B,42.043693,42.2465078,15.47,0,-0.2,145.7,646855.25,-281191.62,139.5,Air+FixedWing,Blue,Enemies,J-11A,Blue J-11A #005,cn,<51>Teknetinium,0,0,0,15.4699993133545,2.46999931335449,0,0,NaN,NaN,0,0,NaN,0.999993741512668,0,-0.00349065172486007,0,15.1708868766308,15.1708868766308,,,99.6199998855591,13,0.346591469623976,0.423501255644209
2018-07-19T08:08:56Z,1531987736,50B,42.043693,42.2465078,15.47,0,-0.2,145.7,646855.25,-281191.62,139.5,Air+FixedWing,Blue,Enemies,J-11A,Blue J-11A #005,cn,<51>Teknetinium,0,0,0,15.4699993133545,2.46999931335449,0,0,NaN,NaN,0,0,NaN,0.999993741512668,0,-0.00349065172486007,0,15.1708868766308,15.1708868766308,,,100.619999885559,13,0.34747812100531,0.424387909521212
2018-07-19T08:08:57Z,1531987737,50B,42.043693,42.2465077,15.47,0,-0.2,145.7,646855.25,-281191.62,139.5,Air+FixedWing,Blue,Enemies,J-11A,Blue J-11A #005,cn,<51>Teknetinium,0,0,0,15.4699993133545,2.46999931335449,0,0,NaN,NaN,0,0,NaN,0.999993741512668,0,-0.00349065172486007,0,15.1708868766308,15.1708868766308,,,101.619999885559,13,0.351147571884297,0.42805736897312
2018-07-19T08:08:58Z,1531987738,50B,42.043693,42.2465078,15.47,0,-0.2,145.7,646855.25,-281191.62,139.5,Air+FixedWing,Blue,Enemies,J-11A,Blue J-11A #005,cn,<51>Teknetinium,0,0,0,15.4699993133545,2.46999931335449,0,0,NaN,NaN,0,0,NaN,0.999993741512668,0,-0.00349065172486007,0,15.1708868766308,15.1708868766308,,,102.619999885559,13,0.359454998511179,0.436364815264348
2018-07-19T08:08:59Z,1531987739,50B,42.043693,42.2465077,15.47,0,-0.2,145.7,646855.25,-281191.62,139.5,Air+FixedWing,Blue,Enemies,J-11A,Blue J-11A #005,cn,<51>Teknetinium,0,0,0,15.4699993133545,2.46999931335449,0,0,NaN,NaN,0,0,NaN,0.999993741512668,0,-0.00349065172486007,0,15.1708868766308,15.1708868766308,,,103.619999885559,13,0.367448517812727,0.444358353578413
2018-07-19T08:09:00Z,1531987740,50B,42.043693,42.2465077,15.47,0,-0.2,145.7,646855.25,-281191.62,139.5,Air+FixedWing,Blue,Enemies,J-11A,Blue J-11A #005,cn,<51>Teknetinium,0,0,0,15.4699993133545,2.46999931335449,0,0,NaN,NaN,0,0,NaN,0.999993741512668,0,-0.00349065172486007,0,15.1708868766308,15.1708868766308,,,104.619999885559,13,0.369626266368224,0.446536108024332
2018-07-19T08:09:01Z,1531987741,50B,42.043693,42.2465078,15.47,0,-0.2,145.7,646855.25,-281191.62,139.5,Air+FixedWing,Blue,Enemies,J-11A,Blue J-11A #005,cn,<51>Teknetinium,0,0,0,15.4699993133545,2.46999931335449,0,0,NaN,NaN,0,0,NaN,0.999993741512668,0,-0.00349065172486007,0,15.1708868766308,15.1708868766308,,,105.619999885559,13,0.374556447798705,0.451466300755902
2018-07-19T08:09:02Z,1531987742,50B,42.043693,42.2465077,15.47,0,-0.2,145.7,646855.25,-281191.62,139.5,Air+FixedWing,Blue,Enemies,J-11A,Blue J-11A #005,cn,<51>Teknetinium,0,0,0,15.4699993133545,2.46999931335449,0,0,NaN,NaN,0,0,NaN,0.999993741512668,0,-0.00349065172486007,0,15.1708868766308,15.1708868766308,,,106.619999885559,13,0.379960306089317,0.456870172153852
2018-07-19T08:09:03Z,1531987743,50B,42.043693,42.2465077,15.47,0,-0.2,145.7,646855.25,-281191.62,139.5,Air+FixedWing,Blue,Enemies,J-11A,Blue J-11A #005,cn,<51>Teknetinium,0,0,0,15.4699993133545,2.46999931335449,0,0,NaN,NaN,0,0,NaN,0.999993741512668,0,-0.00349065172486007,0,15.1708868766308,15.1708868766308,,,107.619999885559,13,0.38327893705444,0.460188811924396
2018-07-19T08:09:04Z,1531987744,50B,42.043693,42.2465078,15.47,0,-0.2,145.7,646855.25,-281191.62,139.5,Air+FixedWing,Blue,Enemies,J-11A,Blue J-11A #005,cn,<51>Teknetinium,0,0,0,15.4699993133545,2.46999931335449,0,0,NaN,NaN,0,0,NaN,0.999993741512668,0,-0.00349065172486007,0,15.1708868766308,15.1708868766308,,,108.619999885559,13,0.391776608442795,0.468686504093926
2018-07-19T08:09:05Z,1531987745,50B,42.043693,42.2465078,15.47,0,-0.2,145.7,646855.25,-281191.62,139.5,Air+FixedWing,Blue,Enemies,J-11A,Blue J-11A #005,cn,<51>Teknetinium,0,0,0,15.4699993133545,2.46999931335449,0,0,NaN,NaN,0,0,NaN,0.999993741512668,0,-0.00349065172486007,0,15.1708868766308,15.1708868766308,,,109.619999885559,13,0.392630240345891,0.46954013826019
2018-07-19T08:09:06Z,1531987746,50B,42.043693,42.2465078,15.47,0,-0.2,145.7,646855.25,-281191.62,139.5,Air+FixedWing,Blue,Enemies,J-11A,Blue J-11A #005,cn,<51>Teknetinium,0,0,0,15.4699993133545,2.46999931335449,0,0,NaN,NaN,0,0,NaN,0.999993741512668,0,-0.00349065172486007,0,15.1708868766308,15.1708868766308,,,110.619999885559,13,0.394184376178106,0.471094277719659
2018-07-19T08:09:07Z,1531987747,50B,42.043693,42.2465077,15.47,0,-0.2,145.7,646855.25,-281191.62,139.5,Air+FixedWing,Blue,Enemies,J-11A,Blue J-11A #005,cn,<51>Teknetinium,0,0,0,15.4699993133545,2.46999931335449,0,0,NaN,NaN,0,0,NaN,0.999993741512668,0,-0.00349065172486007,0,15.1708868766308,15.1708868766308,,,111.619999885559,13,0.397798646351771,0.474708556698744
2018-07-19T08:09:08Z,1531987748,50B,42.043693,42.2465077,15.47,0,-0.2,145.7,646855.25,-281191.62,139.5,Air+FixedWing,Blue,Enemies,J-11A,Blue J-11A #005,cn,<51>Teknetinium,0,0,0,15.4699993133545,2.46999931335449,0,0,NaN,NaN,0,0,NaN,0.999993741512668,0,-0.00349065172486007,0,15.1708868766308,15.1708868766308,,,112.619999885559,13,0.401412916060437,0.478322835235666
2018-07-19T08:09:09Z,1531987749,50B,42.043693,42.2465077,15.47,0,-0.2,145.7,646855.25,-281191.62,139.5,Air+FixedWing,Blue,Enemies,J-11A,Blue J-11A #005,cn,<51>Teknetinium,0,0,0,15.4699993133545,2.46999931335449,0,0,NaN,NaN,0,0,NaN,0.999993741512668,0,-0.00349065172486007,0,15.1708868766308,15.1708868766308,,,113.619999885559,13,0.401778000622894,0.478687921371873
2018-07-19T08:09:10Z,1531987750,50B,42.043693,42.2465078,15.47,0,-0.2,145.7,646855.25,-281191.62,139.5,Air+FixedWing,Blue,Enemies,J-11A,Blue J-11A #005,cn,<51>Teknetinium,0,0,0,15.4699993133545,2.46999931335449,0,0,NaN,NaN,0,0,NaN,0.999993741512668,0,-0.00349065172486007,0,15.1708868766308,15.1708868766308,,,114.619999885559,13,0.406284863376321,0.483194794774559
2018-07-19T08:09:11Z,1531987751,50B,42.043693,42.2465078,15.47,0,-0.2,145.7,646855.25,-281191.62,139.5,Air+FixedWing,Blue,Enemies,J-11A,Blue J-11A #005,cn,<51>Teknetinium,0,0,0,15.4699993133545,2.46999931335449,0,0,NaN,NaN,0,0,NaN,0.999993741512668,0,-0.00349065172486007,0,15.1708868766308,15.1708868766308,,,115.619999885559,13,0.409641404508771,0.486551343603681
2018-07-19T08:09:12Z,1531987752,50B,42.043693,42.2465078,15.47,0,-0.2,145.7,646855.25,-281191.62,139.5,Air+FixedWing,Blue,Enemies,J-11A,Blue J-11A #005,cn,<51>Teknetinium,0,0,0,15.4699993133545,2.46999931335449,0,0,NaN,NaN,0,0,NaN,0.999993741512668,0,-0.00349065172486007,0,15.1708868766308,15.1708868766308,,,116.619999885559,13,0.412882200466537,0.489792147700283
2018-07-19T08:09:13Z,1531987753,50B,42.043693,42.2465077,15.47,0,-0.2,145.7,646855.25,-281191.62,139.5,Air+FixedWing,Blue,Enemies,J-11A,Blue J-11A #005,cn,<51>Teknetinium,0,0,0,15.4699993133545,2.46999931335449,0,0,NaN,NaN,0,0,NaN,0.999993741512668,0,-0.00349065172486007,0,15.1708868766308,15.1708868766308,,,117.619999885559,13,0.415485847622578,0.492395800304581
2018-07-19T08:09:14Z,1531987754,50B,42.043693,42.2465077,15.47,0,-0.2,145.7,646855.25,-281191.62,139.5,Air+FixedWing,Blue,Enemies,J-11A,Blue J-11A #005,cn,<51>Teknetinium,0,0,0,15.4699993133545,2.46999931335449,0,0,NaN,NaN,0,0,NaN,0.999993741512668,0,-0.00349065172486007,0,15.1708868766308,15.1708868766308,,,118.619999885559,13,0.416959684667584,0.493869640744341
2018-07-19T08:09:15Z,1531987755,50B,42.043693,42.2465078,15.47,0,-0.2,145.7,646855.25,-281191.62,139.5,Air+FixedWing,Blue,Enemies,J-11A,Blue J-11A #005,cn,<51>Teknetinium,0,0,0,15.4699993133545,2.46999931335449,0,0,NaN,NaN,0,0,NaN,0.999993741512668,0,-0.00349065172486007,0,15.1708868766308,15.1708868766308,,,119.619999885559,13,0.420893235543375,0.497803200215887
2018-07-19T08:09:16Z,1531987756,50B,42.043693,42.2465078,15.47,0,-0.2,145.7,646855.25,-281191.62,139.5,Air+FixedWing,Blue,Enemies,J-11A,Blue J-11A #005,cn,<51>Teknetinium,0,0,0,15.4699993133545,2.46999931335449,0,0,NaN,NaN,0,0,NaN,0.999993741512668,0,-0.00349065172486007,0,15.1708868766308,15.1708868766308,,,120.619999885559,13,0.424826787978159,0.501736762378012
2018-07-19T08:09:17Z,1531987757,50B,42.043693,42.2465078,15.47,0,-0.2,145.7,646855.25,-281191.62,139.5,Air+FixedWing,Blue,Enemies,J-11A,Blue J-11A #005,cn,<51>Teknetinium,0,0,0,15.4699993133545,2.46999931335449,0,0,NaN,NaN,0,0,NaN,0.999993741512668,0,-0.00349065172486007,0,15.1708868766308,15.1708868766308,,,121.619999885559,13,0.429578901885609,0.506488888028716
2018-07-19T08:09:18Z,1531987758,50B,42.043693,42.2465077,15.47,0,-0.2,145.7,646855.25,-281191.62,139.5,Air+FixedWing,Blue,Enemies,J-11A,Blue J-11A #005,cn,<51>Teknetinium,0,0,0,15.4699993133545,2.46999931335449,0,0,NaN,NaN,0,0,NaN,0.999993741512668,0,-0.00349065172486007,0,15.1708868766308,15.1708868766308,,,122.619999885559,13,0.435224738448108,0.512134737713309
2018-07-19T08:09:19Z,1531987759,50B,42.043693,42.2465078,15.47,0,-0.2,145.7,646855.25,-281191.62,139.5,Air+FixedWing,Blue,Enemies,J-11A,Blue J-11A #005,cn,<51>Teknetinium,0,0,0,15.4699993133545,2.46999931335449,0,0,NaN,NaN,0,0,NaN,0.999993741512668,0,-0.00349065172486007,0,15.1708868766308,15.1708868766308,,,123.619999885559,13,0.442646038641207,0.519556055307584
2018-07-19T08:09:20Z,1531987760,50B,42.043693,42.2465078,15.47,0,-0.2,145.7,646855.25,-281191.62,139.5,Air+FixedWing,Blue,Enemies,J-11A,Blue J-11A #005,cn,<51>Teknetinium,0,0,0,15.4699993133545,2.46999931335449,0,0,NaN,NaN,0,0,NaN,0.999993741512668,0,-0.00349065172486007,0,15.1708868766308,15.1708868766308,,,124.619999885559,13,0.443994036179735,0.520904056683031
2018-07-19T08:09:21Z,1531987761,50B,42.043693,42.2465077,15.47,0,-0.2,145.7,646855.25,-281191.62,139.6,Air+FixedWing,Blue,Enemies,J-11A,Blue J-11A #005,cn,<51>Teknetinium,0,0,0,15.4699993133545,2.46999931335449,0,0,NaN,NaN,0,0,NaN,0.999993741512668,0,-0.00349065172486007,0,15.1708868766308,15.1708868766308,,,125.619999885559,13,0.450289976379071,0.527200011368545
2018-07-19T08:09:22Z,1531987762,50B,42.043693,42.2465078,15.47,0,-0.2,145.7,646855.25,-281191.62,139.5,Air+FixedWing,Blue,Enemies,J-11A,Blue J-11A #005,cn,<51>Teknetinium,0,0,0,15.4699993133545,2.46999931335449,0,0,NaN,NaN,0,0,NaN,0.999993741512668,0,-0.00349065172486007,0,15.1708868766308,15.1708868766308,,,126.619999885559,13,0.461282340270595,0.538192401736757
2018-07-19T08:09:23Z,1531987763,50B,42.043693,42.2465078,15.47,0,-0.2,145.7,646855.25,-281191.62,139.5,Air+FixedWing,Blue,Enemies,J-11A,Blue J-11A #005,cn,<51>Teknetinium,0,0,0,15.4699993133545,2.46999931335449,0,0,NaN,NaN,0,0,NaN,0.999993741512668,0,-0.00349065172486007,0,15.1708868766308,15.1708868766308,,,127.619999885559,13,0.46477198009786,0.54168204927545
2018-07-19T08:09:24Z,1531987764,50B,42.043693,42.2465077,15.47,0,-0.2,145.7,646855.25,-281191.62,139.5,Air+FixedWing,Blue,Enemies,J-11A,Blue J-11A #005,cn,<51>Teknetinium,0,0,0,15.4699993133545,2.46999931335449,0,0,NaN,NaN,0,0,NaN,0.999993741512668,0,-0.00349065172486007,0,15.1708868766308,15.1708868766308,,,128.619999885559,13,0.46826161922095,0.545171697878625
2018-07-19T08:09:25Z,1531987765,50B,42.043693,42.2465077,15.47,0,-0.2,145.7,646855.25,-281191.62,139.5,Air+FixedWing,Blue,Enemies,J-11A,Blue J-11A #005,cn,<51>Teknetinium,0,0,0,15.4699993133545,2.46999931335449,0,0,NaN,NaN,0,0,NaN,0.999993741512668,0,-0.00349065172486007,0,15.1708868766308,15.1708868766308,,,129.619999885559,13,0.471751258358795,0.548661344922806
2018-07-19T08:09:26Z,1531987766,50B,42.043693,42.2465078,15.47,0,-0.2,145.7,646855.25,-281191.62,139.5,Air+FixedWing,Blue,Enemies,J-11A,Blue J-11A #005,cn,<51>Teknetinium,0,0,0,15.4699993133545,2.46999931335449,0,0,NaN,NaN,0,0,NaN,0.999993741512668,0,-0.00349065172486007,0,15.1708868766308,15.1708868766308,,,130.619999885559,13,0.478185279729592,0.555095382106274
2018-07-19T08:09:27Z,1531987767,50B,42.043693,42.2465078,15.47,0,-0.2,145.7,646855.25,-281191.62,139.5,Air+FixedWing,Blue,Enemies,J-11A,Blue J-11A #005,cn,<51>Teknetinium,0,0,0,15.4699993133545,2.46999931335449,0,0,NaN,NaN,0,0,NaN,0.999993741512668,0,-0.00349065172486007,0,15.1708868766308,15.1708868766308,,,131.619999885559,13,0.48143992122805,0.558350031068904
2018-07-19T08:09:28Z,1531987768,50B,42.043693,42.2465078,15.47,0,-0.2,145.7,646855.25,-281191.62,139.5,Air+FixedWing,Blue,Enemies,J-11A,Blue J-11A #005,cn,<51>Teknetinium,0,0,0,15.4699993133545,2.46999931335449,0,0,NaN,NaN,0,0,NaN,0.999993741512668,0,-0.00349065172486007,0,15.1708868766308,15.1708868766308,,,132.619999885559,13,0.483317147957649,0.560227262324841
2018-07-19T08:09:29Z,1531987769,50B,42.043693,42.2465078,15.47,0,-0.2,145.7,646855.25,-281191.62,139.5,Air+FixedWing,Blue,Enemies,J-11A,Blue J-11A #005,cn,<51>Teknetinium,0,0,0,15.4699993133545,2.46999931335449,0,0,NaN,NaN,0,0,NaN,0.999993741512668,0,-0.00349065172486007,0,15.1708868766308,15.1708868766308,,,133.619999885559,13,0.485194372438835,0.562104491107945
2018-07-19T08:09:30Z,1531987770,50B,42.043693,42.2465077,15.47,0,-0.2,145.7,646855.25,-281191.62,139.5,Air+FixedWing,Blue,Enemies,J-11A,Blue J-11A #005,cn,<51>Teknetinium,0,0,0,15.4699993133545,2.46999931335449,0,0,NaN,NaN,0,0,NaN,0.999993741512668,0,-0.00349065172486007,0,15.1708868766308,15.1708868766308,,,134.619999885559,13,0.48707159849377,0.563981722363882
2018-07-19T08:09:31Z,1531987771,50B,42.043693,42.2465077,15.47,0,-0.2,145.7,646855.25,-281191.62,139.5,Air+FixedWing,Blue,Enemies,J-11A,Blue J-11A #005,cn,<51>Teknetinium,0,0,0,15.4699993133545,2.46999931335449,0,0,NaN,NaN,0,0,NaN,0.999993741512668,0,-0.00349065172486007,0,15.1708868766308,15.1708868766308,,,135.619999885559,13,0.48894882364962,0.565858951566315
2018-07-19T08:09:32Z,1531987772,50B,42.043693,42.2465077,15.47,0,-0.2,145.7,646855.25,-281191.62,139.5,Air+FixedWing,Blue,Enemies,J-11A,Blue J-11A #005,cn,<51>Teknetinium,0,0,0,15.4699993133545,2.46999931335449,0,0,NaN,NaN,0,0,NaN,0.999993741512668,0,-0.00349065172486007,0,15.1708868766308,15.1708868766308,,,136.619999885559,13,0.490826049937055,0.567736182380088
2018-07-19T08:09:33Z,1531987773,50B,42.043693,42.2465077,15.47,0,-0.2,145.7,646855.25,-281191.62,139.5,Air+FixedWing,Blue,Enemies,J-11A,Blue J-11A #005,cn,<51>Teknetinium,0,0,0,15.4699993133545,2.46999931335449,0,0,NaN,NaN,0,0,NaN,0.999993741512668,0,-0.00349065172486007,0,15.1708868766308,15.1708868766308,,,137.619999885559,13,0.494987181557911,0.571897323937949
2018-07-19T08:09:34Z,1531987774,50B,42.043693,42.2465077,15.47,0,-0.2,145.7,646855.25,-281191.62,139.5,Air+FixedWing,Blue,Enemies,J-11A,Blue J-11A #005,cn,<51>Teknetinium,0,0,0,15.4699993133545,2.46999931335449,0,0,NaN,NaN,0,0,NaN,0.999993741512668,0,-0.00349065172486007,0,15.1708868766308,15.1708868766308,,,138.619999885559,13,0.49911135243329,0.576021504750333
2018-07-19T08:09:35Z,1531987775,50B,42.043693,42.2465078,15.47,0,-0.2,145.7,646855.25,-281191.62,139.5,Air+FixedWing,Blue,Enemies,J-11A,Blue J-11A #005,cn,<51>Teknetinium,0,0,0,15.4699993133545,2.46999931335449,0,0,NaN,NaN,0,0,NaN,0.999993741512668,0,-0.00349065172486007,0,15.1708868766308,15.1708868766308,,,139.619999885559,13,0.507740770203953,0.584650943759092
2018-07-19T08:09:36Z,1531987776,50B,42.043693,42.2465078,15.47,0,-0.2,145.7,646855.25,-281191.62,139.5,Air+FixedWing,Blue,Enemies,J-11A,Blue J-11A #005,cn,<51>Teknetinium,0,0,0,15.4699993133545,2.46999931335449,0,0,NaN,NaN,0,0,NaN,0.999993741512668,0,-0.00349065172486007,0,15.1708868766308,15.1708868766308,,,140.619999885559,13,0.509253934343566,0.586164111735623
2018-07-19T08:09:37Z,1531987777,50B,42.043693,42.2465077,15.47,0,-0.2,145.7,646855.25,-281191.62,139.5,Air+FixedWing,Blue,Enemies,J-11A,Blue J-11A #005,cn,<51>Teknetinium,0,0,0,15.4699993133545,2.46999931335449,0,0,NaN,NaN,0,0,NaN,0.999993741512668,0,-0.00349065172486007,0,15.1708868766308,15.1708868766308,,,141.619999885559,13,0.51314622442635,0.590056411313247
2018-07-19T08:09:38Z,1531987778,50B,42.043693,42.2465077,15.47,0,-0.2,145.7,646855.25,-281191.62,139.5,Air+FixedWing,Blue,Enemies,J-11A,Blue J-11A #005,cn,<51>Teknetinium,0,0,0,15.4699993133545,2.46999931335449,0,0,NaN,NaN,0,0,NaN,0.999993741512668,0,-0.00349065172486007,0,15.1708868766308,15.1708868766308,,,142.619999885559,13,0.517038514718799,0.593948710876116
2018-07-19T08:09:39Z,1531987779,50B,42.043693,42.2465078,15.47,0,-0.2,145.7,646855.25,-281191.62,139.5,Air+FixedWing,Blue,Enemies,J-11A,Blue J-11A #005,cn,<51>Teknetinium,0,0,0,15.4699993133545,2.46999931335449,0,0,NaN,NaN,0,0,NaN,0.999993741512668,0,-0.00349065172486007,0,15.1708868766308,15.1708868766308,,,143.619999885559,13,0.523941453355452,0.600851666014861
2018-07-19T08:09:40Z,1531987780,50B,42.043693,42.2465078,15.47,0,-0.2,145.7,646855.25,-281191.62,139.5,Air+FixedWing,Blue,Enemies,J-11A,Blue J-11A #005,cn,<51>Teknetinium,0,0,0,15.4699993133545,2.46999931335449,0,0,NaN,NaN,0,0,NaN,0.999993741512668,0,-0.00349065172486007,0,15.1708868766308,15.1708868766308,,,144.619999885559,13,0.524830804064181,0.601741018739504
2018-07-19T08:09:41Z,1531987781,50B,42.043693,42.2465077,15.47,0,-0.2,145.7,646855.25,-281191.62,139.5,Air+FixedWing,Blue,Enemies,J-11A,Blue J-11A #005,cn,<51>Teknetinium,0,0,0,15.4699993133545,2.46999931335449,0,0,NaN,NaN,0,0,NaN,0.999993741512668,0,-0.00349065172486007,0,15.1708868766308,15.1708868766308,,,145.619999885559,13,0.527651021215825,0.60456124312282
2018-07-19T08:09:42Z,1531987782,50B,42.043693,42.2465078,15.47,0,-0.2,145.7,646855.25,-281191.62,139.5,Air+FixedWing,Blue,Enemies,J-11A,Blue J-11A #005,cn,<51>Teknetinium,0,0,0,15.4699993133545,2.46999931335449,0,0,NaN,NaN,0,0,NaN,0.999993741512668,0,-0.00349065172486007,0,15.1708868766308,15.1708868766308,,,146.619999885559,13,0.535155588764677,0.612065829204434
2018-07-19T08:09:43Z,1531987783,50B,42.043693,42.2465077,15.47,0,-0.2,145.7,646855.25,-281191.62,139.5,Air+FixedWing,Blue,Enemies,J-11A,Blue J-11A #005,cn,<51>Teknetinium,0,0,0,15.4699993133545,2.46999931335449,0,0,NaN,NaN,0,0,NaN,0.999993741512668,0,-0.00349065172486007,0,15.1708868766308,15.1708868766308,,,147.619999885559,13,0.541140508124173,0.618050763050108
2018-07-19T08:09:44Z,1531987784,50B,42.043693,42.2465078,15.47,0,-0.2,145.7,646855.25,-281191.62,139.5,Air+FixedWing,Blue,Enemies,J-11A,Blue J-11A #005,cn,<51>Teknetinium,0,0,0,15.4699993133545,2.46999931335449,0,0,NaN,NaN,0,0,NaN,0.999993741512668,0,-0.00349065172486007,0,15.1708868766308,15.1708868766308,,,148.619999885559,13,0.544247881656442,0.621158144046548
2018-07-19T08:09:45Z,1531987785,50B,42.043693,42.2465077,15.47,0,-0.2,145.7,646855.25,-281191.62,139.5,Air+FixedWing,Blue,Enemies,J-11A,Blue J-11A #005,cn,<51>Teknetinium,0,0,0,15.4699993133545,2.46999931335449,0,0,NaN,NaN,0,0,NaN,0.999993741512668,0,-0.00349065172486007,0,15.1708868766308,15.1708868766308,,,149.619999885559,13,0.551182115353454,0.628092394245652
2018-07-19T08:09:46Z,1531987786,50B,42.043693,42.2465077,15.47,0,-0.2,145.7,646855.25,-281191.62,139.5,Air+FixedWing,Blue,Enemies,J-11A,Blue J-11A #005,cn,<51>Teknetinium,0,0,0,15.4699993133545,2.46999931335449,0,0,NaN,NaN,0,0,NaN,0.999993741512668,0,-0.00349065172486007,0,15.1708868766308,15.1708868766308,,,150.619999885559,13,0.552682664853138,0.629592947372589
2018-07-19T08:09:47Z,1531987787,50B,42.043693,42.2465077,15.47,0,-0.2,145.7,646855.25,-281191.62,139.5,Air+FixedWing,Blue,Enemies,J-11A,Blue J-11A #005,cn,<51>Teknetinium,0,0,0,15.4699993133545,2.46999931335449,0,0,NaN,NaN,0,0,NaN,0.999993741512668,0,-0.00349065172486007,0,15.1708868766308,15.1708868766308,,,151.619999885559,13,0.552780665247241,0.629690947976359
2018-07-19T08:09:48Z,1531987788,50B,42.043693,42.2465078,15.47,0,-0.2,145.7,646855.25,-281191.62,139.5,Air+FixedWing,Blue,Enemies,J-11A,Blue J-11A #005,cn,<51>Teknetinium,0,0,0,15.4699993133545,2.46999931335449,0,0,NaN,NaN,0,0,NaN,0.999993741512668,0,-0.00349065172486007,0,15.1708868766308,15.1708868766308,,,152.619999885559,13,0.55597033481541,0.632880625473698
2018-07-19T08:09:49Z,1531987789,50B,42.043693,42.2465078,15.47,0,-0.2,145.7,646855.25,-281191.62,139.5,Air+FixedWing,Blue,Enemies,J-11A,Blue J-11A #005,cn,<51>Teknetinium,0,0,0,15.4699993133545,2.46999931335449,0,0,NaN,NaN,0,0,NaN,0.999993741512668,0,-0.00349065172486007,0,15.1708868766308,15.1708868766308,,,153.619999885559,13,0.559160005305497,0.636070302962958
2018-07-19T08:09:50Z,1531987790,50B,42.043693,42.2465078,15.47,0,-0.2,145.7,646855.25,-281191.62,139.5,Air+FixedWing,Blue,Enemies,J-11A,Blue J-11A #005,cn,<51>Teknetinium,0,0,0,15.4699993133545,2.46999931335449,0,0,NaN,NaN,0,0,NaN,0.999993741512668,0,-0.00349065172486007,0,15.1708868766308,15.1708868766308,,,154.619999885559,13,0.559360128006303,0.636270427260351
