ISOTime,UnixTime,Id,Longitude,Latitude,Altitude,Roll,Pitch,Yaw,U,V,Heading,Type,Color,Coalition,Name,Group,Country,Pilot,TAS,CAS,M,ASL,AGL,GS,VS,AOA,AOS,RRT,TRT,TRD,G,LatG,LonG,Ek,Ep,Em,FFW,FFV,RelativeTime,Elev,GroundDistance,AirDistance
2018-07-19T08:55:22Z,1531990522,10908,40.6310246,43.7944137,4043.41,-64.5,5.4,134.5,514477.16,-120692.16,129.1,Weapon+Missile,Red,Allies,R-77,,xu,,275.039044325647,231.469543457031,0.847463613222022,4043.40991210938,2868.82543945312,NaN,NaN,4.60564580733756,NaN,14.384583297722,1.00034521529623,NaN,NaN,NaN,NaN,NaN,3965.23058145874,NaN,,,0.779999971389771,1174.58447265625,NaN,NaN
2018-07-19T08:55:23Z,1531990523,10908,40.6337456,43.7921053,4054.4,-53.4,4.4,137.3,514719.94,-120928.33,132,Weapon+Missile,Red,Allies,R-77,,xu,,338.881371476642,288.745330810547,1.04431983071305,4054.39599609375,2955.16198730469,338.703247537691,10.986083984375,2.65124021125322,NaN,9.70768639563659,2.07207939770523,5000,2.29276871681213,2.29276871681213,2.29276871681213,5742.02919669449,3976.00424950928,9718.03344620377,,,1.77999997138977,1099.23400878906,337.399202926342,337.792085841237
2018-07-19T08:55:24Z,1531990524,10908,40.6375871,43.7890034,4086.98,-44.7,4.5,137.8,515061.06,-121244.27,132.4,Weapon+Missile,Red,Allies,R-77,,xu,,466.094607668544,396.699401855469,1.43692903275468,4086.97534179688,3002.78759765625,464.95458867641,32.579345703125,0.0341091590478797,NaN,8.41540777448101,0.893313504635092,5000,1.29623866081238,1.29623866081238,1.29623866081238,10862.2091648847,4007.95367356323,14870.1628384479,,,2.77999997138977,1084.18774414062,800.573587295291,802.405741366739
2018-07-19T08:55:25Z,1531990525,10908,40.6425456,43.7850613,4132.17,-37.1,4.1,137.6,515500.84,-121645.2,132.2,Weapon+Missile,Red,Allies,R-77,,xu,,596.826083598523,498.243560791016,1.84099508704031,4132.17431640625,3037.94580078125,595.11211276348,45.198974609375,0.027778277549243,NaN,7.58462454497568,0.309327981689491,5000,0.491726875305176,0.491726875305176,0.491726875305176,17810.0687031776,4052.27872599854,21862.3474291761,,,3.77999997138977,1094.228515625,1393.32957268828,1397.263311711
2018-07-19T08:55:26Z,1531990526,10908,40.6486195,43.7802733,4180.86,-30.9,3.7,137.4,516039.16,-122131.74,132,Weapon+Missile,Red,Allies,R-77,,xu,,727.235066484631,597.838928222656,2.24461744130223,4180.859375,2916.02294921875,725.603615615736,48.68505859375,0.0742535330809665,NaN,6.03078382955446,0.498897934432064,5000,0.520371854305267,0.520371854305267,0.520371854305267,26443.5420962453,4100.02245898437,30543.5645552297,,,4.77999997138977,1264.83642578125,2116.08656601967,2122.12811041038
2018-07-19T08:55:27Z,1531990527,10908,40.6558273,43.7746294,4232.63,-25.6,3.3,137.2,516677.69,-122704.87,131.8,Weapon+Missile,Red,Allies,R-77,,xu,,859.578245422883,698.712829589844,2.65480501156656,4232.63134765625,2667.16931152344,858.017728751313,51.77197265625,0.0112826944718976,NaN,5.18462242913284,0.41602116609507,5000,0.554797172546387,0.554797172546387,0.554797172546387,36943.7380002141,4150.79342054932,41094.5314207634,,,5.77999997138977,1565.46203613281,2970.70424753616,2978.87514404608
2018-07-19T08:55:28Z,1531990528,10908,40.6641387,43.7681589,4286.69,-21.3,3,137,517413.75,-123361.49,131.7,Weapon+Missile,Red,Allies,R-77,,xu,,987.859909720578,796.382263183594,3.05305781044777,4286.6943359375,2584.25988769531,986.379437402894,54.06298828125,0.0308409544276771,NaN,4.0769433306752,0.380523712483162,5000,0.433450788259506,0.433450788259506,0.433450788259506,48793.3600616574,4203.81110095215,52997.1711626096,,,6.77999997138977,1702.43444824219,3953.139899904,3963.45233562482
2018-07-19T08:55:29Z,1531990529,10908,40.6728814,43.761379,4337.24,-17.6,2.5,137,518187.84,-124049.21,131.6,Weapon+Missile,Red,Allies,R-77,,xu,,1036.69334942377,832.328002929688,3.20600181868544,4337.240234375,2527.8623046875,1035.46038692488,50.5458984375,0,NaN,3.67691281136589,0.471680377641504,5000,0.0795705020427704,0.0795705020427704,0.0795705020427704,53736.655036974,4253.37969444336,57990.0347314173,,,7.77999997138977,1809.3779296875,4984.46512414929,4996.71185667263
2018-07-19T08:55:30Z,1531990530,10908,40.6809919,43.7550972,4374.68,-14.3,1.9,136.9,518906.03,-124686.25,131.5,Weapon+Missile,Red,Allies,R-77,,xu,,960.736129855179,772.0166015625,2.97249136445954,4374.681640625,2154.66430664062,960.006277222774,37.44140625,0.041917233753056,NaN,3.16925217111552,0.601992596320825,5000,0.164980933070183,0.164980933070183,0.164980933070183,46150.6955604553,4290.09717110352,50440.7927315588,,,8.77999997138977,2220.01733398438,5940.62296890066,5954.25499949043
2018-07-19T08:55:31Z,1531990531,10908,40.6885689,43.7492471,4400.03,-11.6,1.3,136.8,519576.91,-125279.27,131.4,Weapon+Missile,Red,Allies,R-77,,xu,,895.763816129136,721.021301269531,2.77234692528451,4400.0341796875,1893.67431640625,895.404971534845,25.3525390625,0.0475352239002336,NaN,2.63076517959359,0.603129289209104,5000,0.42522668838501,0.42522668838501,0.42522668838501,40119.6407143116,4314.95951882324,44434.6002331348,,,9.77999997138977,2506.35986328125,6832.4295101774,6847.03503613947
2018-07-19T08:55:32Z,1531990532,10908,40.6956963,43.7437912,4415.94,-9.5,0.8,136.5,520207.62,-125831.82,131.1,Weapon+Missile,Red,Allies,R-77,,xu,,838.669908245536,676.666625976562,2.59616020096391,4415.94091796875,1744.90844726562,838.519046100819,15.90673828125,0.0430544605213136,NaN,1.93845549777381,0.559363091194102,5000,0.416300177574158,0.416300177574158,0.416300177574158,35168.3607498288,4330.55870031982,39498.9194501486,,,10.7799999713898,2671.03247070312,7667.52955418129,7682.86360033863
2018-07-19T08:55:33Z,1531990533,10908,40.7024137,43.7386806,4424.49,-7.7,0.4,136.4,520801.78,-126349.05,131,Weapon+Missile,Red,Allies,R-77,,xu,,787.798322771122,637.486328125,2.43894457411701,4424.49365234375,1685.51025390625,787.751895012448,8.552734375,0.0409296888415576,NaN,1.61539608776867,0.360046405145067,5000,0.718249619007111,0.718249619007111,0.718249619007111,31031.3098680496,4338.94606757568,35370.2559356253,,,11.7799999713898,2738.9833984375,8452.08186025739,8468.006206678
2018-07-19T08:55:34Z,1531990534,10908,40.7087277,43.7338817,4429.9,-6.4,0.4,136.4,521360.28,-126834.66,131,Weapon+Missile,Red,Allies,R-77,,xu,,740.108357907928,600.950439453125,2.29145624389567,4429.90234375,1975.41015625,740.08859436046,5.40869140625,0.0427998204689154,NaN,1.23077959786879,0.112776761862158,5000,1.01993954181671,1.01993954181671,1.01993954181671,27388.0190722585,4344.25018193359,31732.2692541921,,,12.7799999713898,2454.4921875,9189.16444990987,9205.62025111969
2018-07-19T08:55:35Z,1531990535,10908,40.71464,43.7293742,4435.14,-5.4,0.5,136.6,521883.5,-127290.86,131.2,Weapon+Missile,Red,Allies,R-77,,xu,,694.194919375323,565.864868164062,2.14944406163599,4435.14013671875,2217.28295898438,694.175159171897,5.23779296875,0.0507189439914303,NaN,0.969226895113258,0.150007202553185,5000,1.04041993618011,1.04041993618011,1.04041993618011,24095.3293043256,4349.38670217529,28444.7160065009,,,13.7799999713898,2217.85717773438,9880.4986181946,9897.45469349641
2018-07-19T08:55:36Z,1531990536,10908,40.7201885,43.725111,4440.1,-4.5,0.4,136.9,522374.94,-127722.65,131.4,Weapon+Missile,Red,Allies,R-77,,xu,,654.199658164346,535.346252441406,2.02573190882058,4440.09814453125,2380.46044921875,654.18087017344,4.9580078125,0.0473705781428162,NaN,0.769238956215285,0.249838528122561,5000,0.981452822685242,0.981452822685242,0.981452822685242,21398.8596371174,4354.24884690674,25753.1084840241,,,14.7799999713898,2059.6376953125,10531.9925424783,10549.4207501352
2018-07-19T08:55:37Z,1531990537,10908,40.7253969,43.7210712,4444.16,-3.8,0.4,137.1,522836.69,-128132.15,131.7,Weapon+Missile,Red,Allies,R-77,,xu,,617.187044711561,507.134674072266,1.91121944413742,4444.16455078125,2433.41149902344,617.173648578745,4.06640625,0.01147451543292,NaN,0.769238956215285,0.261696670336629,5000,1.10253822803497,1.10253822803497,1.10253822803497,19045.9924079895,4358.23662919189,23404.2290371814,,,15.7799999713898,2010.75305175781,11146.6561390112,11164.5258781053
2018-07-19T08:55:38Z,1531990538,10908,40.7302723,43.7172547,4448.63,-3.2,0.5,137.4,523269.31,-128519.34,131.9,Weapon+Missile,Red,Allies,R-77,,xu,,580.60707055076,479.221466064453,1.79804418919655,4448.63330078125,2533.84594726562,580.589873014482,4.46875,0.0457351239647756,NaN,0.553867296872327,0.288036441097137,5000,1.28324580192566,1.28324580192566,1.28324580192566,16855.2285186768,4362.61897591064,21217.8474945874,,,16.7799999713898,1914.78735351562,11724.8908056921,11743.1809058227
2018-07-19T08:55:39Z,1531990539,10908,40.734855,43.7136381,4455.4,-2.9,1,137.6,523676.34,-128886.51,132.2,Weapon+Missile,Red,Allies,R-77,,xu,,548.205886497898,454.376953125,1.6978468892768,4455.4013671875,2393.64306640625,548.164106147116,6.76806640625,0.0271283194280189,NaN,0.169262759803494,0.482548862797434,5000,1.53462314605713,1.53462314605713,1.53462314605713,15026.4846995473,4369.25618175293,19395.7408813002,,,17.7799999713898,2061.75830078125,12270.8228183637,12289.5359075911
2018-07-19T08:55:40Z,1531990540,10908,40.7391483,43.7102239,4466.73,-2.8,1.5,137.8,524057.97,-129233.34,132.4,Weapon+Missile,Red,Allies,R-77,,xu,,515.811110191317,429.331359863281,1.59774365500757,4466.72802734375,2396.58032226562,515.686734526402,11.32666015625,0.0470563033287573,NaN,0.199987938897973,0.586515761187547,5000,1.46406042575836,1.46406042575836,1.46406042575836,13303.05506984,4380.36384093506,17683.418910775,,,18.7799999713898,2070.14770507812,12784.4268879734,12803.6240002672
2018-07-19T08:55:41Z,1531990541,10908,40.7431977,43.706982,4481.77,-2.6,2,138,524418.12,-129562.88,132.5,Weapon+Missile,Red,Allies,R-77,,xu,,488.400119617076,407.882141113281,1.51312204728764,4481.7666015625,2278.60961914062,488.168534552813,15.03857421875,0.0381829233152213,NaN,0.199987938897973,0.540504138482903,5000,1.46085071563721,1.46085071563721,1.46085071563721,11926.7338420987,4395.11164432129,16321.84548642,,,19.7799999713898,2203.15698242188,13270.6565111052,13290.4270574665
2018-07-19T08:55:42Z,1531990542,10908,40.7469897,43.7039259,4500.23,-2.5,2.6,138.2,524755.69,-129873.71,132.7,Weapon+Missile,Red,Allies,R-77,,xu,,459.242111339991,384.758819580078,1.423116119635,4500.22607421875,2263.97094726562,458.870967372382,18.45947265625,0.0307521945169786,NaN,0.199987938897973,0.521994966162403,5000,1.36668348312378,1.36668348312378,1.36668348312378,10545.1658414006,4413.21420307373,14958.3800444744,,,20.7799999713898,2236.25512695312,13727.6632204677,13748.1279507443
2018-07-19T08:55:43Z,1531990543,10908,40.7505437,43.7010416,4520.98,-2.2,2.8,138.4,525072.31,-130167.23,133,Weapon+Missile,Red,Allies,R-77,,xu,,432.247827543477,362.907623291016,1.33981376312035,4520.9814453125,2349.24829101562,431.749231599567,20.75537109375,0.0345676718085444,NaN,0.399975877795947,0.353326139332009,5000,1.05482661724091,1.05482661724091,1.05482661724091,9341.90922080279,4433.56826906738,13775.4774898702,,,21.7799999713898,2171.73315429688,14157.6591361572,14178.928231789
2018-07-19T08:55:44Z,1531990544,10908,40.7538713,43.698319,4540.89,-1.9,2.9,138.6,525369,-130444.51,133.2,Weapon+Missile,Red,Allies,R-77,,xu,,406.571599555314,341.591369628906,1.26054134076661,4540.89208984375,2346.61596679688,406.08377436105,19.91064453125,0.0363062032703791,NaN,0.199987938897973,0.272681775636551,5000,1.13727569580078,1.13727569580078,1.13727569580078,8265.02327824831,4453.09394128662,12718.1172195349,,,22.7799999713898,2194.27612304688,14562.1100799823,14584.155936714
2018-07-19T08:55:45Z,1531990545,10908,40.7569934,43.6957399,4560.84,-1.7,3.1,138.9,525647.62,-130707.39,133.5,Weapon+Missile,Red,Allies,R-77,,xu,,383.584564575108,321.876861572266,1.18956962397806,4560.83837890625,2511.93627929688,383.065612830113,19.9462890625,0.0303764809579171,NaN,0.199987938897973,0.319595143394195,5000,1.182492852211,1.182492852211,1.182492852211,7356.85590901375,4472.6545688501,11829.5104778638,,,23.7799999713898,2048.90209960938,14943.6497060183,14966.4884486384
2018-07-19T08:55:46Z,1531990546,10908,40.7599156,43.6932997,4581.22,-1.5,3.4,139.2,525908.75,-130956.34,133.8,Weapon+Missile,Red,Allies,R-77,,xu,,361.352339402226,302.265777587891,1.12090998825448,4581.2216796875,2844.5400390625,360.776986850218,20.38330078125,0.0389474222772395,NaN,0.123103060732079,0.411290726486307,5000,1.15130531787872,1.15130531787872,1.15130531787872,6528.77565957308,4492.64375851074,11021.4194180838,,,24.7799999713898,1736.681640625,15302.9660163347,15326.6395454208
2018-07-19T08:55:47Z,1531990547,10908,40.7626449,43.6909923,4601.64,-1.4,3.6,139.6,526152.88,-131191.98,134.2,Weapon+Missile,Red,Allies,R-77,,xu,,339.917571779971,282.984497070312,1.05469002108299,4601.63623046875,3075.51379394531,339.303996028917,20.41455078125,0.0393757631220982,NaN,0.107685829671479,0.503873994046683,5000,1.24087226390839,1.24087226390839,1.24087226390839,5777.19778023958,4512.66359395264,10289.8613741922,,,25.7799999713898,1526.12243652344,15640.9525225531,15665.4848788281
2018-07-19T08:55:48Z,1531990548,10908,40.7651619,43.6888338,4622.74,-1.4,4,140,526378.44,-131412.67,134.6,Weapon+Missile,Red,Allies,R-77,,xu,,316.270094119306,261.650054931641,0.981577330996908,4622.73974609375,3068.22521972656,315.565229489087,21.103515625,0.0497625743793822,NaN,0,0.608539546083694,5000,1.25464189052582,1.25464189052582,1.25464189052582,5001.33862171173,4533.35907310303,9534.69769481476,,,26.7799999713898,1554.51452636719,15955.2522629098,15980.7190831519
2018-07-19T08:55:49Z,1531990549,10908,40.7675103,43.6867867,4644.83,-1.4,4.5,140.5,526589.19,-131622.28,135.1,Weapon+Missile,Red,Allies,R-77,,xu,,298.059712495526,245.29035949707,0.925316458469572,4644.8291015625,2945.0380859375,297.240058854608,22.08935546875,0.0124033659177459,NaN,0,0.649450404860514,5000,1.25878703594208,1.25878703594208,1.25878703594208,4441.97961064577,4555.02133088379,8997.00094152956,,,27.7799999713898,1699.791015625,16251.3347840931,16277.8389649384
2018-07-19T08:55:50Z,1531990550,10908,40.7697207,43.6848265,4668.1,-1.4,4.9,141,526787.88,-131823.3,135.6,Weapon+Missile,Red,Allies,R-77,,xu,,283.594136603226,232.360198974609,0.880666361680431,4668.10205078125,2768.4375,282.637584461781,23.27294921875,0.0539268485233802,NaN,0,0.662427871005244,5000,1.29475450515747,1.29475450515747,1.29475450515747,4021.28171578646,4577.84429762939,8599.12601341585,,,28.7799999713898,1899.66455078125,16532.9005127113,16560.5697383808
2018-07-19T08:55:51Z,1531990551,10908,40.7717898,43.6829593,4692.79,-1.5,5.7,141.5,526974.25,-132015.02,136.1,Weapon+Missile,Red,Allies,R-77,,xu,,268.516247966755,219.003921508789,0.834102971858773,4692.78515625,2626.73388671875,267.379355460668,24.68310546875,0.0567041348424261,NaN,0.0154089067675488,0.880404393742915,5000,1.40450131893158,1.40450131893158,1.40450131893158,3605.0487711072,4602.05015525391,8207.0989263611,,,29.7799999713898,2066.05126953125,16799.2619968976,16828.2670708257
2018-07-19T08:55:52Z,1531990552,10908,40.7737355,43.6811771,4720.01,-1.7,6.4,141.7,527149.81,-132198.23,136.3,Weapon+Missile,Red,Allies,R-77,,xu,,255.210712353939,207.271087646484,0.793043353957952,4720.01025390625,2516.99951171875,253.754412292304,27.22509765625,0.0320654495992091,NaN,0,0.634514381971282,5000,1.12904345989227,1.12904345989227,1.12904345989227,3256.62538501024,4628.74885564697,7885.37424065721,,,30.7799999713898,2203.0107421875,17052.0307618709,17082.6832270923
2018-07-19T08:55:53Z,1531990553,10908,40.7756004,43.6794666,4747.41,-1.4,6.4,141.7,527318.12,-132374.11,136.2,Weapon+Missile,Red,Allies,R-77,,xu,,244.973362235559,198.25407409668,0.761494712589506,4747.41162109375,2441.50439453125,243.436055836538,27.4013671875,0.0525061082705445,NaN,0.199987938897973,0.160408033194381,5000,1.01139318943024,1.01139318943024,1.01139318943024,3000.59741024971,4655.6204173999,7656.21782764961,,,31.7799999713898,2305.9072265625,17294.5146912898,17326.8892899593
2018-07-19T08:55:54Z,1531990554,10908,40.7773955,43.6778232,4773.93,-1.2,6.5,141.6,527480.12,-132543.05,136.2,Weapon+Missile,Red,Allies,R-77,,xu,,235.557246207547,190.006729125977,0.732469885132482,4773.93212890625,2430.50170898438,234.059562731904,26.5205078125,0.0280974841768375,NaN,0.199987938897973,0.0692382079156944,5000,1.01014709472656,1.01014709472656,1.01014709472656,2774.36081204414,4681.62815119385,7455.98896323799,,,32.7799999713898,2343.43041992188,17527.656842397,17561.7078843987
2018-07-19T08:55:55Z,1531990555,10908,40.7791165,43.6762504,4799.49,-1.1,6.6,141.6,527635.44,-132704.7,136.1,Weapon+Missile,Red,Allies,R-77,,xu,,225.627586491519,181.392776489258,0.701819750158868,4799.48779296875,2422.9404296875,224.175636098824,25.5556640625,0.0797080331628067,NaN,0.0307674408899687,0.239440578967421,5000,1.16793406009674,1.16793406009674,1.16793406009674,2545.39038929939,4706.6896964917,7252.08008579109,,,33.7799999713898,2376.54736328125,17750.932380369,17786.6076674604
2018-07-19T08:55:56Z,1531990556,10908,40.7807657,43.6747482,4825.62,-1.2,7.2,141.4,527784.12,-132859.05,136,Weapon+Missile,Red,Allies,R-77,,xu,,215.900598339671,173.004791259766,0.671785448391148,4825.6240234375,2436.18188476562,214.312775681508,26.13623046875,0.536332743344139,NaN,0,1.14043764621238,5000,0.783556759357452,0.783556759357452,0.783556759357452,2330.65341817141,4732.32058294434,7062.97400111574,,,34.7799999713898,2389.44213867188,17964.4617468519,18001.8905627103
2018-07-19T08:55:57Z,1531990557,10908,40.7824044,43.6733483,4844.87,1,3.4,137.9,527931,-133002.12,132.4,Weapon+Missile,Red,Allies,R-77,,xu,,205.946297024979,164.543685913086,0.640967986367483,4844.8662109375,2496.59936523438,205.045398579231,19.2421875,0.453420114773206,NaN,2.33847299703501,2.81189219142881,3754.38440693949,0.783297061920166,0.783297061920166,0.783297061920166,2120.69386291504,4751.19072274902,6871.88458566406,,,35.7799999713898,2348.26684570312,18168.6523809727,18207.1399639227
2018-07-19T08:55:58Z,1531990558,10908,40.7840449,43.6720476,4855.29,1,3,137.5,528076.94,-133134.14,132.1,Weapon+Missile,Red,Allies,R-77,,xu,,197.064954847053,157.094985961914,0.613407377497594,4855.29296875,2561.52758789062,196.788920293777,10.4267578125,0.0386905614512745,NaN,0.199987938897973,1.57696464102142,5000,0.987546980381012,0.987546980381012,0.987546980381012,1941.72982144356,4761.41587919922,6703.14570064278,,,36.7799999713898,2293.76538085938,18364.6430890737,18403.5566546659
2018-07-19T08:55:59Z,1531990559,10908,40.7856319,43.6707902,4865.27,0.8,3,137.6,528218.06,-133261.78,132.2,Weapon+Missile,Red,Allies,R-77,,xu,,190.54641512682,151.635620117188,0.593191842472765,4865.27001953125,2623.79223632812,190.285035605511,9.97705078125,0.0482906698586205,NaN,0.199987938897973,0.0685280550049982,5000,1.02140438556671,1.02140438556671,1.02140438556671,1815.39681588411,4771.20002370361,6586.59683958773,,,37.7799999713898,2241.47778320312,18554.1712930929,18593.4915056585
2018-07-19T08:56:00Z,1531990560,10908,40.7871626,43.6695745,4875.13,0.6,3.1,137.7,528354.25,-133385.19,132.2,Weapon+Missile,Red,Allies,R-77,,xu,,184.047074725639,146.215530395508,0.573030131860059,4875.12841796875,2677.56127929688,183.782854737085,9.8583984375,0,NaN,0.199987938897973,0.0753289290564541,5000,1.02319157123566,1.02319157123566,1.02319157123566,1693.66628575325,4780.86781000732,6474.53409576057,,,38.7799999713898,2197.56713867188,18737.2151942401,18776.9402579266
2018-07-19T08:56:01Z,1531990561,10908,40.7886286,43.6684078,4884.82,0.5,3.2,137.7,528484.75,-133503.66,132.3,Weapon+Missile,Red,Allies,R-77,,xu,,176.519171994617,139.977020263672,0.549659413716638,4884.81982421875,2725.41259765625,176.252928277979,9.69140625,0.0439711213155107,NaN,0.199987938897973,0.0706371026948645,5000,1.02031493186951,1.02031493186951,1.02031493186951,1557.95090408325,4790.37183291748,6348.32273700073,,,39.7799999713898,2159.4072265625,18912.7240615855,18952.8505754277
2018-07-19T08:56:02Z,1531990562,10908,40.7900397,43.6672824,4894.37,0.4,3.3,137.8,528610.38,-133617.94,132.3,Weapon+Missile,Red,Allies,R-77,,xu,,170.096912322398,134.667678833008,0.529725254114478,4894.365234375,2740.548828125,169.828868943306,9.54541015625,0.0358025874699584,NaN,0,0.120737213937676,5000,1.01813864707947,1.01813864707947,1.01813864707947,1446.64797908068,4799.73268256836,6246.38066164904,,,40.7799999713898,2153.81640625,19081.8552281015,19122.3803423992
2018-07-19T08:56:03Z,1531990563,10908,40.7913977,43.6661974,4903.75,0.3,3.3,137.8,528731.31,-133728.14,132.4,Weapon+Missile,Red,Allies,R-77,,xu,,163.886128647867,129.551666259766,0.51044391085055,4903.7490234375,2721.08154296875,163.617259682515,9.3837890625,0.0316402666521709,NaN,0,0.112776761862158,5000,1.01930260658264,1.01930260658264,1.01930260658264,1342.93315815926,4808.93503606934,6151.86819422859,,,41.7799999713898,2182.66748046875,19244.7880101759,19285.7080631325
2018-07-19T08:56:04Z,1531990564,10908,40.7927028,43.6651528,4912.98,0.2,3.4,137.9,528847.56,-133834.25,132.4,Weapon+Missile,Red,Allies,R-77,,xu,,157.665641476969,124.448043823242,0.491126810599379,4912.97900390625,2687.9990234375,157.395241233306,9.22998046875,0.0202180650661107,NaN,0,0.0576749511149141,5000,1.02013301849365,1.02013301849365,1.02013301849365,1242.92272511721,4817.98655486572,6060.90927998293,,,42.7799999713898,2224.97998046875,19401.5244642964,19442.8364618532
2018-07-19T08:56:05Z,1531990565,10908,40.7939508,43.6641528,4922.02,0.1,3.5,137.9,528958.69,-133935.84,132.4,Weapon+Missile,Red,Allies,R-77,,xu,,150.836837304322,118.873062133789,0.469908939718918,4922.017578125,2658.36083984375,150.565785170677,9.03857421875,0.0513354165437844,NaN,0.199987938897973,0.0706371026948645,5000,0.96906715631485,0.96906715631485,0.96906715631485,1137.58757439852,4826.85036825195,5964.43794265047,,,43.7799999713898,2263.65673828125,19551.4955549574,19593.1950949125
2018-07-19T08:56:06Z,1531990566,10908,40.7951469,43.6631933,4930.4,0.8,2.3,137.9,529065.25,-134033.34,132.5,Weapon+Missile,Red,Allies,R-77,,xu,,144.678976054224,113.862770080566,0.450772902977071,4930.3955078125,2646.77075195312,144.436201854833,8.3779296875,0.0363382148447914,NaN,1.47692328713506,1.47776041219521,2916.94361952461,0.285795599222183,0.285795599222183,0.285795599222183,1046.60030560493,4835.06631066895,5881.66661627388,,,44.7799999713898,2283.62475585938,19695.326046714,19737.3802823607
2018-07-19T08:56:07Z,1531990567,10908,40.7962977,43.6622697,4931.55,2.8,-1.5,137.9,529167.75,-134127.19,132.5,Weapon+Missile,Red,Allies,R-77,,xu,,138.975692520708,109.274803161621,0.433009674140386,4931.5546875,2630.947265625,138.970858146816,1.1591796875,0.0674799137957292,NaN,1.93846147418933,3.44997678798445,2083.99083442576,0.0719799920916557,0.0719799920916557,0.0719799920916557,965.712155580521,4836.20307761719,5801.91523319771,,,45.7799999713898,2300.607421875,19833.7476868266,19875.9137868602
2018-07-19T08:56:08Z,1531990568,10908,40.7974042,43.661382,4923.75,4.6,-5.3,137.9,529266.31,-134217.38,132.4,Weapon+Missile,Red,Allies,R-77,,xu,,133.825444019051,105.190353393555,0.416921716322685,4923.7509765625,2602.83520507812,133.597722894142,-7.8037109375,0.0623219834387839,NaN,1.73846158246031,3.84649616317355,1999.29120446115,0.096524216234684,0.096524216234684,0.096524216234684,895.462473344803,4828.55025143066,5724.01272477547,,,46.7799999713898,2320.91577148438,19966.8025771678,20009.2999457822
2018-07-19T08:56:09Z,1531990569,10908,40.7984711,43.6605269,4907.53,5.9,-9.1,137.8,529361.44,-134304.25,132.4,Weapon+Missile,Red,Allies,R-77,,xu,,129.843126547518,102.08984375,0.404432053632872,4907.52734375,2563.76831054688,128.82558460958,-16.2236328125,0.0349714030551421,NaN,1.27692350212775,3.81599168456663,1943.39379894354,0.112967118620872,0.112967118620872,0.112967118620872,842.961875581741,4812.64030255859,5655.60217814033,,,47.7799999713898,2343.75903320312,20095.0422129232,20138.659789632
2018-07-19T08:56:10Z,1531990570,10908,40.7995055,43.6597,4883.29,7.1,-12.9,137.8,529453.5,-134388.22,132.3,Weapon+Missile,Red,Allies,R-77,,xu,,126.939010877835,99.8939208984375,0.395265140048888,4883.2939453125,2514.10009765625,124.604393513281,-24.2333984375,0.0161147163805681,NaN,1.13846190727325,3.84358692947395,1918.05717066142,0.129091739654541,0.129091739654541,0.129091739654541,805.675624132156,4788.87545687988,5594.55108101204,,,48.7799999713898,2369.19384765625,20219.1789945331,20265.2333350728
2018-07-19T08:56:11Z,1531990571,10908,40.8005081,43.6589017,4851.45,8.2,-16.7,137.6,529542.75,-134469.27,132.2,Weapon+Missile,Red,Allies,R-77,,xu,,124.692103468734,98.2602615356445,0.388112342280187,4851.451171875,2485.2607421875,120.557697586117,-31.8427734375,0.0444269635257514,NaN,0.953846162876036,3.77904249559097,1912.51971720835,0.138292148709297,0.138292148709297,0.138292148709297,777.406033372879,4757.6483634668,5535.05439683968,,,49.7799999713898,2366.1904296875,20339.2532810614,20389.5466906632
2018-07-19T08:56:12Z,1531990572,10908,40.8014851,43.6581283,4812.2,9,-20.3,137.4,529629.69,-134547.75,132,Weapon+Missile,Red,Allies,R-77,,xu,,123.525875222634,97.526611328125,0.38429173003181,4812.19921875,2482.88256835938,117.123550259504,-39.251953125,0.0388123876832882,NaN,0.769229564705176,3.6306152278506,1951.87271105501,0.152748480439186,0.152748480439186,0.152748480439186,762.932092475891,4719.15534685547,5482.08743933136,,,50.7799999713898,2329.31665039062,20455.8885005254,20512.6933894298
2018-07-19T08:56:13Z,1531990573,10908,40.8024368,43.6573807,4765.94,9.6,-24,137.2,529714.38,-134623.56,131.7,Weapon+Missile,Red,Allies,R-77,,xu,,122.717967763088,97.1134872436523,0.381555443119003,4765.93701171875,2494.94384765625,113.664012829479,-46.26220703125,0.0256329864059395,NaN,0.569229672976155,3.54650678430719,1995.02954777412,0.155323684215546,0.155323684215546,0.155323684215546,752.984980595112,4673.78761959717,5426.77260019228,,,51.7799999713898,2270.9931640625,20569.0284882427,20635.0047902049
2018-07-19T08:56:14Z,1531990574,10908,40.8033631,43.6566599,4713.09,10.1,-27.4,136.9,529796.62,-134696.58,131.4,Weapon+Missile,Red,Allies,R-77,,xu,,122.021175033098,96.8202133178711,0.379136298722262,4713.08984375,2511.81909179688,109.983380536064,-52.84716796875,0.0437169179612242,NaN,0.369229781247134,3.43895798530593,2078.24920119909,0.172471150755882,0.172471150755882,0.172471150755882,744.458357822895,4621.96225162109,5366.42060944399,,,52.7799999713898,2201.27075195312,20678.5910952888,20756.720173965
2018-07-19T08:56:15Z,1531990575,10908,40.804272,43.6559607,4653.57,10.6,-30.7,136.5,529877.31,-134767.33,131,Weapon+Missile,Red,Allies,R-77,,xu,,122.713053536855,97.680419921875,0.381000482867016,4653.5712890625,2518.11010742188,107.312791205196,-59.5185546875,0.0549025876276808,NaN,0.369231488794427,3.29279364461495,2190.56723191889,0.175898194313049,0.175898194313049,0.175898194313049,752.924675416946,4563.59448818848,5316.51916360542,,,53.7799999713898,2135.46118164062,20785.4412403848,20879.0973959785
2018-07-19T08:56:16Z,1531990576,10908,40.8051657,43.6552823,4587.57,10.8,-33.8,136.1,529956.56,-134835.88,130.7,Weapon+Missile,Red,Allies,R-77,,xu,,123.835782492901,98.9270782470703,0.384167522476358,4587.57080078125,2518.84765625,104.78185230404,-66.00048828125,0.0661443453357259,NaN,0.276923189708997,3.14248530008848,2320.89771579033,0.176218569278717,0.176218569278717,0.176218569278717,766.765051281452,4498.87011934814,5265.6351706296,,,54.7799999713898,2068.72314453125,20889.7704269657,21002.6142764635
2018-07-19T08:56:17Z,1531990577,10908,40.8060397,43.6546289,4515.78,11,-36.7,135.6,530033.88,-134901.8,130.2,Weapon+Missile,Red,Allies,R-77,,xu,,124.406053647862,99.7608184814453,0.385589153122778,4515.77978515625,2511.84252929688,101.601753231751,-71.791015625,0.259281147848705,NaN,0.0153850011054537,2.1757260242563,5000,0.517350614070892,0.517350614070892,0.517350614070892,773.843309211731,4428.46718301025,5202.31049222199,,,55.7799999713898,2003.93725585938,20990.9909604655,21126.7681117641
2018-07-19T08:56:18Z,1531990578,10908,40.8069124,43.6539846,4441.01,8.7,-35.7,135.5,530111.06,-134966.72,130,Weapon+Missile,Red,Allies,R-77,,xu,,125.553789049297,101.085975646973,0.388782240032216,4441.0068359375,2502.64050292969,100.860101178641,-74.77294921875,0.0313209422450403,NaN,2.69229664627895,0.418015394569729,3857.7520337316,1.23111605644226,1.23111605644226,1.23111605644226,788.18769723177,4355.13996876465,5143.32766599642,,,56.7799999713898,1938.36633300781,21091.4082385563,21252.023008023
2018-07-19T08:56:19Z,1531990579,10908,40.8078146,43.6533193,4368.87,6.2,-33.7,135.5,530190.88,-135033.75,130.1,Weapon+Missile,Red,Allies,R-77,,xu,,126.754560032102,102.44889831543,0.392146689396924,4368.87158203125,2487.830078125,104.226789420055,-72.13525390625,0.122556327957097,NaN,2.27691186171545,1.72700041831132,4488.13543622741,1.19740390777588,1.19740390777588,1.19740390777588,803.335924446583,4284.39944999268,5087.73537443926,,,57.7799999713898,1881.04150390625,21195.1684454582,21378.4530339012
2018-07-19T08:56:20Z,1531990580,10908,40.8087376,43.6526374,4299.39,4.5,-32.4,135.6,530272.5,-135102.47,130.1,Weapon+Missile,Red,Allies,R-77,,xu,,127.326225938818,103.286964416504,0.393573901825331,4299.39453125,2463.58630371094,106.700080724255,-69.47705078125,0.0284146169559688,NaN,1.76923756108674,1.37955264393589,5000,1.13456034660339,1.13456034660339,1.13456034660339,810.598390591145,4216.26573798828,5026.86412857943,,,58.7799999713898,1835.80822753906,21301.4177912966,21505.4622131154
2018-07-19T08:56:21Z,1531990581,10908,40.809678,43.65194,4231.88,3.1,-31.3,135.7,530355.69,-135172.77,130.3,Weapon+Missile,Red,Allies,R-77,,xu,,128.140698236957,104.319625854492,0.395758486975166,4231.8798828125,2443.73681640625,108.911940534616,-67.5146484375,0.0485279539760143,NaN,1.20003691641456,1.12253443973731,5000,1.07960188388824,1.07960188388824,1.07960188388824,821.001927232742,4150.05648527832,4971.05841251106,,,59.7799999713898,1788.14306640625,21409.8741061936,21633.2774661778
2018-07-19T08:56:22Z,1531990582,10908,40.8106243,43.651235,4166.37,2,-30.3,135.9,530439.44,-135243.88,130.4,Weapon+Missile,Red,Allies,R-77,,xu,,127.917062477137,104.485557556152,0.39474602048387,4166.365234375,2415.10241699219,109.866308361074,-65.5146484375,0.0680537334114633,NaN,0.969231163981489,0.848425928296591,5000,1.03162038326263,1.03162038326263,1.03162038326263,818.138743638992,4085.80856256836,4903.94730620735,,,60.7799999713898,1751.26281738281,21519.2786303253,21760.8599280481
2018-07-19T08:56:23Z,1531990583,10908,40.811577,43.6505214,4102.15,1.3,-29.8,136,530523.81,-135315.88,130.6,Weapon+Missile,Red,Allies,R-77,,xu,,128.168838609172,105.039329528809,0.395207720143411,4102.14599609375,2385.90063476562,110.919523191366,-64.21923828125,0.0395765013164519,NaN,0.84617847589454,0.637130451145103,5000,0.995488166809082,0.995488166809082,0.995488166809082,821.362559521198,4022.83100325928,4844.19356278048,,,61.7799999713898,1716.24536132812,21629.7265191429,21888.6827197334
2018-07-19T08:56:24Z,1531990584,10908,40.8125328,43.6498016,4038.98,0.8,-29.3,136.2,530608.5,-135388.55,130.7,Weapon+Missile,Red,Allies,R-77,,xu,,128.232652245671,105.43253326416,0.395094951147863,4038.97607421875,2362.45776367188,111.593790473599,-63.169921875,0,NaN,0.569255286185543,0.516909410077653,5000,0.965112030506134,0.965112030506134,0.965112030506134,822.180655097961,3960.88247182373,4783.06312692169,,,62.7799999713898,1676.51831054688,21740.8447927474,22016.5634257655
2018-07-19T08:56:25Z,1531990585,10908,40.8134869,43.6490792,3976.77,0.5,-29,136.3,530693.12,-135461.52,130.9,Weapon+Missile,Red,Allies,R-77,,xu,,127.890219881771,105.481620788574,0.3937365774269,3976.76611328125,2351.52038574219,111.740006719001,-62.2099609375,0.0764897713157446,NaN,0.24616001768726,0.387150997010058,5000,0.937366306781769,0.937366306781769,0.937366306781769,817.795417070389,3899.87534048096,4717.67075755135,,,63.7799999713898,1625.24572753906,21852.0768933893,22144.071125981
2018-07-19T08:56:26Z,1531990586,10908,40.8144395,43.6483541,3915.21,0.3,-28.8,136.5,530777.56,-135534.81,131,Weapon+Missile,Red,Allies,R-77,,xu,,127.635074044381,105.599006652832,0.392652241501276,3915.21459960938,2343.6904296875,111.812894117877,-61.551513671875,0.0625709238590828,NaN,0.169224766876236,0.256027453242959,5000,0.923066318035126,0.923066318035126,0.923066318035126,814.535606315732,3839.51392532593,4654.04953164166,,,64.7799999713898,1571.52416992188,21963.4486130021,22271.3802032964
2018-07-19T08:56:27Z,1531990587,10908,40.8153904,43.6476266,3854.11,0.1,-28.6,136.6,530861.94,-135608.38,131.2,Weapon+Missile,Red,Allies,R-77,,xu,,127.531842427606,105.841232299805,0.392038928355826,3854.10986328125,2351.16674804688,111.940082326439,-61.104736328125,0.0701101147088784,NaN,0.169224766876236,0.214207725739279,5000,0.91054356098175,0.91054356098175,0.91054356098175,813.218541648984,3779.59064907471,4592.80919072369,,,65.7799999713898,1502.94311523438,22074.9186357004,22398.5591920439
2018-07-19T08:56:28Z,1531990588,10908,40.8163368,43.6468989,3793.5,-0.1,-28.3,136.8,530945.94,-135681.98,131.3,Weapon+Missile,Red,Allies,R-77,,xu,,127.074021072049,105.781547546387,0.390339937889051,3793.50073242188,2357.01513671875,111.688585307052,-60.609130859375,0.115472113170882,NaN,0.230751110919711,0.176385112983297,5000,0.902540564537048,0.902540564537048,0.902540564537048,807.390341570973,3720.1533957605,4527.54373733147,,,66.7799999713898,1436.48559570312,22186.1545581873,22525.2941036521
2018-07-19T08:56:29Z,1531990589,10908,40.8172771,43.6461723,3733.34,-0.2,-28.3,136.9,531029.5,-135755.53,131.4,Weapon+Missile,Red,Allies,R-77,,xu,,126.537096444114,105.650634765625,0.388403015840595,3733.3359375,2360.73205566406,111.318615821953,-60.164794921875,0.0219635635016005,NaN,0.230751110919711,0.149353572125914,5000,0.891521453857422,0.891521453857422,0.891521453857422,800.581838825345,3661.15188714844,4461.73372597378,,,67.7799999713898,1372.60388183594,22296.9722956428,22651.4482556023
2018-07-19T08:56:30Z,1531990590,10908,40.8182147,43.6454446,3673.37,-0.2,-28.2,137,531112.75,-135829.22,131.6,Weapon+Missile,Red,Allies,R-77,,xu,,126.319446522768,105.787734985352,0.38744938738576,3673.36767578125,2357.12548828125,111.177381495743,-59.96826171875,0.103402272578569,NaN,0.169224766876236,0.117033984087273,5000,0.897820353507996,0.897820353507996,0.897820353507996,797.830128490925,3602.34311177002,4400.17324026095,,,68.7799999713898,1316.2421875,22407.7263937317,22777.4518722478
2018-07-19T08:56:31Z,1531990591,10908,40.8191488,43.6447163,3613.63,-0.2,-28.3,137.1,531195.81,-135902.98,131.7,Weapon+Missile,Red,Allies,R-77,,xu,,126.132966594301,105.949432373047,0.386593992012771,3613.62841796875,2318.13024902344,111.088911858433,-59.7392578125,0.111377804422322,NaN,0,0.424748760472171,5000,0.644746899604797,0.644746899604797,0.644746899604797,795.476263093948,3543.75891250732,4339.23517560127,,,69.7799999713898,1295.49816894531,22518.3314807631,22903.2145252942
2018-07-19T08:56:32Z,1531990592,10908,40.8200709,43.643996,3551.97,1.5,-31,137.1,531277.81,-135975.97,131.6,Weapon+Missile,Red,Allies,R-77,,xu,,125.907003116888,106.087783813477,0.385610066166116,3551.96923828125,2270.62060546875,109.775766880221,-61.6591796875,0.0284558647987345,NaN,2.30769253609694,2.2614715787664,2081.08395263918,0.0837939381599426,0.0837939381599426,0.0837939381599426,792.628671693802,3483.29191305908,4275.92058475288,,,70.7799999713898,1281.3486328125,22627.6338139144,23028.7624454191
2018-07-19T08:56:33Z,1531990593,10908,40.8209597,43.6433043,3483.95,3.3,-34.6,136.9,531356.81,-136046.03,131.5,Weapon+Missile,Red,Allies,R-77,,xu,,125.602859907976,106.191825866699,0.384358721584321,3483.9521484375,2204.69299316406,105.592395115605,-68.01708984375,0.0742543282692051,NaN,1.73846115557349,3.49844679854263,2139.53877757451,0.0806849971413612,0.0806849971413612,0.0806849971413612,788.803920853138,3416.58993364746,4205.3938545006,,,71.7799999713898,1279.25915527344,22732.7842466977,23154.0426844164
2018-07-19T08:56:34Z,1531990594,10908,40.8218195,43.6426398,3409.62,4.8,-37.8,136.7,531433.19,-136113.28,131.2,Weapon+Missile,Red,Allies,R-77,,xu,,126.02109724202,106.949279785156,0.385288758017818,3409.61767578125,2125.27856445312,101.762975216923,-74.33447265625,0.0209570428874264,NaN,1.36923094743953,3.2332687594417,2315.25605135048,0.10206151753664,0.10206151753664,0.10206151753664,794.065847504139,3343.69271802002,4137.75856552416,,,72.7799999713898,1284.33911132812,22834.1213126702,23279.7642690538
2018-07-19T08:56:35Z,1531990595,10908,40.8226547,43.6420004,3329.23,6,-40.8,136.4,531507.31,-136177.94,130.9,Weapon+Missile,Red,Allies,R-77,,xu,,127.032458854685,108.254669189453,0.388000565440922,3329.22924804688,2034.59411621094,98.3613048361117,-80.388427734375,0.0263591097912035,NaN,1.16923020193686,3.01784544679315,2512.55323233314,0.119393847882748,0.119393847882748,0.119393847882748,806.862280133367,3264.85860053589,4071.72088066926,,,73.7799999713898,1294.63513183594,22932.0606289619,23406.510260111
2018-07-19T08:56:36Z,1531990596,10908,40.8234654,43.6413871,3243.38,6.8,-43.5,136,531579.19,-136239.86,130.6,Weapon+Missile,Red,Allies,R-77,,xu,,127.948033410517,109.514251708984,0.390389252744029,3243.37841796875,1929.14562988281,94.8700913276446,-85.850830078125,0.0062912536217161,NaN,0.769231272252469,2.79274738462868,2739.94193820254,0.133572623133659,0.133572623133659,0.133572623133659,818.534962680936,3180.66769625732,3999.20265893826,,,74.7799999713898,1314.23278808594,23026.5405610352,23534.2053014631
2018-07-19T08:56:37Z,1531990597,10908,40.8242567,43.6407969,3152.08,7.5,-46.1,135.6,531649.25,-136299.38,130.1,Weapon+Missile,Red,Allies,R-77,,xu,,129.561418737674,111.418418884277,0.394874224159709,3152.08056640625,1813.0517578125,91.9285783931777,-91.2978515625,0,NaN,0.584614674081609,2.57586049050703,2993.05412910825,0.148919716477394,0.148919716477394,0.148919716477394,839.308061265946,3091.13508865479,3930.44314992073,,,75.7799999713898,1339.02880859375,23118.0824747798,23663.5251547666
2018-07-19T08:56:38Z,1531990598,10908,40.8250254,43.6402332,3056.24,8,-48.4,135,531717.25,-136356.12,129.6,Weapon+Missile,Red,Allies,R-77,,xu,,130.500573639321,112.7724609375,0.39727529246939,3056.23779296875,1678.08874511719,88.5695348299854,-95.8427734375,0.0147880307672275,NaN,0.446154786774403,2.37567404923631,3252.32469993233,0.15126496553421,0.15126496553421,0.15126496553421,851.519986009598,2997.1454352417,3848.6654212513,,,76.7799999713898,1378.14904785156,23206.2474052086,23793.7805197804
2018-07-19T08:56:39Z,1531990599,10908,40.8257799,43.6396899,2955.32,8.4,-50.6,134.5,531783.81,-136410.72,129.1,Weapon+Missile,Red,Allies,R-77,,xu,,132.64851371776,115.225830078125,0.403322211136054,2955.31909179688,1528.65356445312,86.0874203662329,-100.918701171875,0,NaN,0.307691484372612,2.18024483472249,3600.18004817549,0.170503795146942,0.170503795146942,0.170503795146942,879.781409576535,2898.17799715698,3777.95940673352,,,77.7799999713898,1426.66552734375,23291.9861405157,23926.2291711085
2018-07-19T08:56:40Z,1531990600,10908,40.8265132,43.6391727,2850.74,8.7,-52.6,133.9,531848.44,-136462.58,128.4,Weapon+Missile,Red,Allies,R-77,,xu,,133.426286330731,116.510162353516,0.405176195897307,2850.73999023438,1371.65966796875,82.8600350011429,-104.5791015625,0.0136915462948756,NaN,0.199999891729021,2.05182532549521,3878.31602898929,0.171391308307648,0.171391308307648,0.171391308307648,890.128694200516,2795.62093252319,3685.74962672371,,,78.7799999713898,1479.08032226562,23374.4825201915,24059.4531846422
2018-07-19T08:56:41Z,1531990601,10908,40.8272344,43.6386752,2741.61,8.9,-54.4,133.2,531911.88,-136512.34,127.8,Weapon+Missile,Red,Allies,R-77,,xu,,135.68757405536,119.145950317383,0.411503002658821,2741.60620117188,1210.64636230469,80.6283686917367,-109.1337890625,0,NaN,0.199999891729021,1.8810394335068,4271.806206218,0.177805781364441,0.177805781364441,0.177805781364441,920.555887651444,2688.59724527222,3609.15313292366,,,79.7799999713898,1530.95983886719,23454.7539872659,24194.9498386343
2018-07-19T08:56:42Z,1531990602,10908,40.8279407,43.6381993,2628.75,9.1,-56.2,132.6,531973.88,-136559.81,127.1,Weapon+Missile,Red,Allies,R-77,,xu,,137.23389927889,121.188194274902,0.415630007261652,2628.7529296875,1049.2421875,78.0850960591232,-112.853271484375,0.0218238960105034,NaN,0.199999891729021,1.73243362035266,4682.00335546015,0.186148554086685,0.186148554086685,0.186148554086685,941.657155564427,2577.92599179199,3519.58314735642,,,80.7799999713898,1579.5107421875,23532.4993930144,24332.0093125166
2018-07-19T08:56:43Z,1531990603,10908,40.8286311,43.6377456,2512.77,9.2,-57.7,131.8,532034.38,-136604.92,126.3,Weapon+Missile,Red,Allies,R-77,,xu,,138.373195240998,122.89958190918,0.41849992297591,2512.77001953125,891.348754882812,75.4659241836382,-115.98291015625,0.0268707569343673,NaN,0.199999891729021,1.63621717240151,5000,0.188989296555519,0.188989296555519,0.188989296555519,957.357058060169,2464.18561120361,3421.54266926378,,,81.7799999713898,1621.42126464844,23607.6231205872,24470.2126416711
2018-07-19T08:56:44Z,1531990604,10908,40.8293083,43.6373122,2393.52,9.2,-59.3,131,532093.62,-136647.89,125.5,Weapon+Missile,Red,Allies,R-77,,xu,,139.920024155644,125.011940002441,0.422577118824383,2393.51928710938,732.911010742188,73.1906823069884,-119.250732421875,0.0730158737736243,NaN,0,1.51070935147306,5000,0.187853425741196,0.187853425741196,0.187853425741196,978.880657985806,2347.24059169312,3326.12124967892,,,82.7799999713898,1660.60827636719,23680.4525314543,24609.9586297135
2018-07-19T08:56:45Z,1531990605,10908,40.8299722,43.6368989,2271.4,9.3,-60.5,130.3,532151.56,-136688.73,124.8,Weapon+Missile,Red,Allies,R-77,,xu,,141.200260891223,126.916625976562,0.425825117772972,2271.40234375,572.454833984375,70.8869933084519,-122.116943359375,0.039860508106293,NaN,0,1.40029037891652,5000,0.1878981590271,0.1878981590271,0.1878981590271,996.875683787465,2227.48477943359,3224.36046322106,,,83.7799999713898,1698.94750976562,23751.0046752596,24751.0039915636
2018-07-19T08:56:46Z,1531990606,10908,40.830621,43.6365063,2147.09,9.3,-61.8,129.5,532208,-136727.38,124,Weapon+Missile,Red,Allies,R-77,,xu,,141.886880869553,128.308044433594,0.427265895344029,2147.08984375,414.79541015625,68.3980212187504,-124.3125,0.0276402493231537,NaN,0,1.32929525824929,5000,0.206023827195168,0.206023827195168,0.206023827195168,1006.59434814453,2105.57586162109,3112.17020976563,,,84.7799999713898,1732.29443359375,23819.1447144214,24892.778035946
2018-07-19T08:56:47Z,1531990607,10908,40.8312667,43.6361268,2018.51,9.3,-63,128.6,532264.19,-136764.61,123.1,Weapon+Missile,Red,Allies,R-77,,xu,,145.177227163896,132.126342773438,0.436510510724863,2018.50915527344,256.048461914062,67.4049986120512,-128.580688476562,0.0689874672773729,NaN,0,1.21493451948971,5000,0.191561475396156,0.191561475396156,0.191561475396156,1053.82136434987,1979.48128075623,3033.3026451061,,,85.7799999713898,1762.46069335938,23886.158753783,25037.7842717452
2018-07-19T08:56:48Z,1531990608,10908,40.8319132,43.6357583,1885.19,9.2,-64,127.7,532320.25,-136800.59,122.2,Weapon+Missile,Red,Allies,R-77,,xu,,149.033051352564,136.536010742188,0.447400884934458,1885.19384765625,92.5074462890625,66.6174087637055,-133.315307617188,0.0249945422622124,NaN,0,1.09092347048484,5000,0.198431178927422,0.198431178927422,0.198431178927422,1110.5425197728,1848.74362461182,2959.28614438461,,,86.7799999713898,1792.68640136719,23952.4609680462,25186.6857351676
2018-07-19T08:56:49Z,1531990609,10908,40.8325645,43.6353981,1746.56,9.1,-64.9,126.9,532376.56,-136835.62,121.5,Weapon+Missile,Red,Allies,R-77,,xu,,153.679570946614,141.762481689453,0.460599522694739,1746.56079101562,-76.95556640625,66.3195757888461,-138.633056640625,0.0683481738696068,NaN,0.12310732960031,0.993066069585601,5000,0.211402490735054,0.211402490735054,0.211402490735054,1180.87052631676,1712.79103812134,2893.6615644381,,,87.7799999713898,1823.51635742188,24018.5004522784,25340.2527287854
2018-07-19T08:56:50Z,1531990610,10908,40.833216,43.6350488,1603.87,9,-65.7,126,532432.81,-136869.45,120.6,Weapon+Missile,Red,Allies,R-77,,xu,,157.063231712457,145.890609741211,0.469955439375778,1603.87072753906,-249.843383789062,65.6384379842758,-142.690063476562,0.114019573698107,NaN,0,0.9364697347407,5000,0.21297687292099,0.21297687292099,0.21297687292099,1233.44293779805,1572.85988702209,2806.30282482015,,,88.7799999713898,1853.71411132812,24083.8230945788,25497.1913906371
