ISOTime,UnixTime,Id,Longitude,Latitude,Altitude,Roll,Pitch,Yaw,U,V,Heading,Type,Color,Coalition,Name,Group,Country,Pilot,TAS,CAS,M,ASL,AGL,GS,VS,AOA,AOS,RRT,TRT,TRD,G,LatG,LonG,Ek,Ep,Em,FFW,FFV,RelativeTime,Elev,GroundDistance,AirDistance
2018-07-19T08:41:08Z,1531989668,5E08,41.3615204,43.9456676,6437.49,-0.4,0.2,183.6,571556.31,-98170.8,177.7,Weapon+Missile,Red,Allies,R-27ER,,xu,,273.430427928914,205.339645385742,0.868666026072647,6437.49267578125,5148.08374023438,NaN,NaN,NaN,NaN,NaN,NaN,NaN,NaN,NaN,NaN,NaN,6313.02375489502,NaN,,,0.25,1289.40893554688,NaN,NaN
2018-07-19T08:41:09Z,1531989669,5E08,41.361189,43.9418217,6431.64,-0.4,0.2,183.6,571573.31,-98600.81,177.7,Weapon+Missile,Red,Allies,R-27ER,,xu,,430.383562701675,333.597747802734,1.36718781186591,6431.63671875,5184.09912109375,430.343721705145,-5.85595703125,1.07044842599756,NaN,0,3.47743481312247,5000,1.52862131595612,1.52862131595612,1.52862131595612,9261.50055218935,6307.28102279297,15568.7815749823,,,1.25,1247.53759765625,428.94845553207,429.421129214013
2018-07-19T08:41:10Z,1531989670,5E08,41.3604818,43.935728,6418.56,-0.3,-1.7,187,571585.56,-99283.66,181.1,Weapon+Missile,Red,Allies,R-27ER,,xu,,683.07876367079,509.693298339844,2.16954431241708,6418.56201171875,5208.77258300781,682.953621715313,-13.07470703125,0.161172573368395,NaN,0,3.04400784607864,5000,5.53310394287109,5.53310394287109,5.53310394287109,23329.8298689008,6294.45911522217,29624.2889841229,,,2.25,1209.78942871094,1109.65633818463,1110.94016022583
2018-07-19T08:41:11Z,1531989671,5E08,41.3587304,43.9274074,6379.84,-0.3,-2.4,189.2,571539.19,-100222.46,183.4,Weapon+Missile,Red,Allies,R-27ER,,xu,,940.746665255409,685.857238769531,2.98640819038947,6379.83984375,5250.78698730469,939.949403902664,-38.72216796875,0.194630239911688,NaN,0,3.0065216334795,5000,1.87462425231934,1.87462425231934,1.87462425231934,44250.2144094586,6256.48564037109,50506.7000498297,,,3.25,1129.05285644531,2046.48781278822,2049.51067164807
2018-07-19T08:41:12Z,1531989672,5E08,41.3565717,43.9182795,6323.64,-0.3,-3.9,190.3,571469.25,-101254.3,184.4,Weapon+Missile,Red,Allies,R-27ER,,xu,,1035.72934805724,753.190185546875,3.285504178761,6323.63818359375,5237.84069824219,1034.20339190256,-56.20166015625,0.0241717101965502,NaN,0,1.37994281849223,5000,2.68667244911194,2.68667244911194,2.68667244911194,53636.7641213536,6201.37063931397,59838.1347606676,,,4.25,1085.79748535156,3077.23919045455,3082.81807268973
2018-07-19T08:41:13Z,1531989673,5E08,41.3541902,43.9090439,6235.44,-0.4,-5.7,190.9,571382.44,-102299.93,185.1,Weapon+Missile,Red,Allies,R-27ER,,xu,,1052.93070060034,768.508178710938,3.33620823750001,6235.44140625,5125.38500976562,1049.2303792461,-88.19677734375,0.0416217929844558,NaN,0.199987938897973,1.89108386701154,5000,2.51304793357849,2.51304793357849,2.51304793357849,55433.1530133367,6114.87914666016,61548.0321599968,,,5.25,1110.05639648438,4122.93106837651,4133.24863719362
2018-07-19T08:41:14Z,1531989674,5E08,41.351643,43.8996693,6113.09,-0.4,-7.3,191.3,571283.94,-103362.34,185.5,Weapon+Missile,Red,Allies,R-27ER,,xu,,1073.96249310404,788.020751953125,3.39740618895533,6113.09130859375,5030.57104492188,1066.97042611206,-122.35009765625,0.0508407499478877,NaN,0,1.63499029967185,5000,1.82393538951874,1.82393538951874,1.82393538951874,57669.7718297124,5994.89468814209,63664.6665178545,,,6.25,1082.52026367188,5186.30794005771,5204.66369684779
2018-07-19T08:41:15Z,1531989675,5E08,41.3490234,43.8902164,5962.16,-0.4,-8.6,191.4,571180.31,-104434.05,185.5,Weapon+Missile,Red,Allies,R-27ER,,xu,,1087.23673535139,803.473510742188,3.43263918301417,5962.15673828125,4846.77404785156,1076.70909450145,-150.9345703125,0.00927803631794712,NaN,0,1.24752380661907,5000,1.12384259700775,1.12384259700775,1.12384259700775,59104.1859348774,5846.87843774658,64951.064372624,,,7.25,1115.38269042969,6259.3821406408,6289.30674522278
2018-07-19T08:41:16Z,1531989676,5E08,41.3463964,43.8806628,5788.7,-0.4,-9.4,191.2,571077.19,-105517.01,185.3,Weapon+Missile,Red,Allies,R-27ER,,xu,,1101.59349269344,820.845581054688,3.47014603121898,5788.70361328125,4634.43298339844,1087.85212072794,-173.453125,0.0185436016653103,NaN,0,0.891559159874604,5000,0.729647397994995,0.729647397994995,0.729647397994995,60675.4111572266,5676.77902891846,66352.190186145,,,8.25,1154.27062988281,7343.57313134254,7388.2711367584
2018-07-19T08:41:17Z,1531989677,5E08,41.3438234,43.8710085,5600.39,-0.3,-9.9,190.7,570979.44,-106610.69,184.9,Weapon+Missile,Red,Allies,R-27ER,,xu,,1114.06981433367,837.749572753906,3.50092139979045,5600.39208984375,4368.05712890625,1098.03930774362,-188.3115234375,0.0711252510033456,NaN,0.199987938897973,0.694656118603949,5000,1.45974886417389,1.45974886417389,1.45974886417389,62057.5775604725,5492.10850878662,67549.6860692591,,,9.25,1232.3349609375,8437.93292919118,8499.67749041705
2018-07-19T08:41:18Z,1531989678,5E08,41.3413909,43.8612422,5405.56,-0.2,-10,189.8,570894.19,-107715.68,183.9,Weapon+Missile,Red,Allies,R-27ER,,xu,,1125.27158908786,854.2587890625,3.52727771384159,5405.556640625,4162.3720703125,1108.27582168702,-194.83544921875,0.0693178901735285,NaN,0.169266815228314,0.807657649718696,5000,1.78728449344635,1.78728449344635,1.78728449344635,63311.8074604154,5301.04020297852,68612.8476633939,,,10.25,1243.1845703125,9542.50594859611,9622.24092144489
2018-07-19T08:41:19Z,1531989679,5E08,41.3392594,43.8518577,5214.45,-0.2,-10.4,188.9,570828.75,-108775.78,183,Weapon+Missile,Red,Allies,R-27ER,,xu,,1079.17517700379,828.432250976562,3.37452522010859,5214.4501953125,4000.20397949219,1062.11929142691,-191.1064453125,0.0569531557626384,NaN,0,0.917255238666691,5000,1.93014049530029,1.93014049530029,1.93014049530029,58230.9531330586,5113.62880078613,63344.5819338447,,,11.25,1214.24621582031,10601.1002293318,10698.8142855525
2018-07-19T08:41:20Z,1531989680,5E08,41.3374551,43.8429989,5033.39,-0.1,-10,188,570783.56,-109774.8,182.2,Weapon+Missile,Red,Allies,R-27ER,,xu,,1016.29557568265,789.040649414062,3.17058770145582,5033.390625,3921.83911132812,1000.03706388833,-181.0595703125,0.0179657220257579,NaN,0,0.92838898062234,5000,2.76319646835327,2.76319646835327,2.76319646835327,51642.8348576069,4936.07001726563,56578.9048748725,,,12.25,1111.55151367188,11597.8389886413,11712.6523467984
2018-07-19T08:41:21Z,1531989681,5E08,41.3359144,43.8346297,4876.41,0,-8.7,187.3,570754.06,-110717.25,181.5,Weapon+Missile,Red,Allies,R-27ER,,xu,,955.892461101192,749.804016113281,2.9762172462829,4876.412109375,3774.69946289062,942.914706016544,-156.978515625,0.0342588191465015,NaN,0.199987938897973,1.38937915171742,5000,3.81815028190613,3.81815028190613,3.81815028190613,45686.5198595047,4782.12668124023,50468.6465407449,,,13.25,1101.71264648438,12537.67071229,12666.2239626489
2018-07-19T08:41:22Z,1531989682,5E08,41.3345239,43.8266828,4754.43,0,-6.6,187.3,570731.81,-111611.57,181.4,Weapon+Missile,Red,Allies,R-27ER,,xu,,902.87577618797,714.265258789062,2.80681921553079,4754.42529296875,3631.57556152344,894.597051107423,-121.98681640625,0.0339116147721846,NaN,0,2.07082669832277,5000,4.74668216705322,4.74668216705322,4.74668216705322,40759.2333613515,4662.4984799292,45421.7318412807,,,14.25,1122.84973144531,13429.3311288073,13566.8571034313
2018-07-19T08:41:23Z,1531989683,5E08,41.333201,43.8191376,4674.73,0.1,-3.9,187.4,570710.44,-112460.7,181.6,Weapon+Missile,Red,Allies,R-27ER,,xu,,853.131961726475,679.389953613281,2.64951644917725,4674.73388671875,3578.17492675781,849.401803558928,-79.69140625,0.094036594592519,NaN,0.20000001179094,2.68097432706918,5000,5.11011219024658,5.11011219024658,5.11011219024658,36391.7072059631,4584.34790701904,40976.0551129822,,,15.25,1096.55895996094,14275.9520146253,14417.8433977111
2018-07-19T08:41:24Z,1531989684,5E08,41.3318394,43.8120361,4637.84,0.1,-1.7,188.4,570680.88,-113260.86,182.5,Weapon+Missile,Red,Allies,R-27ER,,xu,,801.551705273523,641.592346191406,2.48817189271511,4637.83984375,3560.03698730469,800.702170485576,-36.89404296875,0.0454731376997544,NaN,0,2.36652415706943,5000,3.67348194122314,3.67348194122314,3.67348194122314,32124.2568113446,4548.16721037109,36672.4240217157,,,16.25,1077.80285644531,15074.0190886055,15217.3448072527
2018-07-19T08:41:25Z,1531989685,5E08,41.3305202,43.8053166,4628.35,0.1,0.7,187.2,570650.5,-114018.2,181.4,Weapon+Missile,Red,Allies,R-27ER,,xu,,758.012063652764,609.027709960938,2.35273561822746,4628.34814453125,3486.63549804688,757.95263459471,-9.49169921875,0.199825595330102,NaN,0,2.26512807784989,5000,4.89625692367554,4.89625692367554,4.89625692367554,28729.1144321561,4538.85903315674,33267.9734653128,,,17.25,1141.71264648438,15829.4966081196,15973.4306879169
2018-07-19T08:41:26Z,1531989686,5E08,41.3296574,43.7989729,4644.98,0.1,2,184,570652.44,-114730.08,178.1,Weapon+Missile,Red,Allies,R-27ER,,xu,,712.071874893821,574.005432128906,2.21060760649012,4644.97900390625,3475.76965332031,711.877636628129,16.630859375,0.100282256796432,NaN,0,3.4036151714457,5000,4.62860822677612,4.62860822677612,4.62860822677612,25352.3177507401,4555.16833486572,29907.4860856058,,,18.25,1169.20935058594,16539.0690040604,16683.713643672
2018-07-19T08:41:27Z,1531989687,5E08,41.3292963,43.792945,4675.15,0,3.2,181.1,570691.25,-115402.78,175.2,Weapon+Missile,Red,Allies,R-27ER,,xu,,674.496770221847,545.048400878906,2.09475159199175,4675.14501953125,3454.96618652344,673.821864101348,30.166015625,0.138680914533726,NaN,0.153870501622047,3.06360365880741,5000,3.8421356678009,3.8421356678009,3.8421356678009,22747.2946519852,4584.75109057861,27332.0457425638,,,19.25,1220.17883300781,17210.7164840273,17356.5284448468
2018-07-19T08:41:28Z,1531989688,5E08,41.3293109,43.7872349,4716.64,-0.1,4.4,178.8,570756.69,-116037.11,173,Weapon+Missile,Red,Allies,R-27ER,,xu,,639.042781135002,517.536315917969,1.98568106882557,4716.63525390625,3482.20434570312,637.694469610852,41.490234375,0.0746869677597229,NaN,0.199987938897973,2.45569569177853,5000,3.03548145294189,3.03548145294189,3.03548145294189,20418.7838060379,4625.43911127197,25044.2229173099,,,20.25,1234.43090820312,17846.3630153459,17993.9946228935
2018-07-19T08:41:29Z,1531989689,5E08,41.3295741,43.7818018,4767.37,-0.2,5.1,177.3,570839.06,-116638.62,171.4,Weapon+Missile,Red,Allies,R-27ER,,xu,,609.245695713517,494.164093017578,1.89430453296549,4767.3662109375,3495.89868164062,607.129877163149,50.73095703125,0.0530636221435439,NaN,0,1.94795650435271,5000,2.3891487121582,2.3891487121582,2.3891487121582,18559.0158872724,4675.18918524902,23234.2050725214,,,21.25,1271.46752929688,18451.5452879094,18601.7478673071
2018-07-19T08:41:30Z,1531989690,5E08,41.3300064,43.7766594,4823.31,-0.3,5.9,175.9,570931.75,-117206.48,170.1,Weapon+Missile,Red,Allies,R-27ER,,xu,,578.079746269326,469.760009765625,1.79867131782354,4823.31103515625,3515.3115234375,575.366291756774,55.94482421875,0.0857444447633272,NaN,0.200042580411333,1.74319308928613,5000,2.53279852867126,2.53279852867126,2.53279852867126,16708.8096523404,4730.0523162915,21438.8619686319,,,22.25,1307.99951171875,19025.0528692841,19178.4068063591
2018-07-19T08:41:31Z,1531989691,5E08,41.330594,43.7717529,4887.16,-0.4,7.3,174.3,571034.25,-117746.84,168.5,Weapon+Missile,Red,Allies,R-27ER,,xu,,553.695851922787,450.330291748047,1.72419306985182,4887.15576171875,3550.65942382812,550.002679381346,63.8447265625,0.155132392828291,NaN,0,1.50017645272096,5000,1.87215292453766,1.87215292453766,1.87215292453766,15328.954821825,4792.66260506592,20121.6174268909,,,23.25,1336.49633789062,19573.2760273871,19730.7495695079
2018-07-19T08:41:32Z,1531989692,5E08,41.3312623,43.7670919,4953.75,-0.3,7,174,571140.56,-118259.28,168.1,Weapon+Missile,Red,Allies,R-27ER,,xu,,527.569575324335,429.591552734375,1.64422274549778,4953.75244140625,3572.30053710938,523.349347054623,66.5966796875,0.0518620512847867,NaN,0.199987938897973,0.646884174723293,5000,0.877636075019836,0.877636075019836,0.877636075019836,13916.482840395,4857.97163795166,18774.4544783466,,,24.25,1381.45190429688,20094.9144921952,20257.0211766627
2018-07-19T08:41:33Z,1531989693,5E08,41.3319402,43.7626264,5015.99,-0.3,7.3,173.5,571245.38,-118749.9,167.7,Weapon+Missile,Red,Allies,R-27ER,,xu,,505.533504142671,411.986907958984,1.57678946551772,5015.98779296875,3639.21984863281,501.688035363272,62.2353515625,0.0267959720635262,NaN,0,0.555149238002174,5000,1.68717348575592,1.68717348575592,1.68717348575592,12778.2061905384,4919.0036689917,17697.2098595301,,,25.25,1376.76794433594,20594.9858421292,20761.3381763778
2018-07-19T08:41:34Z,1531989694,5E08,41.3326628,43.7583634,5081.04,-0.4,8.1,172.6,571351.56,-119217.68,166.7,Weapon+Missile,Red,Allies,R-27ER,,xu,,484.073608972584,394.721038818359,1.51110326089636,5081.04296875,3643.78356933594,479.682272976407,65.05517578125,0.0626224178922925,NaN,0,0.977573386279014,5000,1.50837635993958,1.50837635993958,1.50837635993958,11716.3629451871,4982.80100294922,16699.1639481363,,,26.25,1437.25939941406,21073.0900455674,21244.2230613132
2018-07-19T08:41:35Z,1531989695,5E08,41.333427,43.7542977,5146.8,-0.3,7.9,172.1,571458.88,-119663.17,166.3,Weapon+Missile,Red,Allies,R-27ER,,xu,,462.928614561637,377.579284667969,1.44630602588774,5146.79736328125,3708.4921875,458.234941683614,65.75439453125,0.0239412874059682,NaN,0.199987938897973,0.49268166187456,5000,0.666923105716705,0.666923105716705,0.666923105716705,10715.1451089978,5047.28403626221,15762.42914526,,,27.25,1438.30517578125,21529.8261846848,21706.030590835
2018-07-19T08:41:36Z,1531989696,5E08,41.3341872,43.7504014,5206.3,-0.2,7.6,171.8,571564,-120089.89,166,Weapon+Missile,Red,Allies,R-27ER,,xu,,443.487434462939,361.673461914062,1.38661824455571,5206.30322265625,3761.23596191406,439.477140732669,59.505859375,0.0349263923881158,NaN,0,0.474781603689807,5000,0.97045111656189,0.97045111656189,0.97045111656189,9834.05522632599,5105.63934984619,14939.6945761722,,,28.25,1445.06726074219,21967.8482913231,22148.42846093
2018-07-19T08:41:37Z,1531989697,5E08,41.33496,43.7466548,5262.8,-0.2,7.5,171.3,571668.38,-120499.88,165.5,Weapon+Missile,Red,Allies,R-27ER,,xu,,426.825020608269,347.773895263672,1.33548399092454,5262.7998046875,3752.42602539062,423.069420350887,56.49658203125,0.0126124645746421,NaN,0,0.470122134015389,5000,0.847949981689453,0.847949981689453,0.847949981689453,9108.97991086245,5161.04357046387,14270.0234813263,,,29.25,1510.37377929688,22389.5237725182,22574.2148551125
2018-07-19T08:41:38Z,1531989698,5E08,41.3357288,43.7430796,5314.94,-0.1,7.1,171,571770.56,-120890.84,165.2,Weapon+Missile,Red,Allies,R-27ER,,xu,,407.445259122468,331.495269775391,1.27569712152098,5314.94287109375,3751.23486328125,404.094963847768,52.14306640625,0.0389067132358942,NaN,0,0.422786308385409,5000,0.737075924873352,0.737075924873352,0.737075924873352,8300.58195906878,5212.17845068115,13512.7604097499,,,30.25,1563.7080078125,22792.2818643866,22980.6654836249
2018-07-19T08:41:39Z,1531989699,5E08,41.336492,43.7396371,5362.49,0,6.7,170.8,571870.75,-121267.12,165,Weapon+Missile,Red,Allies,R-27ER,,xu,,392.275278107511,318.392364501953,1.22894812922968,5362.4892578125,3757.609375,389.383146687574,47.54638671875,0.0250497907393142,NaN,0,0.545728432785169,5000,0.55200982093811,0.55200982093811,0.55200982093811,7693.99469071627,5258.8055280127,12952.800218729,,,31.25,1604.8798828125,23180.3866314009,23371.9942859664
2018-07-19T08:41:40Z,1531989700,5E08,41.3372393,43.7363152,5404.02,0.1,6,170.7,571968.38,-121630.11,164.9,Weapon+Missile,Red,Allies,R-27ER,,xu,,378.177853780421,306.056945800781,1.1854133607154,5404.0166015625,3784.87780761719,375.890900143958,41.52734375,0.126930303353729,NaN,0.0153845875588438,0.814053268102767,5000,0.916083157062531,0.916083157062531,0.916083157062531,7150.92445449829,5299.52994057129,12450.4543950696,,,32.25,1619.13879394531,23555.03709279,23749.2535148936
2018-07-19T08:41:41Z,1531989701,5E08,41.3378651,43.7331379,5439.41,0.3,5.1,174,572054.56,-121978.03,168.2,Weapon+Missile,Red,Allies,R-27ER,,xu,,360.181131042496,290.293395996094,1.12951457206376,5439.40771484375,3814.43896484375,358.438162393132,35.39111328125,0.0629020130068753,NaN,0.200000025131153,2.79218581501286,4801.60246383003,2.61791825294495,2.61791825294495,2.61791825294495,6486.5223579526,5334.23676667725,11820.7591246298,,,33.25,1624.96875,23912.2888844485,24108.5562377213
2018-07-19T08:41:42Z,1531989702,5E08,41.3381541,43.7301001,5466.58,0.5,4,178.3,572112.06,-122313.21,172.4,Weapon+Missile,Red,Allies,R-27ER,,xu,,341.159607174254,273.521820068359,1.07023700988102,5466.57763671875,3826.5849609375,340.075981087459,27.169921875,0.302770379705932,NaN,0.20000005181158,3.76766638864149,5000,1.79964256286621,1.79964256286621,1.79964256286621,5819.49387836456,5360.88135811279,11180.3752364774,,,34.25,1639.99267578125,24251.2617677562,24448.9051416444
2018-07-19T08:41:43Z,1531989703,5E08,41.3382293,43.7271948,5488.24,0.4,3.8,179.2,572150.88,-122635.4,173.4,Weapon+Missile,Red,Allies,R-27ER,,xu,,325.239346795586,259.408996582031,1.02057825671239,5488.244140625,3819.55029296875,324.516864450062,21.66650390625,0.0573835321050497,NaN,0.199987938897973,1.58572339813661,5000,0.974929809570312,0.974929809570312,0.974929809570312,5289.03163520098,5382.12894016602,10671.160575367,,,35.25,1668.69384765625,24574.7288013257,24773.3741633779
2018-07-19T08:41:44Z,1531989704,5E08,41.3382861,43.7243998,5508.76,0.3,3.8,179.2,572186.88,-122945.48,173.4,Weapon+Missile,Red,Allies,R-27ER,,xu,,312.842260067762,248.448928833008,0.981935978534209,5508.76220703125,3800.13232421875,312.168686186257,20.51806640625,0.0569926940157235,NaN,0.199987938897973,0.0513960362511687,5000,0.997547447681427,0.997547447681427,0.997547447681427,4893.51398421526,5402.2502897583,10295.7642739736,,,36.25,1708.6298828125,24885.8977802857,25085.486549229
2018-07-19T08:41:45Z,1531989705,5E08,41.3383401,43.7217359,5528.31,0.3,3.8,179.2,572221.19,-123241.05,173.4,Weapon+Missile,Red,Allies,R-27ER,,xu,,298.188738799775,235.632049560547,0.936177383546911,5528.306640625,3786.181640625,297.547540844316,19.54443359375,0.0508327665779376,NaN,0,0,5000,0.998395383358002,0.998395383358002,0.998395383358002,4445.82619735003,5421.41683172852,9867.24302907854,,,37.25,1742.125,25182.4795754815,25382.9676813578
2018-07-19T08:41:46Z,1531989706,5E08,41.3383924,43.7191519,5547.26,0.2,3.8,179.2,572254.5,-123527.73,173.4,Weapon+Missile,Red,Allies,R-27ER,,xu,,289.238334849158,227.793869018555,0.908298674066771,5547.263671875,3804.39916992188,288.616432852497,18.95703125,0.0493752487572035,NaN,0,0,5000,0.998740553855896,0.998740553855896,0.998740553855896,4182.94071731567,5440.0073287793,9622.94804609497,,,38.25,1742.86450195312,25470.1582481922,25671.5195144
2018-07-19T08:41:47Z,1531989707,5E08,41.3384424,43.7166859,5565.35,0.2,3.8,179.2,572286.31,-123801.31,173.4,Weapon+Missile,Red,Allies,R-27ER,,xu,,276.014978002399,216.413986206055,0.86697505281802,5565.353515625,3889.16674804688,275.421541704286,18.08984375,0.0567318042550246,NaN,0,0,5000,0.99792206287384,0.99792206287384,0.99792206287384,3809.21340408325,5457.74740540039,9266.96080948364,,,39.25,1676.18676757812,25744.7015930563,25946.896840868
2018-07-19T08:41:48Z,1531989708,5E08,41.338491,43.7142925,5582.91,0.1,3.8,179.2,572317.12,-124066.85,173.4,Weapon+Missile,Red,Allies,R-27ER,,xu,,267.896439606181,209.416397094727,0.841664595283955,5582.90625,3997.66247558594,267.320788322998,17.552734375,0.0492934984831204,NaN,0.199987938897973,0,5000,0.999212980270386,0.999212980270386,0.999212980270386,3588.42511768341,5474.96075765625,9063.38587533966,,,40.25,1585.24377441406,26011.1605710397,26214.1656947964
2018-07-19T08:41:49Z,1531989709,5E08,41.3385378,43.7119835,5599.85,0.1,3.8,179.2,572346.88,-124323.02,173.4,Weapon+Missile,Red,Allies,R-27ER,,xu,,258.449357126329,201.363586425781,0.812161423174553,5599.8466796875,4087.05395507812,257.893567273431,16.9404296875,0.0523102235277528,NaN,0,0,5000,0.998214781284332,0.998214781284332,0.998214781284332,3339.80350995064,5491.57364413574,8831.37715408638,,,41.25,1512.79272460938,26268.2257411071,26472.0133100582
2018-07-19T08:41:50Z,1531989710,5E08,41.3385832,43.7097448,5616.27,0.1,3.8,179.2,572375.75,-124571.4,173.4,Weapon+Missile,Red,Allies,R-27ER,,xu,,250.586576539174,194.68327331543,0.787619815498107,5616.27001953125,4156.6142578125,250.047807928804,16.42333984375,0.0529131092877478,NaN,0,0,5000,0.998494803905487,0.998494803905487,0.998494803905487,3139.68161708117,5507.67943870361,8647.36105578478,,,42.25,1459.65576171875,26517.4643425728,26722.0110979929
2018-07-19T08:41:51Z,1531989711,5E08,41.3386269,43.7075911,5632.07,0.1,3.8,179.2,572403.5,-124810.34,173.4,Weapon+Missile,Red,Allies,R-27ER,,xu,,241.061806133558,186.68376159668,0.757836830976502,5632.06884765625,4246.88232421875,240.543533287116,15.798828125,0.0529827705012629,NaN,0,0,5000,0.998035967350006,0.998035967350006,0.998035967350006,2905.53971881866,5523.17279648682,8428.71251530548,,,43.25,1385.1865234375,26757.2338344783,26962.5115012112
2018-07-19T08:41:52Z,1531989712,5E08,41.3386692,43.7055071,5647.35,0.1,3.8,179.2,572430.38,-125041.55,173.4,Weapon+Missile,Red,Allies,R-27ER,,xu,,233.27668545774,180.166610717773,0.733507007118591,5647.35400390625,4318.48510742188,232.775376654324,15.28515625,0.0577911681584857,NaN,0,0,5000,0.998480141162872,0.998480141162872,0.998480141162872,2720.90059890747,5538.16241424072,8259.06301314819,,,44.25,1328.86889648438,26989.2553927202,27195.2407094741
2018-07-19T08:41:53Z,1531989713,5E08,41.3387103,43.7034835,5662.2,0.1,3.8,179.2,572456.44,-125266.06,173.4,Weapon+Missile,Red,Allies,R-27ER,,xu,,226.502361363192,174.514083862305,0.712342486756066,5662.19677734375,4361.86071777344,226.015512254768,14.8427734375,0.049932597924084,NaN,0.0154089067675488,0,5000,0.999380588531494,0.999380588531494,0.999380588531494,2565.16598515511,5552.71820265381,8117.88418780891,,,45.25,1300.33605957031,27214.541536419,27421.2145791895
2018-07-19T08:41:54Z,1531989714,5E08,41.3387498,43.7015334,5676.51,0,3.8,179.2,572481.56,-125482.41,173.4,Weapon+Missile,Red,Allies,R-27ER,,xu,,218.275344129223,167.721603393555,0.686595637603591,5676.509765625,4387.87487792969,217.805565174978,14.31298828125,0.257857432071019,NaN,0,0.573100255801437,5000,0.594667732715607,0.594667732715607,0.594667732715607,2382.20629273653,5566.75444930664,7948.96074204317,,,46.25,1288.63488769531,27431.654144366,27638.9910301306
2018-07-19T08:41:55Z,1531989715,5E08,41.3387883,43.6996409,5686.43,0.2,1.4,179.2,572506,-125692.39,173.4,Weapon+Missile,Red,Allies,R-27ER,,xu,,211.626675902759,162.276489257812,0.665767250618467,5686.4345703125,4378.52197265625,211.393822534071,9.9248046875,0.0422935591746431,NaN,0.292307710566775,1.91152726352762,4550.04338109377,0.0139827309176326,0.0139827309176326,0.0139827309176326,2239.29249768257,5576.48735789551,7815.77985557808,,,47.25,1307.91259765625,27642.3498754979,27850.1078596594
2018-07-19T08:41:56Z,1531989716,5E08,41.3388256,43.6977993,5686.52,0.4,-1.4,179.2,572529.69,-125896.69,173.4,Weapon+Missile,Red,Allies,R-27ER,,xu,,205.665548312335,157.487503051758,0.647014530258634,5686.51806640625,4331.1240234375,205.665531363463,0.08349609375,0.102046855563937,NaN,0.199999998450727,2.72693979263607,4251.31045371111,0.00696000689640641,0.00696000689640641,0.00696000689640641,2114.91588813066,5576.56923959229,7691.48512772295,,,48.25,1355.39404296875,27847.3735399015,28055.3143314505
2018-07-19T08:41:57Z,1531989717,5E08,41.3388619,43.6960119,5676.93,0.6,-4.2,179.2,572552.75,-126095,173.4,Weapon+Missile,Red,Allies,R-27ER,,xu,,199.878935054694,152.931243896484,0.628732284928857,5676.93359375,4237.91760253906,199.649008418524,-9.58447265625,0.0883033384956928,NaN,0.199999998450727,2.7769485167482,4050.24251892782,0.00275384425185621,0.00275384425185621,0.00275384425185621,1997.57943392992,5567.17008271484,7564.74951664476,,,49.25,1439.01599121094,28046.3717341832,28254.7202685232
2018-07-19T08:41:58Z,1531989718,5E08,41.3388975,43.6942726,5657.97,0.7,-7,179.2,572575.19,-126287.96,173.4,Weapon+Missile,Red,Allies,R-27ER,,xu,,195.184652639967,149.329849243164,0.613815822432731,5657.96826171875,4137.72595214844,194.261073833975,-18.96533203125,0.035715321612421,NaN,0.0615385103179339,2.82692458401836,3894.60266071802,0.00930406246334314,0.00930406246334314,0.00930406246334314,1904.85243130922,5548.57144537842,7453.42387668764,,,50.25,1520.24230957031,28240.0031827005,28449.4495220564
2018-07-19T08:41:59Z,1531989719,5E08,41.3389324,43.6925825,5629.93,0.8,-9.9,179.2,572597.06,-126475.47,173.4,Weapon+Missile,Red,Allies,R-27ER,,xu,,190.849993755869,146.08708190918,0.599967167439114,5629.93212890625,4053.62841796875,188.779488752182,-28.0361328125,0.0413877670172048,NaN,0,2.92737190727351,3762.37193864511,0.00674291839823127,0.00674291839823127,0.00674291839823127,1821.18600583076,5521.07739119385,7342.26339702461,,,51.25,1576.3037109375,28428.1695033198,28639.8577112655
2018-07-19T08:42:00Z,1531989720,5E08,41.3389671,43.6909336,5592.95,0.9,-12.9,179.2,572618.38,-126658.4,173.3,Weapon+Missile,Red,Allies,R-27ER,,xu,,187.843051989066,143.967529296875,0.590232957449992,5592.9521484375,3973.17443847656,184.167025346824,-36.97998046875,0.0597311418177273,NaN,0,2.92735525868741,3664.43722065455,0.00934357475489378,0.00934357475489378,0.00934357475489378,1764.25060902834,5484.81241864746,7249.0630276758,,,52.25,1619.77770996094,28611.7411618808,28827.2754115745
2018-07-19T08:42:01Z,1531989721,5E08,41.3390016,43.6893252,5547.19,1,-15.8,179.1,572639.25,-126836.82,173.3,Weapon+Missile,Red,Allies,R-27ER,,xu,,185.375168762979,142.338287353516,0.582135382530031,5547.19384765625,3889.20532226562,179.638890843591,-45.75830078125,0.0404213741264647,NaN,0.0461539360993033,2.87697194138799,3635.62328702077,0.0116083212196827,0.0116083212196827,0.0116083212196827,1718.19765969515,5439.93885461182,7158.13651430697,,,53.25,1657.98852539062,28790.8090232443,29012.2487913667
2018-07-19T08:42:02Z,1531989722,5E08,41.3390362,43.687763,5493.14,1.1,-18.7,179.1,572659.62,-127010.12,173.3,Weapon+Missile,Red,Allies,R-27ER,,xu,,182.679289851596,140.582214355469,0.573270844850497,5493.1376953125,3803.30639648438,174.498296078995,-54.05615234375,0.0649012592708417,NaN,0.199999891729021,2.92695334474343,3608.47121430746,0.0122221512719989,0.0122221512719989,0.0122221512719989,1668.58614703417,5386.92787797363,7055.5140250078,,,54.25,1689.83129882812,28964.7423884971,29194.5322858965
2018-07-19T08:42:03Z,1531989723,5E08,41.3390713,43.686237,5430.72,1.1,-21.6,179.1,572679.62,-127179.4,173.2,Weapon+Missile,Red,Allies,R-27ER,,xu,,181.519969881945,140.107620239258,0.569176389130685,5430.7197265625,3711.51794433594,170.450862840487,-62.41796875,0.0541678782531976,NaN,0,2.92733839665789,3596.3364852382,0.0110198445618153,0.0110198445618153,0.0110198445618153,1647.47497329712,5325.71676064941,6973.19173394653,,,55.25,1719.20178222656,29134.6359410817,29375.6656024411
2018-07-19T08:42:04Z,1531989724,5E08,41.3391069,43.6847521,5360.31,1.2,-24.5,179,572699.19,-127344.09,173.2,Weapon+Missile,Red,Allies,R-27ER,,xu,,180.181703642317,139.542633056641,0.564470375880017,5360.30517578125,3619.77001953125,165.853059560934,-70.41455078125,0.0531748436876554,NaN,0.200000105172432,2.85038222839254,3660.20689768642,0.0204898919910192,0.0204898919910192,0.0204898919910192,1623.27231637239,5256.66367520752,6879.93599157992,,,56.25,1740.53515625,29299.955700868,29555.4852108115
2018-07-19T08:42:05Z,1531989725,5E08,41.3391433,43.683305,5282.08,1.2,-27.2,179,572718.44,-127504.59,173.1,Weapon+Missile,Red,Allies,R-27ER,,xu,,179.575594835174,139.617324829102,0.562008816888387,5282.08056640625,3526.69079589844,161.642521474194,-78.224609375,0.0442680788865796,NaN,0,2.77731905451068,3719.57091799177,0.0111110880970955,0.0111110880970955,0.0111110880970955,1612.36971302032,5179.95153865479,6792.32125167511,,,57.25,1755.38977050781,29461.0727622875,29734.7088952173
2018-07-19T08:42:06Z,1531989726,5E08,41.3391809,43.681893,5196.12,1.2,-30,178.9,572737.31,-127661.18,173.1,Weapon+Missile,Red,Allies,R-27ER,,xu,,179.630128454107,140.278228759766,0.561562844791684,5196.12060546875,3432.77917480469,157.727195385141,-85.9599609375,0.0719171637219801,NaN,0,2.70802827948478,3799.27967990625,0.0189948491752148,0.0189948491752148,0.0189948491752148,1613.34915242195,5095.65361356201,6709.00276598396,,,58.25,1763.34143066406,29618.2866760045,29914.0018141783
2018-07-19T08:42:07Z,1531989727,5E08,41.3392195,43.6805179,5102.74,1.3,-32.6,178.8,572755.88,-127813.64,173,Weapon+Missile,Red,Allies,R-27ER,,xu,,179.744198428293,141.042251586914,0.56125147946518,5102.74462890625,3346.03088378906,153.586795883074,-93.3759765625,0.0236185265237543,NaN,0,2.69657063715208,3939.11688377736,0.0307831354439259,0.0307831354439259,0.0307831354439259,1615.39884343147,5004.08306150635,6619.48190493782,,,59.25,1756.71374511719,29771.4005487484,30093.4476316954
2018-07-19T08:42:08Z,1531989728,5E08,41.3392595,43.6791786,5002.16,1.3,-35.2,178.8,572774.25,-127962.13,172.9,Weapon+Missile,Red,Allies,R-27ER,,xu,,180.2914389761,142.213607788086,0.562241168086851,5002.1591796875,3265.17028808594,149.62476524137,-100.58544921875,0.052986839094586,NaN,0,2.60904026883449,4084.4382065495,0.00846661813557148,0.00846661813557148,0.00846661813557148,1625.25014840364,4905.44243194824,6530.69258035189,,,60.25,1736.98889160156,29920.5204609864,30273.4182529851
2018-07-19T08:42:09Z,1531989729,5E08,41.339301,43.67788,4895.06,1.3,-37.7,178.7,572792.12,-128106.09,172.9,Weapon+Missile,Red,Allies,R-27ER,,xu,,180.313827224818,143.008331298828,0.561548248429529,4895.05615234375,3190.23559570312,145.058670276084,-107.10302734375,0.0755169816965696,NaN,0,2.45906404225641,4228.78898087507,0.0324119850993156,0.0324119850993156,0.0324119850993156,1625.65381442308,4800.41024163818,6426.06405606127,,,61.25,1704.82055664062,30065.1141144939,30453.4483572279
2018-07-19T08:42:10Z,1531989730,5E08,41.3393442,43.6766087,4780.54,1.3,-40.1,178.6,572809.94,-128246.98,172.8,Weapon+Missile,Red,Allies,R-27ER,,xu,,182.439147059006,145.590591430664,0.567345402733169,4780.5380859375,3117.91015625,142.019910034443,-114.51806640625,0.0799206562879071,NaN,0,2.3936440634992,4450.27901899337,0.0224140807986259,0.0224140807986259,0.0224140807986259,1664.20211898088,4688.1063820459,6352.30850102678,,,62.25,1662.6279296875,30206.6816929085,30635.619103968
2018-07-19T08:42:11Z,1531989731,5E08,41.3393892,43.6753753,4659.79,1.4,-42.4,178.5,572827.44,-128383.66,172.6,Weapon+Missile,Red,Allies,R-27ER,,xu,,183.208047007344,147.116760253906,0.568870342197081,4659.79150390625,3044.26501464844,137.787704153947,-120.74658203125,0.0122864171803098,NaN,0.200000105172432,2.30893669774294,4687.35147280968,0.0247377064079046,0.0247377064079046,0.0247377064079046,1678.25942441225,4569.69443517822,6247.95385959047,,,63.25,1615.52648925781,30344.0335636815,30818.5759481504
2018-07-19T08:42:12Z,1531989732,5E08,41.3394359,43.67418,4533.2,1.4,-44.6,178.4,572844.62,-128516.1,172.5,Weapon+Missile,Red,Allies,R-27ER,,xu,,184.019760149508,148.731231689453,0.570482859774974,4533.197265625,2968.06604003906,133.555872051635,-126.59423828125,0.0234062222547196,NaN,0,2.17433010434468,4914.79630035354,0.0331736542284489,0.0331736542284489,0.0331736542284489,1693.16360627413,4445.54789649414,6138.71150276827,,,64.25,1565.13122558594,30477.1475918377,31002.3448090873
2018-07-19T08:42:13Z,1531989733,5E08,41.3394845,43.673019,4400.68,1.4,-46.7,178.2,572861.62,-128644.7,172.4,Weapon+Missile,Red,Allies,R-27ER,,xu,,185.437605958426,150.908996582031,0.57392534032663,4400.68408203125,2864.05920410156,129.720321759705,-132.51318359375,0.0365400538936224,NaN,0,2.07153575733598,5000,0.0270571503788233,0.0270571503788233,0.0270571503788233,1719.35528517962,4315.59685530518,6034.95214048479,,,65.25,1536.62487792969,30606.4445666912,31187.549766603
2018-07-19T08:42:14Z,1531989734,5E08,41.3395355,43.6718883,4262.01,1.4,-48.7,178.1,572878.44,-128769.91,172.3,Weapon+Missile,Red,Allies,R-27ER,,xu,,187.592657256673,153.773147583008,0.579591385836205,4262.009765625,2761.95458984375,126.334631142371,-138.67431640625,0.0444476083688888,NaN,0,2.0102437741584,5000,0.0280778687447309,0.0280778687447309,0.0280778687447309,1759.55025283098,4179.60380680664,5939.15405963762,,,66.25,1500.05517578125,30732.3760604362,31374.9286703605
2018-07-19T08:42:15Z,1531989735,5E08,41.3395886,43.6707884,4117.47,1.4,-50.6,178,572895.06,-128891.7,172.1,Weapon+Missile,Red,Allies,R-27ER,,xu,,189.734096886595,156.697738647461,0.585155023713344,4117.46923828125,2642.69348144531,122.910794792656,-144.54052734375,0.0327518050969933,NaN,0,1.94004906628454,5000,0.0426944941282272,0.0426944941282272,0.0426944941282272,1799.95137606859,4037.85797055908,5837.80934662767,,,67.25,1474.77575683594,30854.8970508384,31564.4625335661
2018-07-19T08:42:16Z,1531989736,5E08,41.3396435,43.6697314,3969.06,1.4,-52.4,177.8,572911.44,-129008.69,172,Weapon+Missile,Red,Allies,R-27ER,,xu,,189.685712804184,157.804061889648,0.583931168409858,3969.05981445312,2486.06005859375,118.132605833593,-148.409423828125,0.0167264512887899,NaN,0,1.81777886174438,5000,0.0278642699122429,0.0278642699122429,0.0278642699122429,1799.03348210156,3892.31804294067,5691.35152504223,,,68.25,1482.99975585938,30972.6439524816,31753.9546796014
2018-07-19T08:42:17Z,1531989737,5E08,41.3397008,43.6687035,3815.15,1.5,-54.1,177.6,572927.62,-129122.44,171.8,Weapon+Missile,Red,Allies,R-27ER,,xu,,192.064070545439,161.048141479492,0.590130628473363,3815.15234375,2325.85864257812,114.896029767133,-153.907470703125,0.0276014220720486,NaN,0,1.71927398025616,5000,0.0366724655032158,0.0366724655032158,0.0366724655032158,1844.43035972416,3741.38637318359,5585.81673290776,,,69.25,1489.29370117188,31087.1595490268,31945.8331334884
2018-07-19T08:42:18Z,1531989738,5E08,41.3397605,43.6677056,3656.15,1.5,-55.8,177.5,572943.69,-129232.82,171.7,Weapon+Missile,Red,Allies,R-27ER,,xu,,194.22384864762,164.174758911133,0.595601196450938,3656.15380859375,2165.45703125,111.54536835593,-158.99853515625,0.0197923230731857,NaN,0,1.64105593454164,5000,0.0278679300099611,0.0278679300099611,0.0278679300099611,1886.14516917467,3585.46207470459,5471.60724387926,,,70.25,1490.69677734375,31198.3546372575,32139.8933550192
2018-07-19T08:42:19Z,1531989739,5E08,41.3398226,43.6667397,3492.66,1.5,-57.3,177.3,572959.5,-129339.66,171.5,Weapon+Missile,Red,Allies,R-27ER,,xu,,195.94662016446,166.984786987305,0.599682283245431,3492.66235351562,1993.86950683594,108.007509323716,-163.491455078125,0.0327573929311537,NaN,0,1.56537679820767,5000,0.0508301183581352,0.0508301183581352,0.0508301183581352,1919.75389769375,3425.1317269104,5344.88562460415,,,71.25,1498.79284667969,31305.9925801109,32335.6696869192
2018-07-19T08:42:20Z,1531989740,5E08,41.3398869,43.6658109,3325.93,1.6,-58.9,177.1,572975.19,-129442.31,171.2,Weapon+Missile,Red,Allies,R-27ER,,xu,,196.424285366511,168.748931884766,0.599922835408044,3325.92993164062,1819.48986816406,103.840258943444,-166.732421875,0.0369958659466131,NaN,0.153846169073129,1.51216642292209,5000,0.0296948589384556,0.0296948589384556,0.0296948589384556,1929.12499408722,3261.62307641235,5190.74807049957,,,72.25,1506.44006347656,31409.5104057789,32531.9529000239
2018-07-19T08:42:21Z,1531989741,5E08,41.3399535,43.6649134,3155.26,1.6,-60.2,176.9,572990.62,-129541.51,171,Weapon+Missile,Red,Allies,R-27ER,,xu,,198.008414026048,171.537155151367,0.603508591659076,3155.2568359375,1641.39440917969,100.389374080241,-170.673095703125,0.0156410108669806,NaN,0,1.44229721625086,5000,0.042650680989027,0.042650680989027,0.042650680989027,1960.36660125554,3094.24994501465,5054.61654627018,,,73.25,1513.86242675781,31509.5704627261,32729.8202721498
2018-07-19T08:42:22Z,1531989742,5E08,41.3400227,43.6640463,2980.87,1.6,-61.6,176.6,573005.94,-129637.29,170.8,Weapon+Missile,Red,Allies,R-27ER,,xu,,199.54718210216,174.339965820312,0.60691694467408,2980.87060546875,1456.90795898438,96.9975283592964,-174.38623046875,0.0257908519826569,NaN,0,1.37340216531,5000,0.0414432398974895,0.0414432398974895,0.0414432398974895,1990.95389424562,2923.23547231201,4914.18936655764,,,74.25,1523.96264648438,31606.2578783331,32929.2394528159
2018-07-19T08:42:23Z,1531989743,5E08,41.3400945,43.6632086,2802.84,1.7,-62.9,176.4,573021.12,-129729.78,170.5,Weapon+Missile,Red,Allies,R-27ER,,xu,,201.195297504875,177.296096801758,0.61061880823596,2802.84228515625,1260.92858886719,93.7308108616647,-178.0283203125,0.0114312938786003,NaN,0.200000105172432,1.29381306584131,5000,0.0541136339306831,0.0541136339306831,0.0541136339306831,2023.97738690376,2748.64932957275,4772.62671647652,,,75.25,1541.91369628906,31699.6857278143,33130.3134763796
2018-07-19T08:42:24Z,1531989744,5E08,41.3401684,43.662406,2622.79,1.7,-64.1,176.1,573036.19,-129818.34,170.2,Weapon+Missile,Red,Allies,R-27ER,,xu,,201.216836759527,178.817993164062,0.609366851421046,2622.79223632812,1045.21826171875,89.8342658037566,-180.050048828125,0.0166556233583452,NaN,0,1.19597807650028,5000,0.0337942913174629,0.0337942913174629,0.0337942913174629,2024.41076977551,2572.08054843872,4596.49131821423,,,76.25,1577.57397460938,31789.2248317502,33331.4156708754
2018-07-19T08:42:25Z,1531989745,5E08,41.3402454,43.6616302,2439.25,1.8,-65.2,175.8,573051.06,-129903.92,170,Weapon+Missile,Red,Allies,R-27ER,,xu,,203.057540514219,182.038131713867,0.61359491416134,2439.25073242188,828.082641601562,86.8612750511735,-183.54150390625,0.0104832322687187,NaN,0,1.1456600728848,5000,0.0557656697928905,0.0557656697928905,0.0557656697928905,2061.61823798418,2392.0878195105,4453.70605749468,,,77.25,1611.16809082031,31875.8145767534,33534.3718716483
2018-07-19T08:42:26Z,1531989746,5E08,41.3403249,43.6608852,2253.52,1.9,-66.4,175.4,573065.88,-129986.05,169.6,Weapon+Missile,Red,Allies,R-27ER,,xu,,203.62108584647,184.129364013672,0.613940596109258,2253.51538085938,615.141723632812,83.4501394920943,-185.7353515625,0.0329184423765669,NaN,0.199999891729021,1.10871899475878,5000,0.0448345653712749,0.0448345653712749,0.0448345653712749,2073.07733006477,2209.94366097046,4283.02099103523,,,78.25,1638.37365722656,31958.9901390067,33737.8930892481
2018-07-19T08:42:27Z,1531989747,5E08,41.340407,43.6601709,2065.94,2,-67.4,175.1,573080.5,-130064.74,169.2,Weapon+Missile,Red,Allies,R-27ER,,xu,,203.941015639502,186.022430419922,0.613541472196689,2065.9384765625,401.147094726562,80.0427562898271,-187.576904296875,0.0136774452384046,NaN,0.123077020635868,1.07542939979608,5000,0.0577638894319534,0.0577638894319534,0.0577638894319534,2079.59689300358,2025.99355611816,4105.59044912175,,,79.25,1664.79138183594,32038.7776081519,33941.7446216159
2018-07-19T08:42:28Z,1531989748,5E08,41.340492,43.6594859,1876.68,2,-68.4,174.7,573095.06,-130140.16,168.9,Weapon+Missile,Red,Allies,R-27ER,,xu,,204.254497852668,187.933151245117,0.613115606462167,1876.67529296875,190.072631835938,76.8072081838932,-189.26318359375,0.0279922705779969,NaN,0.0615382968745224,1.02868945481033,5000,0.0573809295892715,0.0573809295892715,0.0573809295892715,2085.99499465227,1840.3897761792,3926.38477083147,,,80.25,1686.60266113281,32115.3378820757,34145.9152659505
2018-07-19T08:42:29Z,1531989749,5E08,41.3405803,43.6588264,1685,2.2,-69.4,174.3,573109.62,-130212.73,168.4,Weapon+Missile,Red,Allies,R-27ER,,xu,,205.470033331515,190.723190307617,0.615378995409614,1685,-21.345458984375,74.0170025237287,-191.67529296875,0.0453041291067329,NaN,0.199999891729021,0.973360120056468,5000,0.0607956647872925,0.0607956647872925,0.0607956647872925,2110.89672986269,1652.420525,3763.31725486269,,,81.25,1706.34545898438,32189.1011333074,34351.3014240992
2018-07-19T08:42:30Z,1531989750,5E08,41.3406716,43.6581956,1492.24,2.3,-70.3,173.8,573124.12,-130282.06,167.9,Weapon+Missile,Red,Allies,R-27ER,,xu,,205.362755218878,192.289764404297,0.613674646271646,1492.24072265625,-233.228393554688,70.8358823549471,-192.75927734375,0.00929868314321146,NaN,0.199999891729021,0.933382062349031,5000,0.0554483756422997,0.0554483756422997,0.0554483756422997,2108.69306155443,1463.38824828369,3572.08130983812,,,82.25,1725.46911621094,32259.7031580133,34556.5896806614
2018-07-19T08:42:31Z,1531989751,5E08,41.3407667,43.65759,1297.78,2.4,-71.1,173.3,573138.56,-130348.59,167.5,Weapon+Missile,Red,Allies,R-27ER,,xu,,206.033874176236,194.618179321289,0.614289715292052,1297.77697753906,-445.997924804688,68.0720878412467,-194.463745117188,0.00798239564752009,NaN,0.16923074329176,0.844553531202311,5000,0.0735145881772041,0.0735145881772041,0.0735145881772041,2122.49786540344,1272.68445967834,3395.18232508179,,,83.25,1743.77490234375,32327.5575967998,34762.5566374637
2018-07-19T08:42:32Z,1531989752,5E08,41.3408659,43.657008,1101.57,2.6,-71.9,172.7,573153.12,-130412.43,166.9,Weapon+Missile,Red,Allies,R-27ER,,xu,,206.848137953933,197.113708496094,0.615318558462641,1101.56774902344,-655.569213867188,65.4835156380024,-196.209228515625,0.0334072655766199,NaN,0.199999891729021,0.819026339509623,5000,0.0648835450410843,0.0648835450410843,0.0648835450410843,2139.30760875046,1080.26893659607,3219.57654534653,,,84.25,1757.13696289062,32392.8302585712,34969.3419962605
