ISOTime,UnixTime,Id,Longitude,Latitude,Altitude,Roll,Pitch,Yaw,U,V,Heading,Type,Color,Coalition,Name,Group,Country,Pilot,TAS,CAS,M,ASL,AGL,GS,VS,AOA,AOS,RRT,TRT,TRD,G,LatG,LonG,Ek,Ep,Em,FFW,FFV,RelativeTime,Elev,GroundDistance,AirDistance
2018-07-19T08:42:58Z,1531989778,870A,41.3098353,43.7510906,6595.03,-83.7,7,176.2,569594.81,-120211.72,170.4,Weapon+Missile,Red,Allies,AIM-120B,,xu,,267.147169536539,198.670715332031,0.850471079485266,6595.033203125,5007.99255371094,NaN,NaN,NaN,NaN,NaN,NaN,NaN,NaN,NaN,NaN,NaN,6467.51823614258,NaN,,,0.149999856948853,1587.04064941406,NaN,NaN
2018-07-19T08:42:59Z,1531989779,870A,41.3100111,43.7479887,6624.7,-67.6,5.2,175.7,569643.81,-120554.95,169.9,Weapon+Missile,Red,Allies,AIM-120B,,xu,,347.973400920453,265.1552734375,1.10821869754123,6624.6982421875,4990.40380859375,346.706609694085,29.6650390625,2.80953318777976,NaN,15.3230512896817,4.10096643387679,5000,2.48162865638733,2.48162865638733,2.48162865638733,6054.2743874073,6496.6097016748,12550.8840890821,,,1.14999985694885,1634.29443359375,345.599476394381,347.227155833448
2018-07-19T08:43:00Z,1531989780,870A,41.310244,43.7436834,6633.09,-54.2,-0.1,176.6,569710.88,-121031.42,170.8,Weapon+Missile,Red,Allies,AIM-120B,,xu,,481.245974437424,367.770599365234,1.53283274140298,6633.08837890625,4924.88439941406,481.172831234336,8.39013671875,0.528109380331654,NaN,12.4615298765265,3.36817972314485,5000,1.01473486423492,1.01473486423492,1.01473486423492,11579.8843956113,6504.8376151001,18084.7220107114,,,2.14999985694885,1708.20397949219,825.229306894107,827.428775099592
2018-07-19T08:43:01Z,1531989781,870A,41.3107066,43.7381076,6631.17,-43.9,-0.2,176.6,569810.69,-121647.19,170.8,Weapon+Missile,Red,Allies,AIM-120B,,xu,,623.805687348613,465.148376464844,1.98685391491498,6631.166015625,4821.58666992188,623.802725296941,-1.92236328125,0.0348374918485917,NaN,9.64614639121478,0.839090447083359,5000,0.96328192949295,0.96328192949295,0.96328192949295,19456.6767784238,6502.95242071289,25959.6291991367,,,3.14999985694885,1809.57934570312,1447.03584631805,1449.88485111993
2018-07-19T08:43:02Z,1531989782,870A,41.3112722,43.7312372,6628.37,-35.6,-0.2,176.7,569933.38,-122405.95,170.8,Weapon+Missile,Red,Allies,AIM-120B,,xu,,768.625587841739,561.920715332031,2.44802241945477,6628.37353515625,4824.90771484375,768.6205151685,-2.79248046875,0.06885270538321,NaN,7.87692249050638,0.0726849788369981,5000,0.880211532115936,0.880211532115936,0.880211532115936,29539.2647142529,6500.213932854,36039.478647107,,,4.14999985694885,1803.4658203125,2213.19356329259,2216.84403626263
2018-07-19T08:43:03Z,1531989783,870A,41.3118839,43.723538,6623.89,-28.8,-0.4,176.9,570069.06,-123256.43,171.1,Weapon+Missile,Red,Allies,AIM-120B,,xu,,861.244223515914,624.074645996094,2.74284384249882,6623.88671875,4817.20275878906,861.232535972757,-4.48681640625,0.0650935428862345,NaN,6.43074604697207,0.353187667918758,5000,0.559391558170319,0.559391558170319,0.559391558170319,37087.0806269765,6495.81386904297,43582.8944960195,,,5.14999985694885,1806.68395996094,3071.67190586939,3076.22594919239
2018-07-19T08:43:04Z,1531989784,870A,41.3124784,43.7153224,6612.31,-23.2,-1,177.2,570209.19,-124164.44,171.4,Weapon+Missile,Red,Allies,AIM-120B,,xu,,918.829328724096,663.177307128906,2.92578931125649,6612.30517578125,5032.69104003906,918.756335045389,-11.58154296875,0.0507354825120979,NaN,5.21538218606,0.569503787677455,5000,0.366055369377136,0.366055369377136,0.366055369377136,42212.3667661786,6484.45625520752,48696.8230213861,,,6.14999985694885,1579.61413574219,3987.48847667689,3993.06594358961
2018-07-19T08:43:05Z,1531989785,870A,41.3130654,43.7065789,6589.76,-18.7,-1.6,177.3,570354.56,-125131.16,171.5,Weapon+Missile,Red,Allies,AIM-120B,,xu,,977.848315305434,703.818969726562,3.1127925467914,6589.759765625,5260.81579589844,977.588375660514,-22.54541015625,0.0529117015850405,NaN,4.24616126736226,0.644231820169507,5000,0.300668358802795,0.300668358802795,0.300668358802795,47809.3663872838,6462.34676055664,54271.7131478404,,,7.14999985694885,1328.94396972656,4961.95070619201,4968.79719346089
2018-07-19T08:43:06Z,1531989786,870A,41.3136566,43.6973114,6554.09,-15.1,-2.3,177.5,570506.19,-126156.07,171.6,Weapon+Missile,Red,Allies,AIM-120B,,xu,,1036.68284420155,745.07275390625,3.2985255088361,6554.08984375,5051.66284179688,1036.06900162839,-35.669921875,0.0630728730701222,NaN,3.44615828535159,0.710738599417537,5000,0.37915250658989,0.37915250658989,0.37915250658989,53735.5659730911,6427.36651662109,60162.9324897122,,,8.14999985694885,1502.42700195312,5994.702453863,6003.22825071439
2018-07-19T08:43:07Z,1531989787,870A,41.3142219,43.6881271,6505.68,-12.1,-3.1,177.5,570654.75,-127171.95,171.7,Weapon+Missile,Red,Allies,AIM-120B,,xu,,1027.82113264384,740.861511230469,3.26823977285521,6505.6806640625,4759.47473144531,1026.68049169703,-48.4091796875,0.0403027146768922,NaN,2.79998653137524,0.771788217601286,5000,0.485954105854034,0.485954105854034,0.485954105854034,52820.8140354633,6379.89332842285,59200.7073638862,,,9.14999985694885,1746.20593261719,7018.10265847647,7028.81932813355
2018-07-19T08:43:08Z,1531989788,870A,41.3147503,43.6793146,6445.09,-9.7,-3.9,177.6,570796.25,-128146.8,171.8,Weapon+Missile,Red,Allies,AIM-120B,,xu,,986.936526250875,715.166870117188,3.1357303059829,6445.0947265625,4451.51184082031,985.075149938009,-60.5859375,0.0448335379447106,NaN,2.292320768483,0.794096095678224,5000,0.380935519933701,0.380935519933701,0.380935519933701,48702.1853424072,6320.47882002441,55022.6641624316,,,10.1499998569489,1993.58288574219,8000.02739900091,8013.60641203469
2018-07-19T08:43:09Z,1531989789,870A,41.3152495,43.6709151,6374.14,-7.7,-4.7,177.6,570930.69,-129076.03,171.8,Weapon+Missile,Red,Allies,AIM-120B,,xu,,941.578241008544,686.62109375,2.98882413544373,6374.14306640625,4226.79150390625,938.901190680796,-70.95166015625,0.0565847750723473,NaN,1.93845891286839,0.769629931184415,5000,0.244139671325684,0.244139671325684,0.244139671325684,44328.4791970372,6250.89901021729,50579.3782072545,,,11.1499998569489,2147.3515625,8935.91803972712,8953.12051157289
2018-07-19T08:43:10Z,1531989790,870A,41.3157272,43.6628916,6294.42,-6.2,-5.4,177.6,571059.19,-129963.65,171.8,Weapon+Missile,Red,Allies,AIM-120B,,xu,,900.406569225615,661.044921875,2.85514288857616,6294.421875,4480.36169433594,896.870403985665,-79.72119140625,0.0347843624814793,NaN,1.53846937469411,0.721193217798447,5000,0.205858737230301,0.205858737230301,0.205858737230301,40536.5994952321,6172.71922804688,46709.318723279,,,12.1499998569489,1814.06018066406,9829.91626337305,9851.55056197971
2018-07-19T08:43:11Z,1531989791,870A,41.3161619,43.6551816,6208.07,-5,-6,177.8,571180.69,-130816.79,172,Weapon+Missile,Red,Allies,AIM-120B,,xu,,866.064918472295,640.172302246094,2.74314088658844,6208.06640625,4605.10705566406,861.748905439044,-86.35546875,0.0625389456132128,NaN,1.16921483401123,0.581741992566237,5000,0.367715954780579,0.367715954780579,0.367715954780579,37503.4221504211,6088.03344228516,43591.4555927063,,,13.1499998569489,1602.95935058594,10688.9083133461,10715.7100916086
2018-07-19T08:43:12Z,1531989792,870A,41.3165666,43.6477896,6119.11,-4,-6.3,177.8,571296.19,-131634.83,172,Weapon+Missile,Red,Allies,AIM-120B,,xu,,830.927788655952,618.627685546875,2.62878938489708,6119.1123046875,4353.91479492188,826.152623778366,-88.9541015625,0.0509733127334745,NaN,0.969226895113258,0.323399131875069,5000,0.662859201431274,0.662859201431274,0.662859201431274,34522.0494980335,6000.79926827637,40522.8487663099,,,14.1499998569489,1765.19750976562,11512.4273257515,11544.8106711209
2018-07-19T08:43:13Z,1531989793,870A,41.3169555,43.6406979,6030.59,-3.2,-6.6,177.8,571407.12,-132419.64,172,Weapon+Missile,Red,Allies,AIM-120B,,xu,,797.54210549074,598.073913574219,2.52025570748286,6030.59326171875,4010.216796875,792.614527410708,-88.51904296875,0.0437855471486603,NaN,0.769238956215285,0.250229823256809,5000,0.58142626285553,0.58142626285553,0.58142626285553,31803.6705015302,5913.99174100342,37717.6622425336,,,15.1499998569489,2020.37646484375,12302.4923068241,12340.5668551605
2018-07-19T08:43:14Z,1531989794,870A,41.3173226,43.63392,5942.02,-2.6,-6.8,177.8,571512.69,-133169.77,172,Weapon+Missile,Red,Allies,AIM-120B,,xu,,762.677263824844,576.284484863281,2.40730489773302,5942.017578125,3816.84814453125,757.516308095905,-88.57568359375,0.027504924910514,NaN,0.569196375803951,0.215346526381246,5000,0.838929116725922,0.838929116725922,0.838929116725922,29083.8304377675,5827.12866825195,34910.9591060195,,,16.1499998569489,2125.16943359375,13057.5883136423,13101.5441336035
2018-07-19T08:43:15Z,1531989795,870A,41.3176697,43.6273834,5855.12,-2.1,-6.7,177.9,571614,-133893.23,172,Weapon+Missile,Red,Allies,AIM-120B,,xu,,735.677802836451,559.734375,2.31946535630166,5855.12353515625,3537.8310546875,730.528065773528,-86.89404296875,0.0680148223533741,NaN,0.384592157350962,0.158567724099886,5000,1.50147068500519,1.50147068500519,1.50147068500519,27061.0914793134,5741.914721604,32803.0062009174,,,17.1499998569489,2317.29248046875,13785.7749279088,13835.5656223652
2018-07-19T08:43:16Z,1531989796,870A,41.3179993,43.6211534,5777.27,-1.8,-6,177.8,571710.44,-134582.78,172,Weapon+Missile,Red,Allies,AIM-120B,,xu,,700.596635667312,537.105834960938,2.2066333067399,5777.27392578125,3434.42919921875,696.257915020372,-77.849609375,0.069559401243371,NaN,0.246139100232926,0.466465848375317,5000,1.60350370407104,1.60350370407104,1.60350370407104,24541.7822954178,5665.57033442627,30207.3526298441,,,18.1499998569489,2342.8447265625,14479.8037975821,14534.5760023151
2018-07-19T08:43:17Z,1531989797,870A,41.31836,43.6151718,5707.92,-1.4,-6,177.3,571806.62,-135244.48,171.5,Weapon+Missile,Red,Allies,AIM-120B,,xu,,672.244322483635,518.813171386719,2.11543520349331,5707.92431640625,3272.44580078125,668.657655898006,-69.349609375,0.0277664544780219,NaN,0.400030519309307,0.447518530091731,5000,0.730450391769409,0.730450391769409,0.730450391769409,22595.621455574,5597.56159974854,28193.1830553226,,,19.1499998569489,2435.478515625,15146.3013202204,15205.2686198441
2018-07-19T08:43:18Z,1531989798,870A,41.3187779,43.6094275,5635.72,-1,-7.1,176.7,571904.69,-135879.34,170.8,Weapon+Missile,Red,Allies,AIM-120B,,xu,,646.433432556009,502.219970703125,2.03231751948006,5635.7197265625,3113.17431640625,642.388262604198,-72.20458984375,0.0963612925719456,NaN,0.400030519309307,1.41014591500202,5000,1.45349824428558,1.45349824428558,1.45349824428558,20893.8091363072,5526.75308564941,26420.5622219567,,,20.1499998569489,2522.54541015625,15786.6429828202,15850.2341473554
2018-07-19T08:43:19Z,1531989799,870A,41.3192664,43.6039885,5545.88,-0.4,-9.9,176,572005.06,-136479.7,170.1,Weapon+Missile,Red,Allies,AIM-120B,,xu,,615.28655261831,482.030853271484,1.93215749064871,5545.880859375,2891.83447265625,608.692467322695,-89.8388671875,0.0954060647118952,NaN,0.569251017317311,2.48446700988356,5000,2.08901929855347,2.08901929855347,2.08901929855347,18928.8770916462,5438.65125295898,24367.5283446052,,,21.1499998569489,2654.04638671875,16393.3863966272,16464.1187148328
2018-07-19T08:43:20Z,1531989800,870A,41.3198072,43.5987875,5430.96,0,-12.6,175.5,572107,-137053.2,169.7,Weapon+Missile,Red,Allies,AIM-120B,,xu,,593.71765468815,468.960083007812,1.86167453814061,5430.95849609375,2729.00390625,582.489059044245,-114.92236328125,0.0334768586283157,NaN,0.492303226705859,2.8211991779466,5000,1.97476744651794,1.97476744651794,1.97476744651794,17625.0326744199,5325.95091357178,22950.9835879917,,,22.1499998569489,2701.95458984375,16974.0056048434,17056.4921180328
2018-07-19T08:43:21Z,1531989801,870A,41.320363,43.5938934,5294.4,0.4,-15.4,175.3,572206.75,-137592.47,169.5,Weapon+Missile,Red,Allies,AIM-120B,,xu,,565.159322270782,450.994171142578,1.76902967604862,5294.40234375,2806.12524414062,548.413600129173,-136.55615234375,0.0958575719659401,NaN,0.40000002358188,2.73112264317247,5000,1.64777135848999,1.64777135848999,1.64777135848999,15970.2529774785,5192.03507443359,21162.2880519121,,,23.1499998569489,2488.27709960938,17520.6495360508,17620.3802905819
2018-07-19T08:43:22Z,1531989802,870A,41.3208417,43.5892488,5139.58,0.5,-17.7,176.4,572297.5,-138104.64,170.5,Weapon+Missile,Red,Allies,AIM-120B,,xu,,542.702617233935,437.454925537109,1.69538428814588,5139.578125,2727.69165039062,520.149586216326,-154.82421875,0.0734874158978488,NaN,0,2.28904185079457,5000,1.02134597301483,1.02134597301483,1.02134597301483,14726.3065376282,5040.20438195312,19766.5109195813,,,24.1499998569489,2411.88647460938,18039.1200735767,18161.8802123487
2018-07-19T08:43:23Z,1531989803,870A,41.3212186,43.5848277,4975.22,0.6,-18.9,176.5,572377.44,-138592.84,170.7,Weapon+Missile,Red,Allies,AIM-120B,,xu,,521.291063863858,424.511596679688,1.62509749004364,4975.224609375,2713.82495117188,494.704250200072,-164.353515625,0.114436227141905,NaN,0,1.1159331686262,5000,0.600735068321228,0.600735068321228,0.600735068321228,13587.2186632156,4879.02864155273,18466.2473047684,,,25.1499998569489,2261.39965820312,18532.2185571897,18682.0185978212
2018-07-19T08:43:24Z,1531989804,870A,41.3215718,43.5806039,4814.85,0.4,-18.4,176.6,572453.31,-139059.27,170.8,Weapon+Missile,Red,Allies,AIM-120B,,xu,,499.024159938103,410.477386474609,1.5525272549575,4814.85400390625,2794.22448730469,472.553045809162,-160.37060546875,0.0282363058269918,NaN,0.199987938897973,0.31559038470432,5000,1.76810598373413,1.76810598373413,1.76810598373413,12451.2556100965,4721.75880174072,17173.0144118372,,,26.1499998569489,2020.62951660156,19003.2624809147,19179.9561608763
2018-07-19T08:43:25Z,1531989805,870A,41.321913,43.5765283,4668.45,0.1,-16.8,176.5,572526.5,-139509.36,170.7,Weapon+Missile,Red,Allies,AIM-120B,,xu,,478.931561926921,397.479553222656,1.48726894938823,4668.4482421875,2899.42687988281,456.005256488686,-146.40576171875,0.0249622413123741,NaN,0.369212705774209,1.59369732382748,5000,2.77589082717896,2.77589082717896,2.77589082717896,11468.772050488,4578.1837954248,16046.9558459128,,,27.1499998569489,1769.02136230469,19457.7906390541,19657.8031905813
2018-07-19T08:43:26Z,1531989806,870A,41.3222611,43.5726177,4546.18,-0.2,-14.2,176.2,572598.44,-139941.05,170.4,Weapon+Missile,Red,Allies,AIM-120B,,xu,,454.398749360232,380.221252441406,1.40891891623345,4546.181640625,2933.54797363281,437.640379264185,-122.2666015625,0.0602768710391963,NaN,0.399975877795947,2.56478832697562,5000,3.2587993144989,3.2587993144989,3.2587993144989,10323.9111710072,4458.28121860352,14782.1923896107,,,28.1499998569489,1612.63366699219,19894.0251971096,20111.1515578245
2018-07-19T08:43:27Z,1531989807,870A,41.3226299,43.5688788,4451.73,-0.5,-11,175.6,572670.19,-140353.48,169.8,Weapon+Missile,Red,Allies,AIM-120B,,xu,,429.155154610213,361.416656494141,1.3290741071078,4451.728515625,2983.15979003906,418.632002964716,-94.453125,0.0827638658470545,NaN,0.369212705774209,3.12061930323433,5000,3.40016269683838,3.40016269683838,3.40016269683838,9208.70733642578,4365.65434477539,13574.3616812012,,,29.1499998569489,1468.56872558594,20311.3015315204,20539.2714669298
2018-07-19T08:43:28Z,1531989808,870A,41.3230486,43.5653205,4384.83,-0.8,-8,174.8,572743.81,-140745.44,168.9,Weapon+Missile,Red,Allies,AIM-120B,,xu,,404.379731336328,341.935089111328,1.25129852803989,4384.83251953125,2943.35034179688,398.808090216668,-66.89599609375,0.0636383407721626,NaN,0.199987938897973,3.16248067888369,5000,3.05474758148193,3.05474758148193,3.05474758148193,8176.14835578203,4300.05178276611,12476.2001385481,,,30.1499998569489,1441.48217773438,20708.8402502625,20942.670939806
2018-07-19T08:43:29Z,1531989809,870A,41.3235066,43.5619527,4340.86,-1.1,-5.1,174.1,572818.56,-141115.92,168.3,Weapon+Missile,Red,Allies,AIM-120B,,xu,,380.49944693366,322.151031494141,1.1767578414438,4340.85986328125,2873.62719726562,377.950042491254,-43.97265625,0.0612955034594896,NaN,0.323040626984923,2.91935945504685,5000,2.89106631278992,2.89106631278992,2.89106631278992,7238.99145584106,4256.92933782471,11495.9207936658,,,31.1499998569489,1467.23266601562,21085.5617301719,21322.2060350727
2018-07-19T08:43:30Z,1531989810,870A,41.32398,43.5587768,4317.23,-1.3,-2.4,173.7,572892.44,-141464.95,167.8,Weapon+Missile,Red,Allies,AIM-120B,,xu,,357.545705117138,302.263702392578,1.1054435322429,4317.22509765625,2695.93725585938,356.763688036721,-23.634765625,0.0925441504213872,NaN,0.199987938897973,2.7655275866823,5000,2.63177609443665,2.63177609443665,2.63177609443665,6391.94656238556,4233.75155039307,10625.6981127786,,,32.1499998569489,1621.28784179688,21441.1539250929,21678.8236383842
2018-07-19T08:43:31Z,1531989811,870A,41.3244518,43.5558141,4310.49,-1.4,0.2,173.2,572963.75,-141790.31,167.4,Weapon+Missile,Red,Allies,AIM-120B,,xu,,333.150957551244,280.446441650391,1.02993443617077,4310.48974609375,2528.63403320312,333.082865900725,-6.7353515625,0.0920151037617693,NaN,0.169224766876236,2.53586354305767,5000,2.34934067726135,2.34934067726135,2.34934067726135,5549.47802586556,4227.14642685303,9776.62445271858,,,33.1499998569489,1781.85571289062,21773.1524320978,22011.1149606507
2018-07-19T08:43:32Z,1531989812,870A,41.324919,43.5530322,4316.83,-1.4,1.9,173,573032.62,-142095.61,167.2,Weapon+Missile,Red,Allies,AIM-120B,,xu,,313.033779838586,262.304779052734,0.96781881948281,4316.830078125,2457.71606445312,312.969563232218,6.34033203125,0.051771008098804,NaN,0.199987938897973,1.80735449896706,5000,1.66704642772675,1.66704642772675,1.66704642772675,4899.50736600161,4233.36416856445,9132.87153456606,,,34.1499998569489,1859.11401367188,22085.1184412257,22323.3563381549
2018-07-19T08:43:33Z,1531989813,870A,41.3253674,43.5504001,4329.14,-1.3,2.7,173.1,573098.38,-142384.42,167.2,Weapon+Missile,Red,Allies,AIM-120B,,xu,,296.457957074017,247.382461547852,0.916711498349096,4329.142578125,2445.76379394531,296.202165178194,12.3125,0.0519075007329558,NaN,0.199987938897973,0.773181522831116,5000,1.1993043422699,1.1993043422699,1.1993043422699,4394.366015625,4245.43860637695,8639.80462200195,,,35.1499998569489,1883.37878417969,22380.344790323,22619.0392493121
2018-07-19T08:43:34Z,1531989814,870A,41.3257878,43.5478838,4342.78,-1,2.6,173.1,573160.56,-142660.59,167.3,Weapon+Missile,Red,Allies,AIM-120B,,xu,,283.414990054262,235.691497802734,0.876528968607906,4342.77587890625,2394.82641601562,283.08689425204,13.63330078125,0.0333736710983466,NaN,0.353866978256483,0.060165648964868,5000,0.834981679916382,0.834981679916382,0.834981679916382,4016.20282937288,4258.8083072876,8275.01113666048,,,36.1499998569489,1947.94946289062,22662.5077207914,22901.7229442043
2018-07-19T08:43:35Z,1531989815,870A,41.3261908,43.5454583,4354.33,-0.8,2.3,173.2,573220.25,-142926.83,167.4,Weapon+Missile,Red,Allies,AIM-120B,,xu,,273.08766625356,226.487045288086,0.844711082774223,4354.33154296875,2289.30712890625,272.843068608844,11.5556640625,0.00920794328289788,NaN,0.199987938897973,0.33455163017051,5000,0.853881478309631,0.853881478309631,0.853881478309631,3728.8436729908,4270.14054258545,7998.98421557625,,,37.1499998569489,2065.0244140625,22934.4643132499,23174.110181286
2018-07-19T08:43:36Z,1531989816,870A,41.3265778,43.543114,4364.09,-0.6,1.9,173.2,573277.81,-143184.16,167.4,Weapon+Missile,Red,Allies,AIM-120B,,xu,,263.868295576252,218.321472167969,0.816293334008061,4364.09228515625,2162.82177734375,263.68770415449,9.7607421875,0.0323305566490811,NaN,0.292344689637828,0.400320802349032,5000,0.782991051673889,0.782991051673889,0.782991051673889,3481.32387051582,4279.71256082275,7761.03643133858,,,38.1499998569489,2201.2705078125,23197.2874805104,23437.2940394884
2018-07-19T08:43:37Z,1531989817,870A,41.3269553,43.5408411,4371.47,-0.4,1.6,173.2,573333.81,-143433.62,167.4,Weapon+Missile,Red,Allies,AIM-120B,,xu,,255.783204787888,211.207656860352,0.791354480284125,4371.46728515625,2063.48779296875,255.676860952575,7.375,0.0499774987213748,NaN,0.138453163839742,0.218950918591882,5000,1.01588332653046,1.01588332653046,1.01588332653046,3271.25239257813,4286.94496519775,7558.19735777588,,,39.1499998569489,2307.9794921875,23452.1372443314,23692.4249415309
2018-07-19T08:43:38Z,1531989818,870A,41.3273224,43.5386313,4378.8,-0.4,1.7,173.2,573388.25,-143676.17,167.3,Weapon+Missile,Red,Allies,AIM-120B,,xu,,248.689065143121,204.983703613281,0.769476802538223,4378.8037109375,1974.98510742188,248.580827857893,7.33642578125,0.0443083919158443,NaN,0,0.0513960362511687,5000,0.994771659374237,0.994771659374237,0.994771659374237,3092.31255608797,4294.13954118652,7386.45209727449,,,40.1499998569489,2403.81860351562,23699.9032667998,23940.4694398117
2018-07-19T08:43:39Z,1531989819,870A,41.3276794,43.5364902,4385.86,-0.3,1.6,173.1,573441.06,-143911.17,167.3,Weapon+Missile,Red,Allies,AIM-120B,,xu,,240.964737220194,198.244323730469,0.745642481191174,4385.86376953125,1873.98608398438,240.861288205992,7.06005859375,0.0961603600961203,NaN,0,0.629249693503378,5000,0.476019620895386,0.476019620895386,0.476019620895386,2903.20022917986,4301.06309354736,7204.26332272722,,,41.1499998569489,2511.87768554688,23939.9910934168,24180.825938517
2018-07-19T08:43:40Z,1531989820,870A,41.3279978,43.5344188,4387.07,0.4,-2.3,174.8,573490.06,-144138.73,169,Weapon+Missile,Red,Allies,AIM-120B,,xu,,232.781326515164,191.193634033203,0.720330549727214,4387.06982421875,1730.41772460938,232.778202171617,1.2060546875,0.0767345501608621,NaN,0.969223266575262,3.48126140226064,2670.44830105299,1.18321847915649,1.18321847915649,1.18321847915649,2709.35729870796,4302.24582916748,7011.60312787544,,,42.1499998569489,2656.65209960938,24171.9987693301,24412.9963067485
2018-07-19T08:43:41Z,1531989821,870A,41.3282093,43.5324309,4370.37,0.6,-4.9,175.9,573529.38,-144357.89,170.1,Weapon+Missile,Red,Allies,AIM-120B,,xu,,223.279349761202,183.203552246094,0.690783048968613,4370.37451171875,1607.01318359375,222.654293851056,-16.6953125,0.0441389954869175,NaN,0.199987938897973,2.87421147774624,5000,0.806100189685822,0.806100189685822,0.806100189685822,2492.68340148926,4285.87332053467,6778.55672202393,,,43.1499998569489,2763.361328125,24393.9456357247,24635.7221578507
2018-07-19T08:43:42Z,1531989822,870A,41.3284058,43.5304941,4352.27,0.5,-4.6,175.7,573567,-144571.5,169.9,Weapon+Missile,Red,Allies,AIM-120B,,xu,,217.652128578485,178.555725097656,0.673221281940838,4352.26806640625,1556.65844726562,216.897684895184,-18.1064453125,0.0631883079665328,NaN,0.0461720787892862,0.175829573143851,5000,1.14523947238922,1.14523947238922,1.14523947238922,2368.62245373726,4268.11696334229,6636.73941707954,,,44.1499998569489,2795.60961914062,24610.1342940251,24852.815038277
2018-07-19T08:43:43Z,1531989823,870A,41.3286052,43.5286044,4336.03,0.3,-4.2,175.6,573604.25,-144779.86,169.8,Weapon+Missile,Red,Allies,AIM-120B,,xu,,212.284887423351,174.119293212891,0.656486756282709,4336.02978515625,1574.12524414062,211.662919875898,-16.23828125,0.0441737911693093,NaN,0.199987938897973,0.427503968069905,5000,1.14465618133545,1.14465618133545,1.14465618133545,2253.24367141724,4252.19264926025,6505.43632067749,,,45.1499998569489,2761.90454101562,24821.1143698795,25064.5623638458
2018-07-19T08:43:44Z,1531989824,870A,41.3288068,43.5267636,4321.62,0.2,-3.8,175.4,573641.19,-144982.75,169.6,Weapon+Missile,Red,Allies,AIM-120B,,xu,,206.728380127428,169.5126953125,0.639188436178297,4321.6201171875,1613.45678710938,206.225567326509,-14.40966796875,0.030161959784739,NaN,0.199987938897973,0.437457954928993,5000,1.14661777019501,1.14661777019501,1.14661777019501,2136.83115750551,4238.06159222168,6374.89274972719,,,46.1499998569489,2708.16333007812,25026.6738735605,25270.7654769903
2018-07-19T08:43:45Z,1531989825,870A,41.329009,43.5249799,4309.08,0.1,-3.4,175.3,573677.5,-145179.31,169.4,Weapon+Missile,Red,Allies,AIM-120B,,xu,,200.281376832543,164.142166137695,0.619157951046748,4309.08154296875,1681.78491210938,199.888504077898,-12.53857421875,0.0386331924133585,NaN,0.199987938897973,0.452843196158285,5000,1.15269494056702,1.15269494056702,1.15269494056702,2005.63149529696,4225.76545133545,6231.3969466324,,,47.1499998569489,2627.29663085938,25225.9065890059,25470.5268876668
2018-07-19T08:43:46Z,1531989826,870A,41.329212,43.523244,4298.36,0,-2.9,175.1,573713.38,-145370.53,169.3,Weapon+Missile,Red,Allies,AIM-120B,,xu,,194.849933651567,159.627105712891,0.602286469581355,4298.36376953125,1743.18481445312,194.554943336227,-10.7177734375,0.0359021484933591,NaN,0.199987938897973,0.474472430908158,5000,1.1532723903656,1.1532723903656,1.1532723903656,1898.324832201,4215.25490604736,6113.57973824837,,,48.1499998569489,2555.17895507812,25419.8333482488,25664.8802464279
2018-07-19T08:43:47Z,1531989827,870A,41.3294152,43.5215555,4289.42,0,-2.5,175,573748.75,-145556.48,169.2,Weapon+Missile,Red,Allies,AIM-120B,,xu,,189.499202460495,155.173721313477,0.585681907136898,4289.419921875,1789.0244140625,189.288022130999,-8.94384765625,0.0404378137432058,NaN,0,0.492780966421789,5000,1.15034127235413,1.15034127235413,1.15034127235413,1795.49738665819,4206.48398768555,6001.98137434374,,,49.1499998569489,2500.3955078125,25608.5135707019,25853.8992097279
2018-07-19T08:43:48Z,1531989828,870A,41.3296175,43.5199195,4282.21,-0.1,-2,174.8,573783.44,-145736.64,169,Weapon+Missile,Red,Allies,AIM-120B,,xu,,183.606979337608,150.258331298828,0.567419901051542,4282.20703125,1793.24438476562,183.465247581967,-7.212890625,0.0499090390655154,NaN,0,0.461192408727538,5000,1.14555883407593,1.14555883407593,1.14555883407593,1685.57614307404,4199.41055830078,5884.98670137482,,,50.1499998569489,2488.96264648438,25791.3672241137,26037.0178423729
2018-07-19T08:43:49Z,1531989829,870A,41.3298187,43.5183323,4276.61,-0.1,-1.6,174.7,573817.5,-145911.34,168.9,Weapon+Missile,Red,Allies,AIM-120B,,xu,,178.080656916101,145.648193359375,0.550302968256451,4276.61376953125,1787.57543945312,177.992797020036,-5.59326171875,0.0134367329662771,NaN,0,0.434878357898123,5000,1.13913488388062,1.13913488388062,1.13913488388062,1585.6360183835,4193.92544229736,5779.56146068087,,,51.1499998569489,2489.03833007812,25968.7913746386,26214.6491178926
2018-07-19T08:43:50Z,1531989830,870A,41.3300173,43.5168013,4272.55,-0.2,-1.1,174.6,573850.69,-146079.84,168.8,Weapon+Missile,Red,Allies,AIM-120B,,xu,,171.785168836063,140.391098022461,0.530821862290958,4272.5537109375,1790.20288085938,171.737183382778,-4.06005859375,0.0264776012299434,NaN,0.138461594854498,0.474575524075943,5000,1.13428890705109,1.13428890705109,1.13428890705109,1475.50721160173,4189.94388493652,5665.45109653826,,,52.1499998569489,2482.35083007812,26139.9807115398,26386.0012914591
2018-07-19T08:43:51Z,1531989831,870A,41.3302136,43.5153198,4269.91,-0.2,-0.7,174.5,573883.19,-146242.86,168.7,Weapon+Missile,Red,Allies,AIM-120B,,xu,,166.244773249817,135.767974853516,0.513684946159961,4269.91162109375,1820.04052734375,166.223776861617,-2.64208984375,0.0229748409555167,NaN,0,0.455213591965397,5000,1.12502574920654,1.12502574920654,1.12502574920654,1381.86623164415,4187.3528798999,5569.21911154406,,,53.1499998569489,2449.87109375,26305.6527505544,26551.8053279029
2018-07-19T08:43:52Z,1531989832,870A,41.3304058,43.5138991,4268.58,-0.2,-0.2,174.4,573914.62,-146399.14,168.6,Weapon+Missile,Red,Allies,AIM-120B,,xu,,159.41746746335,130.071166992188,0.492580843900862,4268.576171875,1849.14282226562,159.411873798072,-1.33544921875,0.0502857965607835,NaN,0,0.431263640362453,5000,1.09984004497528,1.09984004497528,1.09984004497528,1270.69644662142,4186.0432515918,5456.73969821321,,,54.1499998569489,2419.43334960938,26464.5657922762,26710.8303464835
2018-07-19T08:43:53Z,1531989833,870A,41.3305951,43.5125246,4268.24,-0.1,-0.5,174.3,573945.38,-146550.33,168.5,Weapon+Missile,Red,Allies,AIM-120B,,xu,,154.283303757679,125.79296875,0.47671487866855,4268.23681640625,1881.560546875,154.282930540776,-0.33935546875,0.227034448724503,NaN,0.199987938897973,0.970591545565086,3908.04206701606,0.398052185773849,0.398052185773849,0.398052185773849,1190.16689091921,4185.71045756103,5375.87734848024,,,55.1499998569489,2386.67626953125,26618.3360275529,26864.7038628025
2018-07-19T08:43:54Z,1531989834,870A,41.3307783,43.5112029,4262.05,0.5,-4.3,174.3,573974.94,-146695.7,168.5,Weapon+Missile,Red,Allies,AIM-120B,,xu,,148.479308671251,121.002388000488,0.458745949781554,4262.05029296875,1899.7890625,148.350369164522,-6.1865234375,0.0406829358848782,NaN,0.584615527855255,3.07313967010581,2231.26989268355,0.00661595538258553,0.00661595538258553,0.00661595538258553,1102.30525517464,4179.6435505542,5281.94880572884,,,56.1499998569489,2362.26123046875,26766.2054690464,27012.8014586552
2018-07-19T08:43:55Z,1531989835,870A,41.3309559,43.5099228,4246.44,0.9,-8.1,174.3,574003.62,-146836.5,168.5,Weapon+Missile,Red,Allies,AIM-120B,,xu,,144.53527677298,117.819755554199,0.446473540728193,4246.43896484375,1888.45947265625,143.689709673364,-15.611328125,0.059917169505696,NaN,0.399999996901453,3.84619008532137,2143.47757757741,0.0169312600046396,0.0169312600046396,0.0169312600046396,1044.5223115921,4164.3340674585,5208.8563790506,,,57.1499998569489,2357.9794921875,26909.4341781995,27156.9734125409
2018-07-19T08:43:56Z,1531989836,870A,41.3311278,43.5086881,4221.84,1.3,-12.1,174.3,574031.44,-146972.3,168.4,Weapon+Missile,Red,Allies,AIM-120B,,xu,,140.781800118069,114.848121643066,0.434745794686282,4221.83837890625,1819.52294921875,138.615750966532,-24.6005859375,0.0678048126441593,NaN,0.369230848464192,3.92726485765624,2069.00179015007,0.0105272736400366,0.0105272736400366,0.0105272736400366,990.975762224197,4140.2091338501,5131.1848960743,,,58.1499998569489,2402.3154296875,27047.5698261945,27297.3728035993
2018-07-19T08:43:57Z,1531989837,870A,41.331295,43.5074938,4188.51,1.7,-16,174.2,574058.31,-147103.62,168.4,Weapon+Missile,Red,Allies,AIM-120B,,xu,,138.130874551154,112.839454650879,0.426382714742999,4188.509765625,1729.18115234375,134.04977449073,-33.32861328125,0.0643844234434174,NaN,0.400000210344865,3.89648204884064,2024.6276427617,0.0119901075959206,0.0119901075959206,0.0119901075959206,954.006925213337,4107.52492930664,5061.53185451998,,,59.1499998569489,2459.32861328125,27181.2071408127,27435.188932028
2018-07-19T08:43:58Z,1531989838,870A,41.3314585,43.5063348,4146.56,1.9,-19.8,174.2,574084.5,-147231.08,168.3,Weapon+Missile,Red,Allies,AIM-120B,,xu,,136.712069313094,111.900276184082,0.421783180543799,4146.55615234375,1644.51416015625,130.115657122868,-41.95361328125,0.0392197578204503,NaN,0.199999891729021,3.85414213306256,2037.00463997359,0.0222499705851078,0.0222499705851078,0.0222499705851078,934.509494793415,4066.38248913818,5000.8919839316,,,60.1499998569489,2502.0419921875,27310.9011105015,27571.5803540176
2018-07-19T08:43:59Z,1531989839,870A,41.3316185,43.5052147,4096.47,2.1,-23.7,174.1,574110,-147354.23,168.3,Weapon+Missile,Red,Allies,AIM-120B,,xu,,135.375797431408,111.071899414062,0.417400919792366,4096.46728515625,1575.18701171875,125.76848537715,-50.0888671875,0.0843712463302624,NaN,0.169230316404937,3.79729062661913,2062.51875839465,0.0188556648790836,0.0188556648790836,0.0188556648790836,916.330326509476,4017.26209019775,4933.59241670723,,,61.1499998569489,2521.2802734375,27436.251666728,27706.6431916079
2018-07-19T08:44:00Z,1531989840,870A,41.3317757,43.5041311,4038.49,2.3,-27.3,174,574134.81,-147473.36,168.2,Weapon+Missile,Red,Allies,AIM-120B,,xu,,134.787323790101,110.908660888672,0.415287919872505,4038.49145507812,1538.25512695312,121.681657538226,-57.975830078125,0.0360200224213263,NaN,0.16923074329176,3.70113052772864,2106.84002949912,0.0299973264336586,0.0299973264336586,0.0299973264336586,908.381132724881,3960.40722279419,4868.78835551907,,,62.1499998569489,2500.236328125,27557.5443316961,27841.1492422304
2018-07-19T08:44:01Z,1531989841,870A,41.3319308,43.5030815,3972.77,2.5,-30.9,173.8,574159.12,-147588.72,168,Weapon+Missile,Red,Allies,AIM-120B,,xu,,134.976321383185,111.43856048584,0.415532057127393,3972.76684570312,1505.1318359375,117.893524235391,-65.724609375,0.0299775347267938,NaN,0.199999891729021,3.59720108865726,2203.69276475354,0.0307584702968597,0.0307584702968597,0.0307584702968597,910.930366706848,3895.95339874146,4806.8837654483,,,63.1499998569489,2467.63500976562,27675.0564631177,27975.8569839332
2018-07-19T08:44:02Z,1531989842,870A,41.3320844,43.5020649,3899.59,2.6,-34.2,173.7,574182.94,-147700.42,167.9,Weapon+Missile,Red,Allies,AIM-120B,,xu,,135.643033044394,112.414756774902,0.41720717506296,3899.59301757812,1467.74267578125,114.21306094758,-73.173828125,0.520618354560671,NaN,0.0153542652541887,2.03875533163156,5000,0.661639869213104,0.661639869213104,0.661639869213104,919.951620674133,3824.19438658325,4744.14600725739,,,64.1499998569489,2431.85034179688,27788.9000767548,28111.2481913736
2018-07-19T08:44:03Z,1531989843,870A,41.3322406,43.5010529,3824.76,1.9,-32.6,173.6,574206.94,-147811.61,167.8,Weapon+Missile,Red,Allies,AIM-120B,,xu,,136.156269030803,113.275062561035,0.418399428340988,3824.7607421875,1424.77587890625,113.748231442295,-74.832275390625,0.0403017107446764,NaN,0.569255286185543,0.423364446546054,5000,1.20647644996643,1.20647644996643,1.20647644996643,926.926479819417,3750.80899323731,4677.73547305672,,,65.1499998569489,2399.98486328125,27902.2585874307,28247.1363383688
2018-07-19T08:44:04Z,1531989844,870A,41.3324029,43.5000165,3752.41,1.4,-31.2,173.5,574231.62,-147925.45,167.7,Weapon+Missile,Red,Allies,AIM-120B,,xu,,137.129167944611,114.515296936035,0.421013907839389,3752.41064453125,1383.50830078125,116.489793846124,-72.35009765625,0.0188705621492367,NaN,0.400030519309307,1.2892664010099,5000,1.14922749996185,1.14922749996185,1.14922749996185,940.220435059071,3679.85778471924,4620.07821977831,,,66.1499998569489,2368.90234375,28018.3775950464,28384.0092127666
2018-07-19T08:44:05Z,1531989845,870A,41.3325695,43.4989635,3682.29,0.9,-30.2,173.5,574256.94,-148041.08,167.6,Weapon+Missile,Red,Allies,AIM-120B,,xu,,137.572704514056,115.297988891602,0.422011839269432,3682.29370117188,1351.49536132812,118.363268294053,-70.116943359375,0.0491518169019365,NaN,0.369212705774209,1.08173505178218,5000,1.09114706516266,1.09114706516266,1.09114706516266,946.31245136559,3611.09655245972,4557.40900382531,,,67.1499998569489,2330.79833984375,28136.3619871227,28521.3151978081
2018-07-19T08:44:06Z,1531989846,870A,41.3327386,43.4979022,3614.19,0.7,-29.3,173.4,574282.5,-148157.64,167.6,Weapon+Missile,Red,Allies,AIM-120B,,xu,,137.400190014583,115.546760559082,0.421130597089874,3614.18676757812,1322.29638671875,119.33255135335,-68.10693359375,0.00203275347375441,NaN,0.199987938897973,0.83587743004825,5000,1.04424738883972,1.04424738883972,1.04424738883972,943.940610802174,3544.306466427,4488.24707722918,,,68.1499998569489,2291.89038085938,28255.3000738895,28658.431975069
2018-07-19T08:44:07Z,1531989847,870A,41.3329097,43.4968344,3547.61,0.5,-28.8,173.4,574308.31,-148274.89,167.6,Weapon+Missile,Red,Allies,AIM-120B,,xu,,137.281469288257,115.831939697266,0.420423736047737,3547.61083984375,1294.1376953125,120.057684703021,-66.575927734375,0.0612804671425041,NaN,0.184633673643785,0.619455255594432,5000,1.0033495426178,1.0033495426178,1.0033495426178,942.310090497136,3479.01778425537,4421.32787475251,,,69.1499998569489,2253.47314453125,28374.9639328451,28795.427875111
2018-07-19T08:44:08Z,1531989848,870A,41.3330828,43.4957601,3482.04,0.3,-28.3,173.3,574334.38,-148392.86,167.5,Weapon+Missile,Red,Allies,AIM-120B,,xu,,137.46057543131,116.367599487305,0.42063482178023,3482.0400390625,1261.01586914062,120.813409366728,-65.57080078125,0.0517068020163094,NaN,0.199987938897973,0.44850127691942,5000,0.975228428840637,0.975228428840637,0.975228428840637,944.770489895344,3414.71479490723,4359.48528480257,,,70.1499998569489,2221.02416992188,28495.3690432072,28932.5880121354
2018-07-19T08:44:09Z,1531989849,870A,41.3332568,43.4946844,3417.45,0.2,-28,173.3,574360.5,-148510.95,167.5,Weapon+Missile,Red,Allies,AIM-120B,,xu,,137.115365596654,116.447052001953,0.41924770785846,3417.44921875,1234.13671875,120.948953753484,-64.5908203125,0.0320846418020733,NaN,0.107698422832761,0.303581418039557,5000,0.948174774646759,0.948174774646759,0.948174774646759,940.031174135208,3351.37283810547,4291.40401224068,,,71.1499998569489,2183.3125,28615.9295709874,29069.4183527227
2018-07-19T08:44:10Z,1531989850,870A,41.333432,43.4936057,3353.39,0.1,-27.7,173.3,574386.75,-148629.39,167.5,Weapon+Missile,Red,Allies,AIM-120B,,xu,,137.186373870894,116.881614685059,0.419137390184272,3353.38989257812,1212.3173828125,121.311598399535,-64.059326171875,0.0285493069838278,NaN,0.199987938897973,0.242485749439763,5000,0.931581854820251,0.931581854820251,0.931581854820251,941.005058792234,3288.55209900513,4229.55715779736,,,72.1499998569489,2141.07250976562,28736.8455124657,29206.3116949701
2018-07-19T08:44:11Z,1531989851,870A,41.3336067,43.4925342,3290.26,0.1,-27.5,173.3,574412.88,-148747.03,167.5,Weapon+Missile,Red,Allies,AIM-120B,,xu,,136.039070576082,116.256629943848,0.415312883569848,3290.2646484375,1185.12426757812,120.506565279202,-63.125244140625,0.0446692618693153,NaN,0,0.227282388677549,5000,0.921774983406067,0.921774983406067,0.921774983406067,925.331436160207,3226.64738145996,4151.97881762017,,,73.1499998569489,2105.14038085938,28856.9568886338,29342.056198961
2018-07-19T08:44:12Z,1531989852,870A,41.3337826,43.49146,3227.37,0,-27.3,173.2,574439.12,-148864.95,167.4,Weapon+Missile,Red,Allies,AIM-120B,,xu,,136.200132182417,116.761367797852,0.415486885135437,3227.369140625,1139.54370117188,120.808241041394,-62.8955078125,0.105789441067138,NaN,0.199987938897973,0.0827554991286935,5000,0.908600270748138,0.908600270748138,0.908600270748138,927.523800325394,3164.96795829102,4092.49175861641,,,74.1499998569489,2087.82543945312,28977.3806979679,29477.9700010892
2018-07-19T08:44:13Z,1531989853,870A,41.3339585,43.4903897,3164.92,0,-27.4,173.2,574465.31,-148982.45,167.4,Weapon+Missile,Red,Allies,AIM-120B,,xu,,135.618011386843,116.617645263672,0.413397694010027,3164.91748046875,1070.98193359375,120.382869031478,-62.45166015625,0,NaN,0.153870501622047,0.119105545777983,5000,0.909316658973694,0.909316658973694,0.909316658973694,919.612250626087,3103.72380098389,4023.33605160997,,,75.1499998569489,2093.935546875,29097.3687268996,29613.2909884667
2018-07-19T08:44:14Z,1531989854,870A,41.3341351,43.48932,3102.73,0,-27.4,173.2,574491.62,-149099.86,167.4,Weapon+Missile,Red,Allies,AIM-120B,,xu,,135.437378290726,116.820770263672,0.412536153367862,3102.73461914062,979.925048828125,120.318640265391,-62.182861328125,0.0291912964842554,NaN,0,0.0692382079156944,5000,0.889656364917755,0.889656364917755,0.889656364917755,917.164171913266,3042.74324527954,3959.90741719281,,,76.1499998569489,2122.8095703125,29217.2900475837,29748.4278334647
2018-07-19T08:44:15Z,1531989855,870A,41.3343118,43.4882533,3040.74,0,-27.3,173.2,574517.88,-149216.94,167.3,Weapon+Missile,Red,Allies,AIM-120B,,xu,,135.053028938797,116.843811035156,0.411057048590826,3040.74291992188,884.67333984375,119.984790092393,-61.99169921875,0.0319735683483825,NaN,0,0.0453270429826955,5000,0.903394222259521,0.903394222259521,0.903394222259521,911.96603127718,2981.95015556519,3893.91618684237,,,77.1499998569489,2156.06958007812,29336.8898362643,29883.1900736719
2018-07-19T08:44:16Z,1531989856,870A,41.334489,43.4871897,2979.07,0,-27.4,173.1,574544.12,-149333.7,167.3,Weapon+Missile,Red,Allies,AIM-120B,,xu,,134.637312026145,116.836135864258,0.409486548949799,2979.06689453125,763.310546875,119.679880020163,-61.676025390625,0.0798551842898268,NaN,0,0.0827554991286935,5000,0.877077341079712,0.877077341079712,0.877077341079712,906.360289481282,2921.46663612549,3827.82692560677,,,78.1499998569489,2215.75634765625,29456.1588124001,30017.5122604453
2018-07-19T08:44:17Z,1531989857,870A,41.3346663,43.4861291,2917.46,0,-27.4,173.1,574570.38,-149450.09,167.3,Weapon+Missile,Red,Allies,AIM-120B,,xu,,134.281178301072,116.879249572754,0.408100027221854,2917.45849609375,642.163818359375,119.314039776929,-61.6083984375,0.101220122728192,NaN,0,0.0242283218322616,5000,0.895096302032471,0.895096302032471,0.895096302032471,901.571742296219,2861.04943607178,3762.621178368,,,79.1499998569489,2275.29467773438,29575.0850782063,30151.4978192426
2018-07-19T08:44:18Z,1531989858,870A,41.3348435,43.4850753,2856.32,0.2,-27.8,173.1,574596.5,-149565.73,167.2,Weapon+Missile,Red,Allies,AIM-120B,,xu,,133.390061291382,116.445877075195,0.405093403896598,2856.322265625,523.8876953125,118.554923033127,-61.13623046875,0.225882725594491,NaN,0.307692338146258,1.19704134485498,3303.1292729525,0.336739182472229,0.336739182472229,0.336739182472229,889.645422565937,2801.09527461914,3690.74069718508,,,80.1499998569489,2332.4345703125,29693.2636366163,30284.6009973428
2018-07-19T08:44:19Z,1531989859,870A,41.3350173,43.4840468,2790.6,0.7,-31.4,173,574622.06,-149678.59,167.2,Weapon+Missile,Red,Allies,AIM-120B,,xu,,133.07706668402,116.546882629395,0.40382360208908,2790.6044921875,409.556884765625,115.718105461681,-65.7177734375,0.0281719847231573,NaN,0.56923068683236,2.9811327531175,2141.88162898617,0.0158985070884228,0.0158985070884228,0.0158985070884228,885.47528386116,2736.64815433105,3622.12343819221,,,81.1499998569489,2381.04760742188,29808.6118338442,30417.4009025053
2018-07-19T08:44:20Z,1531989860,870A,41.3351866,43.4830536,2717.6,1.2,-35,172.9,574646.88,-149787.58,167.1,Weapon+Missile,Red,Allies,AIM-120B,,xu,,133.505088774351,117.347206115723,0.404767497911401,2717.59521484375,290.842529296875,111.773226447082,-73.00927734375,0.0545591386212213,NaN,0.569230953636625,3.50793798672459,2231.70390494126,0.0223350673913956,0.0223350673913956,0.0223350673913956,891.180436432362,2665.05051136475,3556.23094779711,,,82.1499998569489,2426.75268554688,29920.0187056461,30550.6396604525
2018-07-19T08:44:21Z,1531989861,870A,41.3353525,43.482094,2637.43,1.6,-38.2,172.8,574671.06,-149892.86,167,Weapon+Missile,Red,Allies,AIM-120B,,xu,,134.51861567368,118.713859558105,0.407448763259342,2637.43237304688,161.1181640625,108.023963812723,-80.162841796875,0.016736855869903,NaN,0.369230848464192,3.32840923915516,2372.01910898599,0.0242115743458271,0.0242115743458271,0.0242115743458271,904.762898138165,2586.43761811401,3491.20051625218,,,83.1499998569489,2476.31420898438,30027.6728965894,30684.8977643172
2018-07-19T08:44:22Z,1531989862,870A,41.3355146,43.4811729,2550.95,1.9,-41.4,172.7,574694.5,-149993.88,166.9,Weapon+Missile,Red,Allies,AIM-120B,,xu,,135.026573197273,119.673118591309,0.408564553853416,2550.95288085938,26.45947265625,103.698953227073,-86.4794921875,0.0618591141815652,NaN,0.399999783458042,3.18289013789733,2434.46273596263,0.0320777483284473,0.0320777483284473,0.0320777483284473,911.608773469925,2501.63020690796,3413.23898037788,,,84.1499998569489,2524.49340820312,30131.0444768885,30819.7053322412
