ISOTime,UnixTime,Id,Longitude,Latitude,Altitude,Roll,Pitch,Yaw,U,V,Heading,Type,Color,Coalition,Name,Group,Country,Pilot,TAS,CAS,M,ASL,AGL,GS,VS,AOA,AOS,RRT,TRT,TRD,G,LatG,LonG,Ek,Ep,Em,FFW,FFV,RelativeTime,Elev,GroundDistance,AirDistance
2018-07-19T08:47:15Z,1531990035,CD0C,41.3603461,43.7270645,4437.04,25.2,4.5,161.7,573934.38,-122469.09,155.9,Weapon+Missile,Red,Allies,AIM-120B,,xu,,224.563923884139,183.709228515625,0.695336526059914,4437.04296875,2803.07092285156,NaN,NaN,6.91625973267059,NaN,5.69233429580199,3.48213749823973,NaN,NaN,NaN,NaN,NaN,4351.25274294922,NaN,,,0.819999933242798,1633.97204589844,NaN,NaN
2018-07-19T08:47:16Z,1531990036,CD0C,41.3617154,43.7246203,4433.58,20.7,4.1,158.6,574072.31,-122729.45,152.8,Weapon+Missile,Red,Allies,AIM-120B,,xu,,294.668997087225,244.640060424805,0.912369346062948,4433.580078125,2797.37182617188,294.648648788536,-3.462890625,3.0475914362322,NaN,4.01538625078046,1.64742615315974,4264.19657408832,2.87368774414062,2.87368774414062,2.87368774414062,4341.49089221954,4347.85680731445,8689.347699534,,,1.8199999332428,1636.20825195312,293.54171419703,293.766251870176
2018-07-19T08:47:17Z,1531990037,CD0C,41.3637004,43.7210541,4458.22,17,3.9,158.2,574272.5,-123109.46,152.4,Weapon+Missile,Red,Allies,AIM-120B,,xu,,430.218843658885,362.184967041016,1.33247661870993,4458.22314453125,2868.05334472656,429.512482609394,24.64306640625,0.0448601567379673,NaN,3.50771195015175,1.23842983662603,5000,1.47975993156433,1.47975993156433,1.47975993156433,9254.4126719594,4372.02340003174,13626.4360719911,,,2.8199999332428,1590.16979980469,721.448646418811,722.679971998136
2018-07-19T08:47:18Z,1531990038,CD0C,41.3662964,43.7163607,4496.81,13.9,3.9,158.2,574534.69,-123609.68,152.3,Weapon+Missile,Red,Allies,AIM-120B,,xu,,566.0827956224,467.205932617188,1.75412273814023,4496.80615234375,2966.27478027344,564.766396847239,38.5830078125,0.0414922590461308,NaN,2.87693031992273,0.111905886062555,5000,0.952348351478577,0.952348351478577,0.952348351478577,16022.4865749836,4409.86040538818,20432.3469803718,,,3.8199999332428,1530.53137207031,1284.11402154405,1287.06072176028
2018-07-19T08:47:19Z,1531990039,CD0C,41.3695383,43.7105005,4544.52,11.5,3.9,158.2,574862.19,-124234.25,152.3,Weapon+Missile,Red,Allies,AIM-120B,,xu,,706.838627402423,572.65771484375,2.19159393147565,4544.51904296875,3125.49084472656,705.226435449174,47.712890625,0.0483589276315879,NaN,2.30767503373719,0.0504352774299245,5000,0.951140284538269,0.951140284538269,0.951140284538269,24981.042259407,4456.65076727295,29437.69302668,,,4.8199999332428,1419.02819824219,1986.68475449496,1991.74654759718
2018-07-19T08:47:20Z,1531990040,CD0C,41.3732275,43.7038505,4598.25,9.4,3.8,158.1,575234.69,-124942.91,152.2,Weapon+Missile,Red,Allies,AIM-120B,,xu,,802.394181007702,643.414978027344,2.4895479229921,4598.2451171875,3335.79797363281,800.593486523631,53.72607421875,0.0229151527754724,NaN,1.90769915594124,0.164918999615204,5000,0.888792991638184,0.888792991638184,0.888792991638184,32191.8210857511,4509.33804784668,36701.1591335977,,,5.8199999332428,1262.44714355469,2784.27007937204,2791.70970230948
2018-07-19T08:47:21Z,1531990041,CD0C,41.3772014,43.696772,4653.69,7.8,3.6,157.7,575635,-125696.82,151.8,Weapon+Missile,Red,Allies,AIM-120B,,xu,,855.400706747096,681.782775878906,2.65585892740573,4653.6875,3169.146484375,853.602080182273,55.4423828125,0.0358359365080942,NaN,1.41537912056672,0.4237109452443,5000,0.830398261547089,0.830398261547089,0.830398261547089,36585.5184551716,4563.7084521875,41149.2269073591,,,6.8199999332428,1484.541015625,3634.67013356673,3644.53061773847
2018-07-19T08:47:22Z,1531990042,CD0C,41.3814929,43.6892951,4706.75,6.6,3.1,157.2,576065.56,-126492.4,151.3,Weapon+Missile,Red,Allies,AIM-120B,,xu,,906.170127575447,718.3916015625,2.81536834165628,4706.75048828125,3388.53271484375,904.615177511833,53.06298828125,0.0353771765031133,NaN,1.13845593085773,0.685225334907454,5000,0.849931955337524,0.849931955337524,0.849931955337524,41057.2150055051,4615.74546759033,45672.9604730954,,,7.8199999332428,1318.2177734375,4535.83502572294,4547.91652716477
2018-07-19T08:47:23Z,1531990043,CD0C,41.3861301,43.6814139,4752.26,5.6,2.3,156.7,576528.62,-127330.02,150.8,Weapon+Missile,Red,Allies,AIM-120B,,xu,,958.182615666689,756.077453613281,2.97867338849082,4752.26318359375,3358.17175292969,957.101102042647,45.5126953125,0.0263826030164235,NaN,0.969231163981489,0.915172671300072,5000,1.05169856548309,1.05169856548309,1.05169856548309,45905.6962482929,4660.37817493896,50566.0744232319,,,8.8199999332428,1394.09143066406,5489.27305686565,5503.14641078809
2018-07-19T08:47:24Z,1531990044,CD0C,41.3908755,43.6735628,4783.83,4.9,1.3,156,577000.12,-128163.4,150.1,Weapon+Missile,Red,Allies,AIM-120B,,xu,,958.03042812258,754.802795410156,2.97938636583548,4783.8251953125,3404.66003417969,957.510386693011,31.56201171875,0.0375486403814065,NaN,0.569255286185543,1.17763080100745,5000,1.40392732620239,1.40392732620239,1.40392732620239,45891.1150604367,4691.32993516113,50582.4449955979,,,9.8199999332428,1379.16516113281,6443.11420828866,6458.22226739074
2018-07-19T08:47:25Z,1531990045,CD0C,41.395489,43.6661746,4796.66,4.5,0.2,155.3,577455.88,-128946.41,149.4,Weapon+Missile,Red,Allies,AIM-120B,,xu,,906.082932325065,715.228149414062,2.81829101617951,4796.66064453125,3503.48217773438,905.99201513818,12.83544921875,0.0576306651738365,NaN,0.399975877795947,1.41772571743344,5000,1.75556969642639,1.75556969642639,1.75556969642639,41049.3140125394,4703.91721096924,45753.2312235086,,,10.8199999332428,1293.17846679688,7345.56834172489,7361.4453860376
2018-07-19T08:47:26Z,1531990046,CD0C,41.3999991,43.65923,4788.59,4.4,-1.6,154.1,577898.38,-129680.96,148.3,Weapon+Missile,Red,Allies,AIM-120B,,xu,,857.572422594891,679.064270019531,2.66713169342047,4788.59228515625,3476.6025390625,857.534466696392,-8.068359375,0.070203807501153,NaN,0,2.00492753910661,5000,2.80683469772339,2.80683469772339,2.80683469772339,36771.5229997635,4696.00485332275,41467.5278530862,,,11.8199999332428,1311.98974609375,8199.70077194252,8216.25770245371
2018-07-19T08:47:27Z,1531990047,CD0C,41.4044871,43.6527102,4752.05,4.5,-3.7,152.8,578334.25,-130368.48,146.9,Weapon+Missile,Red,Allies,AIM-120B,,xu,,814.868628247449,648.170227050781,2.53315068777716,4752.04931640625,3303.138671875,814.048826997998,-36.54296875,0.0338563001437386,NaN,0.199999891729021,2.48683153599686,5000,2.68131852149963,2.68131852149963,2.68131852149963,33200.544065094,4660.16844287354,37860.7125079675,,,12.8199999332428,1448.91064453125,9010.51733390008,9028.50313989169
2018-07-19T08:47:28Z,1531990048,CD0C,41.4089197,43.646605,4688.65,4.6,-5.8,151.8,578761.06,-131010.36,145.9,Weapon+Missile,Red,Allies,AIM-120B,,xu,,773.42903276606,618.924377441406,2.40240892414778,4688.6455078125,3122.96911621094,770.825807677227,-63.40380859375,0.076285549134166,NaN,0.107692446417237,2.28441631862259,5000,1.88391399383545,1.88391399383545,1.88391399383545,29909.6234362721,4597.99054691895,34507.6139831911,,,13.8199999332428,1565.67639160156,9778.21684558436,9799.38267636319
2018-07-19T08:47:29Z,1531990049,CD0C,41.4132123,43.6408614,4603.5,4.5,-7.5,151.5,579172.62,-131613.2,145.6,Weapon+Missile,Red,Allies,AIM-120B,,xu,,734.88368863444,592.274841308594,2.28023705114556,4603.5,3080.55895996094,729.934434261265,-85.1455078125,0.0492952239664786,NaN,0.199987938897973,1.78788493801623,5000,1.01323008537292,1.01323008537292,1.01323008537292,27002.701791048,4514.4913275,31517.193118548,,,14.8199999332428,1522.94104003906,10505.1117224196,10531.7732672373
2018-07-19T08:47:30Z,1531990050,CD0C,41.4172773,43.6353897,4503.34,4.2,-8.8,152.1,579562.75,-132187.69,146.2,Weapon+Missile,Red,Allies,AIM-120B,,xu,,701.61334278706,569.760864257812,2.17426980492314,4503.3427734375,2972.32397460938,694.427687195824,-100.1572265625,0.0473938353652461,NaN,0.369212705774209,1.31530649722057,5000,1.12473022937775,1.12473022937775,1.12473022937775,24613.0641388416,4416.27064091309,29029.3347797547,,,15.8199999332428,1531.01879882812,11196.6755339997,11231.0408054506
2018-07-19T08:47:31Z,1531990051,CD0C,41.4210137,43.6301563,4398.34,3.6,-9.2,153.4,579923.69,-132738.41,147.5,Weapon+Missile,Red,Allies,AIM-120B,,xu,,666.777877777099,545.90869140625,2.06360248852524,4398.33935546875,2625.697265625,658.458062831501,-105.00341796875,0.02132990805179,NaN,0.769243225083516,1.33238399785802,5000,2.02859830856323,2.02859830856323,2.02859830856323,22229.6369146466,4313.29746403076,26542.9343786774,,,16.8199999332428,1772.64208984375,11852.4433574223,11895.6140077046
2018-07-19T08:47:32Z,1531990052,CD0C,41.4243706,43.6251181,4298.17,2.8,-9,155.2,580251.81,-133270.55,149.3,Weapon+Missile,Red,Allies,AIM-120B,,xu,,633.146395722065,522.565856933594,1.95706798589166,4298.166015625,2287.84216308594,625.1717047343,-100.17333984375,0.0609577954686769,NaN,0.769243225083516,1.98327349156014,5000,2.80006742477417,2.80006742477417,2.80006742477417,20043.7179207921,4215.06097571289,24258.778896505,,,17.8199999332428,2010.32385253906,12475.1093520972,12526.705491229
2018-07-19T08:47:33Z,1531990053,CD0C,41.4272943,43.6202221,4203.88,2.1,-8.9,158.2,580543.38,-133790.42,152.3,Weapon+Missile,Red,Allies,AIM-120B,,xu,,603.463362121314,501.840850830078,1.86312831542479,4203.8828125,2004.43872070312,596.052604248358,-94.283203125,0.0450918008285101,NaN,0.769243225083516,2.75098013752381,5000,3.45107555389404,3.45107555389404,3.45107555389404,18208.401471138,4122.60073832031,22331.0022094583,,,18.8199999332428,2199.44409179688,13068.8758342482,13128.3017632775
2018-07-19T08:47:34Z,1531990054,CD0C,41.4296973,43.6155037,4116.92,1.6,-8.7,161.4,580790.94,-134294.88,155.5,Weapon+Missile,Red,Allies,AIM-120B,,xu,,568.615384434825,476.689544677734,1.75364295370367,4116.91552734375,1690.02563476562,561.925392493092,-86.96728515625,0.0282841348472727,NaN,0.569255286185543,3.26483341147386,5000,3.56103563308716,3.56103563308716,3.56103563308716,16166.1727707982,4037.31496562256,20203.4877364208,,,19.8199999332428,2426.88989257812,13628.6855599036,13695.1872981814
2018-07-19T08:47:35Z,1531990055,CD0C,41.4315958,43.6109607,4038.01,1,-8.2,165.1,580995.88,-134784,159.2,Weapon+Missile,Red,Allies,AIM-120B,,xu,,536.160884501247,452.909790039062,1.65193438295209,4038.01147460938,1490.86108398438,530.323151042126,-78.904052734375,0.117496974219903,NaN,0.569255286185543,3.45449367745995,5000,3.57132792472839,3.57132792472839,3.57132792472839,14373.424703458,3959.9365227478,18333.3612262058,,,20.8199999332428,2547.150390625,14157.0501889718,14229.7451375478
2018-07-19T08:47:36Z,1531990056,CD0C,41.4330365,43.6065896,3969.81,0.5,-7.1,168,581161.81,-135257.8,162.2,Weapon+Missile,Red,Allies,AIM-120B,,xu,,506.62586412802,430.890106201172,1.55961871798769,3969.81298828125,1493.06201171875,502.014673755674,-68.198486328125,0.101732849930921,NaN,0.400030519309307,3.10201450826545,5000,3.07948040962219,3.07948040962219,3.07948040962219,12833.4883101732,3893.05665415283,16726.544964326,,,21.8199999332428,2476.7509765625,14657.3048936954,14734.9382684328
2018-07-19T08:47:37Z,1531990057,CD0C,41.4341534,43.6024017,3916.52,0,-5.6,170.2,581299.62,-135713.91,164.3,Weapon+Missile,Red,Allies,AIM-120B,,xu,,479.446142964886,410.148254394531,1.47497566892893,3916.51611328125,1605.79760742188,476.474602806005,-53.296875,0.0373746566353485,NaN,0.461556863352782,2.64087706121639,5000,2.83068180084229,2.83068180084229,2.83068180084229,11493.4302001953,3840.79027423096,15334.2204744263,,,22.8199999332428,2310.71850585938,15132.1127138343,15213.0197053606
2018-07-19T08:47:38Z,1531990058,CD0C,41.4350129,43.5984418,3878.82,-0.3,-4.2,172,581414,-136146.81,166.1,Weapon+Missile,Red,Allies,AIM-120B,,xu,,449.344081989699,386.405181884766,1.38172617199487,3878.82470703125,1605.56298828125,447.760496151751,-37.69140625,0.13574114103867,NaN,0.200042580411333,2.03743411691399,5000,1.92317068576813,1.92317068576813,1.92317068576813,10095.5052009583,3803.8276313208,13899.3328322791,,,23.8199999332428,2273.26171875,15578.3394264469,15661.1071491729
2018-07-19T08:47:39Z,1531990059,CD0C,41.4356966,43.5946704,3848.23,-0.3,-3.9,172.8,581512.06,-136560.22,166.9,Weapon+Missile,Red,Allies,AIM-120B,,xu,,425.977563134601,367.598724365234,1.30938032003986,3848.23217773438,1705.88403320312,424.87760760637,-30.592529296875,0.06657315722767,NaN,0,0.993804903954726,5000,1.30708122253418,1.30708122253418,1.30708122253418,9072.84421470463,3773.82660857788,12846.6708232825,,,24.8199999332428,2142.34814453125,16001.7700570174,16085.8973091798
2018-07-19T08:47:40Z,1531990060,CD0C,41.4363219,43.5910851,3821.96,-0.3,-3.5,172.9,581603.31,-136953.45,167,Weapon+Missile,Red,Allies,AIM-120B,,xu,,404.536758020607,349.904235839844,1.24307247401935,3821.96142578125,1804.47045898438,403.682841079034,-26.270751953125,0.0344558927494357,NaN,0,0.421279424580202,5000,1.20450830459595,1.20450830459595,1.20450830459595,8182.49942949116,3748.06380161377,11930.5632311049,,,25.8199999332428,2017.49096679688,16404.0539574729,16489.2794643932
2018-07-19T08:47:41Z,1531990061,CD0C,41.4368986,43.5877046,3799.11,-0.3,-3.3,173.1,581688.31,-137324.3,167.2,Weapon+Missile,Red,Allies,AIM-120B,,xu,,381.146141590712,329.939270019531,1.17086743758226,3799.10766601562,1799.44677734375,380.460361817184,-22.853759765625,0.038501534068704,NaN,0,0.360725101832984,5000,1.19833862781525,1.19833862781525,1.19833862781525,7263.61906247437,3725.65191929321,10989.2709817676,,,26.8199999332428,1999.66088867188,16783.2355284988,16869.375250774
2018-07-19T08:47:42Z,1531990062,CD0C,41.437432,43.5844933,3779.26,-0.3,-3,173.3,581767.88,-137676.72,167.4,Weapon+Missile,Red,Allies,AIM-120B,,xu,,361.836010982025,312.985778808594,1.11127582152819,3779.26000976562,1868.63000488281,361.291252848399,-19.84765625,0.0198714160227956,NaN,0,0.376647259964062,5000,1.18844544887543,1.18844544887543,1.18844544887543,6546.26494216919,3706.18801747681,10252.452959646,,,27.8199999332428,1910.63000488281,17143.2948324929,17230.1947573541
2018-07-19T08:47:43Z,1531990063,CD0C,41.4379201,43.581462,3762.28,-0.3,-2.8,173.5,581841.75,-138009.5,167.6,Weapon+Missile,Red,Allies,AIM-120B,,xu,,341.305293698228,294.541809082031,1.04800254606213,3762.27685546875,1864.47326660156,340.882495849468,-16.983154296875,0.0288180308341524,NaN,0,0.250229823256809,5000,1.02910053730011,1.02910053730011,1.02910053730011,5824.4651753217,3689.53323246826,9513.99840778996,,,28.8199999332428,1897.80358886719,17483.0219946787,17570.546750524
2018-07-19T08:47:44Z,1531990064,CD0C,41.4383667,43.5785902,3746.39,-0.2,-2.9,173.7,581910.44,-138324.91,167.8,Weapon+Missile,Red,Allies,AIM-120B,,xu,,323.189683684757,278.179138183594,0.992183302188562,3746.38671875,1848.81262207031,322.798815356117,-15.89013671875,0.0566114857881463,NaN,0,0.253338386422384,5000,0.979945421218872,0.979945421218872,0.979945421218872,5222.57858201265,3673.95033154297,8896.52891355562,,,29.8199999332428,1897.57409667969,17804.7311633713,17892.8372454963
2018-07-19T08:47:45Z,1531990065,CD0C,41.4387731,43.5758717,3731.1,-0.2,-2.9,174,581974.19,-138623.64,168.1,Weapon+Missile,Red,Allies,AIM-120B,,xu,,305.843048132706,262.553192138672,0.938753143014074,3731.10009765625,1836.7734375,305.460781945311,-15.28662109375,0.044229759979639,NaN,0,0.255070319624659,5000,1.00499105453491,1.00499105453491,1.00499105453491,4676.99850455523,3658.95927726807,8335.95778182329,,,30.8199999332428,1894.32666015625,18109.1246482835,18197.7925405164
2018-07-19T08:47:46Z,1531990066,CD0C,41.4391454,43.5732698,3716.45,-0.1,-2.9,174.3,582033.81,-138909.67,168.4,Weapon+Missile,Red,Allies,AIM-120B,,xu,,292.547054898077,250.677276611328,0.897780752589098,3716.4453125,1817.95104980469,292.17976761159,-14.65478515625,0.0540022184639461,NaN,0.0153836804243447,0.0815647116757973,5000,1.07558786869049,1.07558786869049,1.07558786869049,4279.18896647692,3644.58784238281,7923.77680885973,,,31.8199999332428,1898.49426269531,18400.3247254968,18489.5309368521
2018-07-19T08:47:47Z,1531990067,CD0C,41.4395408,43.5707981,3702.71,-0.1,-2.8,170.7,582093.88,-139181.05,164.8,Weapon+Missile,Red,Allies,AIM-120B,,xu,,278.281394085534,237.977844238281,0.853857578250469,3702.71069335938,1838.89233398438,277.942250352929,-13.734619140625,0.123852730768319,NaN,0,3.40031448252929,2657.15528226613,3.05262422561646,3.05262422561646,3.05262422561646,3872.0267147094,3631.11878210327,7503.14549681267,,,32.8199999332428,1863.818359375,18677.3152473983,18767.0226687872
2018-07-19T08:47:48Z,1531990068,CD0C,41.440244,43.5685184,3690.18,0,-2.7,164.1,582176.62,-139428.55,158.2,Weapon+Missile,Red,Allies,AIM-120B,,xu,,261.267741003845,222.880065917969,0.801530789853955,3690.17993164062,1824.26232910156,260.967071677635,-12.53076171875,0.170410148471036,NaN,0.138453190520168,6.10938692718343,2880.64066681561,2.58887052536011,2.58887052536011,2.58887052536011,3413.0416244626,3618.83030266235,7031.87192712496,,,33.8199999332428,1865.91760253906,18937.3463035982,19027.5060016196
2018-07-19T08:47:49Z,1531990069,CD0C,41.4411757,43.5664157,3678.77,0,-2.6,161.8,582275.75,-139654.48,155.9,Weapon+Missile,Red,Allies,AIM-120B,,xu,,246.989079439709,210.292449951172,0.757619849425182,3678.7744140625,1798.20751953125,246.725595614338,-11.405517578125,0.0790188909455765,NaN,0,2.51019889380794,5000,1.00858080387115,1.00858080387115,1.00858080387115,3050.18026812375,3607.6453107666,6657.82557889035,,,34.8199999332428,1880.56689453125,19183.1856279234,19273.7516208553
2018-07-19T08:47:50Z,1531990070,CD0C,41.4420732,43.5643825,3667.84,0,-2.6,162.8,582371.38,-139872.98,156.9,Weapon+Missile,Red,Allies,AIM-120B,,xu,,238.759412208616,203.108825683594,0.732277635252511,3667.83520507812,1793.75830078125,238.508680397591,-10.939208984375,0.0252181809354576,NaN,0,0.718542784235364,5000,1.07852721214294,1.07852721214294,1.07852721214294,2850.30284591019,3596.91761138794,6447.22045729813,,,35.8199999332428,1874.07690429688,19420.8109123449,19511.7652769797
2018-07-19T08:47:51Z,1531990071,CD0C,41.4429012,43.5623915,3657.19,0,-2.6,163.7,582460.94,-140087.38,157.8,Weapon+Missile,Red,Allies,AIM-120B,,xu,,232.59012342737,197.758880615234,0.713263140439333,3657.18701171875,1782.86608886719,232.346253454065,-10.648193359375,0.00817189137348803,NaN,0,0.968269921577516,5000,1.0775545835495,1.0775545835495,1.0775545835495,2704.90827579796,3586.47530084717,6291.38357664513,,,36.8199999332428,1874.32092285156,19652.2948056926,19743.6267322763
2018-07-19T08:47:52Z,1531990072,CD0C,41.4436611,43.5604476,3646.86,0,-2.6,164.7,582544.38,-140297.09,158.8,Weapon+Missile,Red,Allies,AIM-120B,,xu,,225.943322998739,191.995361328125,0.692792219122709,3646.86157226562,1766.72448730469,225.707267290649,-10.325439453125,0.0497107640901013,NaN,0,0.956833089977447,5000,1.0623345375061,1.0623345375061,1.0623345375061,2552.51926038563,3576.34950376587,6128.8687641515,,,37.8199999332428,1880.13708496094,19877.2042864269,19968.9017494915
2018-07-19T08:47:53Z,1531990073,CD0C,41.444361,43.5585402,3636.77,0,-2.6,165.6,582622.62,-140503.23,159.7,Weapon+Missile,Red,Allies,AIM-120B,,xu,,220.723322992049,187.494491577148,0.67670279805514,3636.77368164062,1742.62170410156,220.492675105979,-10.087890625,0.0211456385325104,NaN,0,0.918214880245077,5000,1.05596768856049,1.05596768856049,1.05596768856049,2435.93926563263,3566.4566625061,6002.39592813873,,,38.8199999332428,1894.15197753906,20096.911121792,20188.9653741036
2018-07-19T08:47:54Z,1531990074,CD0C,41.4450019,43.5566777,3626.95,0,-2.6,166.4,582695.62,-140704.91,160.5,Weapon+Missile,Red,Allies,AIM-120B,,xu,,214.702036609505,182.294647216797,0.658163222487861,3626.95434570312,1688.58837890625,214.477376816334,-9.8193359375,0.0184507871674856,NaN,0,0.879959684394924,5000,1.04903757572174,1.04903757572174,1.04903757572174,2304.84822621346,3556.82718342895,5861.67540964241,,,39.8199999332428,1938.36596679688,20310.5963046456,20402.9975980243
2018-07-19T08:47:55Z,1531990075,CD0C,41.4455872,43.5548607,3617.38,0,-2.7,167.3,582763.56,-140901.95,161.4,Weapon+Missile,Red,Allies,AIM-120B,,xu,,208.649575108984,177.073867797852,0.639534485580078,3617.3798828125,1648.42199707031,208.429783988555,-9.574462890625,0.0548281755251675,NaN,0,0.819862237270157,5000,1.02550768852234,1.02550768852234,1.02550768852234,2176.73225965798,3547.43784277832,5724.1701024363,,,40.8199999332428,1968.95788574219,20518.3028499735,20611.0425312289
2018-07-19T08:47:56Z,1531990076,CD0C,41.4461213,43.553089,3607.91,0,-2.7,168.1,582826.88,-141094.41,162.2,Weapon+Missile,Red,Allies,AIM-120B,,xu,,202.821069097454,172.056640625,0.621597283467688,3607.90844726562,1629.10046386719,202.599797577677,-9.471435546875,0,NaN,0,0.74330792958792,5000,1.01191186904907,1.01191186904907,1.01191186904907,2056.81930349171,3538.14953743774,5594.96884092946,,,41.8199999332428,1978.80798339844,20720.1792767746,20813.2552409187
2018-07-19T08:47:57Z,1531990077,CD0C,41.4466146,43.5513546,3598.49,0,-2.8,168.6,582886.44,-141283.05,162.7,Weapon+Missile,Red,Allies,AIM-120B,,xu,,198.04443133485,167.96403503418,0.606888028750582,3598.49462890625,1644.50988769531,197.820567198258,-9.413818359375,0.0404206685776871,NaN,0,0.565884427747583,5000,0.958527863025665,0.958527863025665,0.958527863025665,1961.0798391372,3528.91773525635,5489.99757439354,,,42.8199999332428,1953.98474121094,20917.3110448013,21010.7228933733
2018-07-19T08:47:58Z,1531990078,CD0C,41.4470787,43.5496624,3588.83,0,-3,168.9,582943.19,-141467.23,163,Weapon+Missile,Red,Allies,AIM-120B,,xu,,192.973874591936,163.62158203125,0.591279808469198,3588.83447265625,1658.11071777344,192.731932113623,-9.66015625,0.0244286296077264,NaN,0,0.387782255899755,5000,0.898502588272095,0.898502588272095,0.898502588272095,1861.94581375122,3519.44435812744,5381.39017187866,,,43.8199999332428,1930.72375488281,21109.3718608451,21203.1345734555
2018-07-19T08:47:59Z,1531990079,CD0C,41.4475227,43.548017,3578.46,0.1,-3.4,169,582997.81,-141646.41,163.1,Weapon+Missile,Red,Allies,AIM-120B,,xu,,187.601033508148,159.026870727539,0.574744137403722,3578.45678710938,1629.57702636719,187.313777966319,-10.377685546875,0.0469741773067613,NaN,0,0.353464584064834,5000,0.856319844722748,0.856319844722748,0.856319844722748,1759.70738866627,3509.26732513062,5268.97471379689,,,44.8199999332428,1948.87976074219,21296.0021730158,21390.1578907251
2018-07-19T08:48:00Z,1531990080,CD0C,41.4479592,43.5464085,3566.93,0.2,-3.8,168.8,583051.38,-141821.52,162.9,Weapon+Missile,Red,Allies,AIM-120B,,xu,,183.480478884355,155.533599853516,0.562040856415634,3566.9306640625,1609.54016113281,183.118089273399,-11.526123046875,0,NaN,0.0769230578561381,0.496046170371025,5000,0.845426321029663,0.845426321029663,0.845426321029663,1683.25430658162,3497.96405967285,5181.21836625447,,,45.8199999332428,1957.39050292969,21478.5006731464,21573.12203116
2018-07-19T08:48:01Z,1531990081,CD0C,41.4483971,43.5448366,3554.13,0.3,-4.3,168.4,583104.62,-141992.56,162.5,Weapon+Missile,Red,Allies,AIM-120B,,xu,,179.601102360866,152.261138916016,0.550071239745251,3554.1259765625,1606.693359375,179.144064783809,-12.8046875,0,NaN,0.200000025131153,0.639735794787493,5000,0.863474130630493,0.863474130630493,0.863474130630493,1612.82779846191,3485.40695080566,5098.23474926758,,,46.8199999332428,1947.4326171875,21657.0067274443,21752.186146276
2018-07-19T08:48:02Z,1531990082,CD0C,41.4488431,43.5433023,3540.17,0.3,-4.8,167.8,583158.12,-142159.36,161.9,Weapon+Missile,Red,Allies,AIM-120B,,xu,,175.722051593367,148.998519897461,0.53809879963519,3540.16918945312,1637.96826171875,175.166913284917,-13.956787109375,0.0367796354505445,NaN,0,0.736431049671628,5000,0.884768605232239,0.884768605232239,0.884768605232239,1543.9119708091,3471.72001817505,5015.63198898415,,,47.8199999332428,1902.20092773438,21831.5572071355,21927.3904846709
2018-07-19T08:48:03Z,1531990083,CD0C,41.4493009,43.541813,3525.27,0.4,-5.2,167,583212.06,-142321.05,161.1,Weapon+Missile,Red,Allies,AIM-120B,,xu,,171.0964626625,145.096237182617,0.523838773660099,3525.27294921875,1704.60583496094,170.446770466618,-14.896240234375,0.0440388361169366,NaN,0,0.888700992511218,5000,0.890236854553223,0.890236854553223,0.890236854553223,1463.69997678101,3457.11179674561,4920.81177352662,,,48.8199999332428,1820.66711425781,22001.406952701,22097.9859142007
2018-07-19T08:48:04Z,1531990084,CD0C,41.449779,43.5403595,3509.28,0.5,-5.7,166.1,583267.25,-142478.61,160.2,Weapon+Missile,Red,Allies,AIM-120B,,xu,,167.711899846718,142.277160644531,0.51337599981208,3509.28295898438,1728.01733398438,166.947900743016,-15.989990234375,0.0226820692160844,NaN,0.20000005181158,1.11043870832574,5000,0.885152220726013,0.885152220726013,0.885152220726013,1406.36406750977,3441.43097297241,4847.79504048218,,,49.8199999332428,1781.265625,22167.7504537683,22265.1874884781
2018-07-19T08:48:05Z,1531990085,CD0C,41.4502827,43.5389467,3492.01,0.6,-6.4,164.9,583324.06,-142631.42,159,Weapon+Missile,Red,Allies,AIM-120B,,xu,,163.943890357422,139.134735107422,0.501735958432086,3492.01220703125,1728.32653808594,163.031654326698,-17.270751953125,0.0207000869474779,NaN,0.199999998450727,1.29290497084681,5000,0.888386845588684,0.888386845588684,0.888386845588684,1343.87995927632,3424.4941510083,4768.37411028462,,,50.8199999332428,1763.68566894531,22330.1851202135,22428.6263779149
2018-07-19T08:48:06Z,1531990086,CD0C,41.4508162,43.5375782,3473.38,0.7,-7.1,163.5,583382.75,-142779.08,157.6,Weapon+Missile,Red,Allies,AIM-120B,,xu,,159.980111465735,135.83073425293,0.489493720393262,3473.38305664062,1710.49682617188,158.891758188751,-18.629150390625,0.0615726295452767,NaN,0.199999998450727,1.51226353967435,5000,0.908255577087402,0.908255577087402,0.908255577087402,1279.68180322945,3406.22519524048,4685.90699846993,,,51.8199999332428,1762.88623046875,22488.494602668,22588.1140400809
2018-07-19T08:48:07Z,1531990087,CD0C,41.4513829,43.536254,3453.46,0.8,-7.7,161.9,583443.62,-142921.53,156,Weapon+Missile,Red,Allies,AIM-120B,,xu,,156.191462777535,132.686218261719,0.477785229320675,3453.45532226562,1687.30981445312,154.915003944956,-19.927734375,0.0593215491411863,NaN,0.199999998450727,1.65208402200857,5000,0.923027873039246,0.923027873039246,0.923027873039246,1219.78865222931,3386.68276360962,4606.47141583893,,,52.8199999332428,1766.1455078125,22642.8419564763,22743.8256318803
2018-07-19T08:48:08Z,1531990088,CD0C,41.4519849,43.5349733,3432.32,0.9,-8.2,160.3,583506.81,-143058.84,154.4,Weapon+Missile,Red,Allies,AIM-120B,,xu,,152.624224855492,129.738815307617,0.466752699273211,3432.318359375,1652.87585449219,151.153507443592,-21.136962890625,0.0499167300251714,NaN,0.199999998450727,1.69565294495043,5000,0.942188203334808,0.942188203334808,0.942188203334808,1164.70770063698,3365.95448389648,4530.66218453347,,,53.8199999332428,1779.44250488281,22793.4549908118,22895.9951217679
2018-07-19T08:48:09Z,1531990089,CD0C,41.4526219,43.5337358,3410.14,1,-8.8,158.7,583572.38,-143191.09,152.8,Weapon+Missile,Red,Allies,AIM-120B,,xu,,149.266746397986,126.976982116699,0.456361388568989,3410.13598632812,1613.62292480469,147.609294782713,-22.182373046875,0,NaN,0.200000105172432,1.7641548331272,4906.11097232832,0.923582077026367,0.923582077026367,0.923582077026367,1114.02807901204,3344.20100703247,4458.22908604451,,,54.8199999332428,1796.51306152344,22940.4939843193,23044.7759132188
2018-07-19T08:48:10Z,1531990090,CD0C,41.4532901,43.5325429,3386.86,1.4,-10.1,157.4,583639.94,-143318.11,151.5,Weapon+Missile,Red,Allies,AIM-120B,,xu,,145.737332605146,124.070320129395,0.445444276281643,3386.861328125,1576.6923828125,143.866814798933,-23.274658203125,0.106306572932442,NaN,0.738461483484973,2.04069958766749,2937.99208156484,0.309135526418686,0.309135526418686,0.309135526418686,1061.96850574315,3321.3763643457,4383.34487008885,,,55.8199999332428,1810.1689453125,23083.8168891049,23190.051723389
2018-07-19T08:48:11Z,1531990091,CD0C,41.4539473,43.5313998,3357.49,2.5,-13.9,157.3,583706.12,-143439.69,151.4,Weapon+Missile,Red,Allies,AIM-120B,,xu,,141.508508932737,120.592697143555,0.432364150839475,3357.49072265625,1530.87377929688,138.426968596317,-29.37060546875,0.032824134485048,NaN,1.03076946085601,3.33588381398468,2178.54155936178,0.0429880619049072,0.0429880619049072,0.0429880619049072,1001.23290501833,3292.57363953369,4293.80654455202,,,56.8199999332428,1826.61694335938,23221.6786968478,23331.0787171021
2018-07-19T08:48:12Z,1531990092,CD0C,41.4545837,43.5302965,3319.93,3.3,-17.6,157.2,583770.06,-143557.02,151.3,Weapon+Missile,Red,Allies,AIM-120B,,xu,,138.797157117254,118.470863342285,0.423885996348014,3319.9306640625,1471.7451171875,133.618459885847,-37.56005859375,0.0761840795940046,NaN,0.769230845365645,3.69743112651943,2151.58892275577,0.0570894367992878,0.0570894367992878,0.0570894367992878,963.232541191578,3255.73980467285,4218.97234586443,,,57.8199999332428,1848.185546875,23354.8014361983,23469.4657823047
2018-07-19T08:48:13Z,1531990093,CD0C,41.4552028,43.5292285,3274.34,4.1,-21.3,157.1,583832.31,-143670.56,151.2,Weapon+Missile,Red,Allies,AIM-120B,,xu,,137.280935598639,117.425407409668,0.419023041338104,3274.34448242188,1403.2490234375,129.491139937316,-45.586181640625,0,NaN,0.769230418478822,3.66774029419739,2153.60577716456,0.0521256886422634,0.0521256886422634,0.0521256886422634,942.302763941884,3211.03503185425,4153.33779579613,,,58.8199999332428,1871.09545898438,23483.7675165744,23606.3144219086
2018-07-19T08:48:14Z,1531990094,CD0C,41.4558058,43.5281956,3221.02,4.7,-24.9,156.9,583892.81,-143780.34,151,Weapon+Missile,Red,Allies,AIM-120B,,xu,,136.218342608276,116.814270019531,0.41551041326141,3221.02221679688,1325.94873046875,125.348206415419,-53.322265625,0.0743432316855577,NaN,0.569231380523448,3.5997363694998,2202.22622721404,0.0689854398369789,0.0689854398369789,0.0689854398369789,927.771843147278,3158.74375223511,4086.51559538239,,,59.8199999332428,1895.07348632812,23608.6226814811,23742.1376731953
2018-07-19T08:48:15Z,1531990095,CD0C,41.4563922,43.5272006,3160.51,5.2,-28.3,156.7,583951.56,-143886.05,150.8,Weapon+Missile,Red,Allies,AIM-120B,,xu,,135.228785601738,116.30411529541,0.412189193053979,3160.5068359375,1224.25695800781,120.932680176889,-60.515380859375,0.35977884577844,NaN,0.446157348095342,2.67017174256657,4288.97285651252,0.489298850297928,0.489298850297928,0.489298850297928,914.341222766042,3099.39843626465,4013.73965903069,,,60.8199999332428,1936.24987792969,23729.0764687812,23876.9922120782
2018-07-19T08:48:16Z,1531990096,CD0C,41.4569797,43.5262356,3097.06,4.4,-28.1,155.5,584010,-143988.41,149.6,Weapon+Missile,Red,Allies,AIM-120B,,xu,,133.857788685901,115.474159240723,0.407696785018352,3097.05981445312,1114.29821777344,117.865953763759,-63.447021484375,0.00836839396350904,NaN,0.938467991959752,1.10504990251402,5000,0.996315777301788,0.996315777301788,0.996315777301788,895.895379593968,3037.17816294067,3933.07354253464,,,61.8199999332428,1982.76159667969,23846.4979041554,24010.5094337817
2018-07-19T08:48:17Z,1531990097,CD0C,41.4576027,43.5252714,3033.82,3.8,-27.9,154.2,584071.38,-144090.39,148.3,Weapon+Missile,Red,Allies,AIM-120B,,xu,,134.783867547011,116.64811706543,0.410203492689116,3033.822265625,993.057495117188,119.028162084192,-63.237548828125,0.0647838258083692,NaN,0.630781630229018,1.22164208541978,5000,0.97494250535965,0.97494250535965,0.97494250535965,908.334547546506,2975.16331211914,3883.49785966565,,,62.8199999332428,2040.76477050781,23965.0272089542,24144.9032263747
2018-07-19T08:48:18Z,1531990098,CD0C,41.4582561,43.5243185,2971.18,3.3,-27.8,152.8,584135.06,-144190.86,146.9,Weapon+Missile,Red,Allies,AIM-120B,,xu,,134.440741274478,116.709037780762,0.408849769209205,2971.17846679688,875.383056640625,118.954055764453,-62.643798828125,0.065288246310707,NaN,0.492320035374519,1.27049394624124,5000,0.964446008205414,0.964446008205414,0.964446008205414,903.715645721555,2913.73073114136,3817.44637686291,,,63.8199999332428,2095.79541015625,24083.4933090693,24278.9617162201
2018-07-19T08:48:19Z,1531990099,CD0C,41.4589398,43.5233793,2909.05,2.9,-27.6,151.4,584201,-144289.56,145.5,Weapon+Missile,Red,Allies,AIM-120B,,xu,,133.976595306303,116.659645080566,0.407133106930253,2909.05224609375,760.445556640625,118.701561872688,-62.126220703125,0.0351700847424745,NaN,0.399975877795947,1.23554216071099,5000,0.965531587600708,0.965531587600708,0.965531587600708,897.486404493451,2852.80572091553,3750.29212540898,,,64.8199999332428,2148.60668945312,24201.7128529914,24412.5596790598
2018-07-19T08:48:20Z,1531990100,CD0C,41.4596538,43.5224564,2847.43,2.6,-27.4,149.8,584269.25,-144386.2,143.9,Weapon+Missile,Red,Allies,AIM-120B,,xu,,133.398100979605,116.503944396973,0.405074460195871,2847.427734375,639.1181640625,118.310916235108,-61.62451171875,0.122318053590754,NaN,0.353858440520021,1.28694915261227,5000,0.955309569835663,0.955309569835663,0.955309569835663,889.752667248249,2792.37271913086,3682.12538637911,,,65.8199999332428,2208.3095703125,24319.5083325315,24545.5479552976
2018-07-19T08:48:21Z,1531990101,CD0C,41.4603988,43.521551,2786.15,2.5,-27.4,148.3,584339.81,-144480.62,142.4,Weapon+Missile,Red,Allies,AIM-120B,,xu,,132.852207773375,116.373527526855,0.403119681421603,2786.1484375,523.902587890625,117.875175014783,-61.279296875,0.0448974960973488,NaN,0.292277454963186,1.40900025749046,5000,0.959536254405975,0.959536254405975,0.959536254405975,882.485455513,2732.27825746094,3614.76371297394,,,66.8199999332428,2262.24584960938,24436.8716416903,24677.9921603433
2018-07-19T08:48:22Z,1531990102,CD0C,41.4611784,43.5206613,2725.02,2.3,-27.4,146.7,584412.94,-144573.05,140.8,Weapon+Missile,Red,Allies,AIM-120B,,xu,,132.761675734503,116.643974304199,0.402549437087384,2725.02075195312,398.17822265625,117.851892659879,-61.127685546875,0.0360380092224497,NaN,0.199987938897973,1.49919749451383,5000,0.96550577878952,0.96550577878952,0.96550577878952,881.283127191663,2672.33247571411,3553.61560290577,,,67.8199999332428,2326.84252929688,24554.2232767141,24810.3549279136
2018-07-19T08:48:23Z,1531990103,CD0C,41.4619926,43.5197897,2664.06,2.3,-27.4,144.9,584488.69,-144663.16,139,Weapon+Missile,Red,Allies,AIM-120B,,xu,,132.56515990902,116.819290161133,0.401659945779266,2664.06372070312,280.21875,117.718995760627,-60.95703125,0.0460298367882811,NaN,0.0307631720217374,1.54374825714888,4867.77005357196,0.961188673973083,0.961188673973083,0.961188673973083,878.676081085205,2612.55404866333,3491.23012974854,,,68.8199999332428,2383.84497070312,24671.4102152264,24942.491765757
2018-07-19T08:48:24Z,1531990104,CD0C,41.4628369,43.5189425,2603.53,2.2,-27.4,143.2,584566.62,-144750.3,137.3,Weapon+Missile,Red,Allies,AIM-120B,,xu,,131.651320642475,116.351287841797,0.398602148146772,2603.53002929688,178.677978515625,116.909120395462,-60.53369140625,0.0359847364266746,NaN,0,1.56086801958181,4731.96048992678,0.966916739940643,0.966916739940643,0.966916739940643,866.603511345387,2553.19077618042,3419.79428752581,,,69.8199999332428,2424.85205078125,24787.7690499372,25073.6972933042
2018-07-19T08:48:25Z,1531990105,CD0C,41.4637146,43.5181176,2543.23,2.2,-27.4,141.4,584647,-144834.69,135.5,Weapon+Missile,Red,Allies,AIM-120B,,xu,,131.215299027213,116.305595397949,0.396995761868972,2543.23461914062,80.516357421875,116.541487088893,-60.29541015625,0.0236592789792949,NaN,0,1.63331306134379,4555.4410835015,0.965236127376556,0.965236127376556,0.965236127376556,860.872734940052,2494.06117777954,3354.93391271959,,,70.8199999332428,2462.71826171875,24903.7548809144,25204.4608477678
2018-07-19T08:48:26Z,1531990106,CD0C,41.4646282,43.5173143,2482.96,2.2,-27.4,139.4,584730,-144916.36,133.5,Weapon+Missile,Red,Allies,AIM-120B,,xu,,131.120309667641,116.564071655273,0.396423044528158,2482.95825195312,-11.36474609375,116.444386580099,-60.2763671875,0.0584173852914329,NaN,0.0153956732760319,1.69461347553612,4436.84445352167,0.971956968307495,0.971956968307495,0.971956968307495,859.626780366898,2434.95025415161,3294.57703451851,,,71.8199999332428,2494.32299804688,25019.6590854506,25335.1421909013
2018-07-19T08:48:27Z,1531990107,CD0C,41.4655791,43.5165331,2422.63,2.3,-27.4,137.5,584815.75,-144995.3,131.6,Weapon+Missile,Red,Allies,AIM-120B,,xu,,131.240567216239,117.016761779785,0.396501394436318,2422.62670898438,-101.26904296875,116.551239402462,-60.33154296875,0.0366441482311461,NaN,0.15383677756302,1.72217542327124,4262.82711682812,0.977809548377991,0.977809548377991,0.977809548377991,861.204324162006,2375.78522156616,3236.98954572817,,,72.8199999332428,2523.89575195312,25135.659997663,25465.933850461
2018-07-19T08:48:28Z,1531990108,CD0C,41.4665594,43.515781,2362.67,2.4,-27.5,135.6,584903.62,-145070.73,129.7,Weapon+Missile,Red,Allies,AIM-120B,,xu,,130.414497336143,116.614685058594,0.393724606548178,2362.66748046875,-200.432373046875,115.81378169825,-59.959228515625,0.110812385790019,NaN,0.107692446417237,1.73223575831014,4296.91398696541,0.969945549964905,0.969945549964905,0.969945549964905,850.397055771947,2316.98530473389,3167.38236050583,,,73.8199999332428,2563.09985351562,25250.8640585775,25595.8455285509
2018-07-19T08:48:29Z,1531990109,CD0C,41.4675654,43.5150605,2303.22,2.4,-27.4,133.5,584993.19,-145142.45,127.6,Weapon+Missile,Red,Allies,AIM-120B,,xu,,129.224714838713,115.876922607422,0.389857070627348,2303.21997070312,-314.312744140625,114.738923246702,-59.447509765625,0.0890695430509343,NaN,0.0307631720217374,1.74639121864328,4253.53264816392,0.966031670570374,0.966031670570374,0.966031670570374,834.951346257329,2258.68721256958,3093.63855882691,,,74.8199999332428,2617.53271484375,25365.0049326177,25724.5765579993
