ISOTime,UnixTime,Id,Longitude,Latitude,Altitude,Roll,Pitch,Yaw,U,V,Heading,Type,Color,Coalition,Name,Group,Country,Pilot,TAS,CAS,M,ASL,AGL,GS,VS,AOA,AOS,RRT,TRT,TRD,G,LatG,LonG,Ek,Ep,Em,FFW,FFV,RelativeTime,Elev,GroundDistance,AirDistance
2018-07-19T08:47:20Z,1531990040,CE0A,41.4209783,43.7303387,3480.54,72.9,5.4,173.3,578782.69,-121607.16,167.4,Weapon+Missile,Red,Allies,AIM-120B,,xu,,341.947896516259,298.608612060547,1.04635496055377,3480.53930664062,2040.421875,NaN,NaN,0.902508665009665,NaN,15.6153970465366,2.73440440314232,NaN,NaN,NaN,NaN,NaN,3413.24307914673,NaN,,,0.5,1440.11743164062,NaN,NaN
2018-07-19T08:47:21Z,1531990041,CE0A,41.4217409,43.7264955,3523.27,58.9,6.4,170.7,578887.81,-122027.91,164.8,Weapon+Missile,Red,Allies,AIM-120B,,xu,,435.783599442597,380.576965332031,1.33418737686951,3523.26538085938,2065.61486816406,433.684018756744,42.72607421875,0.554605705018715,NaN,13.2614952924968,1.64099627710811,5000,2.07703304290771,2.07703304290771,2.07703304290771,9495.36727715731,3455.14304472046,12950.5103218778,,,1.5,1457.65051269531,432.207637188824,434.550507336191
2018-07-19T08:47:22Z,1531990042,CE0A,41.4229626,43.7215587,3581.77,47.9,5.8,169.8,579042.38,-122566.36,163.9,Weapon+Missile,Red,Allies,AIM-120B,,xu,,563.244337839553,483.171875,1.72565424899862,3581.7705078125,2084.03063964844,560.197584989899,58.505126953125,0.0341414072720796,NaN,10.3538564420656,1.93150129798168,5000,0.517764985561371,0.517764985561371,0.517764985561371,15862.2092054158,3512.51697504395,19374.7261804598,,,2.5,1497.73986816406,990.488864059384,996.198149415423
2018-07-19T08:47:23Z,1531990043,CE0A,41.4245208,43.7154408,3647.93,39.1,5,169.4,579237.5,-123233.28,163.5,Weapon+Missile,Red,Allies,AIM-120B,,xu,,698.02299884695,589.071044921875,2.1403211046754,3647.93359375,2061.541015625,694.880243623688,66.1630859375,0.0453695873249934,NaN,8.29228678450236,0.910133485796483,5000,0.597674012184143,0.597674012184143,0.597674012184143,24361.8053459644,3577.40079771484,27939.2061436793,,,3.5,1586.392578125,1682.97202065744,1692.22558217229
2018-07-19T08:47:24Z,1531990044,CE0A,41.4264177,43.7082958,3714.08,31.9,4.2,168.9,579471.69,-124011.52,163,Weapon+Missile,Red,Allies,AIM-120B,,xu,,815.401947289696,680.670104980469,2.50226725350375,3714.08227539062,1997.28173828125,812.714394828242,66.148681640625,0.0254999017821817,NaN,6.76926388261624,0.943548372041772,5000,0.813154637813568,0.813154637813568,0.813154637813568,33244.0167821914,3642.27049459595,36886.2872767873,,,4.5,1716.80053710938,2492.86058713191,2505.27690711125
2018-07-19T08:47:25Z,1531990045,CE0A,41.4285456,43.7006411,3771.73,26.2,3.3,168.4,579730.25,-124844.49,162.5,Weapon+Missile,Red,Allies,AIM-120B,,xu,,874.079219125253,725.549560546875,2.6842354784355,3771.7275390625,2036.36840820312,872.176303784282,57.645263671875,0,NaN,5.38459329255789,1.01865217165988,5000,1.01945519447327,1.01945519447327,1.01945519447327,38200.7240653306,3698.80118709473,41899.5252524254,,,5.5,1735.35913085938,3362.01200130448,3376.84677456433
2018-07-19T08:47:26Z,1531990046,CE0A,41.4308912,43.6926144,3817.69,21.5,2.4,167.8,580010.69,-125716.99,161.9,Weapon+Missile,Red,Allies,AIM-120B,,xu,,917.61319946667,758.6171875,2.81952049616917,3817.68994140625,1971.61108398438,916.461369292918,45.96240234375,0.0278782242123915,NaN,4.4153621285764,1.03877113419039,5000,1.07007551193237,1.07007551193237,1.07007551193237,42100.6991917729,3743.87490638916,45844.5740981621,,,6.5,1846.07885742188,4275.26590068233,4291.7992035537
2018-07-19T08:47:27Z,1531990047,CE0A,41.4334817,43.6841732,3851.56,17.6,1.6,167.2,580315.56,-126633.53,161.3,Weapon+Missile,Red,Allies,AIM-120B,,xu,,966.508969728624,796.302307128906,2.97100085349897,3851.55688476562,2179.04516601562,965.915430414785,33.866943359375,0.0307975515501176,NaN,3.67693671702798,0.991192143153784,5000,1.00898587703705,1.00898587703705,1.00898587703705,46706.9794282943,3777.08703239868,50484.066460693,,,7.5,1672.51171875,5237.7927273066,5255.49998443213
2018-07-19T08:47:28Z,1531990048,CE0A,41.4362591,43.6755032,3872.87,14.5,0.8,166.7,580638.25,-127573.94,160.8,Weapon+Missile,Red,Allies,AIM-120B,,xu,,994.457329986958,817.7353515625,3.05771640452905,3872.86987304688,2667.16101074219,994.228916143215,21.31298828125,0.0234170069890515,NaN,2.87693031992273,1.0910131167177,5000,1.32183980941772,1.32183980941772,1.32183980941772,49447.2690582395,3797.98793405151,53245.256992291,,,8.5,1205.70886230469,6228.49739014886,6247.03364550772
2018-07-19T08:47:29Z,1531990049,CE0A,41.4390249,43.6672595,3875.58,12.2,-0.6,166,580955.12,-128467.08,160.1,Weapon+Missile,Red,Allies,AIM-120B,,xu,,947.690488366307,780.422546386719,2.91401691480254,3875.57543945312,2435.26049804688,947.686626290775,2.70556640625,0,NaN,2.09227818807167,1.52062230383628,5000,1.95270454883575,1.95270454883575,1.95270454883575,44905.8630869985,3800.6411883313,48706.5042753298,,,9.5,1440.31494140625,7172.82115123864,7191.93488338662
2018-07-19T08:47:30Z,1531990050,CE0A,41.4417495,43.6595435,3853.53,10.3,-2.2,165.4,581262.75,-129301.91,159.5,Weapon+Missile,Red,Allies,AIM-120B,,xu,,889.975829768976,735.377868652344,2.73580844600091,3853.53369140625,2140.10314941406,889.702837421583,-22.041748046875,0.0569422821875929,NaN,1.90769915594124,1.53729906446851,5000,1.09246826171875,1.09246826171875,1.09246826171875,39602.8488786489,3779.02561748291,43381.8744961318,,,10.5,1713.43054199219,8059.33712212546,8079.26180759922
2018-07-19T08:47:31Z,1531990051,CE0A,41.4443828,43.6522282,3813.52,8.7,-3.1,165.4,581558.5,-130092.96,159.5,Weapon+Missile,Red,Allies,AIM-120B,,xu,,845.48032956108,701.408752441406,2.59774657341345,3813.51611328125,1853.6611328125,844.532759054214,-40.017578125,0.0242949645627082,NaN,1.63077596623224,0.973159056362776,5000,0.36713781952858,0.36713781952858,0.36713781952858,35741.8493837357,3739.78177923096,39481.6311629666,,,11.5,1959.85498046875,8900.83538228586,8922.21625618184
2018-07-19T08:47:32Z,1531990052,CE0A,41.4468142,43.6453509,3765.9,7.2,-3.7,166,581832.94,-130837.02,160,Weapon+Missile,Red,Allies,AIM-120B,,xu,,794.488393323719,662.427734375,2.43964286323854,3765.90454101562,1695.84887695312,793.060492845596,-47.611572265625,0.0845339739247691,NaN,1.4769054646102,0.826400275770593,5000,1.35572707653046,1.35572707653046,1.35572707653046,31560.5903563052,3693.09077671509,35253.6811330203,,,12.5,2070.0556640625,9691.07317519248,9714.35572851163
2018-07-19T08:47:33Z,1531990053,CE0A,41.4489777,43.638771,3714.36,5.9,-4.1,167.4,582082.5,-131550.23,161.5,Weapon+Missile,Red,Allies,AIM-120B,,xu,,757.369536486536,634.461242675781,2.32418790880744,3714.35522460938,1528.2978515625,755.613183299417,-51.54931640625,0.0507730921275668,NaN,1.16921910287946,1.40451271648406,5000,2.31180667877197,2.31180667877197,2.31180667877197,28680.4307398915,3642.53816634155,32322.9689062331,,,13.5,2186.05737304688,10443.9940559368,10469.4797092661
2018-07-19T08:47:34Z,1531990054,CE0A,41.4507529,43.6325532,3662.42,4.8,-4.3,169.4,582296.62,-132226.44,163.4,Weapon+Missile,Red,Allies,AIM-120B,,xu,,711.19404929649,599.172546386719,2.18109479715714,3662.42456054688,1485.94482421875,709.2955532673,-51.9306640625,0.0539938233513976,NaN,0.969231163981489,1.91331912096769,5000,2.67865037918091,2.67865037918091,2.67865037918091,25289.8487877369,3591.6115816687,28881.4603694056,,,14.5,2176.47973632812,11150.7789192356,11178.577420364
2018-07-19T08:47:35Z,1531990055,CE0A,41.4521409,43.6266359,3612.62,3.9,-4.2,171.5,582476,-132872.45,165.6,Weapon+Missile,Red,Allies,AIM-120B,,xu,,672.30333119296,569.483581542969,2.06056538994255,3612.623046875,1375.009765625,670.456246424135,-49.801513671875,0.0846420805944594,NaN,0.969231163981489,2.08571544349634,5000,2.75766277313232,2.75766277313232,2.75766277313232,22599.5884566575,3542.77298026367,26142.3614369212,,,15.5,2237.61328125,11818.9131550654,11848.9451335072
2018-07-19T08:47:36Z,1531990056,CE0A,41.453174,43.6210091,3568.9,3,-3.6,173.3,582623.5,-133489.12,167.4,Weapon+Missile,Red,Allies,AIM-120B,,xu,,635.572363174979,541.233032226562,1.94694415432086,3568.89916992188,1266.08984375,634.066598565179,-43.723876953125,0.0562062194664856,NaN,0.769243225083516,1.80903301795559,5000,2.38893270492554,2.38893270492554,2.38893270492554,20197.6114415914,3499.89450447144,23697.5059460628,,,16.5,2302.80932617188,12450.797593567,12482.6954141915
2018-07-19T08:47:37Z,1531990057,CE0A,41.453972,43.6156619,3535.3,2.3,-2.7,174.4,582748.88,-134076.67,168.5,Weapon+Missile,Red,Allies,AIM-120B,,xu,,601.713365513829,514.921447753906,1.84246630341228,3535.30224609375,1474.46557617188,600.774684009959,-33.596923828125,0,NaN,0.646190536996566,1.49281831127245,5000,2.25171589851379,2.25171589851379,2.25171589851379,18102.9487118989,3466.94717716553,21569.8958890644,,,17.5,2060.83666992188,13049.510738915,13082.6833789269
2018-07-19T08:47:38Z,1531990058,CE0A,41.4545935,43.6106089,3512.67,1.8,-1.9,175.5,582856.62,-134632.98,169.6,Weapon+Missile,Red,Allies,AIM-120B,,xu,,567.103217312408,487.657318115234,1.73600814997153,3512.666015625,1761.20654296875,566.651268556111,-22.63623046875,0.129618882020574,NaN,0.461556863352782,1.2308997665095,5000,1.67367875576019,1.67367875576019,1.67367875576019,16080.3029543042,3444.74861821289,19525.0515725171,,,18.5,1751.45947265625,13614.2236445811,13648.1615426819
2018-07-19T08:47:39Z,1531990059,CE0A,41.4550573,43.6058415,3494.13,1.4,-2,176.6,582948.38,-135158.86,170.6,Weapon+Missile,Red,Allies,AIM-120B,,xu,,534.140586685418,461.499420166016,1.63473292795264,3494.1298828125,1887.20104980469,533.818862653803,-18.5361328125,0.0452089323844883,NaN,0.369212705774209,1.08322670106388,5000,1.45671653747559,1.45671653747559,1.45671653747559,14265.3083172321,3426.57088152832,17691.8791987605,,,19.5,1606.92883300781,14146.2485512695,14180.8013123517
2018-07-19T08:47:40Z,1531990060,CE0A,41.4553806,43.6013116,3477.18,1.1,-1.9,177.6,583026.06,-135659.53,171.7,Weapon+Missile,Red,Allies,AIM-120B,,xu,,506.946848647614,439.809509277344,1.55118530614296,3477.17602539062,1851.14025878906,506.663274840663,-16.953857421875,0.0307065013754492,NaN,0.399975877795947,1.06986439644811,5000,1.39797174930573,1.39797174930573,1.39797174930573,12849.7553676873,3409.9448269397,16259.700194627,,,20.5,1626.03576660156,14651.1886495531,14686.301746151
2018-07-19T08:47:41Z,1531990061,CE0A,41.4555738,43.5970398,3461.49,0.9,-1.9,178.7,583090.38,-136132.59,172.8,Weapon+Missile,Red,Allies,AIM-120B,,xu,,477.671646296297,416.203063964844,1.46132735925615,3461.49243164062,1733.08520507812,477.414103857961,-15.68359375,0.0363926951728825,NaN,0.199987938897973,1.06995585694996,5000,1.38129270076752,1.38129270076752,1.38129270076752,11408.5100837708,3394.56447547485,14803.0745592456,,,21.5,1728.4072265625,15126.9729834565,15162.6031627016
2018-07-19T08:47:42Z,1531990062,CE0A,41.4556585,43.5929912,3447.53,0.7,-1.6,179.4,583143.31,-136581.75,173.5,Weapon+Missile,Red,Allies,AIM-120B,,xu,,452.480711251921,395.647552490234,1.38402537792345,3447.525390625,1689.44104003906,452.265094629591,-13.967041015625,0.0519429720726822,NaN,0.199987938897973,0.701942276261913,5000,1.21517133712769,1.21517133712769,1.21517133712769,10236.9397027522,3380.86748719727,13617.8071899495,,,22.5,1758.08435058594,15577.7170757415,15613.8076125541
2018-07-19T08:47:43Z,1531990063,CE0A,41.4557105,43.5891573,3436.1,0.6,-1.5,179.5,583191.12,-137007.31,173.6,Weapon+Missile,Red,Allies,AIM-120B,,xu,,428.392483477254,375.654541015625,1.3101626957275,3436.09545898438,1644.21801757812,428.239975437254,-11.429931640625,0.0426450759476988,NaN,0,0.24147496148388,5000,1.0188854932785,1.0188854932785,1.0188854932785,9176.00599499047,3369.65855328491,12545.6645482754,,,23.5,1791.87744140625,16004.5271783395,16041.0009693856
2018-07-19T08:47:44Z,1531990064,CE0A,41.4557502,43.5855575,3425.52,0.5,-1.5,179.6,583235.38,-137406.98,173.7,Weapon+Missile,Red,Allies,AIM-120B,,xu,,402.25312581131,353.456787109375,1.23006127930112,3425.51684570312,1599.19128417969,402.114001454831,-10.57861328125,0.0461920244822784,NaN,0.0922895160652123,0.112342177736003,5000,0.965011835098267,0.965011835098267,0.965011835098267,8090.37886124849,3359.28447749146,11449.6633387399,,,24.5,1826.32556152344,16405.2695887518,16442.0984648706
2018-07-19T08:47:45Z,1531990065,CE0A,41.4557781,43.5821446,3415.11,0.4,-1.6,179.8,583276.5,-137785.98,173.9,Weapon+Missile,Red,Allies,AIM-120B,,xu,,381.366801095939,335.261474609375,1.16604428226047,3415.10668945312,1486.40222167969,381.224691782943,-10.41015625,0.0459842697072492,NaN,0,0.112342177736003,5000,0.988369047641754,0.988369047641754,0.988369047641754,7272.03184890747,3349.07560161255,10621.10745052,,,25.5,1928.70446777344,16785.1908417793,16822.3659730853
2018-07-19T08:47:46Z,1531990066,CE0A,41.4557941,43.5789219,3405.14,0.3,-1.6,179.9,583314.44,-138143.94,174,Weapon+Missile,Red,Allies,AIM-120B,,xu,,360.095991550005,316.211364746094,1.10087402359075,3405.13525390625,1441.88854980469,359.957905321602,-9.971435546875,0.0344729887972815,NaN,0,0.154505215626969,5000,1.02434980869293,1.02434980869293,1.02434980869293,6483.45615651906,3339.29696377197,9822.75312029103,,,26.5,1963.24670410156,17143.9459146692,17181.4513322051
2018-07-19T08:47:47Z,1531990067,CE0A,41.4557982,43.5758946,3395.98,0.2,-1.5,180.1,583349.25,-138480.28,174.2,Weapon+Missile,Red,Allies,AIM-120B,,xu,,338.264463625767,296.249206542969,1.03401591871935,3395.97998046875,1432.26904296875,338.14054521798,-9.1552734375,0.0122090523029162,NaN,0.199987938897973,0.223812199011933,5000,1.0688556432724,1.0688556432724,1.0688556432724,5721.14236760139,3330.31870754639,9051.46107514778,,,27.5,1963.7109375,17480.9444306745,17518.7537937748
2018-07-19T08:47:48Z,1531990068,CE0A,41.4557907,43.5730398,3387.97,0.2,-1.4,180.2,583381.19,-138797.56,174.3,Weapon+Missile,Red,Allies,AIM-120B,,xu,,318.985294892598,278.562744140625,0.974987567968913,3387.96606445312,1359.28186035156,318.884611588287,-8.013916015625,0.0339057434904981,NaN,0,0.166982410435635,5000,1.04428243637085,1.04428243637085,1.04428243637085,5087.5809178859,3322.45974059692,8410.04065848282,,,28.5,2028.68420410156,17798.7390234695,17836.8183685593
2018-07-19T08:47:49Z,1531990069,CE0A,41.4557718,43.5703316,3380.74,0.1,-1.4,180.4,583410.5,-139098.64,174.5,Weapon+Missile,Red,Allies,AIM-120B,,xu,,302.587964331664,263.581726074219,0.924787199298531,3380.73999023438,1355.06884765625,302.501669433023,-7.22607421875,0.0582699590144589,NaN,0.199987938897973,0.158567724099886,5000,1.01923847198486,1.01923847198486,1.01923847198486,4577.97380791903,3315.37338252319,7893.34719044222,,,29.5,2025.67114257812,18100.2234550014,18138.5493131732
2018-07-19T08:47:50Z,1531990070,CE0A,41.4557488,43.5677543,3374.05,0.1,-1.2,179.4,583438,-139385.22,173.5,Weapon+Missile,Red,Allies,AIM-120B,,xu,,287.972177118947,250.305572509766,0.880045850500312,3374.05395507812,1450.40026855469,287.894549667957,-6.68603515625,0.374209754589999,NaN,0,2.29779623231982,3662.89454136576,2.49985671043396,2.49985671043396,2.49985671043396,4146.39873973131,3308.81662185669,7455.215361588,,,30.5,1923.65368652344,18387.1323397099,18425.687976788
2018-07-19T08:47:51Z,1531990071,CE0A,41.4559891,43.5653359,3369.72,0,-0.6,172.7,583484.88,-139651.94,166.8,Weapon+Missile,Red,Allies,AIM-120B,,xu,,270.84123489904,234.796875,0.82764976675636,3369.71606445312,1529.77795410156,270.806494062758,-4.337890625,0.541985920480479,NaN,0.199987938897973,4.20631437063123,4192.82586694039,2.11143183708191,2.11143183708191,2.11143183708191,3667.74872608185,3304.56260434692,6972.31133042877,,,31.5,1839.93811035156,18657.0422476318,18695.7754138993
2018-07-19T08:47:52Z,1531990072,CE0A,41.4564176,43.5630604,3367.08,0,-0.6,172.4,583545.44,-139901.23,166.5,Weapon+Missile,Red,Allies,AIM-120B,,xu,,256.561294824648,221.93473815918,0.783987249464985,3367.07983398438,1545.62475585938,256.547750508586,-2.63623046875,0.0135164643043769,NaN,0,1.53420787026055,5000,1.00076711177826,1.00076711177826,1.00076711177826,3291.184900105,3301.97734539429,6593.16224549929,,,32.5,1821.455078125,18912.6957998551,18951.5775654378
2018-07-19T08:47:53Z,1531990073,CE0A,41.4568083,43.5608611,3364.35,0,-0.7,173,583602.06,-140142.38,167.1,Weapon+Missile,Red,Allies,AIM-120B,,xu,,247.714802002296,214.011474609375,0.756929434054435,3364.35375976562,1558.3564453125,247.699801474266,-2.72607421875,0.0398012860779805,NaN,0,0.621269044345041,5000,1.01217460632324,1.01217460632324,1.01217460632324,3068.13115655184,3299.30397982056,6367.43513637239,,,33.5,1805.99731445312,19159.5370516883,19198.564119149
2018-07-19T08:47:54Z,1531990074,CE0A,41.4571564,43.5587135,3361.43,0,-0.7,173.6,583654.62,-140378.11,167.7,Weapon+Missile,Red,Allies,AIM-120B,,xu,,241.540965276383,208.507202148438,0.738038100948425,3361.43383789062,1575.09387207031,241.523315567857,-2.919921875,0.0276207860970738,NaN,0,0.627303036229071,5000,1.00469243526459,1.00469243526459,1.00469243526459,2917.10189533234,3296.44051463501,6213.54240996735,,,34.5,1786.33996582031,19400.2499438972,19439.4216278208
2018-07-19T08:47:55Z,1531990075,CE0A,41.4574636,43.5566264,3358.31,0,-0.8,174.3,583703.19,-140607.52,168.3,Weapon+Missile,Red,Allies,AIM-120B,,xu,,234.510813782986,202.251983642578,0.716529894612777,3358.30688476562,1577.65197753906,234.489965553566,-3.126953125,0.0494526640726274,NaN,0,0.581826089270392,5000,0.985453903675079,0.985453903675079,0.985453903675079,2749.76608905792,3293.37402114868,6043.1401102066,,,35.5,1780.65490722656,19633.9117205726,19673.2274037785
2018-07-19T08:47:56Z,1531990076,CE0A,41.4577327,43.5546004,3354.85,0,-0.9,174.8,583748,-140830.39,168.9,Weapon+Missile,Red,Allies,AIM-120B,,xu,,227.361797530897,195.909133911133,0.694657354064146,3354.84838867188,1587.38537597656,227.335491688495,-3.45849609375,0.0258288191694503,NaN,0,0.547607695302275,5000,0.973707973957062,0.973707973957062,0.973707973957062,2584.66934882402,3289.9823950769,5874.65174390093,,,36.5,1767.46301269531,19860.4854887075,19899.9467896983
2018-07-19T08:47:57Z,1531990077,CE0A,41.4579737,43.5526207,3351.05,0.1,-1,175.1,583790.06,-141048.36,169.2,Weapon+Missile,Red,Allies,AIM-120B,,xu,,222.02257104041,191.193267822266,0.678313096739715,3351.0546875,1580.50732421875,221.990157175521,-3.793701171875,0.0242571758229014,NaN,0.20000001179094,0.380909191284445,5000,0.926707029342651,0.926707029342651,0.926707029342651,2464.7011025697,3286.26204511719,5750.96314768689,,,37.5,1770.54736328125,20081.7163886771,20121.3264975405
2018-07-19T08:47:58Z,1531990078,CE0A,41.4581982,43.5507037,3346.64,0.1,-1.3,175.2,583830,-141259.52,169.3,Weapon+Missile,Red,Allies,AIM-120B,,xu,,214.945300276691,184.948867797852,0.656655613519029,3346.63696289062,1575.21032714844,214.899897208706,-4.417724609375,0.0279236717862435,NaN,0,0.269251659971456,5000,0.86444890499115,0.86444890499115,0.86444890499115,2310.07410555184,3281.92973721314,5592.00384276497,,,38.5,1771.42663574219,20295.8819010738,20335.6499925278
2018-07-19T08:47:59Z,1531990079,CE0A,41.4584194,43.5488272,3340.99,0.1,-1.8,175.1,583869.31,-141466.2,169.2,Weapon+Missile,Red,Allies,AIM-120B,,xu,,210.468645012822,181.031127929688,0.642935286684273,3340.99291992188,1570.00817871094,210.392954522009,-5.64404296875,0.0668841948534181,NaN,0,0.427275050011003,5000,0.823392629623413,0.823392629623413,0.823392629623413,2214.85252667666,3276.39482181519,5491.24734849184,,,39.5,1770.98474121094,20505.5411743543,20545.4950976822
2018-07-19T08:48:00Z,1531990080,CE0A,41.4586462,43.5469995,3333.75,0.2,-2.3,174.7,583908.38,-141667.41,168.7,Weapon+Missile,Red,Allies,AIM-120B,,xu,,205.087797005576,176.332092285156,0.62644275098928,3333.75219726562,1548.94738769531,204.959938563651,-7.24072265625,0.0595753050907299,NaN,0.0615384569570811,0.679993463364077,5000,0.823066711425781,0.823066711425781,0.823066711425781,2103.05022403002,3269.29409853149,5372.34432256151,,,40.5,1784.80480957031,20709.8149876847,20750.0040182618
2018-07-19T08:48:01Z,1531990081,CE0A,41.4588873,43.5452209,3324.8,0.2,-2.8,174.1,583948.12,-141863.05,168.2,Weapon+Missile,Red,Allies,AIM-120B,,xu,,199.838480469527,171.769775390625,0.610342157758205,3324.80224609375,1522.25280761719,199.637963950724,-8.949951171875,0.0237324936901914,NaN,0,0.78029895347224,5000,0.848168849945068,0.848168849945068,0.848168849945068,1996.77091381848,3260.51719466553,5257.28810848401,,,41.5,1802.54943847656,20908.7629239065,20949.2569082836
2018-07-19T08:48:02Z,1531990082,CE0A,41.4591504,43.5434862,3314.29,0.3,-3.3,173.4,583989.12,-142053.61,167.4,Weapon+Missile,Red,Allies,AIM-120B,,xu,,195.206408981832,167.769119262695,0.596118727155503,3314.29150390625,1494.03503417969,194.923232084454,-10.5107421875,0.0654368898919116,NaN,0.184615424232096,0.884562431482719,5000,0.876858234405518,0.876858234405518,0.876858234405518,1905.2771053791,3250.20967767822,5155.48678305733,,,42.5,1820.25646972656,21103.036911963,21143.9159819078
2018-07-19T08:48:03Z,1531990083,CE0A,41.4594401,43.5417988,3302.41,0.3,-3.9,172.4,584031.75,-142238.7,166.5,Weapon+Missile,Red,Allies,AIM-120B,,xu,,190.309442034553,163.549224853516,0.581080444938692,3302.4130859375,1471.7724609375,189.938376622689,-11.87841796875,0.0329266451443174,NaN,0,1.0761571351078,5000,0.886355519294739,0.886355519294739,0.886355519294739,1810.88418637514,3238.5609289209,5049.44511529604,,,43.5,1830.640625,21292.320670634,21333.6700759698
2018-07-19T08:48:04Z,1531990084,CE0A,41.4597641,43.5401476,3289.03,0.4,-4.4,171.3,584076.75,-142419.5,165.4,Weapon+Missile,Red,Allies,AIM-120B,,xu,,186.793099338819,160.558792114258,0.570250986932421,3289.0283203125,1421.61706542969,186.312935701646,-13.384765625,0.0168608280234105,NaN,0.199999998450727,1.25993543427975,5000,0.887231767177582,0.887231767177582,0.887231767177582,1744.58309803009,3225.43495773926,4970.01805576935,,,44.5,1867.41125488281,21477.9794557738,21519.9063978638
2018-07-19T08:48:05Z,1531990085,CE0A,41.4601259,43.5385484,3274.02,0.5,-5.1,170,584124.25,-142594.2,164.1,Weapon+Missile,Red,Allies,AIM-120B,,xu,,181.666400242604,156.164932250977,0.554498750562234,3274.02001953125,1338.9892578125,181.045386256501,-15.00830078125,0.0316397112233819,NaN,0.20000005181158,1.43580181307188,5000,0.890262722969055,0.890262722969055,0.890262722969055,1650.1340488553,3210.71684245361,4860.85089130892,,,45.5,1935.03076171875,21658.3827306148,21701.0253868147
2018-07-19T08:48:06Z,1531990086,CE0A,41.4605323,43.5369923,3257.2,0.5,-5.8,168.6,584174.75,-142763.75,162.7,Weapon+Missile,Red,Allies,AIM-120B,,xu,,177.705306984216,152.810470581055,0.54229748482313,3257.20385742188,1268.07373046875,176.90786534879,-16.816162109375,0.0338376904618768,NaN,0,1.6391759249726,5000,0.921740174293518,0.921740174293518,0.921740174293518,1578.95880651772,3194.22582083862,4773.18462735634,,,46.5,1989.13012695312,21834.683087365,21878.2157789981
2018-07-19T08:48:07Z,1531990087,CE0A,41.4609854,43.5354822,3238.67,0.6,-6.5,166.9,584228.62,-142927.78,161,Weapon+Missile,Red,Allies,AIM-120B,,xu,,173.644282139526,149.380233764648,0.529785266222423,3238.66821289062,1208.07470703125,172.652154928812,-18.53564453125,0.0467485875553813,NaN,0,1.75567184489975,5000,0.929629564285278,0.929629564285278,0.929629564285278,1507.61683598757,3176.04856299439,4683.66539898195,,,47.5,2030.59350585938,22006.7140343686,22051.3295146128
2018-07-19T08:48:08Z,1531990088,CE0A,41.4614859,43.5340197,3218.58,0.7,-7.1,165.2,584285.69,-143086.16,159.3,Weapon+Missile,Red,Allies,AIM-120B,,xu,,169.535665643557,145.91828918457,0.517123785430469,3218.5791015625,1167.669921875,168.341229445582,-20.089111328125,0.0124267272701752,NaN,0,1.79062074894394,5000,0.957421839237213,0.957421839237213,0.957421839237213,1437.11709626019,3156.34787463379,4593.46497089398,,,48.5,2050.9091796875,22174.4583756222,22220.356822461
2018-07-19T08:48:09Z,1531990089,CE0A,41.4620337,43.5326018,3197.1,0.8,-7.7,163.5,584346.19,-143239.17,157.6,Weapon+Missile,Red,Allies,AIM-120B,,xu,,165.938098459727,142.912734985352,0.506018405988633,3197.09838867188,1128.6943359375,164.541883707889,-21.480712890625,0.0246810169936769,NaN,0,1.82541074436822,5000,0.957293093204498,0.957293093204498,0.957293093204498,1376.7726260215,3135.2824913269,4512.05511734841,,,49.5,2068.40405273438,22338.3755487451,22385.7572289053
2018-07-19T08:48:10Z,1531990090,CE0A,41.4626263,43.5312299,3174.44,0.9,-8.3,161.7,584409.69,-143386.7,155.8,Weapon+Missile,Red,Allies,AIM-120B,,xu,,162.206395590201,139.795684814453,0.494502881053859,3174.44458007812,1080.75463867188,160.616685704078,-22.65380859375,0,NaN,0,1.81316827061121,5000,0.971565067768097,0.971565067768097,0.971565067768097,1315.54573851824,3113.06669412231,4428.61243264055,,,50.5,2093.68994140625,22498.4090610292,22547.4653323948
2018-07-19T08:48:11Z,1531990091,CE0A,41.4632564,43.5299117,3150.99,0.9,-8.8,160,584475.62,-143527.95,154.1,Weapon+Missile,Red,Allies,AIM-120B,,xu,,157.636342942271,135.945785522461,0.48043398942345,3150.99462890625,1044.91088867188,155.882380037803,-23.449951171875,0.0435037739860818,NaN,0,1.79053857323049,5000,0.993446290493011,0.993446290493011,0.993446290493011,1242.46083081067,3090.07014775635,4332.53097856701,,,51.5,2106.08374023438,22653.7150353367,22704.6078551468
2018-07-19T08:48:12Z,1531990092,CE0A,41.4639236,43.528639,3127.01,0.9,-9.1,158.3,584544.06,-143663.84,152.4,Weapon+Missile,Red,Allies,AIM-120B,,xu,,154.029802932025,132.941375732422,0.469305794643978,3127.0107421875,1004.66943359375,152.15108730844,-23.98388671875,0.0582843331074671,NaN,0,1.74695161432034,5000,1.02394163608551,1.02394163608551,1.02394163608551,1186.25900956392,3066.5499894873,4252.80899905123,,,52.5,2122.34130859375,22805.270923649,22858.1234187138
2018-07-19T08:48:13Z,1531990093,CE0A,41.4646273,43.5274109,3102.82,0.9,-9.4,156.4,584614.94,-143794.47,150.5,Weapon+Missile,Red,Allies,AIM-120B,,xu,,150.569360615719,130.063201904297,0.458627988758787,3102.82446289062,950.65283203125,148.614118609236,-24.186279296875,0.0575303710653544,NaN,0,1.78281266878385,4639.95475109083,1.04406559467316,1.04406559467316,1.04406559467316,1133.55661781132,3042.83135190064,4176.38796971196,,,53.5,2152.17163085938,22953.3177931509,23008.2042807624
2018-07-19T08:48:14Z,1531990094,CE0A,41.4653664,43.5262311,3078.63,1,-9.6,154.6,584688.12,-143919.45,148.7,Weapon+Missile,Red,Allies,AIM-120B,,xu,,146.843293140177,126.948448181152,0.447147574568609,3078.62841796875,877.5126953125,144.83612860882,-24.196044921875,0.0188137231042402,NaN,0.200000105172432,1.88595162018051,4558.26813832237,0.955011308193207,0.955011308193207,0.955011308193207,1078.1476370126,3019.10313750732,4097.25077451993,,,54.5,2201.11572265625,23097.5655404813,23154.5362043305
2018-07-19T08:48:15Z,1531990095,CE0A,41.4661311,43.5251039,3053.73,1.6,-11.4,153.4,584762.81,-144038.36,147.5,Weapon+Missile,Red,Allies,AIM-120B,,xu,,142.606522169947,123.386383056641,0.434115585028982,3053.73461914062,808.0556640625,140.416946788173,-24.893798828125,0.030457857978117,NaN,1.1230769061678,2.12476406186813,2593.89267593562,0.225221291184425,0.225221291184425,0.225221291184425,1016.83100827038,2994.69066027954,4011.52166854992,,,55.5,2245.67895507812,23237.4021039523,23296.6374745097
2018-07-19T08:48:16Z,1531990096,CE0A,41.4668736,43.5240283,3022.25,2.8,-15.1,153.3,584835.12,-144151.72,147.4,Weapon+Missile,Red,Allies,AIM-120B,,xu,,138.096802276776,119.620040893555,0.420227360568483,3022.25,737.150634765625,134.459828784067,-31.484619140625,0.0531538706373111,NaN,1.13846190727325,3.57238274253437,2105.45400313647,0.0493969358503819,0.0493969358503819,0.0493969358503819,953.536339953542,2963.81479625,3917.35113620354,,,56.5,2285.09936523438,23371.2968198265,23434.2461906132
2018-07-19T08:48:17Z,1531990097,CE0A,41.4675978,43.522983,2982.44,3.9,-18.8,153.2,584905.56,-144261.86,147.3,Weapon+Missile,Red,Allies,AIM-120B,,xu,,136.665123861413,118.597808837891,0.415670862457939,2982.4384765625,654.213623046875,130.737900708404,-39.8115234375,0.066579928057625,NaN,0.999999458645104,3.73967200455455,2117.92523847138,0.0597177073359489,0.0597177073359489,0.0597177073359489,933.867804002762,2924.77302861816,3858.64083262093,,,57.5,2328.22485351562,23501.5182289468,23570.4759277243
2018-07-19T08:48:18Z,1531990098,CE0A,41.4682995,43.5219753,2934.93,4.6,-22.5,153.1,584973.75,-144368.02,147.2,Weapon+Missile,Red,Allies,AIM-120B,,xu,,134.81582132421,117.24893951416,0.409811215281936,2934.9345703125,564.5703125,126.169269516442,-47.50390625,0.0469017860808781,NaN,0.769230418478822,3.6795970757097,2137.42519760532,0.0730867981910706,0.0730867981910706,0.0730867981910706,908.765283966065,2878.18761039551,3786.95289436157,,,58.5,2370.3642578125,23627.1800292467,23704.8714734
2018-07-19T08:48:19Z,1531990099,CE0A,41.4689807,43.5210043,2880.1,5.4,-26,152.9,585039.88,-144470.27,147,Weapon+Missile,Red,Allies,AIM-120B,,xu,,133.544586372916,116.445579528809,0.405678802259576,2880.10229492188,469.326904296875,121.768543249067,-54.832275390625,0.0230555202871696,NaN,0.753846271147015,3.55469767522591,2345.61997994268,0.147978827357292,0.147978827357292,0.147978827357292,891.707827475667,2824.41551704956,3716.12334452523,,,59.5,2410.775390625,23748.4555259425,23838.0170209694
2018-07-19T08:48:20Z,1531990100,CE0A,41.4696464,43.5200679,2818.81,5.4,-28,152.1,585104.44,-144568.8,146.2,Weapon+Missile,Red,Allies,AIM-120B,,xu,,132.792172779021,116.133071899414,0.403095717637756,2818.8076171875,363.881591796875,117.799506080512,-61.294677734375,0.0397736492810313,NaN,0.538437472650445,1.96392505974537,5000,0.808621823787689,0.808621823787689,0.808621823787689,881.688057568669,2764.30597190918,3645.99402947785,,,60.5,2454.92602539062,23865.7340716181,23970.3937072253
2018-07-19T08:48:21Z,1531990101,CE0A,41.4703352,43.5191495,2756.73,4.7,-27.9,150.7,585170.56,-144665.14,144.7,Weapon+Missile,Red,Allies,AIM-120B,,xu,,132.318005551572,116.068565368652,0.401356897502517,2756.73168945312,257.280517578125,116.853043559261,-62.075927734375,0.0175682060459054,NaN,0.769243225083516,1.3101622975585,5000,0.987168669700623,0.987168669700623,0.987168669700623,875.402729657292,2703.43028223755,3578.83301189484,,,61.5,2499.451171875,23982.1092691614,24102.3347886364
2018-07-19T08:48:22Z,1531990102,CE0A,41.4710603,43.5182438,2695.03,4.1,-27.7,149,585239.5,-144759.77,143.1,Weapon+Missile,Red,Allies,AIM-120B,,xu,,132.338068586811,116.439651489258,0.401120710133925,2695.03002929688,161.324951171875,117.073778153991,-61.70166015625,0.0490324306787502,NaN,0.569255286185543,1.48199331521162,4973.83182159478,0.983555495738983,0.983555495738983,0.983555495738983,875.668219864368,2642.92162368042,3518.58984354479,,,62.5,2533.705078125,24098.6855438635,24234.2769780681
2018-07-19T08:48:23Z,1531990103,CE0A,41.4718218,43.5173541,2633.66,3.7,-27.6,147.2,585311.25,-144852.3,141.3,Weapon+Missile,Red,Allies,AIM-120B,,xu,,132.198282932003,116.666748046875,0.400402532149463,2633.65991210938,71.282470703125,117.090113701211,-61.3701171875,0,NaN,0.399975877795947,1.54244785316393,4846.96802439125,0.977249145507812,0.977249145507812,0.977249145507812,873.819300508499,2582.73809770874,3456.55739821724,,,63.5,2562.37744140625,24215.2609798491,24366.0627121819
2018-07-19T08:48:24Z,1531990104,CE0A,41.4726094,43.5164944,2573.39,3.4,-27.5,145.4,585384.75,-144941.3,139.5,Weapon+Missile,Red,Allies,AIM-120B,,xu,,130.215281543536,115.239898681641,0.394112155503665,2573.38745117188,-14.0810546875,115.426383465826,-60.2724609375,0.265346775395814,NaN,0.199987938897973,1.56715787675545,4847.12205050781,0.97541868686676,0.97541868686676,0.97541868686676,847.800977373123,2523.63100480347,3371.43198217659,,,64.5,2587.46850585938,24330.1473949933,24495.8411216796
