ISOTime,UnixTime,Id,Longitude,Latitude,Altitude,Roll,Pitch,Yaw,U,V,Heading,Type,Color,Coalition,Name,Group,Country,Pilot,TAS,CAS,M,ASL,AGL,GS,VS,AOA,AOS,RRT,TRT,TRD,G,LatG,LonG,Ek,Ep,Em,FFW,FFV,RelativeTime,Elev,GroundDistance,AirDistance
2018-07-19T08:36:56Z,1531989416,1CE0C,40.9200533,44.1468546,938.52,71.9,0.9,43.8,533955.81,-79336.93,38.2,Weapon+Missile,Red,Allies,R-77,,xu,,284.8000166,274.2964172,0.845614183,938.5184326,101.1109009,NaN,NaN,NaN,NaN,NaN,NaN,NaN,NaN,NaN,NaN,NaN,920.3721787,NaN,,,0.359999895,837.4075317,NaN,NaN
2018-07-19T08:36:57Z,1531989417,1CE0C,40.9223732,44.1489724,937.05,58.6,3.6,47,534118.56,-79083.66,41.4,Weapon+Missile,Red,Allies,R-77,,xu,,301.053499,290.1877136,0.893858075,937.0453491,118.4125366,301.049895,-1.473083496,5.938483515,NaN,12.07692192,12.57387752,1575.407467,6.355846882,6.355846882,6.355846882,4531.660464,918.9275773,5450.588041,,,1.359999895,818.6328125,299.8594348,299.9071411
2018-07-19T08:36:58Z,1531989418,1CE0C,40.9261385,44.1513294,950.03,50,3.2,55.2,534394.44,-78792.6,49.6,Weapon+Missile,Red,Allies,R-77,,xu,,401.2393474,387.2342529,1.19149792,950.0307007,147.3615112,401.0291692,12.98535156,0.990130738,NaN,7.923074079,5.848017359,3560.850061,4.876923561,4.876923561,4.876923561,8049.650694,931.6618571,8981.312551,,,2.359999895,802.6691895,698.9793664,699.2972676
2018-07-19T08:36:59Z,1531989419,1CE0C,40.9314695,44.1539784,976.12,42.2,2.6,55.4,534792.31,-78456.93,49.8,Weapon+Missile,Red,Allies,R-77,,xu,,521.2107573,498.5504456,1.548223131,976.1176758,199.0219727,520.557512,26.0869751,0.046773668,NaN,7.523098201,1.680342862,5000,0.4108271,0.4108271,0.4108271,13583.03268,957.2444405,14540.27712,,,3.359999895,777.0957031,1216.902807,1217.955378
2018-07-19T08:37:00Z,1531989420,1CE0C,40.9380196,44.1572332,1001.83,35.7,2,55.5,535281.06,-78044.45,49.9,Weapon+Missile,Red,Allies,R-77,,xu,,640.063469,607.4749756,1.901830698,1001.833862,230.4535522,639.5466536,25.71618652,0.034901544,NaN,6.246126034,0.550192335,5000,0.421054929,0.421054929,0.421054929,20484.06222,982.4634046,21466.52562,,,4.359999895,771.3803101,1853.259311,1854.929876
2018-07-19T08:37:01Z,1531989421,1CE0C,40.9457634,44.1610666,1025.84,30.3,1.6,55.6,535859,-77558.38,50,Weapon+Missile,Red,Allies,R-77,,xu,,755.5477221,713.3510132,2.245592014,1025.839233,226.9033813,755.1662748,24.00537109,0.030856024,NaN,5.030789494,0.431150195,5000,0.504735887,0.504735887,0.504735887,28542.61802,1006.004632,29548.62265,,,5.359999895,798.9358521,2604.627495,2606.800808
2018-07-19T08:37:02Z,1531989422,1CE0C,40.9547229,44.1654495,1045.13,26,0.5,56.3,536528.19,-77001.72,50.7,Weapon+Missile,Red,Allies,R-77,,xu,,870.6607977,819.2363892,2.588299569,1045.130005,349.0541382,870.4470638,19.29077148,0.200406788,NaN,3.430776699,0.874717728,5000,1.028054595,1.028054595,1.028054595,37902.51123,1024.922416,38927.43365,,,6.359999895,696.0758667,3470.625577,3473.154281
2018-07-19T08:37:03Z,1531989423,1CE0C,40.9645598,44.170156,1050.68,22.1,0.2,56.5,537263.88,-76402.19,50.9,Weapon+Missile,Red,Allies,R-77,,xu,,949.0546151,891.7661133,2.821529354,1050.683838,400.3859863,949.0383645,5.553833008,0.063858963,NaN,3.692290982,0.75990625,5000,0.781872571,0.781872571,0.781872571,45035.23312,1030.368866,46065.60199,,,7.359999895,650.2978516,4414.793391,4417.49355
2018-07-19T08:37:04Z,1531989424,1CE0C,40.9738199,44.1745792,1053.88,18.5,0.1,56.5,537956.38,-75838.54,50.9,Weapon+Missile,Red,Allies,R-77,,xu,,892.8975397,839.5239258,2.654672776,1053.878418,391.0961304,892.891825,3.194580078,0.05387052,NaN,3.246143026,0.111905886,5000,0.891627908,0.891627908,0.891627908,39863.30082,1033.501679,40896.8025,,,8.359999895,662.7822876,5303.107389,5305.959848
2018-07-19T08:37:05Z,1531989425,1CE0C,40.9821725,44.1785676,1055.81,15.6,0.1,56.5,538580.94,-75330.21,50.9,Weapon+Missile,Red,Allies,R-77,,xu,,805.2822672,758.3453979,2.39423724,1055.809937,480.8099365,805.2799507,1.931518555,0.040198372,NaN,2.846167148,0.048456647,5000,0.922637999,0.922637999,0.922637999,32423.97649,1035.395851,33459.37234,,,9.359999895,575,6104.245725,6107.233008
2018-07-19T08:37:06Z,1531989426,1CE0C,40.98987,44.182242,1056.87,13.1,0,56.5,539156.44,-74861.81,50.9,Weapon+Missile,Red,Allies,R-77,,xu,,742.0232307,699.9136963,2.206184709,1056.872314,474.0740967,742.0224702,1.06237793,0.071836188,NaN,2.507662973,0.049455859,5000,0.935068846,0.935068846,0.935068846,27529.92374,1036.437688,28566.36143,,,10.3599999,582.7982178,6842.444993,6845.5553
2018-07-19T08:37:07Z,1531989427,1CE0C,40.9968856,44.18559,1057.3,11,0,56.5,539680.94,-74434.96,50.9,Weapon+Missile,Red,Allies,R-77,,xu,,676.2415894,639.3254395,2.010612487,1057.297607,473.3087158,676.2414557,0.425292969,0.026547877,NaN,2.030751844,0.236563068,5000,1.186400533,1.186400533,1.186400533,22865.13436,1036.854758,23901.98912,,,11.3599999,583.9888916,7515.156327,7518.37826
2018-07-19T08:37:08Z,1531989428,1CE0C,41.0033803,44.1885647,1049.63,10.7,-2.4,60,540167.69,-74053.62,54.4,Weapon+Missile,Red,Allies,R-77,,xu,,618.3910228,586.3539429,1.838447573,1049.626953,480.9044189,618.3434468,-7.670654297,0.700117378,NaN,0.892309574,2.399917165,5000,3.313996315,3.313996315,3.313996315,19120.37286,1029.332416,20149.70527,,,12.3599999,568.7225342,8130.319632,8133.690985
2018-07-19T08:37:09Z,1531989429,1CE0C,41.0094373,44.1910447,1022.68,9.2,-2.9,60.5,540624.88,-73730.61,54.9,Weapon+Missile,Red,Allies,R-77,,xu,,560.4290125,533.7142334,1.665611619,1022.678467,447.0289307,559.7807223,-26.94848633,0.054042981,NaN,1.53848645,2.265776519,5000,0.874063253,0.874063253,0.874063253,15704.0339,1002.904979,16706.93888,,,13.3599999,575.6495361,8687.063614,8691.177128
2018-07-19T08:37:10Z,1531989430,1CE0C,41.0150452,44.1933288,996.55,7.8,-2.9,60.5,541048.25,-73432.87,54.9,Weapon+Missile,Red,Allies,R-77,,xu,,518.2463274,495.4203491,1.539779852,996.5546265,405.5546265,517.5874813,-26.12384033,0.03480419,NaN,1.461551199,0.072684979,5000,0.974393129,0.974393129,0.974393129,13428.96279,977.2862428,14406.24904,,,14.3599999,591,9201.843387,9206.700717
2018-07-19T08:37:11Z,1531989431,1CE0C,41.0201845,44.1954215,972.38,6.6,-2.9,60.5,541436.25,-73160.05,54.9,Weapon+Missile,Red,Allies,R-77,,xu,,474.9306785,455.8363342,1.410690478,972.3838501,376.050415,474.3152147,-24.17077637,0.197991767,NaN,1.307680698,1.116941155,5000,1.912233353,1.912233353,1.912233353,11277.95747,953.5828084,12231.54028,,,15.3599999,596.3334351,9673.567188,9679.116074
2018-07-19T08:37:12Z,1531989432,1CE0C,41.0249841,44.1972265,952.37,4.9,-2.3,64.9,541800.19,-72921.81,59.3,Weapon+Missile,Red,Allies,R-77,,xu,,435.4386635,419.4000244,1.293089047,952.3661499,338.1264648,434.9782998,-20.0177002,0.217455665,NaN,1.569194981,2.723775921,5000,2.734458447,2.734458447,2.734458447,9480.341483,933.9521504,10414.29363,,,16.3599999,614.2396851,10106.12748,10112.2045
2018-07-19T08:37:13Z,1531989433,1CE0C,41.0294667,44.1986949,937.67,3.8,-1.8,65.2,542142.38,-72723.45,59.5,Weapon+Missile,Red,Allies,R-77,,xu,,395.8003494,382.2425842,1.175179383,937.6661377,292.6511841,395.5272762,-14.70001221,0.223151762,NaN,1.030757508,1.216946651,5000,1.306537032,1.306537032,1.306537032,7832.89583,919.5363629,8752.432193,,,17.3599999,645.0149536,10499.44995,10505.85981
2018-07-19T08:37:14Z,1531989434,1CE0C,41.0335437,44.2000608,926.63,3.2,-1.7,65,542453.31,-72539.64,59.4,Weapon+Missile,Red,Allies,R-77,,xu,,361.3697856,349.309845,1.072814638,926.628479,260.7826538,361.2011795,-11.03765869,0.056801376,NaN,0.569255286,0.518138257,5000,1.009902358,1.009902358,1.009902358,6529.406098,908.7121174,7438.118215,,,18.3599999,665.8458252,10858.60205,10865.23394
2018-07-19T08:37:15Z,1531989435,1CE0C,41.0372656,44.2013107,916.62,2.7,-1.7,65,542737.12,-72371.51,59.4,Weapon+Missile,Red,Allies,R-77,,xu,,330.0278926,318.8031006,0.979655766,916.6168823,229.0860596,329.8760037,-10.01159668,0.062216191,NaN,0.384621613,0.00989117,5000,0.996414125,0.996414125,0.996414125,5445.920493,898.8940949,6344.814588,,,19.3599999,687.5308228,11186.60443,11193.43645
2018-07-19T08:37:16Z,1531989436,1CE0C,41.040685,44.2024588,907.37,2.3,-1.8,65,542997.88,-72217.04,59.4,Weapon+Missile,Red,Allies,R-77,,xu,,303.2105904,292.6414185,0.899955526,907.3699951,177.9494629,303.0695584,-9.246887207,0.064292016,NaN,0.399975878,0.050435277,5000,0.993855417,0.993855417,0.993855417,4596.833107,889.8259963,5486.659104,,,20.3599999,729.4205322,11487.92634,11494.94328
2018-07-19T08:37:17Z,1531989437,1CE0C,41.043898,44.2035375,898.64,2,-1.8,65,543242.81,-72071.9,59.4,Weapon+Missile,Red,Allies,R-77,,xu,,284.8443656,274.7846985,0.845358176,898.6445923,106.8845215,284.7106951,-8.725402832,0.062621338,NaN,0.261514283,0.039564685,5000,0.994724572,0.994724572,0.994724572,4056.815629,881.2692991,4938.084928,,,21.3599999,791.7600708,11771.06174,11778.25315
2018-07-19T08:37:18Z,1531989438,1CE0C,41.0469035,44.2045465,890.45,1.7,-1.8,65,543471.94,-71936.13,59.4,Weapon+Missile,Red,Allies,R-77,,xu,,266.4539786,256.9238892,0.790704906,890.4499512,87.92248535,266.327938,-8.194641113,0.055296342,NaN,0.199987939,0.013988227,5000,0.996397555,0.996397555,0.996397555,3549.886135,873.2331014,4423.119236,,,22.3599999,802.5274658,12035.89711,12043.2524
2018-07-19T08:37:19Z,1531989439,1CE0C,41.0497678,44.205508,882.62,1.4,-1.8,65,543690.31,-71806.75,59.4,Weapon+Missile,Red,Allies,R-77,,xu,,253.9466427,244.8143616,0.753521442,882.6176758,84.55609131,253.8258316,-7.832275391,0.093633294,NaN,0.230805752,0.776779859,5000,1.374430537,1.374430537,1.374430537,3224.444867,865.552263,4089.99713,,,23.3599999,798.0615845,12288.28071,12295.79256
2018-07-19T08:37:20Z,1531989440,1CE0C,41.0525174,44.2063463,875.84,0.6,-1.3,71.5,543900.88,-71691.94,65.8,Weapon+Missile,Red,Allies,R-77,,xu,,239.9259595,231.231308,0.711863203,875.8361206,83.45300293,239.8300994,-6.781555176,0.301359186,NaN,1.046166415,5.419197592,1574.023045,3.781420946,3.781420946,3.781420946,2878.223303,858.9018292,3737.125132,,,24.3599999,792.3831177,12526.72059,12534.36172
2018-07-19T08:37:21Z,1531989441,1CE0C,41.0551453,44.2068269,872.73,-0.4,-0.3,80.4,544105.62,-71617.8,74.7,Weapon+Missile,Red,Allies,R-77,,xu,,217.7794183,209.7328796,0.646131106,872.7315063,74.71038818,217.7572878,-3.104614258,0.286095523,NaN,0.969231164,8.941473213,1474.877956,3.433935404,3.433935404,3.433935404,2371.393751,855.8572427,3227.250994,,,25.3599999,798.0211182,12743.1343,12750.82736
2018-07-19T08:37:22Z,1531989442,1CE0C,41.0576166,44.2070104,873.95,-1.4,1.1,88,544301.12,-71577.95,82.3,Weapon+Missile,Red,Allies,R-77,,xu,,199.5256755,192.0128021,0.591982223,873.946167,76.17022705,199.5219782,1.214660645,0.533688142,NaN,0.984585429,6.758174217,2315.79393,2.191380501,2.191380501,2.191380501,1990.524759,857.0484179,2847.573177,,,26.3599999,797.7759399,12941.39081,12949.11474
2018-07-19T08:37:23Z,1531989443,1CE0C,41.0599321,44.2070421,878.93,-1.7,1.7,88.8,544485.81,-71556.15,83.1,Weapon+Missile,Red,Allies,R-77,,xu,,186.0359748,178.9052277,0.55199057,878.9268799,88.83502197,185.9692889,4.980712891,0.024951334,NaN,0.199987939,1.991230875,5000,1.126332521,1.126332521,1.126332521,1730.469196,861.9328287,2592.402025,,,27.3599999,790.0918579,13126.1935,13134.00992
2018-07-19T08:37:24Z,1531989444,1CE0C,41.0621456,44.207095,884.6,-1.6,1.9,87.4,544662.06,-71532.8,81.7,Weapon+Missile,Red,Allies,R-77,,xu,,177.8797932,170.9698639,0.527824647,884.6038208,99.48046875,177.7891818,5.676940918,0.032266194,NaN,0,1.409590642,5000,1.174024105,1.174024105,1.174024105,1582.061041,867.5000059,2449.561047,,,28.3599999,785.1233521,13302.92263,13310.85463
2018-07-19T08:37:25Z,1531989445,1CE0C,41.0642474,44.2071929,890.34,-1.6,2,85.1,544829,-71505.34,79.4,Weapon+Missile,Red,Allies,R-77,,xu,,169.2797027,162.6147003,0.50233864,890.3446045,104.2106934,169.182331,5.740783691,0.071754916,NaN,0.20004258,2.138751862,4147.031148,1.31024766,1.31024766,1.31024766,1432.780887,873.1297916,2305.910678,,,29.3599999,786.1339111,13470.99491,13479.04829
2018-07-19T08:37:26Z,1531989446,1CE0C,41.0662439,44.2073439,897,-2.2,2.9,83.5,544986.88,-71472.8,77.8,Weapon+Missile,Red,Allies,R-77,,xu,,161.3309067,154.8912201,0.47878718,897.0045776,105.3897095,161.1933814,6.659973145,0.246236445,NaN,0.769243225,1.337735451,5000,1.36353457,1.36353457,1.36353457,1301.383073,879.6609941,2181.044067,,,30.3599999,791.6148682,13631.18953,13639.40371
2018-07-19T08:37:27Z,1531989447,1CE0C,41.0681196,44.2074754,906.7,-2.7,4.3,85.9,545135.31,-71443.37,80.2,Weapon+Missile,Red,Allies,R-77,,xu,,151.6373574,145.4751129,0.450069484,906.7045898,112.7613525,151.3267918,9.700012207,0.051784762,NaN,0.369212706,2.145608732,2847.028217,1.506730437,1.506730437,1.506730437,1149.694407,889.1734566,2038.867864,,,31.3599999,793.9432373,13781.5809,13790.1288
2018-07-19T08:37:28Z,1531989448,1CE0C,41.069883,44.2075367,918.83,-3,5.4,88.9,545275.56,-71422.63,83.2,Weapon+Missile,Red,Allies,R-77,,xu,,142.2920256,136.3938751,0.422390819,918.8307495,124.1257935,141.774387,12.12615967,0.044335513,NaN,0.20004258,3.208429923,2480.689854,1.42810905,1.42810905,1.42810905,1012.351028,901.065157,1913.416185,,,32.3599999,794.7049561,13922.45405,13931.54297
2018-07-19T08:37:29Z,1531989449,1CE0C,41.0715309,44.2075277,932.05,-2.6,6,92.3,545407.38,-71410.61,86.6,Weapon+Missile,Red,Allies,R-77,,xu,,133.0180669,127.3910599,0.3949213,932.0484619,138.1228638,132.3597303,13.2177124,0.083940557,NaN,0.369208437,3.458310046,2126.723798,1.400472879,1.400472879,1.400472879,884.6903063,914.0273049,1798.717611,,,33.3599999,793.9255981,14053.95415,14063.72468
2018-07-19T08:37:30Z,1531989450,1CE0C,41.073079,44.2074502,945.91,-2.5,6.8,96,545531.94,-71406.98,90.3,Weapon+Missile,Red,Allies,R-77,,xu,,125.3836362,119.9758301,0.372314571,945.9084473,156.513916,124.615236,13.85998535,0.110136597,NaN,0.199987939,3.596614546,2108.060388,1.344773173,1.344773173,1.344773173,786.0528113,927.6193074,1713.672119,,,34.3599999,789.3945313,14177.78665,14188.34852
2018-07-19T08:37:31Z,1531989451,1CE0C,41.0745253,44.2073159,960.24,-1.3,6,98.2,545649,-71410.47,92.5,Weapon+Missile,Red,Allies,R-77,,xu,,117.9879778,112.8000031,0.350411667,960.2399902,174.7628784,117.1143449,14.33154297,0.076819584,NaN,2.400019191,2.422402575,2054.302223,0.386552662,0.386552662,0.386552662,696.058145,941.67375,1637.731895,,,35.3599999,785.4771118,14294.16141,14305.61969
2018-07-19T08:37:32Z,1531989452,1CE0C,41.075895,44.207175,967.58,2.6,1.4,98.2,545760,-71415.3,92.5,Weapon+Missile,Red,Allies,R-77,,xu,,111.3476856,106.3963699,0.330718662,967.5830688,187.1259766,111.1052937,7.343078613,0.085447624,NaN,3.815384652,4.078112574,1383.724317,0.104934238,0.104934238,0.104934238,619.9153548,948.8748502,1568.790205,,,36.3599999,780.4570923,14404.58153,14416.30035
2018-07-19T08:37:33Z,1531989453,1CE0C,41.0772089,44.2070397,966.04,6,-3.2,98.2,545866.5,-71419.95,92.5,Weapon+Missile,Red,Allies,R-77,,xu,,106.612225,101.8668289,0.316648038,966.039978,192.769165,106.6010572,-1.54309082,0.107476328,NaN,3.276923273,4.603868093,1335.880576,0.147686988,0.147686988,0.147686988,568.3083265,947.3615951,1515.669922,,,37.3599999,773.270813,14510.49979,14522.2459
2018-07-19T08:37:34Z,1531989454,1CE0C,41.0784648,44.2069104,956.41,8.8,-7.7,98.2,545968.25,-71424.38,92.5,Weapon+Missile,Red,Allies,R-77,,xu,,102.3007123,97.78212738,0.303808772,956.4092407,189.9067993,101.8463776,-9.630737305,0.084642369,NaN,2.707691893,4.561567024,1301.151345,0.181388184,0.181388184,0.181388184,523.2717866,937.9170681,1461.188855,,,38.3599999,766.5024414,14611.74261,14623.96094
2018-07-19T08:37:35Z,1531989455,1CE0C,41.079674,44.2067861,939.28,11.1,-12.2,98.2,546066.25,-71428.62,92.5,Weapon+Missile,Red,Allies,R-77,,xu,,99.57687451,95.25088501,0.295661334,939.2776489,183.7279663,98.09211232,-17.1315918,0.127881658,NaN,2.123077219,4.39618125,1303.309118,0.208612978,0.208612978,0.208612978,495.7776969,921.1167156,1416.894412,,,39.3599999,755.5496826,14709.22186,14722.94842
2018-07-19T08:37:36Z,1531989456,1CE0C,41.0808406,44.2066662,915.18,13,-16.5,98.2,546160.81,-71432.71,92.5,Weapon+Missile,Red,Allies,R-77,,xu,,97.67034642,93.5309906,0.289920151,915.1791992,170.2182617,94.65073318,-24.09844971,0.065316843,NaN,1.830769028,4.269257979,1325.934117,0.22895202,0.22895202,0.22895202,476.9748285,897.4842094,1374.459038,,,40.3599999,744.9609375,14803.26492,14820.04323
2018-07-19T08:37:37Z,1531989457,1CE0C,41.0819712,44.2065503,884.49,14.5,-20.6,98.2,546252.44,-71436.64,92.4,Weapon+Missile,Red,Allies,R-77,,xu,,96.70933436,92.74507141,0.28696627,884.4853516,145.6481934,91.7092311,-30.69384766,0.071182197,NaN,1.33846436,4.146460569,1372.120595,0.244476184,0.244476184,0.244476184,467.6347676,867.3838273,1335.018595,,,41.3599999,738.8371582,14894.39842,14916.21897
2018-07-19T08:37:38Z,1531989458,1CE0C,41.0830621,44.2064388,847.77,15.7,-24.5,98.1,546340.81,-71440.4,92.4,Weapon+Missile,Red,Allies,R-77,,xu,,95.77261569,92.0064621,0.284066925,847.7684326,111.0897217,88.4548573,-36.71691895,0.064961152,NaN,0.969231164,3.896469669,1448.477688,0.263149709,0.263149709,0.263149709,458.6196958,831.37683,1289.996526,,,42.3599999,736.6787109,14982.33608,15011.52513
2018-07-19T08:37:39Z,1531989459,1CE0C,41.0841238,44.2063306,805.14,16.5,-28.2,98.1,546426.88,-71444.02,92.4,Weapon+Missile,Red,Allies,R-77,,xu,,96.1104454,92.52004242,0.284929535,805.1376953,65.41693115,86.13848125,-42.6307373,0.068865466,NaN,0.707692975,3.676970014,1544.804196,0.2683779,0.2683779,0.2683779,461.8608857,789.570358,1251.431244,,,43.3599999,739.7207642,15067.90887,15107.13883
2018-07-19T08:37:40Z,1531989460,1CE0C,41.0851628,44.2062252,756.69,17,-31.7,98.1,546511.06,-71447.5,92.4,Weapon+Missile,Red,Allies,R-77,,xu,,97.19265116,93.78009033,0.287977896,756.6945801,13.71014404,84.25957527,-48.44311523,0.094784423,NaN,0.523076377,3.473378297,1671.676979,0.273779035,0.273779035,0.273779035,472.320572,742.0638904,1214.384462,,,44.3599999,742.984436,15151.64384,15203.88591
2018-07-19T08:37:41Z,1531989461,1CE0C,41.0861698,44.2061236,703.22,17.2,-34.9,98,546592.62,-71450.81,92.3,Weapon+Missile,Red,Allies,R-77,,xu,,97.58388704,94.39850616,0.288960156,703.2230835,-42.05114746,81.62973761,-53.47149658,0.064528674,NaN,0.184613183,3.188752361,1831.176416,0.284614772,0.284614772,0.284614772,476.1307505,689.6262652,1165.757016,,,45.3599999,745.274231,15232.79002,15301.07341
2018-07-19T08:37:42Z,1531989462,1CE0C,41.0871619,44.206024,644.13,17.2,-37.8,98,546673.06,-71454.02,92.3,Weapon+Missile,Red,Allies,R-77,,xu,,99.8610363,96.87651062,0.295503399,644.1322632,-104.6426392,80.50156226,-59.09082031,0.089631246,NaN,0.123052688,2.931068961,2245.723399,0.348222613,0.348222613,0.348222613,498.6113286,631.6779659,1130.289294,,,46.3599999,748.7749023,15312.72603,15400.48589
2018-07-19T08:37:43Z,1531989463,1CE0C,41.0881346,44.2059329,580.8,16.7,-38.6,95.7,546751.81,-71456.45,90,Weapon+Missile,Red,Allies,R-77,,xu,,101.0872705,98.36346436,0.29891576,580.7984619,-171.4290161,78.78747287,-63.33380127,0.258485308,NaN,0.90770482,1.619439773,1869.72671,1.177125812,1.177125812,1.177125812,510.9318132,569.5687237,1080.500537,,,47.3599999,752.227478,15391.01173,15501.18841
