ISOTime,UnixTime,Id,Longitude,Latitude,Altitude,Roll,Pitch,Yaw,U,V,Heading,Type,Color,Coalition,Name,Group,Country,Pilot,TAS,CAS,M,ASL,AGL,GS,VS,AOA,AOS,RRT,TRT,TRD,G,LatG,LonG,Ek,Ep,Em,FFW,FFV,RelativeTime,Elev,GroundDistance,AirDistance
2018-07-19T08:37:47Z,1531989467,2820D,40.9904724,44.2398888,1032.97,23.3,-2,72.1,538577.69,-68452.64,66.4,Weapon+Missile,Red,Allies,R-77,,xu,,311.5553957,299.3259277,0.926061728,1032.970703,496.4812622,NaN,NaN,NaN,NaN,NaN,NaN,NaN,NaN,NaN,NaN,NaN,1012.998215,NaN,,,0.049999952,536.4894409,NaN,NaN
2018-07-19T08:37:48Z,1531989468,2820D,40.9943489,44.2408293,1009.99,18.9,-0.6,72.4,538877.06,-68317.82,66.8,Weapon+Missile,Red,Allies,R-77,,xu,,329.1349378,316.7872314,0.9780558,1009.994629,479.2185059,328.3320077,-22.97607422,3.376742446,NaN,4.200019924,7.077927302,3776.755881,3.672250509,3.672250509,3.672250509,5416.490364,990.4663828,6406.956746,,,1.049999952,530.776123,326.404182,327.2639886
2018-07-19T08:37:49Z,1531989469,2820D,40.9992844,44.2417038,991.43,15.2,0.7,79.3,539261.75,-68182.03,73.7,Weapon+Missile,Red,Allies,R-77,,xu,,408.3719446,393.3885193,1.213256651,991.4338379,454.7741699,407.949926,-18.56079102,1.32659542,NaN,2.892339227,3.861315539,4963.106305,4.220353603,4.220353603,4.220353603,8338.382256,972.2644646,9310.64672,,,2.049999952,536.659668,731.8762249,733.2241774
2018-07-19T08:37:50Z,1531989470,2820D,41.0057517,44.2425642,997.96,13.1,0.6,79.7,539768.88,-68035.77,74,Weapon+Missile,Red,Allies,R-77,,xu,,527.8349306,504.2290344,1.56829429,997.9607544,416.5482788,527.7945749,6.526916504,0.107327365,NaN,1.938462328,1.127449294,5000,1.361492038,1.361492038,1.361492038,13930.4857,978.6651832,14909.15088,,,3.049999952,581.4124756,1256.456945,1257.927304
2018-07-19T08:37:51Z,1531989471,2820D,41.0136303,44.2435772,1008.75,10.7,1.4,80.1,540387.06,-67861.45,74.5,Weapon+Missile,Red,Allies,R-77,,xu,,642.3860445,609.4391479,1.908883975,1008.753052,366.0115356,642.295381,10.79229736,0.084555068,NaN,2.646179209,0.863911941,5000,2.908564568,2.908564568,2.908564568,20632.99151,989.2488115,21622.24032,,,4.049999952,642.7415161,1894.796276,1896.458265
2018-07-19T08:37:52Z,1531989472,2820D,41.0229801,44.2447117,1040.4,7.6,3.6,80.9,541121.31,-67662.03,75.2,Weapon+Missile,Red,Allies,R-77,,xu,,761.5075997,718.4019165,2.263685633,1040.402344,396.7627563,760.8496216,31.64929199,0.07116736,NaN,3.276906198,1.956257319,5000,4.164008617,4.164008617,4.164008617,28994.69122,1020.286164,30014.97739,,,5.049999952,643.6395874,2651.024512,2653.46987
2018-07-19T08:37:53Z,1531989473,2820D,41.0336267,44.2459066,1108.39,5.2,5.2,81.2,541958.5,-67445.6,75.6,Weapon+Missile,Red,Allies,R-77,,xu,,867.3797079,813.8792114,2.580428863,1108.393799,466.5142212,864.7107723,67.99145508,0.103188972,NaN,1.892290249,1.607670717,5000,2.566819429,2.566819429,2.566819429,37617.37789,1086.963005,38704.34089,,,6.049999952,641.8795776,3510.39143,3515.666578
2018-07-19T08:37:54Z,1531989474,2820D,41.0454308,44.2472466,1200.36,4.1,5.9,80.9,542886.56,-67203.82,75.2,Weapon+Missile,Red,Allies,R-77,,xu,,963.4398699,898.9501953,2.869254223,1200.362305,522.7157593,959.0402373,91.96850586,0.032014596,NaN,1.492314371,1.00623222,5000,2.77696991,2.77696991,2.77696991,46410.81914,1177.1533,47587.97244,,,7.049999952,677.6465454,4463.43405,4473.308084
2018-07-19T08:37:55Z,1531989475,2820D,41.0569072,44.2485927,1306.74,2.7,7.2,80.5,543788.25,-66963.8,74.8,Weapon+Missile,Red,Allies,R-77,,xu,,939.1312329,872.2973022,2.800309605,1306.738403,599.2703857,933.0871332,106.3760986,0.08489094,NaN,1.553840715,1.325830431,5000,3.326440334,3.326440334,3.326440334,44098.37363,1281.472616,45379.84624,,,8.049999952,707.4680176,5390.759405,5406.895917
2018-07-19T08:37:56Z,1531989476,2820D,41.0672872,44.2499632,1420.25,1.6,7.8,78.6,544602.12,-66729.62,72.9,Weapon+Missile,Red,Allies,R-77,,xu,,854.4691476,790.8008423,2.55122565,1420.25,746.7293091,846.895886,113.5115967,0.124153098,NaN,0.692307974,1.850023118,5000,3.386867046,3.386867046,3.386867046,36505.87621,1392.789466,37898.66568,,,9.049999952,673.5206909,6232.400938,6256.335877
2018-07-19T08:37:57Z,1531989477,2820D,41.0766612,44.2514893,1513.53,3.5,5,76,545333.88,-66485.98,70.3,Weapon+Missile,Red,Allies,R-77,,xu,,776.863122,717.4854126,2.322035055,1513.530762,862.612793,771.2425104,93.28076172,0.139752609,NaN,3.061538807,3.329661085,5000,5.300145626,5.300145626,5.300145626,30175.81552,1484.266644,31660.08216,,,10.04999995,650.9179688,6998.920306,7028.685236
2018-07-19T08:37:58Z,1531989478,2820D,41.0851895,44.2530499,1543.25,8,-0.7,76.1,545997.69,-66245.13,70.4,Weapon+Missile,Red,Allies,R-77,,xu,,706.7812557,653.6190796,2.113293483,1543.25,885.0166626,706.1561515,29.71923828,0.140366795,NaN,4.815385818,5.403883881,5000,6.514592648,6.514592648,6.514592648,24976.98717,1513.411261,26490.39843,,,11.04999995,658.2333374,7700.766954,7731.328856
2018-07-19T08:37:59Z,1531989479,2820D,41.0929827,44.2542959,1503.23,11.7,-6.2,79.8,546606.25,-66044.99,74,Weapon+Missile,Red,Allies,R-77,,xu,,641.8773178,596.4951172,1.918333576,1503.226196,841.2211914,640.6282746,-40.02380371,0.144633005,NaN,3.030770086,6.331221226,5000,6.756512165,6.756512165,6.756512165,20600.32455,1474.161318,22074.48587,,,12.04999995,662.0050049,8337.44137,8369.411809
2018-07-19T08:38:00Z,1531989480,2820D,41.1001665,44.2549603,1422.83,12.1,-8.8,86.1,547172.56,-65914.23,80.3,Weapon+Missile,Red,Allies,R-77,,xu,,586.746019,548.8933716,1.751925671,1422.830688,769.9246826,581.2120553,-80.39550781,0.150465692,NaN,0.938467992,6.621117933,4933.212231,6.725083351,6.725083351,6.725083351,17213.54454,1395.320257,18608.8648,,,13.04999995,652.9060059,8914.973506,8952.644044
2018-07-19T08:38:01Z,1531989481,2820D,41.1066867,44.2549988,1344.56,9.3,-7.9,93.4,547692.75,-65858.22,87.6,Weapon+Missile,Red,Allies,R-77,,xu,,529.0171037,498.4750366,1.57812042,1344.559937,704.6208496,523.1947872,-78.27075195,0.0638933,NaN,3.076918259,7.241429737,3896.635604,7.249091148,7.249091148,7.249091148,13992.9548,1318.56287,15311.51767,,,14.04999995,639.9390869,9434.85416,9478.495247
2018-07-19T08:38:02Z,1531989482,2820D,41.1125587,44.2544692,1289.19,5.1,-4.9,101.2,548167.5,-65870.44,95.5,Weapon+Missile,Red,Allies,R-77,,xu,,478.1242284,453.2931519,1.42538475,1289.189209,660.914978,474.9072124,-55.37072754,0.031330311,NaN,4.553878365,8.41957419,2994.662605,7.805678844,7.805678844,7.805678844,11430.13889,1264.262736,12694.40163,,,15.04999995,628.274231,9906.742899,9953.718206
2018-07-19T08:38:03Z,1531989483,2820D,41.1176504,44.2534611,1269.76,-0.2,0.3,110.1,548585.19,-65941.97,104.4,Weapon+Missile,Red,Allies,R-77,,xu,,424.2136351,404.1037292,1.264381469,1269.756226,639.9091187,423.7682945,-19.4329834,0.073401901,NaN,5.507700622,10.36962223,2098.819672,8.691128731,8.691128731,8.691128731,8997.860411,1245.205489,10243.0659,,,16.04999995,629.8471069,10327.94205,10375.44982
2018-07-19T08:38:04Z,1531989484,2820D,41.1217791,44.2520719,1293.64,-5.9,7.5,120.9,548930.25,-66063.49,115.1,Weapon+Missile,Red,Allies,R-77,,xu,,366.6146323,349.6068726,1.093008517,1293.635376,667.3833618,365.836131,23.87915039,0.361480066,NaN,5.461583185,12.30208594,1650.543081,8.308309555,8.308309555,8.308309555,6720.31443,1268.622936,7988.937366,,,17.04999995,626.2520142,10691.65258,10740.01632
2018-07-19T08:38:05Z,1531989485,2820D,41.1248739,44.250476,1352.81,-9.9,14.6,130.6,549195,-66216.18,124.8,Weapon+Missile,Red,Allies,R-77,,xu,,311.3002595,295.3045654,0.92873439,1352.811523,742.6629028,305.6240095,59.17614746,0.230687281,NaN,3.846106842,12.00756477,1599.723978,6.429099083,6.429099083,6.429099083,4845.392579,1326.654913,6172.047492,,,18.04999995,610.1486206,10995.72208,11049.85248
2018-07-19T08:38:06Z,1531989486,2820D,41.1271549,44.2488461,1435.22,-12.1,20.6,139.5,549395.19,-66379.09,133.8,Weapon+Missile,Red,Allies,R-77,,xu,,270.9390036,255.4367523,0.809095308,1435.224609,833.8104858,258.1008077,82.41308594,0.202501474,NaN,1.600012794,10.39639913,1592.777364,5.023757935,5.023757935,5.023757935,3670.397183,1407.474542,5077.871724,,,19.04999995,601.4141235,11252.62708,11319.70605
2018-07-19T08:38:07Z,1531989487,2820D,41.1288014,44.2472391,1529.4,-12.8,25.1,148,549544.5,-66544.54,142.3,Weapon+Missile,Red,Allies,R-77,,xu,,241.9414367,226.7196045,0.723294049,1529.401489,920.8956299,222.8595389,94.17687988,0.22292597,NaN,0.323040627,8.701308394,1902.159375,3.544550419,3.544550419,3.544550419,2926.782939,1499.830511,4426.613451,,,20.04999995,608.5058594,11474.52777,11560.81202
2018-07-19T08:38:08Z,1531989488,2820D,41.129999,44.2457083,1626.82,-12.3,27,151.9,549657.06,-66705.07,146.2,Weapon+Missile,Red,Allies,R-77,,xu,,218.9317179,203.9458008,0.655250425,1626.820679,1006.617249,196.0627416,97.41918945,0.143674877,NaN,0.76923981,4.146282984,5000,1.192515731,1.192515731,1.192515731,2396.554855,1595.366101,3991.920956,,,21.04999995,620.2034302,11669.87151,11779.14333
2018-07-19T08:38:09Z,1531989489,2820D,41.1310674,44.2442688,1719.6,-11.1,26.9,151.9,549758.38,-66856.48,146.2,Weapon+Missile,Red,Allies,R-77,,xu,,204.4476623,189.4630432,0.612565165,1719.602173,1088.775024,182.1824387,92.78149414,0.0220636,NaN,1.492305834,0.316673583,5000,0.864445746,0.864445746,0.864445746,2089.942332,1686.353665,3776.295997,,,22.04999995,630.8271484,11851.35421,11983.01009
2018-07-19T08:38:10Z,1531989490,2820D,41.1320719,44.2429181,1806.41,-9.2,26.9,151.9,549853.56,-66998.56,146.2,Weapon+Missile,Red,Allies,R-77,,xu,,191.7881979,176.8659821,0.575220194,1806.411499,1166.891968,171.0171154,86.80932617,0.0251879,NaN,1.738457314,0.048456647,5000,0.896891236,0.896891236,0.896891236,1839.135644,1771.484533,3610.620176,,,23.04999995,639.5195313,12021.72953,12174.26819
2018-07-19T08:38:11Z,1531989491,2820D,41.1330151,44.241649,1888.01,-7.7,26.9,152,549942.94,-67132.04,146.2,Weapon+Missile,Red,Allies,R-77,,xu,,180.1726958,165.3890839,0.540900778,1888.01001,1241.500305,160.635872,81.59851074,0.048103573,NaN,1.338481436,0.040782342,5000,0.897724569,0.897724569,0.897724569,1623.110016,1851.505336,3474.615352,,,24.04999995,646.5097046,12181.77602,12353.9569
2018-07-19T08:38:12Z,1531989492,2820D,41.1338946,44.2404647,1964.22,-6.4,27,152,550026.31,-67256.6,146.2,Weapon+Missile,Red,Allies,R-77,,xu,,168.1532595,153.6732483,0.505270032,1964.22229,1309.124756,149.8906502,76.21228027,0.045342337,NaN,1.307676429,0.048456647,5000,0.897452235,0.897452235,0.897452235,1413.775935,1926.244052,3340.019987,,,25.04999995,655.0975342,12331.11347,12521.65741
2018-07-19T08:38:13Z,1531989493,2820D,41.1347182,44.2393549,2035.69,-5.3,27,152,550104.38,-67373.35,146.2,Weapon+Missile,Red,Allies,R-77,,xu,,157.5822592,143.4187164,0.473905318,2035.691528,1373.482239,140.4432854,71.46923828,0.029693655,NaN,0.938480799,0,5000,0.897653937,0.897653937,0.897653937,1241.608421,1996.331433,3237.939854,,,26.04999995,662.2092896,12471.02809,12678.80775
2018-07-19T08:38:14Z,1531989494,2820D,41.1354919,44.2383119,2102.9,-4.4,27,152,550177.69,-67483.05,146.2,Weapon+Missile,Red,Allies,R-77,,xu,,148.0776449,134.247757,0.445675264,2102.903809,1437.596924,131.9450578,67.21228027,0.060259527,NaN,0.923067623,0,5000,0.892967045,0.892967045,0.892967045,1096.349446,2062.244163,3158.593609,,,27.04999995,665.3068848,12602.5152,12826.51548
2018-07-19T08:38:15Z,1531989495,2820D,41.1362099,44.2373434,2165.34,-3.7,27,152,550245.75,-67584.94,146.3,Weapon+Missile,Red,Allies,R-77,,xu,,137.5161335,124.2095947,0.414193653,2165.338379,1498.941772,122.5259621,62.43457031,0.050818874,NaN,0.615401752,0.040782342,5000,0.892313659,0.892313659,0.892313659,945.534348,2123.471561,3069.005909,,,28.04999995,666.3966064,12724.58964,12963.66583
2018-07-19T08:38:16Z,1531989496,2820D,41.1368751,44.2364457,2223.24,-3.1,27,152,550308.88,-67679.38,146.3,Weapon+Missile,Red,Allies,R-77,,xu,,127.496143,114.760643,0.384277274,2223.235352,1556.037109,113.5922842,57.89697266,0.033980046,NaN,0.56921772,0.06177035,5000,0.790780008,0.790780008,0.790780008,812.7633237,2180.249096,2993.01242,,,29.04999995,667.1982422,12837.73576,13090.79927
2018-07-19T08:38:17Z,1531989497,2820D,41.1374938,44.2356105,2275.99,-1.6,24.8,152,550367.56,-67767.23,146.3,Weapon+Missile,Red,Allies,R-77,,xu,,118.0937433,105.9611588,0.356160942,2275.986084,1611.681396,105.6574296,52.75073242,0.119033221,NaN,2.369205647,2.149917514,1750.002015,0.128428042,0.128428042,0.128428042,697.3066101,2231.979893,2929.286503,,,30.04999995,664.3046875,12942.99213,13208.56752
2018-07-19T08:38:18Z,1531989498,2820D,41.138085,44.2348118,2318.16,0.7,20.2,152.1,550423.62,-67851.25,146.3,Weapon+Missile,Red,Allies,R-77,,xu,,109.4558835,97.9566803,0.330275257,2318.163818,1657.150024,101.0031146,42.17773438,0.078238757,NaN,2.307686773,4.596231941,1285.804413,0.024827063,0.024827063,0.024827063,599.0295214,2273.342121,2872.371642,,,31.04999995,661.0137939,13043.63111,13317.72091
2018-07-19T08:38:19Z,1531989499,2820D,41.1386508,44.2340452,2349.25,2.7,15.1,152.2,550477.31,-67931.91,146.4,Weapon+Missile,Red,Allies,R-77,,xu,,101.7618809,90.89167023,0.307172635,2349.251465,1690.86438,96.89705174,31.08764648,0.095541882,NaN,1.907692326,5.134820105,1111.438668,0.044776972,0.044776972,0.044776972,517.77402,2303.828688,2821.602708,,,32.04999995,658.387085,13140.16039,13419.16628
2018-07-19T08:38:20Z,1531989500,2820D,41.1391947,44.2333054,2370.04,4.4,9.7,152.2,550529,-68009.77,146.5,Weapon+Missile,Red,Allies,R-77,,xu,,95.73222399,85.39000702,0.289043311,2370.040771,1713.140747,93.4476508,20.78930664,0.066374051,NaN,1.738461156,5.438831398,976.130415,0.057276465,0.057276465,0.057276465,458.2329355,2324.216033,2782.448969,,,33.04999995,656.9000244,13233.25014,13514.58279
2018-07-19T08:38:21Z,1531989501,2820D,41.1397192,44.2325899,2381,6.1,4,152.3,550578.75,-68085.09,146.5,Weapon+Missile,Red,Allies,R-77,,xu,,90.93075552,81.04291534,0.274582099,2381.003906,1724.94281,90.26744693,10.96313477,0.084112827,NaN,1.538462545,5.723942704,880.6548251,0.058431216,0.058431216,0.058431216,413.4201149,2334.967196,2748.387311,,,34.04999995,656.0610962,13323.21168,13605.24314
2018-07-19T08:38:22Z,1531989502,2820D,41.1402269,44.2318959,2382.55,7.5,-2.1,152.3,550627.06,-68158.13,146.6,Weapon+Missile,Red,Allies,R-77,,xu,,87.5917924,78.04798126,0.264504342,2382.546143,1724.615417,87.57821421,1.542236328,0.098799596,NaN,1.446153392,5.973081111,830.2219406,0.071766965,0.071766965,0.071766965,383.6161048,2336.479613,2720.095718,,,35.04999995,657.9307251,13410.4355,13692.51315
2018-07-19T08:38:23Z,1531989503,2820D,41.1407178,44.2312256,2375.09,8.7,-8.2,152.2,550673.69,-68228.69,146.5,Weapon+Missile,Red,Allies,R-77,,xu,,84.89636452,75.66448212,0.256342122,2375.09375,1712.581177,84.56863812,-7.452392578,0.079561006,NaN,1.169231056,6.112355071,798.2093043,0.075746648,0.075746648,0.075746648,360.3696354,2329.171312,2689.540948,,,36.04999995,662.5125732,13494.70828,13777.14612
2018-07-19T08:38:24Z,1531989504,2820D,41.1411984,44.2305725,2358.86,9.7,-14.2,152.1,550719.31,-68297.44,146.3,Weapon+Missile,Red,Allies,R-77,,xu,,84.09318012,75.00665283,0.25386791,2358.862305,1691.984253,82.51183627,-16.23144531,0.100729506,NaN,0.969232872,6.013336111,806.8367711,0.083080247,0.083080247,0.083080247,353.5831471,2313.253702,2666.836849,,,37.04999995,666.8780518,13576.89958,13860.95474
2018-07-19T08:38:25Z,1531989505,2820D,41.141669,44.2299382,2334.18,10.4,-20.1,151.8,550763.94,-68364.14,146.1,Weapon+Missile,Red,Allies,R-77,,xu,,83.96450187,74.98363495,0.253405064,2334.17749,1663.817139,80.25395635,-24.68481445,0.09268774,NaN,0.769231272,5.843340814,844.9428317,0.098552838,0.098552838,0.098552838,352.5018787,2289.046168,2641.548047,,,38.04999995,670.3603516,13656.8649,13944.67151
2018-07-19T08:38:26Z,1531989506,2820D,41.1421298,44.2293252,2301.5,11.1,-25.5,151.5,550807.56,-68428.57,145.7,Weapon+Missile,Red,Allies,R-77,,xu,,84.39402266,75.49142456,0.254602482,2301.496826,1629.220215,77.80954476,-32.68066406,0.006460763,NaN,0.599999675,5.543974476,900.1308761,0.103929862,0.103929862,0.103929862,356.117553,2256.997385,2613.114938,,,39.04999995,672.2766113,13734.37158,14028.81233
2018-07-19T08:38:27Z,1531989507,2820D,41.1425878,44.2287261,2260.66,11.5,-30.8,151,550850.81,-68491.48,145.2,Weapon+Missile,Red,Allies,R-77,,xu,,86.57455244,77.60765839,0.261054201,2260.663086,1585.911926,76.3397589,-40.83374023,0.125479213,NaN,0.399999783,5.152318196,997.5112768,0.108667754,0.108667754,0.108667754,374.7576565,2216.953165,2591.710822,,,40.04999995,674.7511597,13810.41444,14115.14916
2018-07-19T08:38:28Z,1531989508,2820D,41.1430396,44.2281478,2212.41,11.8,-35.4,150.4,550893.25,-68552.12,144.6,Weapon+Missile,Red,Allies,R-77,,xu,,88.35896987,79.40345001,0.266282476,2212.412354,1535.809753,74.02144539,-48.25073242,0.051665472,NaN,0.199999892,4.720283544,1130.040937,0.139668018,0.139668018,0.139668018,390.3653778,2169.635361,2560.000738,,,41.04999995,676.6026001,13884.19441,14203.32759
2018-07-19T08:38:29Z,1531989509,2820D,41.1434903,44.2275852,2156.68,12,-39.7,149.8,550935.56,-68611.03,144,Weapon+Missile,Red,Allies,R-77,,xu,,91.46949727,82.43831635,0.275474597,2156.67749,1478.772461,72.52788392,-55.73486328,0.096373066,NaN,0.199999892,4.255308171,1278.144033,0.128062546,0.128062546,0.128062546,418.3334465,2114.978131,2533.311577,,,42.04999995,677.9050293,13956.39908,14294.5606
2018-07-19T08:38:30Z,1531989510,2820D,41.1439374,44.227043,2094.19,12.1,-43.5,149,550977.25,-68667.7,143.2,Weapon+Missile,Red,Allies,R-77,,xu,,94.09585141,85.07782745,0.28317492,2094.19165,1415.569702,70.35303172,-62.48583984,0.0278042,NaN,0.200001599,3.888918895,1473.515096,0.152134567,0.152134567,0.152134567,442.7014627,2053.700455,2496.401917,,,43.04999995,678.6219482,14026.50937,14388.49254
2018-07-19T08:38:31Z,1531989511,2820D,41.1443847,44.2265177,2024.89,12.1,-46.9,148.1,551018.81,-68722.5,142.4,Weapon+Missile,Red,Allies,R-77,,xu,,97.63634381,88.59547424,0.293589427,2024.890015,1345.959412,68.77600538,-69.30163574,0.05708302,NaN,0,3.364174244,2053.344248,0.238165259,0.238165259,0.238165259,476.6427816,1985.738766,2462.381548,,,44.04999995,678.930603,14095.0097,14485.95044
2018-07-19T08:38:32Z,1531989512,2820D,41.1448371,44.226004,1949.83,10.9,-48,147.3,551060.62,-68775.96,141.6,Weapon+Missile,Red,Allies,R-77,,xu,,101.1935332,92.17810059,0.304016662,1949.831543,1270.063843,67.87014804,-75.05847168,0.010746744,NaN,1.938462328,1.330619888,5000,0.706750512,0.706750512,0.706750512,512.0065583,1912.13155,2424.138108,,,45.04999995,679.7677002,14162.63138,14586.9916
2018-07-19T08:38:33Z,1531989513,2820D,41.1453149,44.2254763,1872.5,9.3,-47.5,146.7,551104.69,-68830.77,140.9,Weapon+Missile,Red,Allies,R-77,,xu,,104.5278987,95.59085083,0.313748489,1872.5,1191.919373,70.32719291,-77.33154297,0.044141735,NaN,1.538431809,0.655374313,5000,0.759458601,0.759458601,0.759458601,546.30408,1836.295213,2382.599293,,,46.04999995,680.5806274,14232.65996,14691.33291
2018-07-19T08:38:34Z,1531989514,2820D,41.1458213,44.2249296,1793.06,7.9,-47.1,146.1,551151.19,-68887.48,140.4,Weapon+Missile,Red,Allies,R-77,,xu,,108.1132286,99.26976013,0.324207472,1793.05835,1111.759766,73.33140108,-79.44165039,0.015180764,NaN,1.33844387,0.536324596,5000,0.750198603,0.750198603,0.750198603,584.4235101,1758.389566,2342.813076,,,47.04999995,681.298584,14305.70682,14799.26755
