ISOTime,UnixTime,Id,Longitude,Latitude,Altitude,Roll,Pitch,Yaw,U,V,Heading,Type,Color,Coalition,Name,Group,Country,Pilot,TAS,CAS,M,ASL,AGL,GS,VS,AOA,AOS,RRT,TRT,TRD,G,LatG,LonG,Ek,Ep,Em,FFW,FFV,RelativeTime,Elev,GroundDistance,AirDistance
2018-07-19T08:35:28Z,1531989328,C90D,40.6074387,44.1579393,6399.06,-18.9,-13.1,76.1,508833.38,-80480.28,70.7,Weapon+Missile,Red,Allies,R-27ER,,xu,,352.767096,271.9404297,1.120145294,6399.062012,5822.113892,NaN,NaN,3.600656848,NaN,4.35384603,2.96327915,NaN,NaN,NaN,NaN,NaN,6275.336148,NaN,,,0.950000048,576.9481201,NaN,NaN
2018-07-19T08:35:29Z,1531989329,C90D,40.6132974,44.1589583,6254.46,-14.8,-14.2,74.2,509291.41,-80323.45,68.8,Weapon+Missile,Red,Allies,R-27ER,,xu,,505.2696704,390.9226074,1.601344695,6254.459961,5692.157593,484.1360209,-144.6020508,1.263422687,NaN,4.476919208,2.337645477,5000,6.009840012,6.009840012,6.009840012,12764.87199,6133.529978,18898.40197,,,1.950000048,562.3023682,481.4419145,503.1462379
2018-07-19T08:35:30Z,1531989330,C90D,40.6219874,44.1609911,6074.06,-13.4,-12.2,71.5,509965.38,-80032.86,66.2,Weapon+Missile,Red,Allies,R-27ER,,xu,,755.7939468,567.9678345,2.389684097,6074.055176,5491.267273,733.9472757,-180.4047852,0.578535505,NaN,0.723071146,1.425265286,5000,6.288731098,6.288731098,6.288731098,28561.2245,5956.613319,34517.83782,,,2.950000048,582.7879028,1211.388646,1255.740766
2018-07-19T08:35:31Z,1531989331,C90D,40.6338589,44.1633755,5873.49,-13.6,-11.1,77.1,510890.06,-79679.37,71.7,Weapon+Missile,Red,Allies,R-27ER,,xu,,1010.064061,752.3118286,3.185316978,5873.491699,5244.93042,989.9513621,-200.5634766,0.121020607,NaN,0.476948695,3.978302166,5000,8.836448669,8.836448669,8.836448669,51011.47037,5759.927737,56771.39811,,,3.950000048,628.5612793,2195.871803,2261.34962
2018-07-19T08:35:32Z,1531989332,C90D,40.6469983,44.165188,5664.59,-12.7,-10.9,81.2,511922,-79379.78,75.8,Weapon+Missile,Red,Allies,R-27ER,,xu,,1094.663581,821.0384521,3.442787171,5664.585938,4972.94635,1074.544898,-208.9057617,0.046182468,NaN,0.969226041,4.266416193,5000,7.654284,7.654284,7.654284,59914.41776,5555.061168,65469.47893,,,4.950000048,691.6395874,3264.334713,3350.992096
2018-07-19T08:35:33Z,1531989333,C90D,40.6602991,44.1663458,5458.24,-12,-10.5,84.9,512973.62,-79151.57,79.5,Weapon+Missile,Red,Allies,R-27ER,,xu,,1095.706674,830.4060059,3.436926014,5458.242188,4760.521851,1076.101934,-206.34375,0.332222681,NaN,0.415359171,3.129293217,5000,5.733177662,5.733177662,5.733177662,60028.65579,5352.707075,65381.36286,,,5.950000048,697.7203369,4334.22873,4441.518581
2018-07-19T08:35:34Z,1531989334,C90D,40.6737101,44.1671542,5281.86,-12,-8.5,85.4,514037.66,-78961.16,80,Weapon+Missile,Red,Allies,R-27ER,,xu,,1095.228763,837.4644165,3.427673587,5281.864746,4476.782288,1080.933412,-176.3774414,0.054253728,NaN,0.692290899,1.862470497,5000,3.498771906,3.498771906,3.498771906,59976.30214,5179.739891,65156.04203,,,6.950000048,805.0824585,5408.886387,5531.446841
2018-07-19T08:35:35Z,1531989335,C90D,40.6872039,44.1679212,5129.08,-11.2,-7.4,85.7,515108.69,-78774.55,80.3,Weapon+Missile,Red,Allies,R-27ER,,xu,,1097.84999,845.8641968,3.429187073,5129.078613,4187.603821,1087.166499,-152.7861328,0.090581863,NaN,0.569195522,1.098699854,5000,2.930399418,2.930399418,2.930399418,60263.72998,5029.907878,65293.63786,,,7.950000048,941.4747925,6489.747326,6623.926445
2018-07-19T08:35:36Z,1531989336,C90D,40.7008827,44.168639,4992.86,-10.2,-6.7,86,516195.03,-78591.85,80.6,Weapon+Missile,Red,Allies,R-27ER,,xu,,1109.990655,860.7614746,3.461111595,4992.85791,4018.477295,1101.600279,-136.2207031,0.035264883,NaN,0.969227749,0.806263171,5000,2.170771122,2.170771122,2.170771122,61603.96275,4896.321002,66500.28375,,,8.950000048,974.3806152,7584.903679,7728.384519
2018-07-19T08:35:37Z,1531989337,C90D,40.7145766,44.1693006,4867.26,-9.2,-6.3,86.5,517283.16,-78415.07,81.1,Weapon+Missile,Red,Allies,R-27ER,,xu,,1109.523113,865.8392944,3.454153961,4867.263672,3912.959839,1102.391775,-125.5942383,0.030334163,NaN,0.938450916,0.614380052,5000,1.983758926,1.983758926,1.983758926,61552.07693,4773.155129,66325.23206,,,9.950000048,954.303833,8680.81586,8832.311523
2018-07-19T08:35:38Z,1531989338,C90D,40.7282987,44.1698576,4747.4,-8.2,-6,87,518374.59,-78249.52,81.5,Weapon+Missile,Red,Allies,R-27ER,,xu,,1110.409659,871.7148438,3.451685195,4747.396973,3919.948975,1103.921005,-119.8666992,0.031559629,NaN,0.846157985,0.478272044,5000,1.698761463,1.698761463,1.698761463,61650.48049,4655.606052,66306.08654,,,10.95000005,827.447998,9778.24212,9937.086877
2018-07-19T08:35:39Z,1531989339,C90D,40.7414877,44.1703807,4638.92,-7.1,-5.9,87.2,519423.75,-78091.6,81.7,Weapon+Missile,Red,Allies,R-27ER,,xu,,1066.506078,842.8568726,3.310686637,4638.920898,3713.032288,1060.975097,-108.4760742,0.052873067,NaN,1.353820333,0.264855393,5000,1.172517061,1.172517061,1.172517061,56871.76071,4549.227363,61420.98807,,,11.95000005,925.8886108,10832.94773,10998.12818
2018-07-19T08:35:40Z,1531989340,C90D,40.7538808,44.1708123,4536.64,-6.3,-5.6,87.2,520410.16,-77949.68,81.8,Weapon+Missile,Red,Allies,R-27ER,,xu,,1001.798564,797.444458,3.105827282,4536.640625,3739.413818,996.5636501,-102.2802734,0.052044094,NaN,0.569251017,0.25831007,5000,1.388067126,1.388067126,1.388067126,50180.01815,4448.924679,54628.94283,,,12.95000005,797.2268066,11823.65572,11994.81071
2018-07-19T08:35:41Z,1531989341,C90D,40.7655365,44.1712015,4443.97,-5.2,-6.1,88,521338.09,-77817.96,82.5,Weapon+Missile,Red,Allies,R-27ER,,xu,,941.809335,754.8747559,2.916457905,4443.974609,3712.579041,937.2394747,-92.66601563,0.148476213,NaN,1.599974374,1.232885857,5000,3.475582838,3.475582838,3.475582838,44350.24117,4358.05036,48708.29153,,,13.95000005,731.3955688,12755.31466,12931.71944
2018-07-19T08:35:42Z,1531989342,C90D,40.7764444,44.1712998,4331.94,-2.6,-8.8,90.7,522209.25,-77724.09,85.3,Weapon+Missile,Red,Allies,R-27ER,,xu,,883.3323427,713.7685547,2.731548138,4331.939941,3561.424927,876.1987564,-112.034668,0.156706831,NaN,2.707685062,3.253944169,5000,5.041594505,5.041594505,5.041594505,39013.80138,4248.181883,43261.98326,,,14.95000005,770.5150146,13626.3241,13810.49894
2018-07-19T08:35:43Z,1531989343,C90D,40.7866651,44.1710791,4184.48,-0.3,-11.7,92.8,523028.88,-77670.78,87.3,Weapon+Missile,Red,Allies,R-27ER,,xu,,834.4883434,680.8051758,2.575771672,4184.483398,3383.718079,821.3570255,-147.456543,0.058528944,NaN,2.307708544,3.618828883,5000,4.214380741,4.214380741,4.214380741,34818.53977,4103.576412,38922.11618,,,15.95000005,800.7653198,14442.76506,14640.68544
2018-07-19T08:35:44Z,1531989344,C90D,40.7961651,44.1706454,4006.52,1.6,-14.5,94.5,523793.09,-77646.54,89,Weapon+Missile,Red,Allies,R-27ER,,xu,,785.0398985,647.7381592,2.417798275,4006.523682,3170.896667,764.603153,-177.9597168,0.058730262,NaN,1.707692327,3.196505907,5000,3.216625214,3.216625214,3.216625214,30814.38212,3929.057546,34743.43966,,,16.95000005,835.6270142,15202.83726,15421.78823
2018-07-19T08:35:45Z,1531989345,C90D,40.8050472,44.1700772,3805.01,3,-16.9,95.7,524509.38,-77641.85,90.2,Weapon+Missile,Red,Allies,R-27ER,,xu,,744.1019259,621.3676758,2.286020969,3805.012207,2945.309875,716.2965878,-201.5114746,0.132831037,NaN,1.323077225,2.541593858,5000,1.942623138,1.942623138,1.942623138,27684.38381,3731.442296,31415.8261,,,17.95000005,859.7023315,15914.85466,16162.19133
2018-07-19T08:35:46Z,1531989346,C90D,40.8133715,44.1694212,3593.6,2.9,-17.7,96.9,525182,-77651.13,91.4,Weapon+Missile,Red,Allies,R-27ER,,xu,,705.1274234,596.1644897,2.160665344,3593.602295,2801.454712,672.6890309,-211.4099121,0.0433407,NaN,0.600018458,1.52704567,5000,1.161041975,1.161041975,1.161041975,24860.23416,3524.119995,28384.35415,,,18.95000005,792.147583,16583.52047,16863.85144
2018-07-19T08:35:47Z,1531989347,C90D,40.8212655,44.1687004,3385.04,3.1,-18.8,97.5,525820.94,-77670.84,92,Weapon+Missile,Red,Allies,R-27ER,,xu,,672.4058249,575.2624512,2.055153974,3385.035156,2632.037964,639.2412237,-208.5671387,0.081804386,NaN,0.692307547,1.191920731,5000,0.895333827,0.895333827,0.895333827,22606.47967,3319.585502,25926.06517,,,19.95000005,752.9971924,17218.93087,17532.94673
2018-07-19T08:35:48Z,1531989348,C90D,40.8286861,44.1679563,3174.51,3,-19.5,98.6,526422.25,-77696.67,93.1,Weapon+Missile,Red,Allies,R-27ER,,xu,,637.6240576,552.1508179,1.943864101,3174.511475,2510.54895,601.8672763,-210.5236816,0.080037684,NaN,0.769243225,1.156245906,5000,1.847248793,1.847248793,1.847248793,20328.22194,3113.132295,23441.35424,,,20.95000005,663.9625244,17817.21844,18167.48314
2018-07-19T08:35:49Z,1531989349,C90D,40.8357613,44.1671166,2974.63,1.3,-18.5,100.4,526996.94,-77735.73,94.9,Weapon+Missile,Red,Allies,R-27ER,,xu,,609.7090541,533.8395386,1.854272604,2974.627686,2379.828064,576.0135429,-199.8837891,0.092182047,NaN,1.938462328,1.676113908,5000,2.691617966,2.691617966,2.691617966,18587.25653,2917.113259,21504.36979,,,21.95000005,594.7996216,18389.85253,18774.26115
2018-07-19T08:35:50Z,1531989350,C90D,40.8424988,44.1661594,2793.72,0.1,-17.8,102.2,527545.94,-77790.39,96.6,Weapon+Missile,Red,Allies,R-27ER,,xu,,580.6180503,513.6483765,1.761956777,2793.716064,2208.498413,551.7139709,-180.9116211,0.023347494,NaN,1.076929587,1.923577211,5000,2.401432037,2.401432037,2.401432037,16855.86602,2739.699564,19595.56558,,,22.95000005,585.2176514,18938.30279,19352.01439
2018-07-19T08:35:51Z,1531989351,C90D,40.8488552,44.1651041,2628.91,-0.9,-17.2,104,528065.5,-77858.82,98.5,Weapon+Missile,Red,Allies,R-27ER,,xu,,549.352196,490.8117676,1.66378494,2628.913086,2043.825989,524.0494381,-164.8029785,0.061732371,NaN,1.015403243,1.998544087,5000,2.59724164,2.59724164,2.59724164,15089.39176,2578.083051,17667.47481,,,23.95000005,585.0870972,19459.29716,19898.66416
2018-07-19T08:35:52Z,1531989352,C90D,40.8549027,44.1639412,2480.09,-2.5,-15.6,106.1,528561.56,-77941.55,100.5,Weapon+Missile,Red,Allies,R-27ER,,xu,,524.4698893,472.6040039,1.585603704,2480.094482,1853.204102,502.9132013,-148.8186035,0,NaN,1.738474389,2.388175003,5000,3.204614401,3.204614401,3.204614401,13753.43324,2432.141856,16185.5751,,,24.95000005,626.8903809,19959.26248,20420.49992
2018-07-19T08:35:53Z,1531989353,C90D,40.8606096,44.1626871,2355.3,-4.3,-13.3,107.9,529031.38,-78036.98,102.4,Weapon+Missile,Red,Allies,R-27ER,,xu,,495.3856175,449.9623413,1.495450365,2355.29541,1716.883179,479.4080742,-124.7990723,0.030243544,NaN,1.938462328,2.964417359,5000,3.519531012,3.519531012,3.519531012,12270.3455,2309.755773,14580.10127,,,25.95000005,638.4122314,20435.89378,20913.3736
2018-07-19T08:35:54Z,1531989354,C90D,40.8659884,44.1613731,2258.34,-5.6,-11.2,109.7,529475.62,-78141.59,104.2,Weapon+Missile,Red,Allies,R-27ER,,xu,,466.5827449,426.6513367,1.406880292,2258.342285,1597.921997,456.3984546,-96.953125,0.126363836,NaN,0.415384785,2.384398762,5000,2.037220716,2.037220716,2.037220716,10884.97289,2214.677237,13099.65013,,,26.95000005,660.4202881,20889.66154,21377.54389
2018-07-19T08:35:55Z,1531989355,C90D,40.8710216,44.1600081,2170.21,-4.2,-12.4,111.8,529892.75,-78254.48,106.3,Weapon+Missile,Red,Allies,R-27ER,,xu,,441.0270575,405.6203308,1.328434266,2170.209961,1475.727539,432.1314139,-88.13232422,0.086167767,NaN,1.93845379,2.113929034,5000,1.64862299,1.64862299,1.64862299,9725.243271,2128.248951,11853.49222,,,27.95000005,694.4824219,21319.36886,21816.34216
2018-07-19T08:35:56Z,1531989356,C90D,40.8757196,44.158584,2075.61,-3.6,-12.9,114,530283.75,-78376.49,108.4,Weapon+Missile,Red,Allies,R-27ER,,xu,,420.3785553,388.6558533,1.264822283,2075.609131,1349.615845,409.595914,-94.60083008,0.06105191,NaN,0.338449534,2.394912344,5000,2.067569494,2.067569494,2.067569494,8835.90649,2035.477228,10871.38372,,,28.95000005,725.9932861,21726.67755,22234.62452
2018-07-19T08:35:57Z,1531989357,C90D,40.880099,44.1570938,1987.05,-3.3,-13.1,116.7,530649.94,-78508.29,111.2,Weapon+Missile,Red,Allies,R-27ER,,xu,,399.1319385,370.6937561,1.199641754,1987.050659,1174.851746,389.1833776,-88.55847168,0.247124447,NaN,0.769239383,2.376910527,5000,2.023565531,2.023565531,2.023565531,7965.315216,1948.631035,9913.946251,,,29.95000005,812.1989136,22113.77635,22631.8443
2018-07-19T08:35:58Z,1531989358,C90D,40.8841468,44.15557,1906.82,-4.5,-11.2,118.6,530990.06,-78646.35,113,Weapon+Missile,Red,Allies,R-27ER,,xu,,375.7432658,350.1870422,1.128277531,1906.821411,1074.372192,367.0780156,-80.22924805,0.210139841,NaN,1.461551199,2.167902683,5000,2.089257717,2.089257717,2.089257717,7059.150089,1869.953019,8929.103108,,,30.95000005,832.4492188,22478.85435,23005.74276
2018-07-19T08:35:59Z,1531989359,C90D,40.8879353,44.1540283,1837.36,-3.5,-11.9,120.4,531309.56,-78788.39,114.9,Weapon+Missile,Red,Allies,R-27ER,,xu,,356.4836001,332.9125977,1.069571002,1837.357666,1008.016541,349.6503186,-69.46374512,0.153657663,NaN,1.569194554,1.506264606,5000,0.852924287,0.852924287,0.852924287,6354.027858,1801.832356,8155.860214,,,31.95000005,829.3411255,22826.71281,23360.56915
2018-07-19T08:36:00Z,1531989360,C90D,40.891455,44.1525228,1766.41,-2.4,-12.8,121,531607.25,-78928.48,115.4,Weapon+Missile,Red,Allies,R-27ER,,xu,,336.565058,314.6881409,1.008968068,1766.406128,942.5784302,329.0013944,-70.95153809,0.112142735,NaN,1.553832605,1.491506381,5000,0.124937728,0.124937728,0.124937728,5663.801915,1732.252665,7396.05458,,,32.95000005,823.8276978,23153.99778,23695.54691
2018-07-19T08:36:01Z,1531989361,C90D,40.8947842,44.1511123,1689.8,-0.3,-14.9,119.7,531888.69,-79059.48,114.1,Weapon+Missile,Red,Allies,R-27ER,,xu,,319.7451045,299.4579163,0.957684527,1689.797607,879.9503174,310.4320641,-76.60852051,0.138110197,NaN,2.076898523,1.867431562,5000,0.760326684,0.760326684,0.760326684,5111.846591,1657.125371,6768.971962,,,33.95000005,809.84729,23462.80293,24013.79393
2018-07-19T08:36:02Z,1531989362,C90D,40.8979813,44.1498251,1610.91,-1.1,-14,119.9,532158.25,-79177.77,114.3,Weapon+Missile,Red,Allies,R-27ER,,xu,,304.7623816,285.9756165,0.911967181,1610.906128,816.9505615,294.3743258,-78.89147949,0.086258892,NaN,2.307675034,0.713349439,5000,2.360185623,2.360185623,2.360185623,4644.005462,1579.759258,6223.76472,,,34.95000005,793.9555664,23755.62282,24317.12829
2018-07-19T08:36:03Z,1531989363,C90D,40.9009755,44.1485282,1547.54,-2.9,-11.4,121.8,532411.69,-79298.7,116.2,Weapon+Missile,Red,Allies,R-27ER,,xu,,287.8751618,270.4710693,0.860796925,1547.536865,765.1547241,280.813898,-63.3692627,0.135347863,NaN,1.400024855,2.787742777,5000,2.137616873,2.137616873,2.137616873,4143.605438,1517.61524,5661.220678,,,35.95000005,782.3821411,24034.98111,24603.65118
2018-07-19T08:36:04Z,1531989364,C90D,40.9038288,44.1472614,1497.82,-3.8,-9.5,121.6,532653.56,-79417.38,116,Weapon+Missile,Red,Allies,R-27ER,,xu,,273.9678346,257.6699219,0.818736794,1497.819214,712.7544556,269.4188738,-49.71765137,0.028874067,NaN,0.769188584,1.965893435,5000,1.748742461,1.748742461,1.748742461,3752.91872,1468.858879,5221.777599,,,36.95000005,785.0647583,24302.991,24876.29646
2018-07-19T08:36:05Z,1531989365,C90D,40.9065573,44.1460638,1457.75,-3.8,-8.7,121.3,532884.69,-79529.31,115.7,Weapon+Missile,Red,Allies,R-27ER,,xu,,259.9123672,244.619873,0.776370386,1457.748413,639.6296387,256.8049251,-40.07080078,0.258131698,NaN,0.584630896,1.165476906,5000,1.203006744,1.203006744,1.203006744,3377.72193,1429.562848,4807.284778,,,37.95000005,818.1187744,24558.47781,25134.96503
2018-07-19T08:36:06Z,1531989366,C90D,40.9092278,44.1449703,1418.59,-2.4,-9.4,117.4,533110.06,-79630.13,111.8,Weapon+Missile,Red,Allies,R-27ER,,xu,,249.9834077,235.5107269,0.74637194,1418.593872,557.958252,246.8980074,-39.15454102,0.073586254,NaN,1.538457422,3.14229811,3167.997895,2.047912598,2.047912598,2.047912598,3124.585206,1391.16536,4515.750566,,,38.95000005,860.6356201,24804.08612,25383.72943
2018-07-19T08:36:07Z,1531989367,C90D,40.9118859,44.1440731,1377.94,-0.8,-10.2,112.8,533332.38,-79709.23,107.2,Weapon+Missile,Red,Allies,R-27ER,,xu,,239.4399102,225.8197174,0.714554523,1377.939209,501.736084,235.9632788,-40.65466309,0.081496722,NaN,1.53845294,4.610788782,3054.33326,1.929021001,1.929021001,1.929021001,2866.573529,1351.296754,4217.870283,,,39.95000005,876.203125,25038.73432,25621.92414
2018-07-19T08:36:08Z,1531989368,C90D,40.9144929,44.1433659,1335.69,0.6,-11.2,108.4,533548.56,-79767.62,102.9,Weapon+Missile,Red,Allies,R-27ER,,xu,,227.8848412,215.1658936,0.67973735,1335.689941,456.4407959,223.9341426,-42.24926758,0.060397682,NaN,1.369220702,4.395499938,3034.850209,1.778002381,1.778002381,1.778002381,2596.575043,1309.864376,3906.439419,,,40.95000005,879.2491455,25261.37038,25848.58007
2018-07-19T08:36:09Z,1531989369,C90D,40.9170525,44.1428246,1291.61,1.8,-12.1,104.3,533759.12,-79807.91,98.7,Weapon+Missile,Red,Allies,R-27ER,,xu,,218.8688808,206.9465027,0.652510581,1291.608398,419.5681152,214.3837786,-44.08154297,0.064000816,NaN,1.13846148,4.184420626,3080.029654,1.657529593,1.657529593,1.657529593,2395.179349,1266.63515,3661.814499,,,41.95000005,872.0402832,25474.52999,26066.293
2018-07-19T08:36:10Z,1531989370,C90D,40.9195725,44.142429,1245.68,3,-12.9,101,533965,-79832.34,95.4,Weapon+Missile,Red,Allies,R-27ER,,xu,,212.3453232,201.1150818,0.632725055,1245.682251,372.894104,207.3193798,-45.92614746,0.25440739,NaN,1.107696601,2.530526817,5000,0.97431165,0.97431165,0.97431165,2254.526814,1221.596985,3476.123799,,,42.95000005,872.788147,25680.60462,26277.46321
2018-07-19T08:36:11Z,1531989371,C90D,40.9220049,44.1420812,1200.71,2.3,-12.5,101.5,534163.31,-79852.12,96,Weapon+Missile,Red,Allies,R-27ER,,xu,,204.3074937,193.8096771,0.608457778,1200.707642,322.8825073,199.2958517,-44.97460938,0.059016835,NaN,0.769243225,0.257171296,5000,1.131997228,1.131997228,1.131997228,2087.077599,1177.491959,3264.569558,,,43.95000005,877.8251343,25878.73206,26480.66817
2018-07-19T08:36:12Z,1531989372,C90D,40.924362,44.1417289,1158.45,1.5,-12.1,102,534355.69,-79872.98,96.4,Weapon+Missile,Red,Allies,R-27ER,,xu,,198.0648495,188.1865845,0.58957795,1158.445313,282.6863403,193.503437,-42.2623291,0.029084521,NaN,0.769243225,0.586098586,5000,1.113453031,1.113453031,1.113453031,1961.48423,1136.046772,3097.531002,,,44.95000005,875.7589722,26071.0699,26677.62916
2018-07-19T08:36:13Z,1531989373,C90D,40.9266539,44.1413748,1118.56,1.1,-11.9,102.2,534542.88,-79894.55,96.6,Weapon+Missile,Red,Allies,R-27ER,,xu,,192.6022899,183.2787018,0.573053347,1118.55542,249.4112549,188.4262151,-39.88989258,0.030028224,NaN,0.27692319,0.322945004,5000,1.016571403,1.016571403,1.016571403,1854.782103,1096.928151,2951.710254,,,45.95000005,869.144165,26258.35268,26869.14566
2018-07-19T08:36:14Z,1531989374,C90D,40.9288909,44.1410279,1079.98,0.9,-11.8,102.2,534725.62,-79915.73,96.6,Weapon+Missile,Red,Allies,R-27ER,,xu,,187.972999,179.1486969,0.559030698,1079.984619,215.8217163,183.9732091,-38.57080078,0.010186884,NaN,0.199987939,0.050435277,5000,1.000325203,1.000325203,1.000325203,1766.692417,1059.103117,2825.795533,,,46.95000005,864.1629028,26441.18268,27056.03075
2018-07-19T08:36:15Z,1531989375,C90D,40.9310634,44.140691,1042.75,0.7,-11.7,102.2,534903.06,-79936.3,96.6,Weapon+Missile,Red,Allies,R-27ER,,xu,,182.4653134,174.1529846,0.542417793,1042.746094,178.1483765,178.6249781,-37.23852539,0.038737184,NaN,0.199987939,0.051396036,5000,0.996629179,0.996629179,0.996629179,1664.679529,1022.584598,2687.264127,,,47.95000005,864.5977173,26618.74168,27237.48158
2018-07-19T08:36:16Z,1531989376,C90D,40.933179,44.1403629,1006.66,0.6,-11.7,102.2,535075.81,-79956.33,96.6,Weapon+Missile,Red,Allies,R-27ER,,xu,,177.6118485,169.7663879,0.527770241,1006.660706,139.7501831,173.9074854,-36.08538818,0.020819606,NaN,0.199987939,0.051396036,5000,0.993976891,0.993976891,0.993976891,1577.298436,987.1969208,2564.495357,,,48.95000005,866.9105225,26791.65281,27414.14516
2018-07-19T08:36:17Z,1531989377,C90D,40.9352362,44.1400438,971.7,0.5,-11.7,102.2,535243.88,-79975.8,96.6,Weapon+Missile,Red,Allies,R-27ER,,xu,,172.7606292,165.3627777,0.513148274,971.7007446,112.3346558,169.1863946,-34.95996094,0.047730122,NaN,0,0.051396036,5000,0.987880528,0.987880528,0.987880528,1492.31175,952.9129107,2445.224661,,,49.95000005,859.3660889,26959.78658,27585.9006
2018-07-19T08:36:18Z,1531989378,C90D,40.9372501,44.1397315,937.58,0.4,-11.6,102.2,535408.31,-79994.85,96.6,Weapon+Missile,Red,Allies,R-27ER,,xu,,169.0171243,162.010437,0.501831922,937.5830688,101.6777344,165.5378281,-34.11767578,0.33665137,NaN,0,0.6540293,5000,0.594901681,0.594901681,0.594901681,1428.339416,919.4549002,2347.794316,,,50.95000005,835.9053345,27124.38891,27754.02571
2018-07-19T08:36:19Z,1531989379,C90D,40.9391921,44.1394304,900.8,2.6,-14.5,102.2,535567,-80013.22,96.6,Weapon+Missile,Red,Allies,R-27ER,,xu,,163.9263456,157.368927,0.486510991,900.8030396,100.1663208,159.7469131,-36.7800293,0.04475828,NaN,2.184615729,2.169280033,3206.066233,0.121346064,0.121346064,0.121346064,1343.592339,883.3860128,2226.978352,,,51.95000005,800.6367188,27283.10966,27916.97451
2018-07-19T08:36:20Z,1531989380,C90D,40.9410742,44.1391388,856.75,4.6,-17.4,102.2,535720.69,-80030.98,96.6,Weapon+Missile,Red,Allies,R-27ER,,xu,,160.8616616,154.7244873,0.477173851,856.7461548,81.69250488,154.7109081,-44.05688477,0.079764224,NaN,1.846154029,2.869280508,3292.900542,0.160707951,0.160707951,0.160707951,1293.823709,840.1809679,2134.004677,,,52.95000005,775.0536499,27436.93124,28077.0014
2018-07-19T08:36:21Z,1531989381,C90D,40.9428896,44.138858,806.23,6.1,-20.1,102.2,535869,-80048.07,96.6,Weapon+Missile,Red,Allies,R-27ER,,xu,,157.6084096,151.9334717,0.467252579,806.2299805,39.40362549,149.2934256,-50.51617432,0.037599131,NaN,1.538462545,2.776948517,3286.214269,0.161490053,0.161490053,0.161490053,1242.020539,790.6415238,2032.662063,,,53.95000005,766.826355,27585.29185,28233.74481
