ISOTime,UnixTime,Id,Longitude,Latitude,Altitude,Roll,Pitch,Yaw,U,V,Heading,Type,Color,Coalition,Name,Group,Country,Pilot,TAS,CAS,M,ASL,AGL,GS,VS,AOA,AOS,RRT,TRT,TRD,G,LatG,LonG,Ek,Ep,Em,FFW,FFV,RelativeTime,Elev,GroundDistance,AirDistance
2018-07-19T08:35:42Z,1531989342,CF0C,40.827374,44.0482793,852.25,-3.5,-1.2,74.3,527589.5,-91002.75,68.8,Weapon+Missile,Red,Allies,R-27ET,,xu,,441.4965485,426.6480103,1.309570718,852.2453613,115.4108276,NaN,NaN,0.875340213,NaN,0.769238529,7.504021673,NaN,NaN,NaN,NaN,NaN,835.7671973,NaN,,,0.879999876,736.8345337,NaN,NaN
2018-07-19T08:35:43Z,1531989343,CF0C,40.8350275,44.0501945,828.91,-2.5,-1.7,66.5,528182.44,-90731.32,61,Weapon+Missile,Red,Allies,R-27ET,,xu,,652.5286222,623.4605713,1.935017391,828.9076538,120.5994263,652.1111517,-23.33770752,0.30630954,NaN,0.846149021,6.710580178,3756.888816,13.7210598,13.7210598,13.7210598,21289.68014,812.8807243,22102.56086,,,1.879999876,708.3082275,648.4081081,648.9133598
2018-07-19T08:35:44Z,1531989344,CF0C,40.844366,44.05393,815.92,-3.2,0.5,57.4,528891,-90244.68,51.8,Weapon+Missile,Red,Allies,R-27ET,,xu,,859.6793783,817.397583,2.54892521,815.918457,76.40472412,859.5812436,-12.98919678,0.698086663,NaN,1.507668637,7.037549871,5000,7.131463528,7.131463528,7.131463528,36952.43168,800.1426737,37752.57435,,,2.879999876,739.5137329,1503.470444,1504.184591
2018-07-19T08:35:45Z,1531989345,CF0C,40.8545813,44.0586401,838.99,-3.6,2,57.2,529659.25,-89642.89,51.6,Weapon+Missile,Red,Allies,R-27ET,,xu,,976.1609615,925.8759766,2.895056015,838.9854126,149.7192993,975.8883841,23.06695557,0.069160809,NaN,0.199987939,2.634804383,5000,2.847400427,2.847400427,2.847400427,47644.51113,822.7636296,48467.27476,,,3.879999876,689.2661133,2474.447163,2475.561196
2018-07-19T08:35:46Z,1531989346,CF0C,40.8642831,44.063208,877.12,-3.4,2.7,56.8,530387.81,-89060.78,51.2,Weapon+Missile,Red,Allies,R-27ET,,xu,,933.3320771,884.1070557,2.769248274,877.1184082,197.2476196,932.552755,38.13299561,0.083086416,NaN,0.261522821,0.779546192,5000,1.849988937,1.849988937,1.849988937,43555.43831,860.1593238,44415.59763,,,4.879999876,679.8707886,3402.28525,3404.307279
2018-07-19T08:35:47Z,1531989347,CF0C,40.87373,44.0676489,922.44,-3.1,3.1,57.3,531097.19,-88494.66,51.7,Weapon+Missile,Red,Allies,R-27ET,,xu,,908.7160182,859.2873535,2.697616044,922.4438477,188.4656982,907.5849306,45.32543945,0.046625365,NaN,0.399975878,0.716838599,5000,2.332398653,2.332398653,2.332398653,41288.24009,904.6083959,42192.84848,,,5.879999876,733.9781494,4305.270423,4308.556521
2018-07-19T08:35:48Z,1531989348,CF0C,40.8829958,44.0718404,973.45,-2.8,3.5,58.8,531794.56,-87957.55,53.3,Weapon+Missile,Red,Allies,R-27ET,,xu,,881.7095228,832.1596069,2.618981176,973.4507446,194.6768799,880.2329118,51.00689697,0.057146611,NaN,0.38464253,1.536439208,5000,3.388324976,3.388324976,3.388324976,38870.58413,954.6290745,39825.2132,,,6.879999876,778.7738647,5181.021195,5185.921387
2018-07-19T08:35:49Z,1531989349,CF0C,40.8921652,44.0756866,1029.63,-2.4,4,61,532487.81,-87459.46,55.5,Weapon+Missile,Red,Allies,R-27ET,,xu,,855.4815677,805.7288818,2.542720206,1029.626953,245.2492065,853.6351365,56.1762085,0.056334117,NaN,0.400030519,2.148390967,5000,3.779057503,3.779057503,3.779057503,36592.43563,1009.719116,37602.15475,,,7.879999876,784.3777466,6030.197058,6037.086408
2018-07-19T08:35:50Z,1531989350,CF0C,40.9013915,44.079208,1090.28,-2,4.2,63.3,533189,-86996.93,57.7,Weapon+Missile,Red,Allies,R-27ET,,xu,,842.1863588,791.258667,2.504955418,1090.280029,262.3947144,839.9994449,60.65307617,0.096742825,NaN,0.461565401,1.949137273,5000,2.608453274,2.608453274,2.608453274,35463.89315,1069.199465,36533.09262,,,8.879999876,827.8853149,6865.710891,6874.937351
2018-07-19T08:35:51Z,1531989351,CF0C,40.9105562,44.0824743,1150.93,-1.6,4.3,64.1,533887.94,-86563.13,58.5,Weapon+Missile,Red,Allies,R-27ET,,xu,,824.846512,773.1557617,2.455100252,1150.929932,282.9571533,822.6137354,60.64990234,0.063363647,NaN,0.36920865,0.895009686,5000,1.228051066,1.228051066,1.228051066,34018.58842,1128.676701,35147.26512,,,9.879999876,867.9727783,7683.828113,7695.442934
2018-07-19T08:35:52Z,1531989352,CF0C,40.9192973,44.0855672,1210.67,-1.6,4.5,63.4,534554.69,-86151.8,57.8,Weapon+Missile,Red,Allies,R-27ET,,xu,,785.6944203,735.2155151,2.340183538,1210.673828,300.0418701,783.4196761,59.74389648,0.029149815,NaN,0,0.600853822,5000,2.139762402,2.139762402,2.139762402,30865.7861,1187.26545,32053.05155,,,10.87999988,910.631958,8462.994617,8477.04039
2018-07-19T08:35:53Z,1531989353,CF0C,40.9271139,44.0884744,1269.46,-1.9,5.1,62,535149.38,-85768.19,56.5,Weapon+Missile,Red,Allies,R-27ET,,xu,,710.1204775,664.4154663,2.116528105,1269.459229,378.4576416,707.6830994,58.78540039,0.03440368,NaN,0.476911129,1.485818968,5000,2.590240717,2.590240717,2.590240717,25213.55463,1244.914234,26458.46886,,,11.87999988,891.0015869,9166.819221,9183.452054
2018-07-19T08:35:54Z,1531989354,CF0C,40.9341067,44.0912387,1331.36,-2.3,5.9,60.4,535679.56,-85406.8,54.9,Weapon+Missile,Red,Allies,R-27ET,,xu,,644.6141883,603.2886353,1.922665362,1331.355347,449.9090576,641.6356617,61.89611816,0.034740883,NaN,0.369212706,1.778937177,5000,2.63965559,2.63965559,2.63965559,20776.37259,1305.613591,22081.98618,,,12.87999988,881.4462891,9805.017261,9824.7741
2018-07-19T08:35:55Z,1531989355,CF0C,40.9403861,44.093902,1395.78,-2.8,6.7,58.6,536153.62,-85062.13,53,Weapon+Missile,Red,Allies,R-27ET,,xu,,589.6481855,552.1143188,1.760037339,1395.783813,498.0681152,586.1176975,64.4284668,0.057021317,NaN,0.553791738,1.977191848,5000,2.702405453,2.702405453,2.702405453,17384.24913,1368.796333,18753.04547,,,13.87999988,897.7156982,10388.06454,10411.49424
2018-07-19T08:35:56Z,1531989356,CF0C,40.9459976,44.0964752,1462.49,-3.6,7.5,56.4,536575.19,-84732.62,50.8,Weapon+Missile,Red,Allies,R-27ET,,xu,,539.2026825,505.3147888,1.610712459,1462.486084,473.7519531,535.0610618,66.70227051,0.068129383,NaN,0.876941648,2.488308351,5000,3.262882948,3.262882948,3.262882948,14536.97664,1434.208916,15971.18556,,,14.87999988,988.7341309,10920.34598,10948.05711
2018-07-19T08:35:57Z,1531989357,CF0C,40.950949,44.0990288,1529.62,-4.7,7.9,51.2,536944.06,-84410.4,45.6,Weapon+Missile,Red,Allies,R-27ET,,xu,,494.3734038,463.7668762,1.477953664,1529.615356,423.1011963,489.7945725,67.12927246,0.148167944,NaN,1.307680698,5.415118689,3722.890974,6.323081017,6.323081017,6.323081017,12220.25312,1500.040244,13720.29336,,,15.87999988,1106.51416,11407.67344,11440.0996
2018-07-19T08:35:58Z,1531989358,CF0C,40.9549645,44.1017493,1585.67,-5.4,6.6,42.5,537236.12,-84076.91,36.9,Weapon+Missile,Red,Allies,R-27ET,,xu,,446.8325513,419.9545593,1.336702044,1585.666992,447.3748779,443.3029924,56.05163574,0.117260482,NaN,0.769243225,8.12202639,3107.323478,6.181134701,6.181134701,6.181134701,9982.966445,1555.008121,11537.97457,,,16.87999988,1138.292114,11848.98591,11885.06433
2018-07-19T08:35:59Z,1531989359,CF0C,40.9580519,44.1045424,1628.65,-5.9,5.7,35,537453.12,-83742.54,29.4,Weapon+Missile,Red,Allies,R-27ET,,xu,,400.9217124,377.3554688,1.199962034,1628.653076,501.487915,398.6106071,42.98608398,0.42662771,NaN,0.461502222,7.048782544,3827.974526,4.16630888,4.16630888,4.16630888,8036.910975,1597.163069,9634.074044,,,17.87999988,1127.165161,12245.95869,12284.45715
2018-07-19T08:36:00Z,1531989360,CF0C,40.9604817,44.1072875,1664.85,-6.4,5.6,29.2,537617.94,-83418.63,23.6,Weapon+Missile,Red,Allies,R-27ET,,xu,,365.2241606,343.4512024,1.093581798,1664.850708,543.7440186,363.425947,36.19763184,0.081167105,NaN,0.646190537,6.290641792,3200.599568,4.164951801,4.164951801,4.164951801,6669.434375,1632.66082,8302.095194,,,18.87999988,1121.106689,12608.0404,12648.43674
2018-07-19T08:36:01Z,1531989361,CF0C,40.9622939,44.1099706,1696.87,-7,5.4,22.8,537734.06,-83106.41,17.2,Weapon+Missile,Red,Allies,R-27ET,,xu,,334.6499589,313.6977234,1.002409759,1696.866821,555.6293945,333.1149403,32.01611328,0.082915258,NaN,0.569200645,6.379120916,3114.363019,3.615090847,3.615090847,3.615090847,5599.529749,1664.057901,7263.587651,,,19.87999988,1141.237427,12939.99461,12982.01839
2018-07-19T08:36:02Z,1531989362,CF0C,40.9635765,44.1125396,1724.81,-7.4,5.1,16.9,537808.94,-82811.02,11.3,Weapon+Missile,Red,Allies,R-27ET,,xu,,306.0186302,285.8587646,0.916947599,1724.811401,608.8443604,304.7400573,27.94458008,0.071570736,NaN,0.399975878,5.839622203,3122.57929,3.060300827,3.060300827,3.060300827,4682.370103,1691.462173,6373.832276,,,20.87999988,1115.967041,13243.78928,13287.17674
2018-07-19T08:36:03Z,1531989363,CF0C,40.964433,44.1149848,1749.24,-7.7,4.8,11.5,537851,-82532.66,5.9,Weapon+Missile,Red,Allies,R-27ET,,xu,,282.5772,263.1609497,0.846950626,1749.238403,655.177124,281.5194408,24.42700195,0.083717177,NaN,0.307686362,5.382662057,3119.894544,2.660282135,2.660282135,2.660282135,3992.493699,1715.416879,5707.910578,,,21.87999988,1094.061279,13524.47056,13568.99508
2018-07-19T08:36:04Z,1531989364,CF0C,40.9649421,44.1173111,1770.65,-7.8,4.5,6.5,537866.56,-82270.24,0.9,Weapon+Missile,Red,Allies,R-27ET,,xu,,263.7456803,245.0059967,0.790706606,1770.649902,696.1228027,262.8751255,21.41149902,0.028039112,NaN,0,5.012947759,3109.559708,2.362753391,2.362753391,2.362753391,3478.089195,1736.414386,5214.503581,,,22.87999988,1074.5271,13786.60538,13832.075
2018-07-19T08:36:05Z,1531989365,CF0C,40.9651603,44.1195096,1789.31,-7.9,4.2,1.8,537860.25,-82024.29,356.2,Weapon+Missile,Red,Allies,R-27ET,,xu,,246.7406119,228.6973267,0.739887534,1789.308472,755.7937012,246.0341183,18.65856934,0.039881713,NaN,0,4.729560649,3108.401092,2.120220423,2.120220423,2.120220423,3044.046478,1754.712192,4798.758671,,,23.87999988,1033.514771,14031.96357,14078.2099
2018-07-19T08:36:06Z,1531989366,CF0C,40.9651376,44.1215921,1805.62,-7.9,3.9,357.4,537835.88,-81793.11,351.8,Weapon+Missile,Red,Allies,R-27ET,,xu,,233.0328349,215.5935516,0.698916569,1805.62146,817.7659912,232.4611549,16.31298828,0.027327721,NaN,0,4.404718986,3125.920794,1.920980215,1.920980215,1.920980215,2715.215106,1770.709769,4485.924875,,,24.87999988,987.8554688,14263.78924,14310.67398
2018-07-19T08:36:07Z,1531989367,CF0C,40.9649132,44.1235481,1819.72,-7.9,3.5,353.3,537796.75,-81577.54,347.6,Weapon+Missile,Red,Allies,R-27ET,,xu,,219.5453454,202.7678528,0.658573646,1819.72229,863.5548706,219.0920475,14.10083008,0.082773544,NaN,0,4.152174876,3094.613047,1.775194287,1.775194287,1.775194287,2410.007933,1784.53796,4194.545893,,,25.87999988,956.1674194,14482.27072,14529.67198
2018-07-19T08:36:08Z,1531989368,CF0C,40.9645172,44.125395,1831.94,-7.8,3.2,349.3,537745.06,-81375.44,343.7,Weapon+Missile,Red,Allies,R-27ET,,xu,,208.9638042,192.7284393,0.626921963,1831.938354,896.9890137,208.6064218,12.21606445,0.025780628,NaN,0.015383294,3.95396364,3129.950762,1.63609302,1.63609302,1.63609302,2183.293573,1796.517826,3979.811399,,,26.87999988,934.9493408,14690.28488,14738.10399
2018-07-19T08:36:09Z,1531989369,CF0C,40.9639816,44.1271199,1842.36,-7.7,2.9,345.6,537683.56,-81187.98,340,Weapon+Missile,Red,Allies,R-27ET,,xu,,197.566468,181.9715729,0.592800871,1842.362183,922.0807495,197.2912899,10.42382813,0.034653422,NaN,0.092301469,3.753328968,3113.996869,1.528238297,1.528238297,1.528238297,1951.625464,1806.74011,3758.365574,,,27.87999988,920.2814331,14887.00786,14935.15953
2018-07-19T08:36:10Z,1531989370,CF0C,40.963327,44.1287393,1851.24,-7.5,2.5,342,537613.69,-81013.17,336.4,Weapon+Missile,Red,Allies,R-27ET,,xu,,188.462224,173.3981171,0.565542452,1851.23999,946.5888062,188.2530063,8.877807617,0.057154343,NaN,0.199987939,3.554904502,3089.462499,1.449659824,1.449659824,1.449659824,1775.900493,1815.446265,3591.346758,,,28.87999988,904.6511841,15074.71424,15123.13002
2018-07-19T08:36:11Z,1531989371,CF0C,40.962574,44.1302542,1858.71,-7.3,2.2,338.7,537537,-80850.73,333.1,Weapon+Missile,Red,Allies,R-27ET,,xu,,179.7852559,165.2539978,0.539551749,1858.711548,962.7544556,179.6299364,7.471557617,0.034910224,NaN,0.199987939,3.250235803,3595.891591,1.140592456,1.140592456,1.140592456,1616.136912,1822.77336,3438.910272,,,29.87999988,895.9570923,15253.76319,15302.38682
2018-07-19T08:36:12Z,1531989372,CF0C,40.9617575,44.1316772,1863.4,-7.8,0.2,337.3,537456.25,-80698.98,331.7,Weapon+Missile,Red,Allies,R-27ET,,xu,,171.9609987,157.9411316,0.516098874,1863.397705,974.9144287,171.8971349,4.686157227,0.024930029,NaN,0.969231164,2.48142907,3209.465103,0.124648765,0.124648765,0.124648765,1478.529253,1827.36891,3305.898164,,,30.87999988,888.4832764,15425.08565,15473.82333
2018-07-19T08:36:13Z,1531989373,CF0C,40.9609629,44.1330422,1859.09,-8.6,-3.2,337.3,537377.88,-80553.53,331.7,Weapon+Missile,Red,Allies,R-27ET,,xu,,165.2810186,151.7677917,0.496025428,1859.089233,977.2700195,165.2248534,-4.30847168,0.03323791,NaN,0.969231164,3.380777153,2746.593579,0.005329223,0.005329223,0.005329223,1365.890756,1823.143743,3189.034499,,,31.87999988,881.8192139,15589.75945,15638.60152
2018-07-19T08:36:14Z,1531989374,CF0C,40.9601981,44.1343559,1845.34,-9.5,-6.8,337.3,537302.5,-80413.55,331.7,Weapon+Missile,Red,Allies,R-27ET,,xu,,159.5806201,146.5736237,0.478840588,1845.343018,974.2769775,158.9874708,-13.74621582,0.049988918,NaN,0.953822257,3.465406612,2567.662791,0.004550018,0.004550018,0.004550018,1273.298716,1809.66331,3082.962026,,,32.87999988,871.06604,15748.25474,15797.73765
2018-07-19T08:36:15Z,1531989375,CF0C,40.9594599,44.135624,1822.4,-10.3,-10.3,337.3,537229.75,-80278.42,331.7,Weapon+Missile,Red,Allies,R-27ET,,xu,,155.1698278,142.6371765,0.465480027,1822.400757,965.2564697,153.4644197,-22.94226074,0.028206304,NaN,0.769243225,3.596164607,2464.865493,0.006371165,0.006371165,0.006371165,1203.883773,1787.164638,2991.048411,,,33.87999988,857.1442871,15901.2435,15952.48056
2018-07-19T08:36:16Z,1531989376,CF0C,40.9587484,44.136846,1790.66,-11,-14,337.3,537159.56,-80148.19,331.7,Weapon+Missile,Red,Allies,R-27ET,,xu,,151.3102948,139.2661285,0.45373307,1790.65918,953.8493042,147.9434946,-31.74157715,0.037877825,NaN,0.769243225,3.64614537,2380.5954,0.007542418,0.007542418,0.007542418,1144.740265,1756.036784,2900.77705,,,34.87999988,836.8098755,16048.6825,16103.33845
2018-07-19T08:36:17Z,1531989377,CF0C,40.958064,44.1380216,1750.53,-11.8,-17.6,337.3,537092.12,-80022.91,331.7,Weapon+Missile,Red,Allies,R-27ET,,xu,,147.8295184,136.2941589,0.443086699,1750.529907,933.5320435,142.2786281,-40.12927246,0.032389963,NaN,0.769243225,3.64614537,2319.625938,0.006109774,0.006109774,0.006109774,1092.678326,1716.683411,2809.361737,,,35.87999988,816.9978638,16190.5078,16250.7696
2018-07-19T08:36:18Z,1531989378,CF0C,40.9574023,44.1391579,1702.08,-12.4,-21.2,337.3,537026.88,-79901.81,331.7,Weapon+Missile,Red,Allies,R-27ET,,xu,,145.836761,134.7514496,0.436865798,1702.083008,893.5761108,137.5545666,-48.44689941,0.049518461,NaN,0.630726989,3.619222045,2315.175509,0.005662695,0.005662695,0.005662695,1063.418043,1669.173233,2732.591275,,,36.87999988,808.506897,16327.60438,16396.20945
2018-07-19T08:36:19Z,1531989379,CF0C,40.9567635,44.1402551,1645.69,-13,-24.8,337.3,536963.94,-79784.9,331.7,Weapon+Missile,Red,Allies,R-27ET,,xu,,144.2570916,133.6381378,0.431848698,1645.690796,837.5502319,132.7781116,-56.39221191,0.019649009,NaN,0.569255286,3.584621588,2341.318083,0.007590258,0.007590258,0.007590258,1040.505424,1613.871364,2654.376788,,,37.87999988,808.140564,16459.97679,16540.12517
2018-07-19T08:36:20Z,1531989380,CF0C,40.956147,44.1413139,1581.66,-13.5,-28.3,337.3,536903.12,-79672.05,331.7,Weapon+Missile,Red,Allies,R-27ET,,xu,,143.287891,133.1374969,0.428626476,1581.663086,761.6385498,128.1868639,-64.02770996,0.038432199,NaN,0.415439426,3.523087346,2368.359974,0.003793064,0.003793064,0.003793064,1026.570986,1551.08163,2577.652616,,,38.87999988,820.0245361,16587.71678,16683.04232
2018-07-19T08:36:21Z,1531989381,CF0C,40.9555499,44.1423393,1509.98,-14,-31.7,337.3,536844.25,-79562.8,331.7,Weapon+Missile,Red,Allies,R-27ET,,xu,,143.3225569,133.6229095,0.428371786,1509.984497,681.5621948,124.1109794,-71.67858887,0.037779974,NaN,0.369212706,3.376931757,2453.286752,0.003853598,0.003853598,0.003853598,1027.067766,1480.788947,2507.856713,,,39.87999988,828.4223022,16711.4261,16826.04314
2018-07-19T08:36:22Z,1531989382,CF0C,40.9549747,44.1433271,1431.29,-14.3,-35,337.3,536787.56,-79457.54,331.7,Weapon+Missile,Red,Allies,R-27ET,,xu,,143.1284292,133.9386444,0.427399654,1431.288452,603.2156372,119.551996,-78.69604492,0.021398865,NaN,0.276977831,3.2461458,2563.938063,0.00387877,0.00387877,0.00387877,1024.287362,1403.61449,2427.901852,,,40.87999988,828.0728149,16830.60176,16968.88031
2018-07-19T08:36:23Z,1531989383,CF0C,40.9544205,44.1442788,1345.87,-14.6,-38.1,337.3,536732.94,-79356.1,331.7,Weapon+Missile,Red,Allies,R-27ET,,xu,,143.4216505,134.7568359,0.42785021,1345.869995,522.8480225,115.2104901,-85.41845703,0.03249589,NaN,0.199987939,3.12689582,2668.928312,0.003778399,0.003778399,0.003778399,1028.488492,1319.847599,2348.33609,,,41.87999988,823.0219727,16945.42162,17112.00841
2018-07-19T08:36:24Z,1531989384,CF0C,40.9538836,44.1452009,1253.44,-14.8,-41.1,337.3,536680,-79257.85,331.7,Weapon+Missile,Red,Allies,R-27ET,,xu,,144.9118898,136.7592621,0.431832546,1253.436157,435.2210693,111.6039489,-92.43383789,0.239776964,NaN,0.199987939,2.47306593,4607.340514,0.288169891,0.288169891,0.288169891,1049.97279,1229.200969,2279.173759,,,42.87999988,818.2150879,17056.67087,17256.66474
2018-07-19T08:36:25Z,1531989385,CF0C,40.9533588,44.146102,1157.18,-13.8,-41.5,337.3,536628.31,-79161.83,331.7,Weapon+Missile,Red,Allies,R-27ET,,xu,,145.4571489,137.897934,0.43297471,1157.177734,342.8426514,109.0508973,-96.25842285,0.054697676,NaN,1.030762631,0.94990493,5000,0.746807873,0.746807873,0.746807873,1057.889109,1134.803703,2192.692812,,,43.87999988,814.335083,17165.38921,17401.88812
2018-07-19T08:36:26Z,1531989386,CF0C,40.9528304,44.1470093,1060.19,-12.8,-41.5,337.3,536576.19,-79065.14,331.7,Weapon+Missile,Red,Allies,R-27ET,,xu,,146.533683,139.5555115,0.435690866,1060.189941,255.1565552,109.8430165,-96.98779297,0.046843393,NaN,0.969227749,0,5000,0.747083426,0.747083426,0.747083426,1073.606013,1039.691169,2113.297182,,,44.87999988,805.0333862,17274.8557,17548.15401
2018-07-19T08:36:27Z,1531989387,CF0C,40.9522983,44.1479229,962.52,-11.8,-41.5,337.3,536523.75,-78967.78,331.7,Weapon+Missile,Red,Allies,R-27ET,,xu,,147.5376859,141.1574554,0.438182652,962.5230103,166.5806885,110.5827261,-97.66693115,0.050646914,NaN,0.953839333,0,5000,0.749609113,0.749609113,0.749609113,1088.368437,943.9126279,2032.281065,,,45.87999988,795.9423218,17385.07501,17695.43258
2018-07-19T08:36:28Z,1531989388,CF0C,40.95176,44.1488471,863.72,-10.9,-41.5,337.3,536470.69,-78869.29,331.7,Weapon+Missile,Red,Allies,R-27ET,,xu,,149.2593999,143.4689941,0.442792807,863.7200317,81.5838623,111.8764493,-98.80297852,0.047662541,NaN,0.969227749,0,5000,0.748102725,0.748102725,0.748102725,1113.918423,847.0200049,1960.938428,,,46.87999988,782.1361694,17496.58276,17844.42777
2018-07-19T08:36:29Z,1531989389,CF0C,40.9512225,44.14977,765.07,-10.2,-41.5,337.3,536417.75,-78770.94,331.7,Weapon+Missile,Red,Allies,R-27ET,,xu,,149.0224603,143.8963013,0.441589885,765.067688,-0.339111328,111.6933693,-98.65234375,0.059717521,NaN,0.769202244,0,5000,0.748434365,0.748434365,0.748434365,1110.384684,750.2751042,1860.659788,,,47.87999988,765.4067993,17607.92766,17993.19987
2018-07-19T08:36:30Z,1531989390,CF0C,40.9506813,44.1506991,665.74,-9.4,-41.5,337.3,536364.44,-78671.93,331.7,Weapon+Missile,Red,Allies,R-27ET,,xu,,150.0358662,145.5441437,0.444087712,665.7399902,-86.074646,112.4489644,-99.32769775,0.047940146,NaN,0.769231272,0,5000,0.751070797,0.751070797,0.751070797,1125.538057,652.8679075,1778.405964,,,48.87999988,751.8146362,17720.02693,18142.98325
2018-07-19T08:36:31Z,1531989391,CF0C,40.9501343,44.1516381,565.35,-8.7,-41.5,337.3,536310.5,-78571.86,331.7,Weapon+Missile,Red,Allies,R-27ET,,xu,,151.6623763,147.8076324,0.448387668,565.3499756,-169.4338379,113.6807871,-100.3900146,0.043994864,NaN,0.569250164,0,5000,0.747649848,0.747649848,0.747649848,1150.07382,554.4189338,1704.492753,,,49.87999988,734.7838135,17833.31984,18294.36328
2018-07-19T08:36:32Z,1531989392,CF0C,40.9495887,44.152575,465.2,-8.1,-41.5,337.3,536256.75,-78472.02,331.7,Weapon+Missile,Red,Allies,R-27ET,,xu,,151.2888517,148.121582,0.446773268,465.1976929,-258.5038452,113.3924024,-100.1522827,0.052340576,NaN,0.569221135,0,5000,0.750124991,0.750124991,0.750124991,1144.415832,456.2030955,1600.618928,,,50.87999988,723.7015381,17946.3565,18445.39252
