ISOTime,UnixTime,Id,Longitude,Latitude,Altitude,Roll,Pitch,Yaw,U,V,Heading,Type,Color,Coalition,Name,Group,Country,Pilot,TAS,CAS,M,ASL,AGL,GS,VS,AOA,AOS,RRT,TRT,TRD,G,LatG,LonG,Ek,Ep,Em,FFW,FFV,RelativeTime,Elev,GroundDistance,AirDistance
2018-07-19T08:00:00Z,1531987200,102,41.1719537,44.9239952,8998.06,0,0.3,236.9,545411.62,8981.86,231.1,Air+FixedWing,Red,Allies,E-2C,Red AWACS,xu,,NaN,NaN,NaN,8998.0595703125,8779.64770507812,NaN,NaN,NaN,NaN,NaN,NaN,NaN,NaN,NaN,NaN,NaN,8824.08208852051,NaN,,,0,218.411865234375,NaN,NaN
2018-07-19T08:00:01Z,1531987201,102,41.1703422,44.9232474,8994.96,0.4,2.4,236.9,545292.88,8885.9,231.1,Air+FixedWing,Red,Allies,E-2C,Red AWACS,xu,,152.709718468782,96.2930145263672,0.502362176564848,8994.9560546875,8775.74951171875,152.678178878254,-3.103515625,4.18203178205711,-0.0111533335959878,0.657173481181947,0.134845924414938,5000,0.765336286204563,0.00126331271792492,0.0365323912856876,1166.01290574074,8821.03857937012,9987.05148511085,,,1,219.20654296875,151.863735756218,152.109607070614
2018-07-19T08:00:02Z,1531987202,102,41.16873,44.9224997,8989.56,0.2,3.9,236.9,545174.06,8789.93,231.1,Air+FixedWing,Red,Allies,E-2C,Red AWACS,xu,,152.821492523026,96.3968963623047,0.502691567161332,8989.5595703125,8768.55859375,152.726181558224,-5.396484375,5.8751224227306,0.0105908581553108,0.390476231918796,1.57385797216612,5000,1.08491556161668,0.00252517073653302,0.0899021462463478,1167.72042884827,8815.74643602051,9983.46686486877,,,2,221.0009765625,303.778395954022,304.334130110916
2018-07-19T08:00:03Z,1531987203,102,41.1671158,44.9217512,8985.03,0,5.1,236.9,545055.12,8693.89,231.1,Air+FixedWing,Red,Allies,E-2C,Red AWACS,xu,,152.943860226145,96.5028076171875,0.503061920284552,8985.03125,8762.23388671875,152.876808888798,-4.5283203125,6.48172090910027,-0.0217830808850477,0.0380851348119911,1.11912937699265,5000,1.19216452289833,-0.00701438957584352,0.0435603366061443,1169.59121904373,8811.30567078125,9980.89688982498,,,3,222.79736328125,455.862096497324,456.699434573799
2018-07-19T08:00:04Z,1531987204,102,41.1655092,44.9210062,8982.38,-0.1,5.8,236.9,544936.62,8598.28,231.1,Air+FixedWing,Red,Allies,E-2C,Red AWACS,xu,,152.282229142669,96.0827560424805,0.500866933106657,8982.37890625,8757.79370117188,152.25912907045,-2.65234375,6.43317817551784,-0.032798033040971,0.199987938897973,0.735832927871576,5000,1.18805003084302,0.0100485489761306,0.0480943949297541,1159.49386563301,8808.70461009766,9968.19847573067,,,4,224.585205078125,607.239662107367,608.313419739837
2018-07-19T08:00:05Z,1531987205,102,41.1639088,44.920264,8981.56,-0.1,6.2,236.9,544818.75,8503.02,231.1,Air+FixedWing,Red,Allies,E-2C,Red AWACS,xu,,151.554218803769,95.6089019775391,0.498466683784231,8981.55859375,8755.19189453125,151.551998748361,-0.8203125,6.20265643551284,-0.0415085935704169,0,0.421511597651129,5000,1.1283586966684,-0.00580468309064548,0.176556704566946,1148.43406186104,8807.90015833984,9956.33422020088,,,5,226.36669921875,758.0332399179,759.321579680246
2018-07-19T08:00:06Z,1531987206,102,41.1623036,44.9195192,8982.12,-0.1,6.3,236.9,544700.44,8407.46,231.1,Air+FixedWing,Red,Allies,E-2C,Red AWACS,xu,,152.084822869867,95.9544525146484,0.500215815727289,8982.119140625,8754.64164733887,152.083789848095,0.560546875,5.89720024638617,-0.0447919654692213,0,0.183720656110611,5000,1.08988691156469,-0.000314123952701654,0.0639406832432693,1156.48966736794,8808.44986704102,9964.93953440895,,,6,227.477493286133,909.309661951786,910.812069717501
2018-07-19T08:00:07Z,1531987207,102,41.1607044,44.9187771,8983.57,-0.1,6.4,236.9,544582.56,8312.24,231.1,Air+FixedWing,Red,Allies,E-2C,Red AWACS,xu,,151.541101957913,95.5894088745117,0.498437662595769,8983.5654296875,8755.18013000488,151.534200201032,1.4462890625,5.7493032702461,-0.0369820111589877,0,0.0513960362511687,5000,1.04835511106106,-0.00138219715772776,0.0437897694013481,1148.23527913094,8809.86819210449,9958.10347123543,,,7,228.385299682617,1060.02672454093,1061.74832865857
2018-07-19T08:00:08Z,1531987208,102,41.1591131,44.9180383,8985.47,-0.1,6.3,236.9,544465.25,8217.46,231.1,Air+FixedWing,Red,Allies,E-2C,Red AWACS,xu,,150.826983673668,95.1098327636719,0.49610217514014,8985.4697265625,8756.76147460938,150.814961650059,1.904296875,5.53111072381862,-0.0610081867418447,0,0.0513960362511687,5000,1.00862971130676,-0.00104597481970693,0.128411730076388,1137.43895020485,8811.73566939941,9949.17461960426,,,8,228.708251953125,1210.02010635854,1211.9650684587
2018-07-19T08:00:09Z,1531987209,102,41.1575202,44.9172987,8987.54,-0.1,6.3,236.9,544347.81,8122.57,231.1,Air+FixedWing,Red,Allies,E-2C,Red AWACS,xu,,150.99539020667,95.2088394165039,0.49667059680457,8987.537109375,8758.03535461426,150.981236555975,2.0673828125,5.52067610790935,-0.0379591141123322,0,0.100870594880489,5000,0.991966003816484,0.00343854053248467,0.0725150816955233,1139.98039318323,8813.76307936523,9953.74347254847,,,9,229.501754760742,1360.1712468657,1362.3419769262
2018-07-19T08:00:10Z,1531987210,102,41.1559306,44.9165605,8989.54,0,6.2,236.9,544230.69,8027.87,231.1,Air+FixedWing,Red,Allies,E-2C,Red AWACS,xu,,150.634023017821,94.9609451293945,0.495495994620181,8989.544921875,8759.28979492188,150.620641279668,2.0078125,5.46261680165553,-0.0685979798621407,0,0.111905886062555,5000,0.982812687480641,0.00113394350538997,0.0417887069145518,1134.53044452667,8815.73207081055,9950.26251533722,,,10,230.255126953125,1510.01648561568,1512.41182068779
2018-07-19T08:00:11Z,1531987211,102,41.1543477,44.9158253,8991.37,0,6.1,236.9,544114.06,7933.56,231,Air+FixedWing,Red,Allies,E-2C,Red AWACS,xu,,149.998282159664,94.5340423583984,0.493417516373973,8991.3720703125,8760.36018371582,149.98715338134,1.8271484375,5.44286397052719,0.0542861824872267,0,0.0979176386320491,5000,0.969576290017554,-0.00590518939416206,0.131798488364491,1124.97423254251,8817.52389133301,9942.49812387552,,,11,231.01188659668,1659.24364152672,1661.86049308296
2018-07-19T08:00:12Z,1531987212,102,41.1527629,44.9150891,8992.98,0,6,236.9,543997.19,7839.12,231,Air+FixedWing,Red,Allies,E-2C,Red AWACS,xu,,150.270648112734,94.7036590576172,0.494324714853532,8992.984375,8761.09106445312,150.261998382212,1.6123046875,5.43087725804225,0.0462993399397607,0,0.0541761800424684,5000,0.979879230593671,0.00628717092854438,0.000910852981566637,1129.06338421106,8819.10502210937,9948.16840632044,,,12,231.893310546875,1808.65838273792,1811.49457230091
2018-07-19T08:00:13Z,1531987213,102,41.1511879,44.9143573,8994.35,0,5.9,236.9,543881.12,7745.26,231,Air+FixedWing,Red,Allies,E-2C,Red AWACS,xu,,149.27260753201,94.042106628418,0.491051051011704,8994.34765625,8760.57629394531,149.266382094693,1.36328125,5.44023618223879,0.0432377875766826,0,0.0685280550049982,5000,0.969677080830434,-0.00510604993330803,0.121109515270593,1114.11556797028,8820.44194431641,9934.55751228668,,,13,233.771362304688,1957.15345656144,1960.20528461426
2018-07-19T08:00:14Z,1531987214,102,41.1496116,44.9136249,8995.49,0,5.9,236.9,543764.88,7651.31,231,Air+FixedWing,Red,Allies,E-2C,Red AWACS,xu,,149.471471549971,94.1660690307617,0.491713139135682,8995.4853515625,8760.83508300781,149.467141729177,1.1376953125,5.50536159885004,0.0437632169869974,0,0.0523391626455858,5000,0.977419766293356,0.00421441571853581,0.0549705433510573,1117.0860403657,8821.55764229004,9938.64368265573,,,14,234.650268554688,2105.78330619562,2109.04909104101
2018-07-19T08:00:15Z,1531987215,102,41.1480394,44.9128943,8996.41,0,5.9,236.9,543649,7557.61,231,Air+FixedWing,Red,Allies,E-2C,Red AWACS,xu,,149.020885341484,93.8657989501953,0.490237230710588,8996.40625,8760.22038269043,149.018039894596,0.9208984375,5.5471885472775,0.047630474732806,0,0.0523391626455858,5000,0.978885235379002,-0.000955573683280932,0.083316580056292,1110.36121339798,8822.46073515625,9932.82194855423,,,15,236.18586730957,2254.02069255595,2257.49841295899
2018-07-19T08:00:16Z,1531987216,102,41.1464692,44.9121646,8997.15,0,5.8,236.9,543533.25,7464.03,231,Air+FixedWing,Red,Allies,E-2C,Red AWACS,xu,,148.851488160936,93.7506408691406,0.489685127506396,8997.1533203125,8759.4605255127,148.849613414592,0.7470703125,5.54219631957502,0.0437018102572294,0,0.0523391626455858,5000,0.977273758474152,0.00317462366468663,0.126580971522154,1107.83827638626,8823.19336086426,9931.03163725052,,,16,237.692794799805,2402.07728952424,2405.76573558288
2018-07-19T08:00:17Z,1531987217,102,41.1448959,44.9114334,8997.75,0,5.8,236.9,543417.31,7370.25,231,Air+FixedWing,Red,Allies,E-2C,Red AWACS,xu,,149.117280123147,93.9212951660156,0.490563679188213,8997.75390625,8758.99896240234,149.116070655905,0.6005859375,5.59547614616947,0.0425231919386231,0,0.0139882274201861,5000,0.990510007793556,-0.00512612104435771,0.0140099357178772,1111.79816156626,8823.78233447265,9935.58049603891,,,17,238.754943847656,2550.43559330211,2554.33453806651
2018-07-19T08:00:18Z,1531987218,102,41.1433322,44.9107066,8998.23,0,5.8,236.9,543302,7277.04,231,Air+FixedWing,Red,Allies,E-2C,Red AWACS,xu,,148.271925084916,93.3655395507812,0.487785892867477,8998.2255859375,8758.37641906738,148.271174834016,0.4716796875,5.63486474967,0.0440901205618408,0,0.0139882274201861,5000,0.98537238888787,0.00359861048884814,0.103019677165751,1099.22818841934,8824.2448942334,9923.47308265274,,,18,239.849166870117,2697.89164100286,2701.99936348413
2018-07-19T08:00:19Z,1531987219,102,41.1417677,44.9099794,8998.61,0,5.8,236.9,543186.69,7183.79,231,Air+FixedWing,Red,Allies,E-2C,Red AWACS,xu,,148.30021377469,93.3821716308594,0.487881581434393,8998.6064453125,8757.72763061523,148.299724719081,0.380859375,5.67110983904828,0.0384104724501922,0,0.0139882274201861,5000,0.990863089069847,-0.000312868444853791,0.0509355919260135,1099.64767028093,8824.61838969238,9924.26605997332,,,19,240.878814697266,2845.42862390582,2849.74498569983
2018-07-19T08:00:20Z,1531987220,102,41.1402085,44.9092547,8998.9,0,5.8,236.9,543071.75,7090.85,231,Air+FixedWing,Red,Allies,E-2C,Red AWACS,xu,,147.814995798247,93.0630493164062,0.486287305138345,8998.8984375,8756.04312133789,147.814707398818,0.2919921875,5.69872051066641,0.0466539442748927,0,0.0139882274201861,5000,0.984502293143646,-0.00173795258642526,0.148045651664938,1092.46364914179,8824.90473621094,9917.36838535273,,,20,242.855316162109,2992.46294912015,2996.98704745286
2018-07-19T08:00:21Z,1531987221,102,41.1386445,44.9085277,8999.14,0,5.8,236.9,542956.44,6997.62,231,Air+FixedWing,Red,Allies,E-2C,Red AWACS,xu,,148.283643208396,93.3681259155273,0.48783071390272,8999.1357421875,8754.27593994141,148.283453323829,0.2373046875,5.72050986054564,0.042690104422282,0,0.0139882274201861,5000,0.993961724776894,-0.00351108156493993,0.0568901603897219,1099.40194215775,8825.1374526123,9924.53939477005,,,21,244.859802246094,3139.95261775517,3144.68500229455
2018-07-19T08:00:22Z,1531987222,102,41.1370855,44.907803,8999.32,0,5.8,236.9,542841.44,6904.69,231,Air+FixedWing,Red,Allies,E-2C,Red AWACS,xu,,147.853605408356,93.0856704711914,0.486417222683376,8999.3203125,8752.82286071777,147.853490205844,0.1845703125,5.73461018423595,0.0565000740204345,0,0.0139882274201861,5000,0.992635022190413,0.00576386045277489,0.0807907684958728,1093.03443161249,8825.31845425781,9918.3528858703,,,22,246.497451782227,3286.97990404909,3291.91985232314
2018-07-19T08:00:23Z,1531987223,102,41.1355279,44.9070789,8999.46,0,5.8,236.9,542726.62,6811.84,231,Air+FixedWing,Red,Allies,E-2C,Red AWACS,xu,,147.658016283078,92.9569320678711,0.485774740627059,8999.462890625,8751.78309631348,147.657947446563,0.142578125,5.75169252939497,0.0435162599861986,0,0.0139882274201861,5000,0.988310806807086,-0.000178368401156413,0.133215913083848,1090.14448863268,8825.45827563476,9915.60276426744,,,23,247.679794311523,3433.87196074582,3439.01923913241
2018-07-19T08:00:24Z,1531987224,102,41.1339669,44.9063532,8999.57,0,5.8,236.9,542611.56,6718.79,231,Air+FixedWing,Red,Allies,E-2C,Red AWACS,xu,,147.978263158437,93.1660919189453,0.486829067929343,8999.5732421875,8751.42370605469,147.978222012296,0.1103515625,5.76255214930657,0.0372964896741707,0,0.0139882274201861,5000,1.00014723409991,-0.00150061054677009,0.034425858797072,1094.87831836939,8825.5664935498,9920.44481191919,,,24,248.149536132812,3581.09245519277,3586.44750222917
2018-07-19T08:00:25Z,1531987225,102,41.1324131,44.9056308,8999.67,0,5.8,236.9,542497,6626.17,231,Air+FixedWing,Red,Allies,E-2C,Red AWACS,xu,,147.322967132345,92.7368850708008,0.484673885109844,8999.6689453125,8750.9910736084,147.322936047277,0.095703125,5.7680246494998,0.0620421023622031,0,0.0139882274201861,5000,0.994684743754546,-0.00112380263340758,0.0753927499981436,1085.20283223391,8825.66034625488,9910.86317848879,,,25,248.677871704102,3727.63372733732,3733.19557691852
2018-07-19T08:00:26Z,1531987226,102,41.1308619,44.9049096,8999.74,0,5.8,236.9,542382.62,6533.71,231,Air+FixedWing,Red,Allies,E-2C,Red AWACS,xu,,147.072769001865,92.5729904174805,0.483851232127386,8999.7373046875,8751.7373046875,147.072753115157,0.068359375,5.77387045819411,0.0448410912245969,0,0.0139882274201861,5000,0.989951863910778,-0.00372483414919559,0.138738965259258,1081.5199690938,8825.72738390137,9907.24735299517,,,26,248,3873.93508796458,3879.70338819637
2018-07-19T08:00:27Z,1531987227,102,41.1293074,44.9041869,8999.79,0,5.8,236.9,542267.94,6441.04,231,Air+FixedWing,Red,Allies,E-2C,Red AWACS,xu,,147.445332017957,92.8161163330078,0.485077313139934,8999.794921875,8751.794921875,147.445320760427,0.0576171875,5.78130226052164,0.0490445638369461,0,0.0139882274201861,5000,1.00055068596659,0.00655968936028896,0.0245415118054654,1087.00629669428,8825.78388706055,9912.79018375483,,,27,248,4020.54609815565,4026.5212827659
2018-07-19T08:00:28Z,1531987228,102,41.12776,44.9034674,8999.83,0,5.8,236.9,542153.88,6348.8,231,Air+FixedWing,Red,Allies,E-2C,Red AWACS,xu,,146.693136983776,92.3243713378906,0.48260293537476,8999.83203125,8752.83203125,146.693132289944,0.037109375,5.78554166534047,0.0437431329026799,0,0.0139882274201861,5000,0.99124522169733,-0.00500176045169009,0.137830984180815,1075.94382190704,8825.82027892578,9901.76410083282,,,28,247,4166.49387487105,4172.67500250525
2018-07-19T08:00:29Z,1531987229,102,41.1262095,44.9027464,8999.87,0,5.8,236.9,542039.5,6256.37,231,Air+FixedWing,Red,Allies,E-2C,Red AWACS,xu,,147.055569529618,92.5610580444336,0.483795555489353,8999.8701171875,8753.41873168945,147.055564597677,0.0380859375,5.788974011065,0.0393566685404148,0,0.0139882274201861,5000,0.998598843142311,0.00200881574149985,0.05361109992403,1081.26702648401,8825.85762847168,9907.12465495569,,,29,246.451385498047,4312.73782611979,4319.12531579466
2018-07-19T08:00:30Z,1531987230,102,41.1246635,44.9020276,8999.9,0,5.8,236.9,541925.5,6164.22,231,Air+FixedWing,Red,Allies,E-2C,Red AWACS,xu,,146.588966794961,92.2559432983398,0.482260673529995,8999.8974609375,8753.8974609375,146.588964244699,0.02734375,5.78967544033428,0.0595291494639193,0,0.0139882274201861,5000,0.991176647727309,-0.00130051575789401,0.132593641742505,1074.41625930071,8825.88444353027,9900.30070283098,,,30,246,4458.55479043147,4465.14803800458
2018-07-19T08:00:31Z,1531987231,102,41.1231146,44.9013072,8999.92,0,5.8,236.9,541811.25,6071.88,231,Air+FixedWing,Red,Allies,E-2C,Red AWACS,xu,,146.900339510391,92.4592208862305,0.483285206908785,8999.919921875,8754.919921875,146.900337793262,0.0224609375,5.79274584235411,0.0430806026060173,0,0.0139882274201861,5000,1.0017511241884,0.00355494992239896,0.0304607462887948,1078.98548741341,8825.90647018555,9904.89195759895,,,31,245,4604.66090015933,4611.46031336402
2018-07-19T08:00:32Z,1531987232,102,41.1215724,44.90059,8999.94,0,5.9,236.9,541697.56,5979.95,231,Air+FixedWing,Red,Allies,E-2C,Red AWACS,xu,,146.204739002265,92.0045928955078,0.480996893993856,8999.939453125,8754.939453125,146.204737697691,0.01953125,5.89580490166823,0.0539650926955045,0,0.0523391626455858,5000,0.991562348304161,-0.00336478679354279,0.124462190620121,1068.79128533602,8825.92562379883,9894.71690913485,,,32,245,4750.12466184581,4757.12933435685
2018-07-19T08:00:33Z,1531987233,102,41.1200287,44.8998721,8999.95,0,5.9,236.9,541583.69,5887.91,231,Air+FixedWing,Red,Allies,E-2C,Red AWACS,xu,,146.419311856787,92.1447677612305,0.481702887263504,8999.9501953125,8755.92108154297,146.419311462731,0.0107421875,5.89424504956114,0.0535159400824965,0,0.0523391626455858,5000,1.00115353569043,0.00233016836071342,0.0394002621435974,1071.93074423075,8825.93615828613,9897.86690251688,,,33,244.029113769531,4895.74687999293,4902.95703483396
2018-07-19T08:00:34Z,1531987234,102,41.118491,44.899157,8999.96,0,5.9,236.8,541470.31,5796.25,231,Air+FixedWing,Red,Allies,E-2C,Red AWACS,xu,,145.794417053442,91.7363739013672,0.479647120570843,8999.9599609375,8755.9599609375,145.794416726381,0.009765625,5.89693395597823,0.0482602016631242,0,0.0139882274201861,5000,0.988011083025995,-0.000627599957387416,0.167545959290618,1062.80060219765,8825.94573509277,9888.74633729042,,,34,244,5040.79224483068,5048.20706819202
2018-07-19T08:00:35Z,1531987235,102,41.1169469,44.8984388,8999.97,0,5.9,236.8,541356.44,5704.19,231,Air+FixedWing,Red,Allies,E-2C,Red AWACS,xu,,146.43281773104,92.1533889770508,0.48174745294568,8999.9697265625,8755.9697265625,146.432817405405,0.009765625,5.89693243898052,0.0442928014107037,0,0.0139882274201861,5000,1.00584928577474,-0.000459163216250919,-0.0118521705987733,1072.12850543261,8825.95531189941,9898.08381733202,,,35,244,5186.45509586199,5194.07545927772
2018-07-19T08:00:36Z,1531987236,102,41.1154147,44.897726,8999.97,0,5.9,236.8,541243.44,5612.84,231.1,Air+FixedWing,Red,Allies,E-2C,Red AWACS,xu,,145.303260417596,91.4152908325195,0.478031356576701,8999.97265625,8755.97265625,145.303260388061,0.0029296875,5.89616596442974,-0.0606088434334161,0,0.0513960362511687,5000,0.987733441005464,-0.00253988488720472,0.174107698387744,1055.65187439919,8825.95818494141,9881.61005934059,,,36,244,5330.99681570181,5338.82113702888
2018-07-19T08:00:37Z,1531987237,102,41.1138754,44.89701,8999.98,0,5.9,236.8,541129.88,5521.07,231.1,Air+FixedWing,Red,Allies,E-2C,Red AWACS,xu,,146.005924016486,91.8743362426758,0.480343087029853,8999.9794921875,8755.9794921875,146.005923856459,0.0068359375,5.89999926828606,-0.045458277173516,0,0.0513960362511687,5000,0.996996816345837,0.00457753233252164,0.0738114386522378,1065.8864923954,8825.96488870605,9891.85138110145,,,37,244,5476.20816550954,5484.23738988268
2018-07-19T08:00:38Z,1531987238,102,41.1123387,44.8962951,8999.98,0,5.9,236.8,541016.56,5429.45,231.1,Air+FixedWing,Red,Allies,E-2C,Red AWACS,xu,,145.720948565327,91.6882095336914,0.479405549811005,8999.9794921875,8755.9794921875,145.720948565327,0,5.89577715052783,-0.0465083136552742,0,0.00989117029631303,5000,0.998655626988505,-0.00407454265728911,0.0751971976573903,1061.72974253893,8825.96488870605,9887.69463124498,,,38,244,5621.18588902069,5629.41968669491
2018-07-19T08:00:39Z,1531987239,102,41.1108054,44.8955819,8999.99,0,5.9,236.8,540903.44,5338.03,231.1,Air+FixedWing,Red,Allies,E-2C,Red AWACS,xu,,145.447744607863,91.5096206665039,0.47850681208271,8999.990234375,8755.990234375,145.447744211176,0.0107421875,5.89999926828606,-0.0524242323653195,0,0.00989117029631303,5000,0.991735280671471,0.0023417844548917,0.120851230354081,1057.75232057571,8825.97542319336,9883.72774376907,,,39,244,5765.83551260849,5774.27342113234
2018-07-19T08:00:40Z,1531987240,102,41.1092698,44.8948675,8999.99,0,5.9,236.8,540790.19,5246.48,231.1,Air+FixedWing,Red,Allies,E-2C,Red AWACS,xu,,145.626911842501,91.6268310546875,0.479096252245617,8999.990234375,8755.990234375,145.626911842501,0,5.89999926828606,-0.0539039695982605,0,0.00989117029631303,5000,1.00054067375735,0.000657987185563997,0.0462995721809682,1060.35987263918,8825.97542319336,9886.33529583254,,,40,244,5910.70726524817,5919.34959778438
2018-07-19T08:00:41Z,1531987241,102,41.1077401,44.8941557,8999.99,0,5.9,236.8,540677.38,5155.27,231.1,Air+FixedWing,Red,Allies,E-2C,Red AWACS,xu,,145.069961179289,91.2630081176758,0.477263946856081,8999.990234375,8755.990234375,145.069961179289,0,5.89999926828606,-0.0419601102026807,0,0.00989117029631303,5000,0.991564141399941,-0.00275631158612693,0.133163710107027,1052.26468182802,8825.97542319336,9878.24010502138,,,41,244,6055.03679777351,6063.88278921218
2018-07-19T08:00:42Z,1531987242,102,41.1062077,44.8934428,8999.99,0,5.9,236.8,540564.31,5063.9,231.1,Air+FixedWing,Red,Allies,E-2C,Red AWACS,xu,,145.369363461496,91.4586944580078,0.47824894687774,8999.990234375,8755.990234375,145.369363461496,0,5.89883808650184,-0.0407290903467719,0,0.0513960362511687,5000,0.996665895808781,-0.00157776069206594,0.0934826713837829,1056.61259166002,8825.97542319336,9882.58801485338,,,42,244,6199.61444315182,6208.66444359815
2018-07-19T08:00:43Z,1531987243,102,41.1046763,44.8927302,9000,0,6,236.8,540451.31,4972.59,231.1,Air+FixedWing,Red,Allies,E-2C,Red AWACS,xu,,145.276558889534,91.3979187011719,0.47794369613698,9000,8756,145.276558561307,0.009765625,5.99729753726396,-0.0493359353813331,0,0.0513960362511687,5000,0.999829571963823,0.00652010698940837,0.0445014103659177,1055.26392813921,8825.985,9881.24892813921,,,43,244,6344.10321404025,6353.35709852515
2018-07-19T08:00:44Z,1531987244,102,41.1031505,44.8920202,9000,0,6,236.8,540338.81,4881.61,231.1,Air+FixedWing,Red,Allies,E-2C,Red AWACS,xu,,144.685736133378,91.0119476318359,0.475999955082006,9000,8756,144.685736133378,0,5.99999314935044,-0.0618430932995626,0,0.0171320104161963,5000,0.993076359510415,-0.00316062716187531,0.118280783349831,1046.69811202288,8825.985,9872.68311202288,,,44,244,6488.06544577806,6497.5224710998
2018-07-19T08:00:45Z,1531987245,102,41.1016237,44.8913097,9000,0,6,236.8,540226.19,4790.57,231.1,Air+FixedWing,Red,Allies,E-2C,Red AWACS,xu,,144.821313292669,91.1006469726562,0.476445988833898,9000,8756,144.821313292669,0,5.99999314935044,-0.0400222702526407,0,0.0171320104161963,5000,0.996264646719902,-0.000365566198165518,0.0879462153275872,1048.66063919067,8825.985,9874.64563919067,,,45,244,6632.13020863189,6641.7905194687
2018-07-19T08:00:46Z,1531987246,102,41.1000985,44.8905999,9000,0,6,236.8,540113.69,4699.63,231.1,Air+FixedWing,Red,Allies,E-2C,Red AWACS,xu,,144.657799327413,90.9941329956055,0.47590804610231,9000,8756,144.657799327413,0,5.99999314935044,-0.0498168356216704,0,0.0171320104161963,5000,0.990416329256802,-0.00206978657846691,0.143589315288037,1046.2939453125,8825.985,9872.2789453125,,,46,244,6776.03990432162,6785.90328186319
2018-07-19T08:00:47Z,1531987247,102,41.0985697,44.8898885,9000,0,6,236.8,540000.88,4608.47,231.1,Air+FixedWing,Red,Allies,E-2C,Red AWACS,xu,,145.042950261595,91.2452392578125,0.477175149773134,9000,8756,145.042950261595,0,5.99999314935044,-0.0422026655337263,0,0.0171320104161963,5000,1.00456709370313,0.00268902438644804,0.00895360073052355,1051.87287102938,8825.985,9877.85787102938,,,47,244,6920.29572775378,6930.36266040999
2018-07-19T08:00:48Z,1531987248,102,41.0970505,44.8891814,9000,0,6,236.8,539888.81,4517.88,231.1,Air+FixedWing,Red,Allies,E-2C,Red AWACS,xu,,144.100541414949,90.6304397583008,0.474074729644235,9000,8756,144.100541414949,0,5.99999314935044,-0.0568461147362639,0,0.0171320104161963,5000,0.988715967019704,-0.00220796228887865,0.159767203462679,1038.24830180407,8825.985,9864.23330180406,,,48,244,7063.65051868876,7073.91973504034
2018-07-19T08:00:49Z,1531987249,102,41.095526,44.8884717,9000,0,6,236.8,539776.31,4426.96,231.1,Air+FixedWing,Red,Allies,E-2C,Red AWACS,xu,,144.645215111961,90.9857864379883,0.475866645435252,9000,8756,144.645215111961,0,5.99999314935044,-0.0516958789932156,0,0.0171320104161963,5000,1.00042567500835,0.00104548096139266,0.0483566214908843,1046.11191273928,8825.985,9872.09691273928,,,49,244,7207.51300491508,7217.98522135567
2018-07-19T08:00:50Z,1531987250,102,41.0940072,44.8877648,9000,0,6,236.8,539664.25,4336.38,231.1,Air+FixedWing,Red,Allies,E-2C,Red AWACS,xu,,144.09133277128,90.6243438720703,0.474044434232333,9000,8756,144.09133277128,0,5.99999314935044,-0.046639010743231,0,0.0171320104161963,5000,0.991261607976935,-0.00194257465688674,0.135547014469802,1038.11560899019,8825.985,9864.10060899019,,,50,244,7350.8385095829,7361.51296839337
2018-07-19T08:00:51Z,1531987251,102,41.0924853,44.8870563,9000,0,6,236.8,539551.94,4245.62,231.1,Air+FixedWing,Red,Allies,E-2C,Red AWACS,xu,,144.397182834571,90.8240585327148,0.475050646871388,9000,8756,144.397182834571,0,5.99999314935044,-0.0486996513061611,0,0.0171320104161963,5000,0.999296057180064,0.00428946488952185,0.0591042319160803,1042.52732052803,8825.985,9868.51232052803,,,51,244,7494.46586151001,7505.34298861713
2018-07-19T08:00:52Z,1531987252,102,41.0909677,44.8863499,9000,0,6,236.8,539440,4155.12,231.1,Air+FixedWing,Red,Allies,E-2C,Red AWACS,xu,,143.949306605916,90.5317611694336,0.473577183968827,9000,8756,143.949306605916,0,5.99999314935044,-0.0552466432342878,0,0.0171320104161963,5000,0.993681420708145,-0.00018533598795447,0.112524002716787,1036.0701436162,8825.985,9862.0551436162,,,52,244,7637.68074850937,7648.75996189754
2018-07-19T08:00:53Z,1531987253,102,41.0894493,44.8856429,9000,0,6,236.8,539328,4064.56,231.1,Air+FixedWing,Red,Allies,E-2C,Red AWACS,xu,,144.028147291168,90.5832138061523,0.473836561041103,9000,8756,144.028147291168,0,5.99999314935044,-0.0386248282820422,0,0.0171320104161963,5000,0.993918369964937,-0.00299466586271227,0.110269578044319,1037.20536060631,8825.985,9863.19036060631,,,53,244,7780.97819810259,7792.25961427273
2018-07-19T08:00:54Z,1531987254,102,41.0879308,44.884936,9000,0,6.1,236.8,539215.94,3974,231.1,Air+FixedWing,Red,Allies,E-2C,Red AWACS,xu,,144.084733797376,90.6201629638672,0.474022724343258,9000,8756,144.084733797376,0,6.09998740397696,-0.0388258367860681,0,0.0523391626455858,5000,0.997706997575609,0.00130320992676944,0.0747379402151754,1038.02052567303,8825.985,9864.00552567303,,,54,244,7924.28902772012,7935.77266555238
2018-07-19T08:00:55Z,1531987255,102,41.0864153,44.8842303,9000,0,6.1,236.8,539104.12,3883.62,231.1,Air+FixedWing,Red,Allies,E-2C,Red AWACS,xu,,143.773820369646,90.4173278808594,0.472999853799216,9000,8756,143.773820369646,0,6.09998740397696,-0.0565545901072251,0,0.0523391626455858,5000,0.996009967856121,0.000796915129320469,0.0906174835181367,1033.54557118416,8825.985,9859.53057118416,,,55,244,8067.32079716257,8079.00626288339
2018-07-19T08:00:56Z,1531987256,102,41.0849015,44.8835254,9000,0,6.1,236.8,538992.44,3793.32,231.1,Air+FixedWing,Red,Allies,E-2C,Red AWACS,xu,,143.61951524373,90.3164978027344,0.472492207123271,9000,8756,143.61951524373,0,6.09998740397696,-0.0583684417227488,0,0.0139882274201861,5000,0.998147232719601,-0.00383108260296034,0.0706185468113687,1031.3282579422,8825.985,9857.3132579422,,,56,244,8210.19881734162,8222.08589400071
2018-07-19T08:00:57Z,1531987257,102,41.083392,44.8828225,9000,0,6.1,236.8,538881,3703.28,231.1,Air+FixedWing,Red,Allies,E-2C,Red AWACS,xu,,143.267933959527,90.0873260498047,0.471335543861497,9000,8756,143.267933959527,0,6.09998740397696,-0.0479726234500079,0,0.0139882274201861,5000,0.993066550382602,0.00467771089869524,0.118159797416774,1026.28504505157,8825.985,9852.27004505157,,,57,244,8352.67377761119,8364.76189646189
2018-07-19T08:00:58Z,1531987258,102,41.0818805,44.8821186,9000,0,6.1,236.8,538769.5,3613.13,231.1,Air+FixedWing,Red,Allies,E-2C,Red AWACS,xu,,143.385295375224,90.1639099121094,0.471721649846045,9000,8756,143.385295375224,0,6.09998740397696,-0.0464592234359419,0,0.0139882274201861,5000,0.991279373136324,-0.00492627673076744,0.13488287430013,1027.967146492,8825.985,9853.952146492,,,58,244,8495.33545983422,8507.62488435461
2018-07-19T08:00:59Z,1531987259,102,41.0803667,44.8814136,9000,0,6.1,236.8,538657.75,3522.84,231.1,Air+FixedWing,Red,Allies,E-2C,Red AWACS,xu,,143.667510780649,90.3478240966797,0.472650107093426,9000,8756,143.667510780649,0,6.09998740397696,-0.0457569759040323,0,0.0139882274201861,5000,0.996528721674044,0.00489593825314443,0.0857633706993187,1032.01768269539,8825.985,9858.00268269539,,,59,244,8638.22217062685,8650.71321834821
2018-07-19T08:01:00Z,1531987260,102,41.0788544,44.8807094,9000,0,6.1,236.8,538546.19,3432.64,231.1,Air+FixedWing,Red,Allies,E-2C,Red AWACS,xu,,143.465364056231,90.2163314819336,0.471985066887569,9000,8756,143.465364056231,0,6.09998740397696,-0.0447389052462348,0,0.0139882274201861,5000,0.998017654073445,-0.00231985687722855,0.0718310475113571,1029.11553418934,8825.985,9855.10053418934,,,60,244,8780.96082574609,8793.65328775099
2018-07-19T08:01:01Z,1531987261,102,41.0773462,44.8800069,9000,0,6.1,236.8,538434.88,3342.67,231.1,Air+FixedWing,Red,Allies,E-2C,Red AWACS,xu,,143.125750385841,89.9945678710938,0.470867775742146,9000,8756,143.125750385841,0,6.09998740397696,-0.0484624682784525,0,0.0139882274201861,5000,0.996945699112316,3.28913664947156e-05,0.0818616056262793,1024.2490211755,8825.985,9850.2340211755,,,61,244,8923.32815472549,8936.22150704692
2018-07-19T08:01:02Z,1531987262,102,41.0758405,44.8793055,9000,0,6.1,236.8,538323.75,3252.85,231.1,Air+FixedWing,Red,Allies,E-2C,Red AWACS,xu,,142.885083764881,89.8375854492188,0.470076009367462,9000,8756,142.885083764881,0,6.09998740397696,-0.0497530487228527,0,0.0139882274201861,5000,0.984910332194638,-0.00168995146925337,0.194479627539303,1020.80735812485,8825.985,9846.79235812485,,,62,244,9065.46633050116,9078.56024978848
2018-07-19T08:01:03Z,1531987263,102,41.0743259,44.8786,9000,0,6.1,236.8,538211.94,3162.5,231.1,Air+FixedWing,Red,Allies,E-2C,Red AWACS,xu,,143.755098123954,90.4051132202148,0.472938259696393,9000,8756,143.755098123954,0,6.09998740397696,-0.0567529041669048,0,0.0139882274201861,5000,1.00387668675398,0.000391847320227358,0.0170065726682927,1033.27641183138,8825.985,9859.26141183138,,,63,244,9208.43938807708,9221.73505240599
2018-07-19T08:01:04Z,1531987264,102,41.0728205,44.8778987,9000,0,6.1,236.8,538100.81,3072.7,231.1,Air+FixedWing,Red,Allies,E-2C,Red AWACS,xu,,142.874801936809,89.8310546875,0.470042183298417,9000,8756,142.874801936809,0,6.09998740397696,-0.0359964511445561,0,0.0139882274201861,5000,0.999332592913241,0.00264261634225004,0.0595268267852845,1020.66045142412,8825.985,9846.64545142412,,,64,244,9350.55301181515,9364.04920846477
2018-07-19T08:01:05Z,1531987265,102,41.0713196,44.8771995,9000,0,6.1,236.8,537990.06,2983.17,231.1,Air+FixedWing,Red,Allies,E-2C,Red AWACS,xu,,142.413880097755,89.5305023193359,0.468525801790818,9000,8756,142.413880097755,0,6.09998740397696,-0.06382013828067,0,0.0139882274201861,5000,0.98563674409935,-1.27644443585565e-05,0.18768240462435,1014.08566222489,8825.985,9840.07066222489,,,65,244,9492.23880769106,9505.93493296589
2018-07-19T08:01:06Z,1531987266,102,41.0698103,44.8764963,9000,0,6.1,236.8,537878.69,2893.13,231.1,Air+FixedWing,Red,Allies,E-2C,Red AWACS,xu,,143.216869430964,90.0539855957031,0.47116754725069,9000,8756,143.216869430964,0,6.09998740397696,-0.0378821012683662,0,0.0312786278555019,5000,1.0066423489052,-0.00141585674846407,-0.00887243898805271,1025.55358448029,8825.985,9851.53858448028,,,66,244,9634.7293965006,9648.62658602058
2018-07-19T08:01:07Z,1531987267,102,41.0683132,44.8757988,9000,0,6.2,236.8,537768.19,2803.82,231.1,Air+FixedWing,Red,Allies,E-2C,Red AWACS,xu,,142.081327012538,89.3139953613281,0.467431739184123,9000,8756,142.081327012538,0,6.20000822753505,-0.0451911723752338,0,0.0523391626455858,5000,0.981836199456162,-0.000773483084967874,0.221357913202719,1009.35517428219,8825.985,9835.34017428219,,,67,244,9776.06401321044,9790.16063581748
2018-07-19T08:01:08Z,1531987268,102,41.0668046,44.8750959,9000,0,6.2,236.8,537656.81,2713.81,231.1,Air+FixedWing,Red,Allies,E-2C,Red AWACS,xu,,143.199527173962,90.0428771972656,0.471110493156937,9000,8756,143.199527173962,0,6.20000822753505,-0.0506924901801376,0,0.0242283218322616,5000,1.00639970768071,0.00152909594783376,-0.00475276958186226,1025.30522914231,8825.985,9851.29022914231,,,68,244,9918.49124810339,9932.7888455579
2018-07-19T08:01:09Z,1531987269,102,41.0653074,44.8743982,9000,0,6.2,236.8,537546.31,2624.48,231.1,Air+FixedWing,Red,Allies,E-2C,Red AWACS,xu,,142.08731247158,89.3178634643555,0.467451430677641,9000,8756,142.08731247158,0,6.20000822753505,-0.0463892602156886,0,0.0197823405926261,5000,0.987838205700457,0.00139572982632792,0.166108568623398,1009.44021826982,8825.985,9835.42521826982,,,69,244,10059.8536121523,10074.3506818473
2018-07-19T08:01:10Z,1531987270,102,41.0638041,44.8736977,9000,0,6.2,236.8,537435.38,2534.79,231.1,Air+FixedWing,Red,Allies,E-2C,Red AWACS,xu,,142.660532812067,89.6914901733398,0.469337261745828,9000,8756,142.660532812067,0,6.20000822753505,-0.0558384496240938,0,0.0197823405926261,5000,1.00332672440036,-0.00380404924755377,0.023534490582814,1017.60138111115,8825.985,9843.58638111114,,,70,244,10201.7859093754,10216.4832555264
2018-07-19T08:01:11Z,1531987271,102,41.0623099,44.8730014,9000,0,6.2,236.8,537325.06,2445.65,231.1,Air+FixedWing,Red,Allies,E-2C,Red AWACS,xu,,141.827309546754,89.1484603881836,0.46659605001714,9000,8756,141.827309546754,0,6.20000822753505,-0.0458513199475377,0,0.0197823405926261,5000,0.985049319847546,0.00295156294073071,0.191780670452067,1005.74928666353,8825.985,9831.73428666353,,,71,244,10342.8590291499,10357.7554393975
2018-07-19T08:01:12Z,1531987272,102,41.0608069,44.8723009,9000,0,6.2,236.8,537214.12,2355.97,231.1,Air+FixedWing,Red,Allies,E-2C,Red AWACS,xu,,142.653779241385,89.687255859375,0.469315043250574,9000,8756,142.653779241385,0,6.20000822753505,-0.035344557541719,0,0.0197823405926261,5000,0.996737155329064,0.000769129540569175,0.0841924368479102,1017.50503659248,8825.985,9843.49003659248,,,72,244,10484.7750341893,10499.871697903
2018-07-19T08:01:13Z,1531987273,102,41.0593061,44.8716014,9000,0,6.2,236.8,537103.38,2266.43,231.1,Air+FixedWing,Red,Allies,E-2C,Red AWACS,xu,,142.418945295759,89.5339736938477,0.46854246572803,9000,8756,142.418945295759,0,6.20000822753505,-0.0602986475892861,0,0.0197823405926261,5000,0.999789431414767,-0.00380915502529719,0.0560957894359626,1014.15779895782,8825.985,9840.14279895782,,,73,244,10626.4828263597,10641.7794497377
2018-07-19T08:01:14Z,1531987274,102,41.0578114,44.8709047,9000,0,6.2,236.8,536993,2177.24,231.1,Air+FixedWing,Red,Allies,E-2C,Red AWACS,xu,,141.906917987957,89.2003173828125,0.466857952920978,9000,8756,141.906917987957,0,6.20000822753505,-0.0516272700738931,0,0.0197823405926261,5000,0.988946241804836,-0.00117013999410112,0.155908934360211,1006.87866864204,8825.985,9832.86366864204,,,74,244,10767.6181233963,10783.1138986069
2018-07-19T08:01:15Z,1531987275,102,41.0563118,44.8702058,9000,0,6.2,236.8,536882.25,2087.76,231.1,Air+FixedWing,Red,Allies,E-2C,Red AWACS,xu,,142.379505434706,89.5081405639648,0.46841271297844,9000,8756,142.379505434706,0,6.20000822753505,-0.036062112729581,0,0.0197823405926261,5000,1.00166742604593,0.00508765646327818,0.0388085744161331,1013.59617839158,8825.985,9839.58117839157,,,75,244,10909.2139606247,10924.9095375228
2018-07-19T08:01:16Z,1531987276,102,41.0548187,44.8695098,9000,0,6.2,236.8,536772.06,1998.67,231.1,Air+FixedWing,Red,Allies,E-2C,Red AWACS,xu,,141.697022419319,89.0636367797852,0.466167419880791,9000,8756,141.697022419319,0,6.20000822753505,-0.0681175380159127,0,0.0197823405926261,5000,0.991719932067393,-0.00255160090938102,0.130376710161347,1003.90230812505,8825.985,9829.88730812505,,,76,244,11050.2078905714,11066.1024198233
2018-07-19T08:01:17Z,1531987277,102,41.0533238,44.8688129,9000,0,6.2,236.8,536661.69,1909.46,231.1,Air+FixedWing,Red,Allies,E-2C,Red AWACS,xu,,141.917736541677,89.2076644897461,0.466893544757618,9000,8756,141.917736541677,0,6.20000822753505,-0.042684312304333,0,0.0197823405926261,5000,0.996792028294229,0.000139452154847599,0.0836873231847271,1007.03219725564,8825.985,9833.01719725564,,,77,244,11191.3750633366,11207.4687894002
2018-07-19T08:01:18Z,1531987278,102,41.0518314,44.8681171,9000,0,6.2,236.8,536551.5,1820.4,231.1,Air+FixedWing,Red,Allies,E-2C,Red AWACS,xu,,141.67791396662,89.0512390136719,0.466104555199936,9000,8756,141.67791396662,0,6.20000822753505,-0.0363976165671473,0,0.0197823405926261,5000,0.993329024861477,-0.000718139929718881,0.11556477584772,1003.63156529665,8825.985,9829.61656529665,,,78,244,11332.3150442567,11348.6076465488
2018-07-19T08:01:19Z,1531987279,102,41.0503383,44.867421,9000,0,6.2,236.8,536441.25,1731.3,231.1,Air+FixedWing,Red,Allies,E-2C,Red AWACS,xu,,141.752534855494,89.1000518798828,0.466350049612181,9000,8756,141.752534855494,0,6.20000822753505,-0.0543121491462998,0,0.0197823405926261,5000,0.996567471236784,0.0027162857641082,0.085754403714061,1004.68905689791,8825.985,9830.67405689791,,,79,244,11473.3165789761,11489.8081443524
2018-07-19T08:01:20Z,1531987280,102,41.0488472,44.8667258,9000,0,6.2,236.8,536331.19,1642.32,231.1,Air+FixedWing,Red,Allies,E-2C,Red AWACS,xu,,141.533124423191,88.9570159912109,0.465628213730415,9000,8756,141.533124423191,0,6.20000822753505,-0.0580609143667222,0,0.0197823405926261,5000,0.991552780573505,-0.000633506719029144,0.131915364089197,1001.58126544952,8825.985,9827.56626544952,,,80,244,11614.1349249378,11630.8251949066
2018-07-19T08:01:21Z,1531987281,102,41.0473537,44.8660295,9000,0,6.2,236.8,536220.94,1553.2,231.1,Air+FixedWing,Red,Allies,E-2C,Red AWACS,xu,,141.769032865911,89.1105194091797,0.466404326228709,9000,8756,141.769032865911,0,6.20000822753505,-0.0336061402266951,0,0.0523391626455858,5000,0.998730358879305,-0.00180515117981972,0.065844706892002,1004.92293398678,8825.985,9830.90793398678,,,81,244,11755.1755215104,11772.0648096832
2018-07-19T08:01:22Z,1531987282,102,41.045865,44.8653352,9000,0,6.3,236.8,536111,1464.34,231.1,Air+FixedWing,Red,Allies,E-2C,Red AWACS,xu,,141.353188544942,88.8397750854492,0.465036244734346,9000,8756,141.353188544942,0,6.30000282459342,-0.0445808866287016,0,0.0523391626455858,5000,0.993791819398226,0.00190840684595616,0.111264946401892,999.036195591092,8825.985,9825.02119559109,,,82,244,11895.7776973374,11912.8653850713
2018-07-19T08:01:23Z,1531987283,102,41.0443757,44.8646408,9000,0,6.3,236.8,536001.06,1375.47,231.1,Air+FixedWing,Red,Allies,E-2C,Red AWACS,xu,,141.368305617868,88.8498764038086,0.465085978220355,9000,8756,141.368305617868,0,6.30000282459342,-0.0515730629798997,0,0,5000,0.990513361333364,-0.00166164166941095,0.140960841127208,999.249891663343,8825.985,9825.23489166334,,,83,244,12036.4295891801,12053.7157466284
2018-07-19T08:01:24Z,1531987284,102,41.0428836,44.8639449,9000,0,6.3,236.8,535890.88,1286.41,231.1,Air+FixedWing,Red,Allies,E-2C,Red AWACS,xu,,141.676379322253,89.0504684448242,0.466099506390914,9000,8756,141.676379322253,0,6.30000282459342,-0.0492291586239416,0,0,5000,0.996493409067739,0.00184442476849371,0.0867942590148227,1003.60982289314,8825.985,9829.59482289314,,,84,244,12177.3607997058,12194.8458210058
2018-07-19T08:01:25Z,1531987285,102,41.0413935,44.86325,9000,0,6.3,236.8,535780.88,1197.49,231.1,Air+FixedWing,Red,Allies,E-2C,Red AWACS,xu,,141.450062673061,88.9030685424805,0.465354949824879,9000,8756,141.450062673061,0,6.30000282459342,-0.0384252161226099,0,0,5000,1.00157361701416,-0.00478502392039285,0.0407783218349324,1000.40601151064,8825.985,9826.39101151064,,,85,244,12318.0965828975,12335.7801922885
2018-07-19T08:01:26Z,1531987286,102,41.0399113,44.8625587,9000,0,6.3,236.8,535671.38,1109.02,231.1,Air+FixedWing,Red,Allies,E-2C,Red AWACS,xu,,140.769690621837,88.460205078125,0.463116601564183,9000,8756,140.769690621837,0,6.30000282459342,-0.0692346463850178,0,0,5000,0.987457945604284,0.00239836997128457,0.168636444120359,990.805289888382,8825.985,9816.79028988838,,,86,244,12458.0961462159,12475.9773048394
2018-07-19T08:01:27Z,1531987287,102,41.0384228,44.8618643,9000,0,6.3,236.8,535561.44,1020.18,231.1,Air+FixedWing,Red,Allies,E-2C,Red AWACS,xu,,141.350848305624,88.8382263183594,0.465028545607673,9000,8756,141.350848305624,0,6.30000282459342,-0.0421899760698575,0,0,5000,0.996393051130844,0.00297784406279255,0.087703289623093,999.003115835972,8825.985,9824.98811583597,,,87,244,12598.6959848887,12616.7755397754
2018-07-19T08:01:28Z,1531987288,102,41.0369361,44.8611709,9000,0,6.3,236.8,535451.69,931.44,231.1,Air+FixedWing,Red,Allies,E-2C,Red AWACS,xu,,141.133510076658,88.6967086791992,0.464313527044061,9000,8756,141.133510076658,0,6.30000282459342,-0.0477683849918022,0,0,5000,0.996704418063263,-0.000538661952852561,0.0848829638897414,995.933383327909,8825.985,9821.91838332791,,,88,244,12739.1247892642,12757.4024990732
2018-07-19T08:01:29Z,1531987289,102,41.0354521,44.8604786,9000,0,6.3,236.8,535342.12,842.87,231.1,Air+FixedWing,Red,Allies,E-2C,Red AWACS,xu,,140.888315496009,88.5374221801758,0.463506864186378,9000,8756,140.888315496009,0,6.30000282459342,-0.0530416684957711,0,0,5000,0.994963973333792,-0.00118057957184157,0.100647711353048,992.475872165151,8825.985,9818.46087216515,,,89,244,12879.3064111148,12897.7819270536
2018-07-19T08:01:30Z,1531987290,102,41.0339693,44.8597869,9000,0,6.3,236.8,535232.62,754.36,231.1,Air+FixedWing,Red,Allies,E-2C,Red AWACS,xu,,140.798654199073,88.4789276123047,0.463211888506988,9000,8756,140.798654199073,0,6.30000282459342,-0.0533489048127239,0,0,5000,0.9878079117432,-0.00155406654216778,0.16546649122998,991.21305121351,8825.985,9817.19805121351,,,90,244,13019.3685822084,13038.0417357231
2018-07-19T08:01:31Z,1531987291,102,41.0324809,44.8590925,9000,0,6.3,236.8,535122.69,665.51,231.1,Air+FixedWing,Red,Allies,E-2C,Red AWACS,xu,,141.348508125628,88.836669921875,0.465020846676163,9000,8756,141.348508125628,0,6.30000282459342,-0.0274510830851038,0,0,5000,1.00112286405828,0.000305675559556199,0.0448611900797708,998.970037467033,8825.985,9824.95503746703,,,91,244,13159.9720898736,13178.8436448297
2018-07-19T08:01:32Z,1531987292,102,41.0309992,44.8584012,9000,0,6.3,236.8,535013.25,577.07,231.1,Air+FixedWing,Red,Allies,E-2C,Red AWACS,xu,,140.708456739912,88.4200134277344,0.462915148913598,9000,8756,140.708456739912,0,6.30000282459342,-0.0504312704952194,0,0,5000,0.993893678415374,0.000758034698964821,0.110342319181959,989.943489906378,8825.985,9815.92848990638,,,92,244,13299.9449656944,13319.0140322252
2018-07-19T08:01:33Z,1531987293,102,41.0295174,44.8577098,9000,0,6.3,236.8,534903.81,488.62,231.1,Air+FixedWing,Red,Allies,E-2C,Red AWACS,xu,,140.714460947741,88.4243011474609,0.462934902088539,9000,8756,140.714460947741,0,6.30000282459342,-0.0499291594213169,0,0,5000,0.991955519972618,0.00234904996318849,0.127897934638483,990.02797599067,8825.985,9816.01297599067,,,93,244,13439.9282059468,13459.194798677
2018-07-19T08:01:34Z,1531987294,102,41.0280335,44.8570173,9000,0,6.3,236.8,534794.25,400.03,231.1,Air+FixedWing,Red,Allies,E-2C,Red AWACS,xu,,140.893687770637,88.5405349731445,0.463524538371478,9000,8756,140.893687770637,0,6.30000282459342,-0.056505181200745,0,0,5000,0.99856602141313,-0.00126508172975852,0.0680207756279882,992.55156268049,8825.985,9818.53656268049,,,94,244,13580.117858296,13599.5822684878
2018-07-19T08:01:35Z,1531987295,102,41.0265541,44.856327,9000,0,6.3,236.8,534685,311.72,231.1,Air+FixedWing,Red,Allies,E-2C,Red AWACS,xu,,140.482120335926,88.2727432250977,0.462170527356494,9000,8755.59228515625,140.482120335926,0,6.30000282459342,-0.0503768848931078,0,0,5000,0.990595599087208,-0.00259041581335028,0.140215941045431,986.761306703882,8825.985,9812.74630670388,,,95,244.40771484375,13719.8860649207,13739.5476978847
2018-07-19T08:01:36Z,1531987296,102,41.0250719,44.8556354,9000,0,6.3,236.8,534575.5,223.23,231.1,Air+FixedWing,Red,Allies,E-2C,Red AWACS,xu,,140.782838187716,88.4687881469727,0.463159855591396,9000,8755,140.782838187716,0,6.30000282459342,-0.047143621915222,0,0,5000,0.996738192368949,-0.000920101138433902,0.0845770401273427,990.990376409434,8825.985,9816.97537640943,,,96,245,13859.9141654608,13879.7733879257
2018-07-19T08:01:37Z,1531987297,102,41.0235925,44.854945,9000,0,6.3,236.8,534466.19,134.91,231.1,Air+FixedWing,Red,Allies,E-2C,Red AWACS,xu,,140.534624105086,88.3071441650391,0.462343258908542,9000,8754.93383789062,140.534624105086,0,6.30000282459342,-0.0418741546317188,0,0,5000,0.996155719620889,0.00565821116528238,0.0898530110455359,987.499028617889,8825.985,9813.48402861789,,,97,245.066162109375,13999.6898465145,14019.7463022984
2018-07-19T08:01:38Z,1531987298,102,41.0221144,44.8542551,9000,0,6.3,236.8,534357.06,46.67,231.1,Air+FixedWing,Red,Allies,E-2C,Red AWACS,xu,,140.338517380349,88.1792602539062,0.46169808962883,9000,8754.05693054199,140.338517380349,0,6.30000282459342,-0.0383867301437262,0,0,5000,0.994077962821398,-0.00132323069855241,0.108673092303792,984.74497302573,8825.985,9810.72997302573,,,98,245.943069458008,14139.3434387524,14159.5969555792
2018-07-19T08:01:39Z,1531987299,102,41.0206366,44.8535654,9000,0,6.4,236.8,534247.94,-41.56,231.1,Air+FixedWing,Red,Allies,E-2C,Red AWACS,xu,,140.328033692899,88.1725997924805,0.461663599464914,9000,8752.82965087891,140.328033692899,0,6.39999669631503,-0.0573581281851233,0,0.0513960362511687,5000,0.991177729154986,-0.00165067788057938,0.134559877789578,984.59785200577,8825.985,9810.58285200577,,,99,247.170349121094,14278.9654823508,14299.4160157032
2018-07-19T08:01:40Z,1531987300,102,41.0191567,44.8528746,9000,0,6.4,236.8,534138.62,-129.91,231.1,Air+FixedWing,Red,Allies,E-2C,Red AWACS,xu,,140.5558845405,88.3208160400391,0.462413203372819,9000,8751.4375,140.5558845405,0,6.39999669631503,-0.045380097772735,0,0.0513960362511687,5000,0.998588683323927,-0.00285350348114367,0.0684896840571878,987.797833948123,8825.985,9813.78283394812,,,100,248.5625,14418.7946669946,14439.4425091635
2018-07-19T08:01:41Z,1531987301,102,41.0176815,44.8521861,9000,0,6.4,236.8,534029.62,-217.98,231.1,Air+FixedWing,Red,Allies,E-2C,Red AWACS,xu,,140.131738837225,88.0449066162109,0.461017811255375,9000,8749.70526123047,140.131738837225,0,6.39999669631503,-0.0639552750228054,0,0.0139882274201861,5000,0.992504361572439,0.00389787967484006,0.12273267459351,981.845211477217,8825.985,9807.83021147722,,,101,250.294738769531,14558.1800143613,14579.0245390611
2018-07-19T08:01:42Z,1531987302,102,41.016205,44.8514967,9000,0,6.4,236.8,533920.56,-306.15,231.1,Air+FixedWing,Red,Allies,E-2C,Red AWACS,xu,,140.242921442555,88.1173934936523,0.461383589642085,9000,8747.44593811035,140.242921442555,0,6.39999669631503,-0.0429040416559515,0,0.0139882274201861,5000,0.995815337784108,-0.00246650901398655,0.0932146348429612,983.403850737133,8825.985,9809.38885073713,,,102,252.554061889648,14697.7060161663,14718.7474218697
2018-07-19T08:01:43Z,1531987303,102,41.0147305,44.8508084,9000,0,6.4,236.8,533811.62,-394.18,231.1,Air+FixedWing,Red,Allies,E-2C,Red AWACS,xu,,140.062765889778,88.0002136230469,0.460790897941289,9000,8745.65626525879,140.062765889778,0,6.39999669631503,-0.0420621902229925,0,0.0139882274201861,5000,0.995539674430256,0.000598324569208279,0.0956722308257106,980.878919434734,8825.985,9806.86391943473,,,103,254.343734741211,14837.0284688485,14858.266468334
2018-07-19T08:01:44Z,1531987304,102,41.0132575,44.8501207,9000,0,6.4,236.8,533702.81,-482.12,231.1,Air+FixedWing,Red,Allies,E-2C,Red AWACS,xu,,139.906886785446,87.8985824584961,0.460278073051682,9000,8743.92221069336,139.906886785446,0,6.39999669631503,-0.0426465104517303,0,0.0139882274201861,5000,0.985155025950492,0.00441562838891977,0.188253526197398,978.696848499775,8825.985,9804.68184849977,,,104,256.077789306641,14976.2176892827,14997.6520945494
2018-07-19T08:01:45Z,1531987305,102,41.0117762,44.8494291,9000,0,6.4,236.8,533593.44,-570.58,231.1,Air+FixedWing,Red,Allies,E-2C,Red AWACS,xu,,140.664649504306,88.3915176391602,0.462771027988219,9000,8742.04141235352,140.664649504306,0,6.39999669631503,-0.0490183214988254,0,0.0139882274201861,5000,1.00437332600859,-0.00627304562402564,0.0169183945665135,989.327181008458,8825.985,9815.31218100846,,,105,257.958587646484,15116.1967239819,15137.8286495137
2018-07-19T08:01:46Z,1531987306,102,41.0103055,44.8487425,9000,0,6.4,236.8,533484.75,-658.39,231.1,Air+FixedWing,Red,Allies,E-2C,Red AWACS,xu,,139.731557852649,87.7846450805664,0.459701260392978,9000,8739.85748291016,139.731557852649,0,6.39999669631503,-0.0617222433695521,0,0.0139882274201861,5000,0.993468500453367,0.00332760279992864,0.114137176470642,976.245412996411,8825.985,9802.23041299641,,,106,260.142517089844,15255.1754085623,15277.0034427954
2018-07-19T08:01:47Z,1531987307,102,41.0088343,44.8480555,9000,0,6.4,236.8,533376.06,-746.25,231.1,Air+FixedWing,Red,Allies,E-2C,Red AWACS,xu,,139.757914290169,87.8019409179688,0.459787970136529,9000,8738.26754760742,139.757914290169,0,6.39999669631503,-0.0459615323262953,0,0.0139882274201861,5000,0.983251991333153,-0.00487352054768212,0.20521947457339,976.613730336912,8825.985,9802.59873033691,,,107,261.732452392578,15394.2161824889,15416.2404130353
2018-07-19T08:01:48Z,1531987308,102,41.0073537,44.8473641,9000,0,6.4,236.8,533266.62,-834.66,231.1,Air+FixedWing,Red,Allies,E-2C,Red AWACS,xu,,140.683024734772,88.4036178588867,0.462831480449605,9000,8735.82443237305,140.683024734772,0,6.39999669631503,-0.0334042991130558,0,0.0139882274201861,5000,1.00973254535203,0.00518633056276233,-0.0308601575879561,989.585672426224,8825.985,9815.57067242622,,,108,264.175567626953,15534.1357588666,15556.357425779
2018-07-19T08:01:49Z,1531987309,102,41.0058874,44.8466794,9000,0,6.4,236.8,533158.31,-922.22,231.1,Air+FixedWing,Red,Allies,E-2C,Red AWACS,xu,,139.278538033299,87.4900817871094,0.458210875649985,9000,8734.07904052734,139.278538033299,0,6.39999669631503,-0.0472342211617987,0,0.0139882274201861,5000,0.985331032264134,0.00245878482098502,0.186684393400826,969.925557834655,8825.985,9795.91055783465,,,109,265.920959472656,15672.708657707,15695.1258607275
2018-07-19T08:01:50Z,1531987310,102,41.004413,44.8459908,9000,0,6.4,236.8,533049.44,-1010.26,231.1,Air+FixedWing,Red,Allies,E-2C,Red AWACS,xu,,140.020799744541,87.9727554321289,0.460652833998142,9000,8732.42864990234,140.020799744541,0,6.39999669631503,-0.0531362862523491,0,0.0139882274201861,5000,0.998613325296985,-0.00312747368983503,0.0682699957556876,980.29121805504,8825.985,9806.27621805504,,,110,267.571350097656,15812.0520130348,15834.6658393323
2018-07-19T08:01:51Z,1531987311,102,41.0029435,44.8453045,9000,0,6.4,236.8,532940.88,-1098.02,231.1,Air+FixedWing,Red,Allies,E-2C,Red AWACS,xu,,139.594477072736,87.6953582763672,0.459250279896732,9000,8731.19436645508,139.594477072736,0,6.39999669631503,-0.0473400067119073,0,0.0139882274201861,5000,0.988698753085584,-0.00453649217161263,0.156660463683066,974.330901460536,8825.985,9800.31590146054,,,111,268.805633544922,15950.9392966121,15973.7491026373
2018-07-19T08:01:52Z,1531987312,102,41.00147,44.8446162,9000,0,6.4,236.8,532831.94,-1186.02,231.1,Air+FixedWing,Red,Allies,E-2C,Red AWACS,xu,,140.040402931651,87.9856948852539,0.460717326300101,9000,8730,140.040402931651,0,6.39999669631503,-0.0583438282662959,0,0.0139882274201861,5000,1.00408799432635,0.00704832936452049,0.0194621857024766,980.565722662956,8825.985,9806.55072266295,,,112,270,16090.2086998652,16113.2150248162
2018-07-19T08:01:53Z,1531987313,102,41.0000051,44.8439321,9000,0,6.4,236.8,532723.75,-1273.5,231.1,Air+FixedWing,Red,Allies,E-2C,Red AWACS,xu,,139.132522438816,87.3949584960938,0.457730500609069,9000,8729.00610351562,139.132522438816,0,6.39999669631503,-0.0320695223856131,0,0.0139882274201861,5000,0.985118841148909,-0.00533111651760695,0.188576121209627,967.892940009385,8825.985,9793.87794000938,,,113,270.993896484375,16228.6575702013,16251.8592562478
2018-07-19T08:01:54Z,1531987314,102,40.998533,44.8432444,9000,0,6.4,236.8,532614.94,-1361.42,231.1,Air+FixedWing,Red,Allies,E-2C,Red AWACS,xu,,139.893383254153,87.8899459838867,0.46023364793791,9000,8729,139.893383254153,0,6.39999669631503,-0.0673535555528725,0,0.0139882274201861,5000,0.994272752410764,0.00453495362163121,0.10696710343773,978.507933914661,8825.985,9804.49293391466,,,114,271,16367.801254248,16391.1992818207
2018-07-19T08:01:55Z,1531987315,102,40.9970607,44.8425566,9000,0,6.4,236.8,532506.19,-1449.35,231.1,Air+FixedWing,Red,Allies,E-2C,Red AWACS,xu,,139.848995845637,87.8608856201172,0.460087618308284,9000,8729,139.848995845637,0,6.39999669631503,-0.0308010541009894,0,0.0139882274201861,5000,0.99933131673433,-0.000961075772956522,0.061868953152778,977.887081951648,8825.985,9803.87208195165,,,115,271,16506.9652337928,16530.5596315311
2018-07-19T08:01:56Z,1531987316,102,40.9955938,44.8418714,9000,0,6.4,236.8,532397.81,-1536.96,231.1,Air+FixedWing,Red,Allies,E-2C,Red AWACS,xu,,139.359527652016,87.5429229736328,0.458477322473989,9000,8729,139.359527652016,0,6.39999669631503,-0.0600319139331272,0,0.0139882274201861,5000,0.991079270177553,-0.000556007963863411,0.135437659997561,971.053897369653,8825.985,9797.03889736965,,,116,271,16645.6190822196,16669.4091302924
2018-07-19T08:01:57Z,1531987317,102,40.9941244,44.8411848,9000,0,6.4,236.8,532289.25,-1624.72,231.1,Air+FixedWing,Red,Allies,E-2C,Red AWACS,xu,,139.59605021281,87.6965408325195,0.45925545535234,9000,8729.0207824707,139.59605021281,0,6.39999669631503,-0.0461499974569764,0,0.0139882274201861,5000,1.00309986910122,-0.00226376148863484,0.0282715270595937,974.352861750871,8825.985,9800.33786175087,,,117,270.979217529297,16784.5156535386,16808.5016944441
2018-07-19T08:01:58Z,1531987318,102,40.9926641,44.8405026,9000,0,6.4,236.8,532181.31,-1711.94,231.1,Air+FixedWing,Red,Allies,E-2C,Red AWACS,xu,,138.775028794751,87.1628570556641,0.456554386341934,9000,8729,138.775028794751,0,6.39999669631503,-0.031731715740326,0,0.0139882274201861,5000,0.979141446500402,0.000231447843314942,0.241865834442092,962.925430849195,8825.985,9788.91043084919,,,118,271,16922.5544506639,16946.7352740232
2018-07-19T08:01:59Z,1531987319,102,40.9911902,44.8398139,9000,0,6.4,236.8,532072.38,-1799.97,231.1,Air+FixedWing,Red,Allies,E-2C,Red AWACS,xu,,140.061806817065,87.9994277954102,0.460787742698897,9000,8728.9040222168,140.061806817065,0,6.39999669631503,-0.0640409655366947,0,0.0139882274201861,5000,1.00658524299319,-0.000418060275705266,-0.00280130418762139,980.865486443043,8825.985,9806.85048644304,,,119,271.095977783203,17061.8832487481,17086.2606748429
2018-07-19T08:02:00Z,1531987320,102,40.9897282,44.8391308,9000,0,6.4,236.8,531964.31,-1887.3,231.1,Air+FixedWing,Red,Allies,E-2C,Red AWACS,xu,,138.934168940043,87.2661361694336,0.457077939693048,9000,8729,138.934168940043,0,6.39999669631503,-0.0462358702606243,0,0.0383083399245797,5000,0.988095365104414,0.00217199382242109,0.162039792701015,965.135164953023,8825.985,9791.12016495302,,,120,271,17200.0877275183,17224.660169855
2018-07-19T08:02:01Z,1531987321,102,40.9882608,44.838445,9000,0,6.5,236.8,531855.88,-1974.95,231.1,Air+FixedWing,Red,Allies,E-2C,Red AWACS,xu,,139.433226926433,87.5906143188477,0.45871978487733,9000,8729.07412719727,139.433226926433,0,6.49999046451537,-0.0483841494107816,0,0.0504352774299245,5000,0.997484773057318,-0.00224235812206282,0.0788589037387859,972.081238555908,8825.985,9798.06623855591,,,121,270.925872802734,17338.808954092,17363.5771418391
2018-07-19T08:02:02Z,1531987322,102,40.9867973,44.8377611,9000,0,6.5,236.8,531747.69,-2062.37,231.1,Air+FixedWing,Red,Allies,E-2C,Red AWACS,xu,,139.094229779416,87.3700866699219,0.457604522025126,9000,8730,139.094229779416,0,6.49999046451537,-0.0539240906074607,0,0.0197823405926261,5000,0.992998360351221,0.00627739916842433,0.118235709560775,967.360237896442,8825.985,9793.34523789644,,,122,270,17477.1673096675,17502.130730787
2018-07-19T08:02:03Z,1531987323,102,40.9853325,44.8370765,9000,0,6.5,236.8,531639.5,-2149.87,231.1,Air+FixedWing,Red,Allies,E-2C,Red AWACS,xu,,139.143959646303,87.4028625488281,0.45776812774769,9000,8730,139.143959646303,0,6.49999046451537,-0.0335368534754885,0,0,5000,0.990276386247858,-0.00451940826614734,0.142126210221789,968.052075302601,8825.985,9794.0370753026,,,123,270,17615.651888191,17640.8107207933
2018-07-19T08:02:04Z,1531987324,102,40.9838652,44.8363908,9000,0,6.5,236.7,531531.06,-2237.52,231.1,Air+FixedWing,Red,Allies,E-2C,Red AWACS,xu,,139.429390135193,87.5882415771484,0.458707162261536,9000,8731.11935424805,139.429390135193,0,6.49999046451537,-0.0477998113533418,0,0,5000,1.00003638345153,0.000270493409735339,0.0564636687017507,972.027741673589,8825.985,9798.01274167359,,,124,268.880645751953,17754.3652653506,17779.719832286
2018-07-19T08:02:05Z,1531987325,102,40.9824039,44.8357078,9000,0,6.5,236.7,531423.06,-2324.82,231.1,Air+FixedWing,Red,Allies,E-2C,Red AWACS,xu,,138.869369406641,87.2242050170898,0.456864756446286,9000,8732.15081787109,138.869369406641,0,6.49999046451537,-0.0514706227682007,0,0,5000,0.992799680676528,-0.00169656171368625,0.119979501646715,964.235087969899,8825.985,9790.2200879699,,,125,267.849182128906,17892.5276833559,17918.0772071831
2018-07-19T08:02:06Z,1531987326,102,40.9809422,44.8350246,9000,0,6.5,236.7,531315,-2412.14,231.1,Air+FixedWing,Red,Allies,E-2C,Red AWACS,xu,,138.936240489534,87.2677154541016,0.45708475486012,9000,8732.97064208984,138.936240489534,0,6.49999046451537,-0.0374577176985721,0,0,5000,0.990023312305841,-0.0017488277689724,0.144347415475569,965.163946068287,8825.985,9791.14894606829,,,126,267.029357910156,18030.7265185791,18056.4710506847
2018-07-19T08:02:07Z,1531987327,102,40.9794773,44.8343398,9000,0,6.5,236.7,531206.69,-2499.65,231.1,Air+FixedWing,Red,Allies,E-2C,Red AWACS,xu,,139.243626879311,87.4672012329102,0.45809602184218,9000,8733.12994384766,139.243626879311,0,6.49999046451537,-0.0603564514160064,0,0,5000,0.999422280948872,0.00699351042036263,0.0618535863455403,969.439381325245,8825.985,9795.42438132524,,,127,266.870056152344,18169.2256911045,18195.1656552857
2018-07-19T08:02:08Z,1531987328,102,40.978017,44.8336572,9000,0,6.5,236.7,531098.81,-2586.89,231.1,Air+FixedWing,Red,Allies,E-2C,Red AWACS,xu,,138.736861419866,87.1379013061523,0.456428819930095,9000,8731.38848876953,138.736861419866,0,6.49999046451537,-0.0403128211887208,0,0,5000,0.990127727428771,-0.00289193440766696,0.143430974147086,962.395835831761,8825.985,9788.38083583176,,,128,268.611511230469,18307.2973308712,18333.4321238492
2018-07-19T08:02:09Z,1531987329,102,40.9765541,44.8329733,9000,0,6.5,236.7,530990.69,-2674.29,231.1,Air+FixedWing,Red,Allies,E-2C,Red AWACS,xu,,139.035185498617,87.3317565917969,0.457410272918346,9000,8729.62747192383,139.035185498617,0,6.49999046451537,-0.0596506093545371,0,0,5000,0.992273597650274,-0.00608620516938171,0.124596880949085,966.539140331745,8825.985,9792.52414033174,,,129,270.372528076172,18445.625545062,18471.9555288814
2018-07-19T08:02:10Z,1531987330,102,40.9750906,44.8322891,9000,0,6.5,236.7,530882.44,-2761.72,231.1,Air+FixedWing,Red,Allies,E-2C,Red AWACS,xu,,139.147603093565,87.4048309326172,0.457780114283332,9000,8726.82897949219,139.147603093565,0,6.49999046451537,-0.0436378086124345,0,0,5000,0.996406996618937,0.00955682735191996,0.0883184421971948,968.102772334218,8825.985,9794.08777233422,,,130,273.171020507812,18584.0076283106,18610.5328789845
2018-07-19T08:02:11Z,1531987331,102,40.9736286,44.8316055,9000,0,6.5,236.7,530774.44,-2849.07,231.1,Air+FixedWing,Red,Allies,E-2C,Red AWACS,xu,,138.902064974618,87.2455596923828,0.456972321222915,9000,8725.92645263672,138.902064974618,0,6.49999046451537,-0.0543697254056732,0,0,5000,0.99471371393017,-0.00235274824372327,0.103180218856023,964.689182710648,8825.985,9790.67418271065,,,131,274.073547363281,18722.251022169,18748.9713439972
2018-07-19T08:02:12Z,1531987332,102,40.972168,44.8309226,9000,0,6.5,236.7,530666.5,-2936.34,231.1,Air+FixedWing,Red,Allies,E-2C,Red AWACS,xu,,138.803114314828,87.1810684204102,0.456646784574493,9000,8725.10693359375,138.803114314828,0,6.49999046451537,-0.0395908620490426,0,0,5000,0.9912112810266,-0.00460531792127293,0.13392073012485,963.315227174759,8825.985,9789.30022717476,,,132,274.89306640625,18860.3628715139,18887.2780788769
2018-07-19T08:02:13Z,1531987333,102,40.9707058,44.8302389,9000,0,6.5,236.7,530558.38,-3023.7,231.1,Air+FixedWing,Red,Allies,E-2C,Red AWACS,xu,,139.007563070501,87.3139724731445,0.457319398206754,9000,8724.28649902344,139.007563070501,0,6.49999046451537,-0.0575238698493461,0,0,5000,0.998072797258191,0.00146917122593248,0.0736978728008754,966.155129539967,8825.985,9792.14012953996,,,133,275.713500976562,18998.6351809316,19025.7455002506
