ISOTime,UnixTime,Id,Longitude,Latitude,Altitude,Roll,Pitch,Yaw,U,V,Heading,Type,Color,Coalition,Name,Group,Country,Pilot,TAS,CAS,M,ASL,AGL,GS,VS,AOA,AOS,RRT,TRT,TRD,G,LatG,LonG,Ek,Ep,Em,FFW,FFV,RelativeTime,Elev,GroundDistance,AirDistance
2018-07-19T08:03:55Z,1531987435,107,40.0259601,44.6679733,182.26,0.1,-0.2,342.2,457440.34,-27979.96,337.2,Air+FixedWing,Red,Allies,J-11A,Red J-11A #001,xu,=36=Falcon,0.0820173647282525,0,0.00024143052631481,182.260467529297,2.26046752929688,NaN,NaN,NaN,NaN,0,NaN,NaN,NaN,NaN,NaN,NaN,178.736461389618,NaN,,,0.950000047683716,180,NaN,NaN
2018-07-19T08:03:56Z,1531987436,107,40.0259599,44.6679736,182.33,0.1,-0.4,342.2,457440.34,-27979.93,337.2,Air+FixedWing,Red,Allies,J-11A,Red J-11A #001,xu,=36=Falcon,0.0753810681328945,0,0.000221895750195488,182.3271484375,2.3271484375,0.03515625,0.066680908203125,NaN,NaN,0,0.114925096479965,NaN,0.987243048184314,0.00434715120191517,-0.0136273629060462,0.000284115271642804,178.801853022461,178.802137137733,,,1.95000004768372,180,0.0410077825070416,0.078282041082792
2018-07-19T08:03:57Z,1531987437,107,40.02596,44.6679733,182.27,0.1,-0.4,342.2,457440.34,-27979.96,337.2,Air+FixedWing,Red,Allies,J-11A,Red J-11A #001,xu,=36=Falcon,0.0655596016252515,0,0.000192984629501898,182.269515991211,2.26951599121094,0.03125,-0.0576324462890625,NaN,NaN,0,0.0139882274201861,NaN,1.00388343119261,0.000517245386303897,-0.00407084565673936,0.000214903068263084,178.745334899521,178.745549802589,,,2.95000004768372,180,0.0748790299100535,0.145131318033022
2018-07-19T08:03:58Z,1531987438,107,40.02596,44.6679733,182.25,0.1,-0.3,342.2,457440.34,-27979.96,337.2,Air+FixedWing,Red,Allies,J-11A,Red J-11A #001,xu,=36=Falcon,0.0195159912109375,0,5.74482670534749e-05,182.25,2.25,0,-0.0195159912109375,NaN,NaN,0,0.101354391053222,NaN,1.00197162243747,0.00174877226275597,-0.00580856227505956,1.90436956472695e-05,178.72619625,178.726215293696,,,3.95000004768372,180,0.0748790299100535,0.164647308708942
2018-07-19T08:03:59Z,1531987439,107,40.02596,44.6679733,182.25,0.1,-0.4,342.2,457440.34,-27979.96,337.2,Air+FixedWing,Red,Allies,J-11A,Red J-11A #001,xu,=36=Falcon,0,0,0,182.25,2.25,0,0,NaN,NaN,0.0154089067675488,0.0139882274201861,NaN,0.999974310430069,0.00161104144374942,-0.00698126060888171,0,178.72619625,178.72619625,,,4.95000004768372,180,0.0748790299100535,0.164647308708942
2018-07-19T08:04:00Z,1531987440,107,40.02596,44.6679733,182.25,0,-0.3,342.2,457440.34,-27979.96,337.2,Air+FixedWing,Red,Allies,J-11A,Red J-11A #001,xu,=36=Falcon,0,0,0,182.25,2.25,0,0,NaN,NaN,0,0.0474363941624125,NaN,0.999981701375141,0,-0.00603595096617937,0,178.72619625,178.72619625,,,5.95000004768372,180,0.0748790299100535,0.164647308708942
2018-07-19T08:04:01Z,1531987441,107,40.02596,44.6679733,182.25,0,-0.4,342.2,457440.34,-27979.96,337.2,Air+FixedWing,Red,Allies,J-11A,Red J-11A #001,xu,=36=Falcon,0,0,0,182.25,2.25,0,0,NaN,NaN,0,0.0370093733476075,NaN,0.999975919724942,0,-0.00693409377709031,0,178.72619625,178.72619625,,,6.95000004768372,180,0.0748790299100535,0.164647308708942
2018-07-19T08:04:02Z,1531987442,107,40.02596,44.6679733,182.25,0,-0.3,342.2,457440.34,-27979.96,337.2,Air+FixedWing,Red,Allies,J-11A,Red J-11A #001,xu,=36=Falcon,0,0,0,182.25,2.25,0,0,NaN,NaN,0.0018170018660278,0.0139882274201861,NaN,0.999986171723233,1.58561142178762e-05,-0.00523596443235874,0,178.72619625,178.72619625,,,7.95000004768372,180,0.0748790299100535,0.164647308708942
2018-07-19T08:04:03Z,1531987443,107,40.02596,44.6679733,182.25,0,-0.3,342.2,457440.34,-27979.96,337.2,Air+FixedWing,Red,Allies,J-11A,Red J-11A #001,xu,=36=Falcon,0,0,0,182.25,2.25,0,0,NaN,NaN,0.00324464709754184,0.0139882274201861,NaN,0.999986171723233,7.24851039615162e-05,-0.00523596443235874,0,178.72619625,178.72619625,,,8.95000004768372,180,0.0748790299100535,0.164647308708942
2018-07-19T08:04:04Z,1531987444,107,40.02596,44.6679733,182.25,0,-0.3,342.2,457440.34,-27979.96,337.2,Air+FixedWing,Red,Allies,J-11A,Red J-11A #001,xu,=36=Falcon,0,0,0,182.25,2.25,0,0,NaN,NaN,0.00324464584689685,0,NaN,0.999986171723233,0.000129114077334477,-0.00523596443235874,0,178.72619625,178.72619625,,,9.95000004768372,180,0.0748790299100535,0.164647308708942
2018-07-19T08:04:05Z,1531987445,107,40.02596,44.6679733,182.25,0,-0.3,342.2,457440.34,-27979.96,337.2,Air+FixedWing,Red,Allies,J-11A,Red J-11A #001,xu,=36=Falcon,0,0,0,182.25,2.25,0,0,NaN,NaN,0.00324464501313353,0,NaN,0.999986171723233,0.000185743065259153,-0.00523596443235874,0,178.72619625,178.72619625,,,10.9500000476837,180,0.0748790299100535,0.164647308708942
2018-07-19T08:04:06Z,1531987446,107,40.02596,44.6679733,182.25,0,-0.3,342.2,457440.34,-27979.96,337.2,Air+FixedWing,Red,Allies,J-11A,Red J-11A #001,xu,=36=Falcon,0,0,0,182.25,2.25,0,0,NaN,NaN,0.00324464668066018,0,NaN,0.999986171723233,0.000242372053183828,-0.00523596443235874,0,178.72619625,178.72619625,,,11.9500000476837,180,0.0748790299100535,0.164647308708942
2018-07-19T08:04:07Z,1531987447,107,40.02596,44.6679733,182.25,0,-0.3,342.2,457440.34,-27979.96,337.2,Air+FixedWing,Red,Allies,J-11A,Red J-11A #001,xu,=36=Falcon,0,0,0,182.25,2.25,0,0,NaN,NaN,0.00324464668066018,0,NaN,0.999986171723233,0.000299001041108504,-0.00523596443235874,0,178.72619625,178.72619625,,,12.9500000476837,180,0.0748790299100535,0.164647308708942
2018-07-19T08:04:08Z,1531987448,107,40.02596,44.6679733,182.25,0,-0.3,342.2,457440.34,-27979.96,337.2,Air+FixedWing,Red,Allies,J-11A,Red J-11A #001,xu,=36=Falcon,0,0,0,182.25,2.25,0,0,NaN,NaN,0.00324464668066018,0,NaN,0.999986112119409,0.00035563002903318,-0.00523596443235874,0,178.72619625,178.72619625,,,13.9500000476837,180,0.0748790299100535,0.164647308708942
2018-07-19T08:04:09Z,1531987449,107,40.02596,44.6679733,182.25,0,-0.3,342.2,457440.34,-27979.96,337.2,Air+FixedWing,Red,Allies,J-11A,Red J-11A #001,xu,=36=Falcon,0,0,0,182.25,2.25,0,0,NaN,NaN,0.00324464668066018,0,NaN,0.999986112119409,0.000412259016957855,-0.00523596443235874,0,178.72619625,178.72619625,,,14.9500000476837,180,0.0748790299100535,0.164647308708942
2018-07-19T08:04:10Z,1531987450,107,40.02596,44.6679733,182.25,0,-0.3,342.2,457440.34,-27979.96,337.2,Air+FixedWing,Red,Allies,J-11A,Red J-11A #001,xu,=36=Falcon,0,0,0,182.25,2.25,0,0,NaN,NaN,0.00324465335076679,0,NaN,0.999986052515585,0.000468888004882531,-0.00523596443235874,0,178.72619625,178.72619625,,,15.9500000476837,180,0.0748790299100535,0.164647308708942
2018-07-19T08:04:11Z,1531987451,107,40.02596,44.6679733,182.25,0,-0.3,342.2,457440.34,-27979.96,337.2,Air+FixedWing,Red,Allies,J-11A,Red J-11A #001,xu,=36=Falcon,0,0,0,182.25,2.25,0,0,NaN,NaN,0.00324464668066018,0,NaN,0.999986052515585,0.000525516963703777,-0.00523596443235874,0,178.72619625,178.72619625,,,16.9500000476837,180,0.0748790299100535,0.164647308708942
2018-07-19T08:04:12Z,1531987452,107,40.02596,44.6679733,182.25,0,-0.3,342.2,457440.34,-27979.96,337.2,Air+FixedWing,Red,Allies,J-11A,Red J-11A #001,xu,=36=Falcon,0,0,0,182.25,2.25,0,0,NaN,NaN,0.00324464668066018,0,NaN,0.999986052515585,0.000582145893421593,-0.00523596443235874,0,178.72619625,178.72619625,,,17.9500000476837,180,0.0748790299100535,0.164647308708942
2018-07-19T08:04:13Z,1531987453,107,40.02596,44.6679733,182.25,0,-0.3,342.2,457440.34,-27979.96,337.2,Air+FixedWing,Red,Allies,J-11A,Red J-11A #001,xu,=36=Falcon,0,0,0,182.25,2.25,0,0,NaN,NaN,0.00324464668066018,0,NaN,0.99998599291176,0.000638774881346268,-0.00523596443235874,0,178.72619625,178.72619625,,,18.9500000476837,180,0.0748790299100535,0.164647308708942
2018-07-19T08:04:14Z,1531987454,107,40.02596,44.6679733,182.25,0,-0.3,342.2,457440.34,-27979.96,337.2,Air+FixedWing,Red,Allies,J-11A,Red J-11A #001,xu,=36=Falcon,0,0,0,182.25,2.25,0,0,NaN,NaN,0.00324464668066018,0,NaN,0.999985933307936,0.000695403869270944,-0.00523596443235874,0,178.72619625,178.72619625,,,19.9500000476837,180,0.0748790299100535,0.164647308708942
2018-07-19T08:04:15Z,1531987455,107,40.02596,44.6679733,182.25,0,-0.3,342.2,457440.34,-27979.96,337.2,Air+FixedWing,Red,Allies,J-11A,Red J-11A #001,xu,=36=Falcon,0,0,0,182.25,2.25,0,0,NaN,NaN,0.00324464668066018,0,NaN,0.999985933307936,0.00075203285719562,-0.00523596443235874,0,178.72619625,178.72619625,,,20.9500000476837,180,0.0748790299100535,0.164647308708942
2018-07-19T08:04:16Z,1531987456,107,40.02596,44.6679733,182.25,0,-0.3,342.2,457440.34,-27979.96,337.2,Air+FixedWing,Red,Allies,J-11A,Red J-11A #001,xu,=36=Falcon,0,0,0,182.25,2.25,0,0,NaN,NaN,0.00324464668066018,0,NaN,0.999985873704112,0.000808661786913436,-0.00523596443235874,0,178.72619625,178.72619625,,,21.9500000476837,180,0.0748790299100535,0.164647308708942
2018-07-19T08:04:17Z,1531987457,107,40.02596,44.6679733,182.25,0,-0.3,342.2,457440.34,-27979.96,337.2,Air+FixedWing,Red,Allies,J-11A,Red J-11A #001,xu,=36=Falcon,0,0,0,182.25,2.25,0,0,NaN,NaN,0.00324464668066018,0,NaN,0.999985814100288,0.000865290774838112,-0.00523596443235874,0,178.72619625,178.72619625,,,22.9500000476837,180,0.0748790299100535,0.164647308708942
2018-07-19T08:04:18Z,1531987458,107,40.02596,44.6679733,182.25,0.1,-0.3,342.2,457440.34,-27979.96,337.2,Air+FixedWing,Red,Allies,J-11A,Red J-11A #001,xu,=36=Falcon,0,0,0,182.25,2.25,0,0,NaN,NaN,0.00324463334044696,0,NaN,0.999985754496464,0.000921919704555928,-0.00523596443235874,0,178.72619625,178.72619625,,,23.9500000476837,180,0.0748790299100535,0.164647308708942
2018-07-19T08:04:19Z,1531987459,107,40.02596,44.6679733,182.25,0.1,-0.3,342.2,457440.34,-27979.96,337.2,Air+FixedWing,Red,Allies,J-11A,Red J-11A #001,xu,=36=Falcon,0,0,0,182.25,2.25,0,0,NaN,NaN,0.00324465335076679,0,NaN,0.999985754496464,0.000978548808894322,-0.00523596443235874,0,178.72619625,178.72619625,,,24.9500000476837,180,0.0748790299100535,0.164647308708942
2018-07-19T08:04:20Z,1531987460,107,40.02596,44.6679733,182.25,0.1,-0.3,342.2,457440.34,-27979.96,337.2,Air+FixedWing,Red,Allies,J-11A,Red J-11A #001,xu,=36=Falcon,0,0,0,182.25,2.25,0,0,NaN,NaN,0.00324464668066018,0,NaN,0.999985635288816,0.00103517756399156,-0.00523596443235874,0,178.72619625,178.72619625,,,25.9500000476837,180,0.0748790299100535,0.164647308708942
2018-07-19T08:04:21Z,1531987461,107,40.02596,44.6679733,182.25,0.1,-0.3,342.2,457440.34,-27979.96,337.2,Air+FixedWing,Red,Allies,J-11A,Red J-11A #001,xu,=36=Falcon,0,0,0,182.25,2.25,0,0,NaN,NaN,0.00324463334044696,0,NaN,0.999985575684992,0.00109180655191624,-0.00523596443235874,0,178.72619625,178.72619625,,,26.9500000476837,180,0.0748790299100535,0.164647308708942
2018-07-19T08:04:22Z,1531987462,107,40.02596,44.6679733,182.25,0.1,-0.3,342.2,457440.34,-27979.96,337.2,Air+FixedWing,Red,Allies,J-11A,Red J-11A #001,xu,=36=Falcon,0,0,0,182.25,2.25,0,0,NaN,NaN,0.0032446600208734,0,NaN,0.999985516081168,0.00114843565625463,-0.00523596443235874,0,178.72619625,178.72619625,,,27.9500000476837,180,0.0748790299100535,0.164647308708942
2018-07-19T08:04:23Z,1531987463,107,40.02596,44.6679733,182.25,0.1,-0.3,342.2,457440.34,-27979.96,337.2,Air+FixedWing,Red,Allies,J-11A,Red J-11A #001,xu,=36=Falcon,0,0,0,182.25,2.25,0,0,NaN,NaN,0.00324464668066018,0,NaN,0.999985456477344,0.00120506441135187,-0.00523596443235874,0,178.72619625,178.72619625,,,28.9500000476837,180,0.0748790299100535,0.164647308708942
2018-07-19T08:04:24Z,1531987464,107,40.02596,44.6679733,182.25,0.1,-0.3,342.2,457440.34,-27979.96,337.2,Air+FixedWing,Red,Allies,J-11A,Red J-11A #001,xu,=36=Falcon,0,0,0,182.25,2.25,0,0,NaN,NaN,0.00324463334044696,0,NaN,0.99998539687352,0.00126169339927654,-0.00523596443235874,0,178.72619625,178.72619625,,,29.9500000476837,180,0.0748790299100535,0.164647308708942
2018-07-19T08:04:25Z,1531987465,107,40.02596,44.6679733,182.25,0.1,-0.3,342.2,457440.34,-27979.96,337.2,Air+FixedWing,Red,Allies,J-11A,Red J-11A #001,xu,=36=Falcon,0,0,0,182.25,2.25,0,0,NaN,NaN,0.0032446600208734,0,NaN,0.999985337269695,0.00131832250361494,-0.00523596443235874,0,178.72619625,178.72619625,,,30.9500000476837,180,0.0748790299100535,0.164647308708942
2018-07-19T08:04:26Z,1531987466,107,40.02596,44.6679733,182.25,0.1,-0.3,342.2,457440.34,-27979.96,337.2,Air+FixedWing,Red,Allies,J-11A,Red J-11A #001,xu,=36=Falcon,0,0,0,182.25,2.25,0,0,NaN,NaN,0.00324464668066018,0,NaN,0.999985277665871,0.00137495125871218,-0.00523596443235874,0,178.72619625,178.72619625,,,31.9500000476837,180,0.0748790299100535,0.164647308708942
2018-07-19T08:04:27Z,1531987467,107,40.02596,44.6679733,182.25,0.1,-0.3,342.2,457440.34,-27979.96,337.2,Air+FixedWing,Red,Allies,J-11A,Red J-11A #001,xu,=36=Falcon,0,0,0,182.25,2.25,0,0,NaN,NaN,0.00324463334044696,0,NaN,0.999985158458223,0.00143158024663685,-0.00523596443235874,0,178.72619625,178.72619625,,,32.9500000476837,180,0.0748790299100535,0.164647308708942
2018-07-19T08:04:28Z,1531987468,107,40.02596,44.6679733,182.25,0.1,-0.3,342.2,457440.34,-27979.96,337.2,Air+FixedWing,Red,Allies,J-11A,Red J-11A #001,xu,=36=Falcon,0,0,0,182.25,2.25,0,0,NaN,NaN,0.0032446600208734,0,NaN,0.999985098854399,0.00148820923456153,-0.00523596443235874,0,178.72619625,178.72619625,,,33.9500000476837,180,0.0748790299100535,0.164647308708942
2018-07-19T08:04:29Z,1531987469,107,40.02596,44.6679733,182.25,0.1,-0.3,342.2,457440.34,-27979.96,337.2,Air+FixedWing,Red,Allies,J-11A,Red J-11A #001,xu,=36=Falcon,0,0,0,182.25,2.25,0,0,NaN,NaN,0.00324464668066018,0,NaN,0.999984979646751,0.00154483810607248,-0.00523596443235874,0,178.72619625,178.72619625,,,34.9500000476837,180,0.0748790299100535,0.164647308708942
2018-07-19T08:04:30Z,1531987470,107,40.02596,44.6679733,182.25,0.1,-0.3,342.2,457440.34,-27979.96,337.2,Air+FixedWing,Red,Allies,J-11A,Red J-11A #001,xu,=36=Falcon,0,0,0,182.25,2.25,0,0,NaN,NaN,0.00324463334044696,0,NaN,0.999984920042927,0.00160146697758344,-0.00523596443235874,0,178.72619625,178.72619625,,,35.9500000476837,180,0.0748790299100535,0.164647308708942
2018-07-19T08:04:31Z,1531987471,107,40.02596,44.6679733,182.25,0.1,-0.3,342.2,457440.34,-27979.96,337.2,Air+FixedWing,Red,Allies,J-11A,Red J-11A #001,xu,=36=Falcon,0,0,0,182.25,2.25,0,0,NaN,NaN,0.0032446600208734,0,NaN,0.999984800835279,0.00165809596550812,-0.00523596443235874,0,178.72619625,178.72619625,,,36.9500000476837,180,0.0748790299100535,0.164647308708942
2018-07-19T08:04:32Z,1531987472,107,40.02596,44.6679733,182.25,0.1,-0.3,342.2,457440.34,-27979.96,337.2,Air+FixedWing,Red,Allies,J-11A,Red J-11A #001,xu,=36=Falcon,0,0,0,182.25,2.25,0,0,NaN,NaN,0.00324464668066018,0,NaN,0.999984741231454,0.00171472483701907,-0.00523596443235874,0,178.72619625,178.72619625,,,37.9500000476837,180,0.0748790299100535,0.164647308708942
2018-07-19T08:04:33Z,1531987473,107,40.02596,44.6679733,182.25,0.1,-0.3,342.2,457440.34,-27979.96,337.2,Air+FixedWing,Red,Allies,J-11A,Red J-11A #001,xu,=36=Falcon,0,0,0,182.25,2.25,0,0,NaN,NaN,0.0975897428611422,0,NaN,0.999985814100288,0.000891271173735653,-0.00523596443235874,0,178.72619625,178.72619625,,,38.9500000476837,180,0.0748790299100535,0.164647308708942
2018-07-19T08:04:34Z,1531987474,107,40.02596,44.6679733,182.25,0.1,-0.3,342.2,457440.34,-27979.96,337.2,Air+FixedWing,Red,Allies,J-11A,Red J-11A #001,xu,=36=Falcon,0,0,0,182.25,2.25,0,0,NaN,NaN,0.166285410975177,0,NaN,0.999985039250575,0.00155375830728645,-0.00523596443235874,0,178.72619625,178.72619625,,,39.9500000476837,180,0.0748790299100535,0.164647308708942
2018-07-19T08:04:35Z,1531987475,107,40.02596,44.6679733,182.25,0,-0.3,342.2,457440.34,-27979.96,337.2,Air+FixedWing,Red,Allies,J-11A,Red J-11A #001,xu,=36=Falcon,0,0,0,182.25,2.25,0,0,NaN,NaN,0.0609799289098738,0,NaN,0.999986052515585,0.000489612702714408,-0.00523596443235874,0,178.72619625,178.72619625,,,40.9500000476837,180,0.0748790299100535,0.164647308708942
2018-07-19T08:04:36Z,1531987476,107,40.02596,44.6679733,182.25,0,-0.3,342.2,457440.34,-27979.96,337.2,Air+FixedWing,Red,Allies,J-11A,Red J-11A #001,xu,=36=Falcon,0,0,0,182.25,2.25,0,0,NaN,NaN,0.035460998144224,0,NaN,0.999986112119409,0.000334207401852813,-0.00523596443235874,0,178.72619625,178.72619625,,,41.9500000476837,180,0.0748790299100535,0.164647308708942
2018-07-19T08:04:37Z,1531987477,107,40.02596,44.6679733,182.25,0.1,-0.3,342.2,457440.34,-27979.96,337.2,Air+FixedWing,Red,Allies,J-11A,Red J-11A #001,xu,=36=Falcon,0,0,0,182.25,2.25,0,0,NaN,NaN,0.0354610014792773,0,NaN,0.999985754496464,0.000953109908410441,-0.00523596443235874,0,178.72619625,178.72619625,,,42.9500000476837,180,0.0748790299100535,0.164647308708942
2018-07-19T08:04:38Z,1531987478,107,40.02596,44.6679733,182.25,0.1,-0.3,342.2,457440.34,-27979.96,337.2,Air+FixedWing,Red,Allies,J-11A,Red J-11A #001,xu,=36=Falcon,0,0,0,182.25,2.25,0,0,NaN,NaN,0.0354609814689575,0,NaN,0.99998307239845,-0.0013656153648625,-0.00647080911277102,0,178.72619625,178.72619625,,,43.9500000476837,180,0.0748790299100535,0.164647308708942
2018-07-19T08:04:39Z,1531987479,107,40.0259602,44.6679733,182.25,0.2,-0.3,342.2,457440.38,-27979.96,337.2,Air+FixedWing,Red,Allies,J-11A,Red J-11A #001,xu,=36=Falcon,0.03125,0,9.19890937650638e-05,182.25,2.25,0.03125,0,NaN,NaN,0.190476206787643,0,NaN,0.999972455410758,0.00936585384872646,-0.00276627507153419,4.8828125e-05,178.72619625,178.726245078125,,,44.9500000476837,180,0.0873199702853984,0.177088604431135
2018-07-19T08:04:40Z,1531987480,107,40.0259601,44.6679733,182.25,0.2,-0.3,342.2,457440.34,-27979.96,337.2,Air+FixedWing,Red,Allies,J-11A,Red J-11A #001,xu,=36=Falcon,0.03125,0,9.19890937650638e-05,182.25,2.25,0.03125,0,NaN,NaN,0.161895040081887,0,NaN,0.999983821088647,0.000552978570463943,-0.00647080911277102,4.8828125e-05,178.72619625,178.726245078125,,,45.9500000476837,180,0.0918439511774312,0.181612714583002
2018-07-19T08:04:41Z,1531987481,107,40.0259601,44.6679733,182.25,0.1,-0.3,342.2,457440.34,-27979.96,337.2,Air+FixedWing,Red,Allies,J-11A,Red J-11A #001,xu,=36=Falcon,0,0,0,182.25,2.25,0,0,NaN,NaN,0,0,NaN,0.99949922854966,0.00174445711625238,-0.00523342257827563,0,178.72619625,178.72619625,,,46.9500000476837,180,0.0954342001490775,0.185203065986926
2018-07-19T08:04:42Z,1531987482,107,40.02596,44.6679733,182.25,-0.1,-0.3,342.2,457440.34,-27979.96,337.2,Air+FixedWing,Red,Allies,J-11A,Red J-11A #001,xu,=36=Falcon,0.0047607421875,0,1.40139627488841e-05,182.245239257812,2.2452392578125,0,-0.0047607421875,NaN,NaN,0.371398366308613,0,NaN,1.00096054758783,-0.00220997600033555,-0.00413945543271795,1.13323330879211e-06,178.721527556763,178.721528689996,,,47.9500000476837,180,0.0997609106607434,0.191636273928317
2018-07-19T08:04:43Z,1531987483,107,40.02596,44.6679734,182.25,0,-0.3,342.2,457440.34,-27979.95,337.2,Air+FixedWing,Red,Allies,J-11A,Red J-11A #001,xu,=36=Falcon,0.0126488642865019,0,3.72338420119228e-05,182.25,2.25,0.01171875,0.0047607421875,NaN,NaN,0.180972692248658,0,NaN,0.999489181996467,0.00092614620934091,-0.00743660799388966,7.99968838691711e-06,178.72619625,178.726204249688,,,48.9500000476837,180,0.111120350753807,0.203953291333484
2018-07-19T08:04:44Z,1531987484,107,40.02596,44.6679733,182.25,0.1,-0.3,342.2,457440.34,-27979.96,337.2,Air+FixedWing,Red,Allies,J-11A,Red J-11A #001,xu,=36=Falcon,0.01171875,0,3.44959101618989e-05,182.25,2.25,0.01171875,0,NaN,NaN,0.0666666617035045,0,NaN,0.999991257812795,0.00128224201455716,-0.00413437172455172,6.866455078125e-06,178.72619625,178.726203116455,,,49.9500000476837,180,0.123412903695413,0.216246196084878
2018-07-19T08:04:45Z,1531987485,107,40.0259601,44.6679733,182.25,0.1,-0.3,342.2,457440.34,-27979.96,337.2,Air+FixedWing,Red,Allies,J-11A,Red J-11A #001,xu,=36=Falcon,0,0,0,182.25,2.25,0,0,NaN,NaN,0,0,NaN,0.99998468162763,0.00174530439271087,-0.00523596443235874,0,178.72619625,178.72619625,,,50.9500000476837,180,0.128377777547948,0.22121121171957
2018-07-19T08:04:46Z,1531987486,107,40.0259601,44.6679733,182.25,0.1,-0.3,342.2,457440.34,-27979.96,337.2,Air+FixedWing,Red,Allies,J-11A,Red J-11A #001,xu,=36=Falcon,0,0,0,182.25,2.25,0,0,NaN,NaN,0,0,NaN,0.99998468162763,0.00174530439271087,-0.00523596443235874,0,178.72619625,178.72619625,,,51.9500000476837,180,0.131281814556086,0.224115331663338
2018-07-19T08:04:47Z,1531987487,107,40.02596,44.6679733,182.25,0.1,-0.3,342.2,457440.34,-27979.96,337.2,Air+FixedWing,Red,Allies,J-11A,Red J-11A #001,xu,=36=Falcon,0,0,0,182.25,2.25,0,0,NaN,NaN,0,0,NaN,0.99998468162763,0.00174530439271087,-0.00523596443235874,0,178.72619625,178.72619625,,,52.9500000476837,180,0.134739002925834,0.227572618885559
2018-07-19T08:04:48Z,1531987488,107,40.0259599,44.6679733,182.25,0,-0.3,342.2,457440.34,-27979.96,337.2,Air+FixedWing,Red,Allies,J-11A,Red J-11A #001,xu,=36=Falcon,0,0,0,182.25,2.25,0,0,NaN,NaN,0.152395180761324,0,NaN,0.999986171723233,0,-0.00523596443235874,0,178.72619625,178.72619625,,,53.9500000476837,180,0.140253220231529,0.233086993533674
2018-07-19T08:04:49Z,1531987489,107,40.02596,44.6679733,182.25,0,-0.3,342.2,457440.34,-27979.96,337.2,Air+FixedWing,Red,Allies,J-11A,Red J-11A #001,xu,=36=Falcon,0,0,0,182.25,2.25,0,0,NaN,NaN,0.126331178888556,0,NaN,0.999986171723233,0,-0.00523596443235874,0,178.72619625,178.72619625,,,54.9500000476837,180,0.145661286722724,0.23849521474303
2018-07-19T08:04:50Z,1531987490,107,40.0259601,44.6679733,182.25,0,-0.3,342.2,457440.34,-27979.96,337.2,Air+FixedWing,Red,Allies,J-11A,Red J-11A #001,xu,=36=Falcon,0,0,0,182.25,2.25,0,0,NaN,NaN,0,0,NaN,0.999979706032439,-0.00293762083390456,-0.00647080911277102,0,178.72619625,178.72619625,,,55.9500000476837,180,0.151236610230766,0.244070697561686
2018-07-19T08:04:51Z,1531987491,107,40.0259602,44.6679733,182.25,0.1,-0.3,342.2,457440.38,-27979.96,337.2,Air+FixedWing,Red,Allies,J-11A,Red J-11A #001,xu,=36=Falcon,0.03125,0,9.19890937650638e-05,182.25,2.25,0.03125,0,NaN,NaN,0,0,NaN,0.999987358764327,0.00762056026265984,-0.00276627507153419,4.8828125e-05,178.72619625,178.726245078125,,,56.9500000476837,180,0.163344356083389,0.256178789462057
2018-07-19T08:04:52Z,1531987492,107,40.02596,44.6679733,182.25,0.1,-0.3,342.2,457440.34,-27979.96,337.2,Air+FixedWing,Red,Allies,J-11A,Red J-11A #001,xu,=36=Falcon,0.03125,0,9.19890937650638e-05,182.25,2.25,0.03125,0,NaN,NaN,0,0.0139882274201861,NaN,0.999983343059282,-0.00119232354226361,-0.00647080911277102,4.8828125e-05,178.72619625,178.726245078125,,,57.9500000476837,180,0.179347047842463,0.272181939000258
2018-07-19T08:04:53Z,1531987493,107,40.02596,44.6679733,182.25,0.1,-0.2,342.2,457440.34,-27979.96,337.2,Air+FixedWing,Red,Allies,J-11A,Red J-11A #001,xu,=36=Falcon,0,0,0,182.25,2.25,0,0,NaN,NaN,0,0.0504352774299245,NaN,0.999989748014585,0.00174531323523373,-0.00416298676282167,0,178.72619625,178.72619625,,,58.9500000476837,180,0.182477008734979,0.275311989146664
2018-07-19T08:04:54Z,1531987494,107,40.02596,44.6679733,182.25,0,-0.2,342.2,457440.34,-27979.96,337.2,Air+FixedWing,Red,Allies,J-11A,Red J-11A #001,xu,=36=Falcon,0,0,0,182.25,2.25,0,0,NaN,NaN,0.199987938897973,0.0407823424976854,NaN,0.999993741512668,0,-0.00349065172486007,0,178.72619625,178.72619625,,,59.9500000476837,180,0.185869990307098,0.278705067603062
2018-07-19T08:04:55Z,1531987495,107,40.02596,44.6679733,182.25,0,-0.2,342.2,457440.34,-27979.96,337.2,Air+FixedWing,Red,Allies,J-11A,Red J-11A #001,xu,=36=Falcon,0,0,0,182.25,2.25,0,0,NaN,NaN,0.133325292598649,0.0139882274201861,NaN,0.999993741512668,0,-0.00349065172486007,0,178.72619625,178.72619625,,,60.9500000476837,180,0.187377984398848,0.280213104681596
2018-07-19T08:04:56Z,1531987496,107,40.0259601,44.6679733,182.25,0,-0.2,342.2,457440.34,-27979.96,337.2,Air+FixedWing,Red,Allies,J-11A,Red J-11A #001,xu,=36=Falcon,0,0,0,182.25,2.25,0,0,NaN,NaN,0,0.0139882274201861,NaN,0.999993741512668,0,-0.00349065172486007,0,178.72619625,178.72619625,,,61.9500000476837,180,0.193409956401792,0.286245248874058
2018-07-19T08:04:57Z,1531987497,107,40.02596,44.6679733,182.25,0,-0.2,342.2,457440.34,-27979.96,337.2,Air+FixedWing,Red,Allies,J-11A,Red J-11A #001,xu,=36=Falcon,0,0,0,182.25,2.25,0,0,NaN,NaN,0,0.0139882274201861,NaN,0.999993741512668,0,-0.00349065172486007,0,178.72619625,178.72619625,,,62.9500000476837,180,0.200832106579724,0.293667610890872
2018-07-19T08:04:58Z,1531987498,107,40.0259601,44.6679733,182.25,0,-0.2,342.2,457440.34,-27979.96,337.2,Air+FixedWing,Red,Allies,J-11A,Red J-11A #001,xu,=36=Falcon,0,0,0,182.25,2.25,0,0,NaN,NaN,0,0.0139882274201861,NaN,0.999975070074211,0,-0.00349058654895655,0,178.72619625,178.72619625,,,63.9500000476837,180,0.205330378589836,0.298166011148172
2018-07-19T08:04:59Z,1531987499,107,40.0259601,44.6679733,182.25,0,-0.2,342.2,457440.34,-27979.96,337.2,Air+FixedWing,Red,Allies,J-11A,Red J-11A #001,xu,=36=Falcon,0.00018310546875,0,5.38998595163713e-07,182.249816894531,2.24981689453125,0,-0.00018310546875,NaN,NaN,0,0.0139882274201861,NaN,0.999961066495368,0,-0.00349053766702891,1.67638063430786e-09,178.726016684876,178.726016686552,,,64.9500000476837,180,0.208254256757657,0.301095700403061
2018-07-19T08:05:00Z,1531987500,107,40.0259601,44.6679733,182.25,0,-0.2,342.2,457440.34,-27979.96,337.2,Air+FixedWing,Red,Allies,J-11A,Red J-11A #001,xu,=36=Falcon,0.0005035400390625,0,1.48224612826078e-06,182.249313354492,2.24931335449219,0,-0.0005035400390625,NaN,NaN,0,0.0139882274201861,NaN,0.999993741512668,0,-0.00349065172486007,1.26776285469532e-08,178.725522880783,178.725522893461,,,65.9500000476837,180,0.208254256757657,0.301599240158983
2018-07-19T08:05:01Z,1531987501,107,40.0259601,44.6679733,182.25,0,-0.2,342.2,457440.34,-27979.96,337.2,Air+FixedWing,Red,Allies,J-11A,Red J-11A #001,xu,=36=Falcon,0.0005035400390625,0,1.48224611982135e-06,182.248809814453,2.24880981445312,0,-0.0005035400390625,NaN,NaN,0,0.0139882274201861,NaN,0.999992185559464,0,-0.00349064629353478,1.26776285469532e-08,178.725029076691,178.725029089368,,,66.9500000476837,180,0.208254256757657,0.302102780381493
2018-07-19T08:05:02Z,1531987502,107,40.0259601,44.6679733,182.25,0,-0.2,342.2,457440.34,-27979.96,337.2,Air+FixedWing,Red,Allies,J-11A,Red J-11A #001,xu,=36=Falcon,0.000518798828125,0,1.52716265994819e-06,182.248291015625,2.248291015625,0,-0.000518798828125,NaN,NaN,0,0.0139882274201861,NaN,0.999995297465873,0,-0.00349065715618536,1.34576112031937e-08,178.724520308838,178.724520322296,,,67.9500000476837,180,0.208254256757657,0.302621579177524
2018-07-19T08:05:03Z,1531987503,107,40.0259601,44.6679733,182.25,0,-0.2,342.2,457440.34,-27979.96,337.2,Air+FixedWing,Red,Allies,J-11A,Red J-11A #001,xu,=36=Falcon,0.0005035400390625,0,1.48224610268675e-06,182.247787475586,2.24778747558594,0,-0.0005035400390625,NaN,NaN,0,0.0139882274201861,NaN,0.999992185559464,0,-0.00349064629353478,1.26776285469532e-08,178.724026504745,178.724026517423,,,68.9500000476837,180,0.208254256757657,0.303125119146436
2018-07-19T08:05:04Z,1531987504,107,40.0259601,44.6679733,182.25,0,-0.2,342.2,457440.34,-27979.96,337.2,Air+FixedWing,Red,Allies,J-11A,Red J-11A #001,xu,=36=Falcon,0.000518798828125,0,1.52716264229436e-06,182.247268676758,2.24726867675781,0,-0.000518798828125,NaN,NaN,0,0.0139882274201861,NaN,0.999995297465873,0,-0.00349065715618536,1.34576112031937e-08,178.723517736893,178.72351775035,,,69.9500000476837,180,0.208254256757657,0.303643917942466
2018-07-19T08:05:05Z,1531987505,107,40.0259601,44.6679733,182.25,0,-0.2,342.2,457440.34,-27979.96,337.2,Air+FixedWing,Red,Allies,J-11A,Red J-11A #001,xu,=36=Falcon,0.0005035400390625,0,1.48224608555215e-06,182.246765136719,2.24676513671875,0,-0.0005035400390625,NaN,NaN,0,0.0139882274201861,NaN,0.999993741512668,0,-0.00349065172486007,1.26776285469532e-08,178.7230239328,178.723023945478,,,70.9500000476837,180,0.208254256757657,0.304147458164977
2018-07-19T08:05:06Z,1531987506,107,40.0259601,44.6679733,182.25,0,-0.2,342.2,457440.34,-27979.96,337.2,Air+FixedWing,Red,Allies,J-11A,Red J-11A #001,xu,=36=Falcon,0.0005035400390625,0,1.48224607711272e-06,182.24626159668,2.24626159667969,0,-0.0005035400390625,NaN,NaN,0,0.0139882274201861,NaN,0.999992185559464,0,-0.00349064629353478,1.26776285469532e-08,178.722530128708,178.722530141386,,,71.9500000476837,180,0.208254256757657,0.304650998387487
2018-07-19T08:05:07Z,1531987507,107,40.0259601,44.6679733,182.25,0,-0.2,342.2,457440.34,-27979.96,337.2,Air+FixedWing,Red,Allies,J-11A,Red J-11A #001,xu,=36=Falcon,0.000518798828125,0,1.52716261594536e-06,182.245742797852,2.24574279785156,0,-0.000518798828125,NaN,NaN,0,0.0139882274201861,NaN,0.999995297465873,0,-0.00349065715618536,1.34576112031937e-08,178.722021360855,178.722021374313,,,72.9500000476837,180,0.208254256757657,0.3051697965288
2018-07-19T08:05:08Z,1531987508,107,40.0259601,44.6679733,182.25,0,-0.2,342.2,457440.34,-27979.96,337.2,Air+FixedWing,Red,Allies,J-11A,Red J-11A #001,xu,=36=Falcon,0.0005035400390625,0,1.48224605997812e-06,182.245239257812,2.2452392578125,0,-0.0005035400390625,NaN,NaN,0,0.0139882274201861,NaN,0.999993741512668,0,-0.00349065172486007,1.26776285469532e-08,178.721527556763,178.72152756944,,,73.9500000476837,180,0.208254256757657,0.30567333675131
2018-07-19T08:05:09Z,1531987509,107,40.0259601,44.6679733,182.24,0,-0.2,342.2,457440.34,-27979.96,337.2,Air+FixedWing,Red,Allies,J-11A,Red J-11A #001,xu,=36=Falcon,0.0005035400390625,0,1.48224605153869e-06,182.244735717773,2.24473571777344,0,-0.0005035400390625,NaN,NaN,0,0.0139882274201861,NaN,0.999992185559464,0,-0.00349064629353478,1.26776285469532e-08,178.72103375267,178.721033765348,,,74.9500000476837,180,0.208254256757657,0.30617687697382
2018-07-19T08:05:10Z,1531987510,107,40.0259601,44.6679733,182.24,0,-0.2,342.2,457440.34,-27979.96,337.2,Air+FixedWing,Red,Allies,J-11A,Red J-11A #001,xu,=36=Falcon,0.000518798828125,0,1.52716258959636e-06,182.244216918945,2.24421691894531,0,-0.000518798828125,NaN,NaN,0,0.0139882274201861,NaN,0.999995297465873,0,-0.00349065715618536,1.34576112031937e-08,178.720524984818,178.720524998275,,,75.9500000476837,180,0.208254256757657,0.306695675769851
2018-07-19T08:05:11Z,1531987511,107,40.0259601,44.6679733,182.24,0,-0.2,342.2,457440.34,-27979.96,337.2,Air+FixedWing,Red,Allies,J-11A,Red J-11A #001,xu,=36=Falcon,0.0005035400390625,0,1.4822460344041e-06,182.243713378906,2.24371337890625,0,-0.0005035400390625,NaN,NaN,0,0.0139882274201861,NaN,0.999993741512668,0,-0.00349065172486007,1.26776285469532e-08,178.720031180725,178.720031193403,,,76.9500000476837,180,0.208254256757657,0.307199215992361
2018-07-19T08:05:12Z,1531987512,107,40.0259601,44.6679733,182.24,0,-0.2,342.2,457440.34,-27979.96,337.2,Air+FixedWing,Red,Allies,J-11A,Red J-11A #001,xu,=36=Falcon,0.0005035400390625,0,1.48224602596467e-06,182.243209838867,2.24320983886719,0,-0.0005035400390625,NaN,NaN,0,0.0139882274201861,NaN,0.999992185559464,0,-0.00349064629353478,1.26776285469532e-08,178.719537376633,178.71953738931,,,77.9500000476837,180,0.208254256757657,0.307702755961273
2018-07-19T08:05:13Z,1531987513,107,40.0259601,44.6679733,182.24,0,-0.2,342.2,457440.34,-27979.96,337.2,Air+FixedWing,Red,Allies,J-11A,Red J-11A #001,xu,=36=Falcon,0.000518798828125,0,1.52716256324736e-06,182.242691040039,2.24269104003906,0,-0.000518798828125,NaN,NaN,0,0.0139882274201861,NaN,0.999995297465873,0,-0.00349065715618536,1.34576112031937e-08,178.71902860878,178.719028622238,,,78.9500000476837,180,0.208254256757657,0.308221554970294
2018-07-19T08:05:14Z,1531987514,107,40.0259601,44.6679733,182.24,0,-0.2,342.2,457440.34,-27979.96,337.2,Air+FixedWing,Red,Allies,J-11A,Red J-11A #001,xu,=36=Falcon,0.0005035400390625,0,1.48224600883007e-06,182.2421875,2.2421875,0,-0.0005035400390625,NaN,NaN,0,0.0139882274201861,NaN,0.999992185559464,0,-0.00349064629353478,1.26776285469532e-08,178.718534804687,178.718534817365,,,79.9500000476837,180,0.208254256757657,0.308725094979814
2018-07-19T08:05:15Z,1531987515,107,40.0259601,44.6679733,182.24,0,-0.2,342.2,457440.34,-27979.96,337.2,Air+FixedWing,Red,Allies,J-11A,Red J-11A #001,xu,=36=Falcon,0.000518798828125,0,1.52716254559354e-06,182.241668701172,2.24166870117188,0,-0.000518798828125,NaN,NaN,0,0.0139882274201861,NaN,0.999995297465873,0,-0.00349065715618536,1.34576112031937e-08,178.718026036835,178.718026050292,,,80.9500000476837,180,0.208254256757657,0.309243893988834
2018-07-19T08:05:16Z,1531987516,107,40.0259601,44.6679733,182.24,0,-0.2,342.2,457440.34,-27979.96,337.2,Air+FixedWing,Red,Allies,J-11A,Red J-11A #001,xu,=36=Falcon,0.0005035400390625,0,1.48224599169548e-06,182.241165161133,2.24116516113281,0,-0.0005035400390625,NaN,NaN,0,0.0139882274201861,NaN,0.999993741512668,0,-0.00349065172486007,1.26776285469532e-08,178.717532232742,178.71753224542,,,81.9500000476837,180,0.208254256757657,0.309747434211344
2018-07-19T08:05:17Z,1531987517,107,40.0259601,44.6679733,182.24,0,-0.2,342.2,457440.34,-27979.96,337.2,Air+FixedWing,Red,Allies,J-11A,Red J-11A #001,xu,=36=Falcon,0.0005035400390625,0,1.48224598325605e-06,182.240661621094,2.24066162109375,0,-0.0005035400390625,NaN,NaN,0,0.0139882274201861,NaN,0.999992185559464,0,-0.00349064629353478,1.26776285469532e-08,178.71703842865,178.717038441328,,,82.9500000476837,180,0.208254256757657,0.310250974220865
2018-07-19T08:05:18Z,1531987518,107,40.0259601,44.6679733,182.24,0,-0.2,342.2,457440.34,-27979.96,337.2,Air+FixedWing,Red,Allies,J-11A,Red J-11A #001,xu,=36=Falcon,0.000518798828125,0,1.52716251924454e-06,182.240142822266,2.24014282226562,0,-0.000518798828125,NaN,NaN,0,0.0463937064216612,NaN,1.00003108438958,0,-0.00349078207666712,1.34576112031937e-08,178.716529660797,178.716529674255,,,83.9500000476837,180,0.208254256757657,0.310769772575168
2018-07-19T08:05:19Z,1531987519,107,40.02596,44.6679733,182.24,0,-0.3,342.2,457440.34,-27979.96,337.2,Air+FixedWing,Red,Allies,J-11A,Red J-11A #001,xu,=36=Falcon,0.000152587890625,0,4.4916544606166e-07,182.239990234375,2.239990234375,0,-0.000152587890625,NaN,NaN,0,0.0370093733476075,NaN,1.00000328088616,0,-0.00494718053509615,1.16415321826935e-09,178.716380023193,178.716380024358,,,84.9500000476837,180,0.216171216240969,0.31868842824678
2018-07-19T08:05:20Z,1531987520,107,40.02596,44.6679733,182.24,0,-0.2,342.2,457440.34,-27979.96,337.2,Air+FixedWing,Red,Allies,J-11A,Red J-11A #001,xu,=36=Falcon,0,0,0,182.239990234375,2.239990234375,0,0,NaN,NaN,0,0.0312786278555019,NaN,0.999990463257401,0,-0.00434530852362514,0,178.716380023193,178.716380023193,,,85.9500000476837,180,0.216171216240969,0.31868842824678
2018-07-19T08:05:21Z,1531987521,107,40.02596,44.6679733,182.24,0,-0.2,342.2,457440.34,-27979.96,337.2,Air+FixedWing,Red,Allies,J-11A,Red J-11A #001,xu,=36=Falcon,0,0,0,182.239990234375,2.239990234375,0,0,NaN,NaN,0,0.0370093733476075,NaN,0.999992907047691,0,-0.00374351209029555,0,178.716380023193,178.716380023193,,,86.9500000476837,180,0.216171216240969,0.31868842824678
2018-07-19T08:05:22Z,1531987522,107,40.0259601,44.6679733,182.24,0,-0.2,342.2,457440.34,-27979.96,337.2,Air+FixedWing,Red,Allies,J-11A,Red J-11A #001,xu,=36=Falcon,0,0,0,182.239990234375,2.239990234375,0,0,NaN,NaN,0.0105263136893481,0.0221173298063182,NaN,0.999993801116943,9.18588465626605e-05,-0.00349065172486007,0,178.716380023193,178.716380023193,,,87.9500000476837,180,0.224088175724281,0.326605613460525
2018-07-19T08:05:23Z,1531987523,107,40.0259601,44.6679733,182.24,0,-0.2,342.2,457440.34,-27979.96,337.2,Air+FixedWing,Red,Allies,J-11A,Red J-11A #001,xu,=36=Falcon,0,0,0,182.239990234375,2.239990234375,0,0,NaN,NaN,0.0142247510681509,0.0139882274201861,NaN,0.999993681908393,0.000340126063541404,-0.00349065172486007,0,178.716380023193,178.716380023193,,,88.9500000476837,180,0.224088175724281,0.326605613460525
2018-07-19T08:05:24Z,1531987524,107,40.0259601,44.6679733,182.24,0,-0.2,342.2,457440.34,-27979.96,337.2,Air+FixedWing,Red,Allies,J-11A,Red J-11A #001,xu,=36=Falcon,0,0,0,182.239990234375,2.239990234375,0,0,NaN,NaN,0.0142247494006243,0.0139882274201861,NaN,0.999993622304117,0.000588393207761023,-0.00349065172486007,0,178.716380023193,178.716380023193,,,89.9500000476837,180,0.224088175724281,0.326605613460525
2018-07-19T08:05:25Z,1531987525,107,40.0259601,44.6679733,182.24,0,-0.2,342.2,457440.34,-27979.96,337.2,Air+FixedWing,Red,Allies,J-11A,Red J-11A #001,xu,=36=Falcon,0,0,0,182.239990234375,2.239990234375,0,0,NaN,NaN,0.0142247560707309,0.0139882274201861,NaN,0.999993443491292,0.000836660381084292,-0.00349065172486007,0,178.716380023193,178.716380023193,,,90.9500000476837,180,0.224088175724281,0.326605613460525
2018-07-19T08:05:26Z,1531987526,107,40.0259601,44.6679733,182.24,0.1,-0.2,342.2,457440.34,-27979.96,337.2,Air+FixedWing,Red,Allies,J-11A,Red J-11A #001,xu,=36=Falcon,0,0,0,182.239990234375,2.239990234375,0,0,NaN,NaN,0.0142247560707309,0.0139882274201861,NaN,0.999993145469915,0.00108492749620026,-0.00349065172486007,0,178.716380023193,178.716380023193,,,91.9500000476837,180,0.224088175724281,0.326605613460525
2018-07-19T08:05:27Z,1531987527,107,40.0259601,44.6679733,182.24,0.1,-0.2,342.2,457440.34,-27979.96,337.2,Air+FixedWing,Red,Allies,J-11A,Red J-11A #001,xu,=36=Falcon,0,0,0,182.239990234375,2.239990234375,0,0,NaN,NaN,0.0142247494006243,0.0139882274201861,NaN,0.999992847448539,0.00133319455310893,-0.00349065172486007,0,178.716380023193,178.716380023193,,,92.9500000476837,180,0.224088175724281,0.326605613460525
2018-07-19T08:05:28Z,1531987528,107,40.0259601,44.6679733,182.24,0.1,-0.2,342.2,457440.34,-27979.96,337.2,Air+FixedWing,Red,Allies,J-11A,Red J-11A #001,xu,=36=Falcon,0,0,0,182.239990234375,2.239990234375,0,0,NaN,NaN,0.014224736060411,0.0139882274201861,NaN,0.999992549427162,0.0015814613771884,-0.00349065172486007,0,178.716380023193,178.716380023193,,,93.9500000476837,180,0.224088175724281,0.326605613460525
2018-07-19T08:05:29Z,1531987529,107,40.0259601,44.6679733,182.24,0.1,-0.2,342.2,457440.34,-27979.96,337.2,Air+FixedWing,Red,Allies,J-11A,Red J-11A #001,xu,=36=Falcon,0,0,0,182.239990234375,2.239990234375,0,0,NaN,NaN,0.0745310242231791,0.0139882274201861,NaN,0.999993205074191,0.00105535038797583,-0.00349065172486007,0,178.716380023193,178.716380023193,,,94.9500000476837,180,0.224088175724281,0.326605613460525
2018-07-19T08:05:30Z,1531987530,107,40.0259601,44.6679733,182.24,0,-0.2,342.2,457440.34,-27979.96,337.2,Air+FixedWing,Red,Allies,J-11A,Red J-11A #001,xu,=36=Falcon,0,0,0,182.239990234375,2.239990234375,0,0,NaN,NaN,0.00453524560888847,0.0139882274201861,NaN,0.999993801116943,9.73022445657074e-07,-0.00349065172486007,0,178.716380023193,178.716380023193,,,95.9500000476837,180,0.224088175724281,0.326605613460525
2018-07-19T08:05:31Z,1531987531,107,40.0259601,44.6679733,182.24,0,-0.2,342.2,457440.34,-27979.96,337.2,Air+FixedWing,Red,Allies,J-11A,Red J-11A #001,xu,=36=Falcon,0,0,0,182.239990234375,2.239990234375,0,0,NaN,NaN,0.000116146722753897,0.0139882274201861,NaN,0.999993741512668,3.00015272077902e-06,-0.00349065172486007,0,178.716380023193,178.716380023193,,,96.9500000476837,180,0.224088175724281,0.326605613460525
2018-07-19T08:05:32Z,1531987532,107,40.0259601,44.6679733,182.24,0,-0.2,342.2,457440.34,-27979.96,337.2,Air+FixedWing,Red,Allies,J-11A,Red J-11A #001,xu,=36=Falcon,0,0,0,182.239990234375,2.239990234375,0,0,NaN,NaN,0.000116146722753897,0.0139882274201861,NaN,0.999993741512668,5.0272831095871e-06,-0.00349065172486007,0,178.716380023193,178.716380023193,,,97.9500000476837,180,0.224088175724281,0.326605613460525
2018-07-19T08:05:33Z,1531987533,107,40.0259601,44.6679733,182.24,0,-0.2,342.2,457440.34,-27979.96,337.2,Air+FixedWing,Red,Allies,J-11A,Red J-11A #001,xu,=36=Falcon,0,0,0,182.239990234375,2.239990234375,0,0,NaN,NaN,0.000116146774864105,0.0139882274201861,NaN,0.999993741512668,7.05441327102292e-06,-0.00349065172486007,0,178.716380023193,178.716380023193,,,98.9500000476837,180,0.224088175724281,0.326605613460525
2018-07-19T08:05:34Z,1531987534,107,40.0259601,44.6679733,182.24,0,-0.2,342.2,457440.34,-27979.96,337.2,Air+FixedWing,Red,Allies,J-11A,Red J-11A #001,xu,=36=Falcon,0,0,0,182.239990234375,2.239990234375,0,0,NaN,NaN,0.000116146774864105,0.0139882274201861,NaN,0.999993741512668,9.0815429777142e-06,-0.00349065172486007,0,178.716380023193,178.716380023193,,,99.9500000476837,180,0.224088175724281,0.326605613460525
2018-07-19T08:05:35Z,1531987535,107,40.0259601,44.6679733,182.24,0,-0.2,342.2,457440.34,-27979.96,337.2,Air+FixedWing,Red,Allies,J-11A,Red J-11A #001,xu,=36=Falcon,0,0,0,182.239990234375,2.239990234375,0,0,NaN,NaN,0.000116146670643689,0.0139882274201861,NaN,0.999993741512668,1.110867313915e-05,-0.00349065172486007,0,178.716380023193,178.716380023193,,,100.950000047684,180,0.224088175724281,0.326605613460525
2018-07-19T08:05:36Z,1531987536,107,40.0259601,44.6679733,182.24,0,-0.2,342.2,457440.34,-27979.96,337.2,Air+FixedWing,Red,Allies,J-11A,Red J-11A #001,xu,=36=Falcon,0,0,0,182.239990234375,2.239990234375,0,0,NaN,NaN,0.000116146670643689,0.0139882274201861,NaN,0.999993801116943,1.31358033005858e-05,-0.00349065172486007,0,178.716380023193,178.716380023193,,,101.950000047684,180,0.224088175724281,0.326605613460525
2018-07-19T08:05:37Z,1531987537,107,40.0259601,44.6679733,182.24,0,-0.2,342.2,457440.34,-27979.96,337.2,Air+FixedWing,Red,Allies,J-11A,Red J-11A #001,xu,=36=Falcon,0,0,0,182.239990234375,2.239990234375,0,0,NaN,NaN,0.000116146774864105,0.0139882274201861,NaN,0.999993741512668,1.51629343715107e-05,-0.00349065172486007,0,178.716380023193,178.716380023193,,,102.950000047684,180,0.224088175724281,0.326605613460525
2018-07-19T08:05:38Z,1531987538,107,40.0259601,44.6679733,182.24,0,-0.2,342.2,457440.34,-27979.96,337.2,Air+FixedWing,Red,Allies,J-11A,Red J-11A #001,xu,=36=Falcon,0,0,0,182.239990234375,2.239990234375,0,0,NaN,NaN,0.000116146566423273,0.0139882274201861,NaN,0.999993741512668,1.71900636234575e-05,-0.00349065172486007,0,178.716380023193,178.716380023193,,,103.950000047684,180,0.224088175724281,0.326605613460525
2018-07-19T08:05:39Z,1531987539,107,40.0259601,44.6679733,182.24,0,-0.2,342.2,457440.34,-27979.96,337.2,Air+FixedWing,Red,Allies,J-11A,Red J-11A #001,xu,=36=Falcon,0,0,0,182.239990234375,2.239990234375,0,0,NaN,NaN,0.000116146566423273,0.0139882274201861,NaN,0.999993741512668,1.92171928754042e-05,-0.00349065172486007,0,178.716380023193,178.716380023193,,,104.950000047684,180,0.224088175724281,0.326605613460525
2018-07-19T08:05:40Z,1531987540,107,40.0259601,44.6679733,182.24,0,-0.2,342.2,457440.34,-27979.96,337.2,Air+FixedWing,Red,Allies,J-11A,Red J-11A #001,xu,=36=Falcon,0,0,0,182.239990234375,2.239990234375,0,0,NaN,NaN,0.000116146774864105,0.0139882274201861,NaN,0.999993801116943,2.12443239463291e-05,-0.00349065172486007,0,178.716380023193,178.716380023193,,,105.950000047684,180,0.224088175724281,0.326605613460525
2018-07-19T08:05:41Z,1531987541,107,40.0259601,44.6679733,182.24,0,-0.2,342.2,457440.34,-27979.96,337.2,Air+FixedWing,Red,Allies,J-11A,Red J-11A #001,xu,=36=Falcon,0,0,0,182.239990234375,2.239990234375,0,0,NaN,NaN,0.000116146566423273,0.0139882274201861,NaN,0.999993741512668,2.32714531982758e-05,-0.00349065172486007,0,178.716380023193,178.716380023193,,,106.950000047684,180,0.224088175724281,0.326605613460525
2018-07-19T08:05:42Z,1531987542,107,40.0259601,44.6679733,182.24,0,-0.2,342.2,457440.34,-27979.96,337.2,Air+FixedWing,Red,Allies,J-11A,Red J-11A #001,xu,=36=Falcon,0,0,0,182.239990234375,2.239990234375,0,0,NaN,NaN,0.000116146774864105,0.0139882274201861,NaN,0.999993801116943,2.52985842692007e-05,-0.00349065172486007,0,178.716380023193,178.716380023193,,,107.950000047684,180,0.224088175724281,0.326605613460525
2018-07-19T08:05:43Z,1531987543,107,40.0259601,44.6679733,182.24,0,-0.2,342.2,457440.34,-27979.96,337.2,Air+FixedWing,Red,Allies,J-11A,Red J-11A #001,xu,=36=Falcon,0,0,0,182.239990234375,2.239990234375,0,0,NaN,NaN,0.000116146774864105,0.0139882274201861,NaN,0.999993741512668,2.73257153401256e-05,-0.00349065172486007,0,178.716380023193,178.716380023193,,,108.950000047684,180,0.224088175724281,0.326605613460525
2018-07-19T08:05:44Z,1531987544,107,40.0259601,44.6679733,182.24,0,-0.2,342.2,457440.34,-27979.96,337.2,Air+FixedWing,Red,Allies,J-11A,Red J-11A #001,xu,=36=Falcon,0,0,0,182.239990234375,2.239990234375,0,0,NaN,NaN,0.000116146566423273,0.0139882274201861,NaN,0.999993801116943,2.93528445920723e-05,-0.00349065172486007,0,178.716380023193,178.716380023193,,,109.950000047684,180,0.224088175724281,0.326605613460525
2018-07-19T08:05:45Z,1531987545,107,40.0259601,44.6679733,182.24,0,-0.2,342.2,457440.34,-27979.96,337.2,Air+FixedWing,Red,Allies,J-11A,Red J-11A #001,xu,=36=Falcon,0,0,0,182.239990234375,2.239990234375,0,0,NaN,NaN,0.000116146566423273,0.0139882274201861,NaN,0.999993741512668,3.13799738440191e-05,-0.00349065172486007,0,178.716380023193,178.716380023193,,,110.950000047684,180,0.224088175724281,0.326605613460525
2018-07-19T08:05:46Z,1531987546,107,40.0259601,44.6679733,182.24,0,-0.2,342.2,457440.34,-27979.96,337.2,Air+FixedWing,Red,Allies,J-11A,Red J-11A #001,xu,=36=Falcon,0,0,0,182.239990234375,2.239990234375,0,0,NaN,NaN,0.000116146566423273,0.0139882274201861,NaN,0.999993801116943,3.3407104914944e-05,-0.00349065172486007,0,178.716380023193,178.716380023193,,,111.950000047684,180,0.224088175724281,0.326605613460525
2018-07-19T08:05:47Z,1531987547,107,40.0259601,44.6679733,182.24,0,-0.2,342.2,457440.34,-27979.96,337.2,Air+FixedWing,Red,Allies,J-11A,Red J-11A #001,xu,=36=Falcon,0,0,0,182.239990234375,2.239990234375,0,0,NaN,NaN,0.000116146566423273,0.0139882274201861,NaN,0.999993801116943,3.54342359858689e-05,-0.00349065172486007,0,178.716380023193,178.716380023193,,,112.950000047684,180,0.224088175724281,0.326605613460525
2018-07-19T08:05:48Z,1531987548,107,40.0259601,44.6679733,182.24,0,-0.2,342.2,457440.34,-27979.96,337.2,Air+FixedWing,Red,Allies,J-11A,Red J-11A #001,xu,=36=Falcon,0,0,0,182.239990234375,2.239990234375,0,0,NaN,NaN,0.000116146983304937,0.0139882274201861,NaN,0.999993801116943,3.74613670567937e-05,-0.00349065172486007,0,178.716380023193,178.716380023193,,,113.950000047684,180,0.224088175724281,0.326605613460525
2018-07-19T08:05:49Z,1531987549,107,40.0259601,44.6679733,182.24,0,-0.2,342.2,457440.34,-27979.96,337.2,Air+FixedWing,Red,Allies,J-11A,Red J-11A #001,xu,=36=Falcon,0,0,0,182.239990234375,2.239990234375,0,0,NaN,NaN,0.000116146983304937,0.0139882274201861,NaN,0.999993741512668,3.94884981277186e-05,-0.00349065172486007,0,178.716380023193,178.716380023193,,,114.950000047684,180,0.224088175724281,0.326605613460525
2018-07-19T08:05:50Z,1531987550,107,40.0259601,44.6679733,182.24,0,-0.2,342.2,457440.34,-27979.96,337.2,Air+FixedWing,Red,Allies,J-11A,Red J-11A #001,xu,=36=Falcon,0,0,0,182.239990234375,2.239990234375,0,0,NaN,NaN,0.000116146983304937,0.0139882274201861,NaN,0.999993801116943,4.15156291986435e-05,-0.00349065172486007,0,178.716380023193,178.716380023193,,,115.950000047684,180,0.224088175724281,0.326605613460525
2018-07-19T08:05:51Z,1531987551,107,40.0259601,44.6679733,182.24,0,-0.2,342.2,457440.34,-27979.96,337.2,Air+FixedWing,Red,Allies,J-11A,Red J-11A #001,xu,=36=Falcon,0,0,0,182.239990234375,2.239990234375,0,0,NaN,NaN,0.00011614614954161,0.0139882274201861,NaN,0.999993741512668,4.35427529936559e-05,-0.00349065172486007,0,178.716380023193,178.716380023193,,,116.950000047684,180,0.224088175724281,0.326605613460525
2018-07-19T08:05:52Z,1531987552,107,40.0259601,44.6679733,182.24,0,-0.2,342.2,457440.34,-27979.96,337.2,Air+FixedWing,Red,Allies,J-11A,Red J-11A #001,xu,=36=Falcon,0,0,0,182.239990234375,2.239990234375,0,0,NaN,NaN,0.000116146566423273,0.0139882274201861,NaN,0.999993801116943,4.55698840645807e-05,-0.00349065172486007,0,178.716380023193,178.716380023193,,,117.950000047684,180,0.224088175724281,0.326605613460525
2018-07-19T08:05:53Z,1531987553,107,40.0259601,44.6679733,182.24,0,-0.2,342.2,457440.34,-27979.96,337.2,Air+FixedWing,Red,Allies,J-11A,Red J-11A #001,xu,=36=Falcon,0,0,0,182.239990234375,2.239990234375,0,0,NaN,NaN,0.000116146566423273,0.0139882274201861,NaN,0.999993801116943,4.75970151355056e-05,-0.00349065172486007,0,178.716380023193,178.716380023193,,,118.950000047684,180,0.224088175724281,0.326605613460525
2018-07-19T08:05:54Z,1531987554,107,40.0259601,44.6679733,182.24,0,-0.2,342.2,457440.34,-27979.96,337.2,Air+FixedWing,Red,Allies,J-11A,Red J-11A #001,xu,=36=Falcon,0,0,0,182.239990234375,2.239990234375,0,0,NaN,NaN,0.000116146983304937,0.0139882274201861,NaN,0.999993801116943,4.96241462064305e-05,-0.00349065172486007,0,178.716380023193,178.716380023193,,,119.950000047684,180,0.224088175724281,0.326605613460525
2018-07-19T08:05:55Z,1531987555,107,40.0259601,44.6679733,182.24,0,-0.2,342.2,457440.34,-27979.96,337.2,Air+FixedWing,Red,Allies,J-11A,Red J-11A #001,xu,=36=Falcon,0,0,0,182.239990234375,2.239990234375,0,0,NaN,NaN,0.000116146983304937,0.0139882274201861,NaN,0.999993801116943,5.16512772773554e-05,-0.00349065172486007,0,178.716380023193,178.716380023193,,,120.950000047684,180,0.224088175724281,0.326605613460525
2018-07-19T08:05:56Z,1531987556,107,40.0259601,44.6679733,182.24,0,-0.2,342.2,457440.34,-27979.96,337.2,Air+FixedWing,Red,Allies,J-11A,Red J-11A #001,xu,=36=Falcon,0,0,0,182.239990234375,2.239990234375,0,0,NaN,NaN,0.000116146566423273,0.0139882274201861,NaN,0.999993741512668,5.3678404710324e-05,-0.00349065172486007,0,178.716380023193,178.716380023193,,,121.950000047684,180,0.224088175724281,0.326605613460525
2018-07-19T08:05:57Z,1531987557,107,40.0259601,44.6679733,182.24,0,-0.2,342.2,457440.34,-27979.96,337.2,Air+FixedWing,Red,Allies,J-11A,Red J-11A #001,xu,=36=Falcon,0,0,0,182.239990234375,2.239990234375,0,0,NaN,NaN,0.00011614614954161,0.0139882274201861,NaN,0.999993801116943,5.57055357812489e-05,-0.00349065172486007,0,178.716380023193,178.716380023193,,,122.950000047684,180,0.224088175724281,0.326605613460525
2018-07-19T08:05:58Z,1531987558,107,40.0259601,44.6679733,182.24,0,-0.2,342.2,457440.34,-27979.96,337.2,Air+FixedWing,Red,Allies,J-11A,Red J-11A #001,xu,=36=Falcon,0,0,0,182.239990234375,2.239990234375,0,0,NaN,NaN,0.00011614614954161,0.0139882274201861,NaN,0.999993741512668,5.77326668521738e-05,-0.00349065172486007,0,178.716380023193,178.716380023193,,,123.950000047684,180,0.224088175724281,0.326605613460525
2018-07-19T08:05:59Z,1531987559,107,40.0259601,44.6679733,182.24,0,-0.2,342.2,457440.34,-27979.96,337.2,Air+FixedWing,Red,Allies,J-11A,Red J-11A #001,xu,=36=Falcon,0,0,0,182.239990234375,2.239990234375,0,0,NaN,NaN,0.000116146566423273,0.0139882274201861,NaN,0.999993801116943,5.97597979230986e-05,-0.00349065172486007,0,178.716380023193,178.716380023193,,,124.950000047684,180,0.224088175724281,0.326605613460525
2018-07-19T08:06:00Z,1531987560,107,40.0259601,44.6679733,182.24,0,-0.2,342.2,457440.34,-27979.96,337.2,Air+FixedWing,Red,Allies,J-11A,Red J-11A #001,xu,=36=Falcon,0,0,0,182.239990234375,2.239990234375,0,0,NaN,NaN,0.000116146983304937,0.0139882274201861,NaN,0.999993801116943,6.17869253560673e-05,-0.00349065172486007,0,178.716380023193,178.716380023193,,,125.950000047684,180,0.224088175724281,0.326605613460525
2018-07-19T08:06:01Z,1531987561,107,40.0259601,44.6679733,182.24,0,-0.2,342.2,457440.34,-27979.96,337.2,Air+FixedWing,Red,Allies,J-11A,Red J-11A #001,xu,=36=Falcon,0,0,0,182.239990234375,2.239990234375,0,0,NaN,NaN,0.0001161474001866,0.0139882274201861,NaN,0.999993801116943,6.38140600649484e-05,-0.00349065172486007,0,178.716380023193,178.716380023193,,,126.950000047684,180,0.224088175724281,0.326605613460525
2018-07-19T08:06:02Z,1531987562,107,40.0259601,44.6679733,182.24,0,-0.2,342.2,457440.34,-27979.96,337.2,Air+FixedWing,Red,Allies,J-11A,Red J-11A #001,xu,=36=Falcon,0,0,0,182.239990234375,2.239990234375,0,0,NaN,NaN,0.000116146566423273,0.0139882274201861,NaN,0.999993741512668,6.5841187497917e-05,-0.00349065172486007,0,178.716380023193,178.716380023193,,,127.950000047684,180,0.224088175724281,0.326605613460525
2018-07-19T08:06:03Z,1531987563,107,40.0259601,44.6679733,182.24,0,-0.2,342.2,457440.34,-27979.96,337.2,Air+FixedWing,Red,Allies,J-11A,Red J-11A #001,xu,=36=Falcon,0,0,0,182.239990234375,2.239990234375,0,0,NaN,NaN,0.0001161474001866,0.0139882274201861,NaN,0.999993741512668,6.78683222067981e-05,-0.00349065172486007,0,178.716380023193,178.716380023193,,,128.950000047684,180,0.224088175724281,0.326605613460525
2018-07-19T08:06:04Z,1531987564,107,40.0259601,44.6679733,182.24,0,-0.2,342.2,457440.34,-27979.96,337.2,Air+FixedWing,Red,Allies,J-11A,Red J-11A #001,xu,=36=Falcon,0,0,0,182.239990234375,2.239990234375,0,0,NaN,NaN,0.0001161474001866,0.0139882274201861,NaN,0.999993801116943,6.98954496397668e-05,-0.00349065172486007,0,178.716380023193,178.716380023193,,,129.950000047684,180,0.224088175724281,0.326605613460525
2018-07-19T08:06:05Z,1531987565,107,40.0259601,44.6679733,182.24,0,-0.2,342.2,457440.34,-27979.96,337.2,Air+FixedWing,Red,Allies,J-11A,Red J-11A #001,xu,=36=Falcon,0,0,0,182.239990234375,2.239990234375,0,0,NaN,NaN,0.000116146566423273,0.0139882274201861,NaN,0.999993741512668,7.19225770727354e-05,-0.00349065172486007,0,178.716380023193,178.716380023193,,,130.950000047684,180,0.224088175724281,0.326605613460525
2018-07-19T08:06:06Z,1531987566,107,40.0259601,44.6679733,182.24,0,-0.2,342.2,457440.34,-27979.96,337.2,Air+FixedWing,Red,Allies,J-11A,Red J-11A #001,xu,=36=Falcon,0,0,0,182.239990234375,2.239990234375,0,0,NaN,NaN,0.0001161474001866,0.0139882274201861,NaN,0.999993801116943,7.39497117816165e-05,-0.00349065172486007,0,178.716380023193,178.716380023193,,,131.950000047684,180,0.224088175724281,0.326605613460525
2018-07-19T08:06:07Z,1531987567,107,40.0259601,44.6679733,182.24,0,-0.2,342.2,457440.34,-27979.96,337.2,Air+FixedWing,Red,Allies,J-11A,Red J-11A #001,xu,=36=Falcon,0,0,0,182.239990234375,2.239990234375,0,0,NaN,NaN,0.000116146566423273,0.0139882274201861,NaN,0.999993801116943,7.59768392145851e-05,-0.00349065172486007,0,178.716380023193,178.716380023193,,,132.950000047684,180,0.224088175724281,0.326605613460525
2018-07-19T08:06:08Z,1531987568,107,40.0259601,44.6679733,182.24,0,-0.2,342.2,457440.34,-27979.96,337.2,Air+FixedWing,Red,Allies,J-11A,Red J-11A #001,xu,=36=Falcon,0,0,0,182.239990234375,2.239990234375,0,0,NaN,NaN,0.0001161474001866,0.0139882274201861,NaN,0.999993741512668,7.80039739234663e-05,-0.00349065172486007,0,178.716380023193,178.716380023193,,,133.950000047684,180,0.224088175724281,0.326605613460525
2018-07-19T08:06:09Z,1531987569,107,40.0259601,44.6679733,182.24,0,-0.2,342.2,457440.34,-27979.96,337.2,Air+FixedWing,Red,Allies,J-11A,Red J-11A #001,xu,=36=Falcon,0,0,0,182.239990234375,2.239990234375,0,0,NaN,NaN,0.0001161474001866,0.0139882274201861,NaN,0.999993741512668,8.00311013564349e-05,-0.00349065172486007,0,178.716380023193,178.716380023193,,,134.950000047684,180,0.224088175724281,0.326605613460525
2018-07-19T08:06:10Z,1531987570,107,40.0259601,44.6679733,182.24,0,-0.2,342.2,457440.34,-27979.96,337.2,Air+FixedWing,Red,Allies,J-11A,Red J-11A #001,xu,=36=Falcon,0,0,0,182.239990234375,2.239990234375,0,0,NaN,NaN,0.000116146566423273,0.0139882274201861,NaN,0.999993741512668,8.20582287894035e-05,-0.00349065172486007,0,178.716380023193,178.716380023193,,,135.950000047684,180,0.224088175724281,0.326605613460525
2018-07-19T08:06:11Z,1531987571,107,40.0259601,44.6679733,182.24,0,-0.2,342.2,457440.34,-27979.96,337.2,Air+FixedWing,Red,Allies,J-11A,Red J-11A #001,xu,=36=Falcon,0,0,0,182.239990234375,2.239990234375,0,0,NaN,NaN,0.0001161474001866,0.0139882274201861,NaN,0.999993801116943,8.40853634982847e-05,-0.00349065172486007,0,178.716380023193,178.716380023193,,,136.950000047684,180,0.224088175724281,0.326605613460525
2018-07-19T08:06:12Z,1531987572,107,40.0259601,44.6679733,182.24,0,-0.2,342.2,457440.34,-27979.96,337.2,Air+FixedWing,Red,Allies,J-11A,Red J-11A #001,xu,=36=Falcon,0,0,0,182.239990234375,2.239990234375,0,0,NaN,NaN,0.000116146566423273,0.0139882274201861,NaN,0.999993741512668,8.61124909312533e-05,-0.00349065172486007,0,178.716380023193,178.716380023193,,,137.950000047684,180,0.224088175724281,0.326605613460525
2018-07-19T08:06:13Z,1531987573,107,40.0259601,44.6679733,182.24,0,-0.2,342.2,457440.34,-27979.96,337.2,Air+FixedWing,Red,Allies,J-11A,Red J-11A #001,xu,=36=Falcon,0,0,0,182.239990234375,2.239990234375,0,0,NaN,NaN,0.0001161474001866,0.0139882274201861,NaN,0.999993741512668,8.81396256401344e-05,-0.00349065172486007,0,178.716380023193,178.716380023193,,,138.950000047684,180,0.224088175724281,0.326605613460525
2018-07-19T08:06:14Z,1531987574,107,40.0259601,44.6679733,182.24,0,-0.2,342.2,457440.34,-27979.96,337.2,Air+FixedWing,Red,Allies,J-11A,Red J-11A #001,xu,=36=Falcon,0,0,0,182.239990234375,2.239990234375,0,0,NaN,NaN,0.0001161474001866,0.0139882274201861,NaN,0.999993741512668,9.0166753073103e-05,-0.00349065172486007,0,178.716380023193,178.716380023193,,,139.950000047684,180,0.224088175724281,0.326605613460525
2018-07-19T08:06:15Z,1531987575,107,40.0259601,44.6679733,182.24,0,-0.2,342.2,457440.34,-27979.96,337.2,Air+FixedWing,Red,Allies,J-11A,Red J-11A #001,xu,=36=Falcon,0,0,0,182.239990234375,2.239990234375,0,0,NaN,NaN,0.000116146566423273,0.0139882274201861,NaN,0.999993741512668,9.21938805060717e-05,-0.00349065172486007,0,178.716380023193,178.716380023193,,,140.950000047684,180,0.224088175724281,0.326605613460525
2018-07-19T08:06:16Z,1531987576,107,40.0259601,44.6679733,182.24,0,-0.2,342.2,457440.34,-27979.96,337.2,Air+FixedWing,Red,Allies,J-11A,Red J-11A #001,xu,=36=Falcon,0,0,0,182.239990234375,2.239990234375,0,0,NaN,NaN,0.000116146566423273,0.0139882274201861,NaN,0.999993741512668,9.42210079390403e-05,-0.00349065172486007,0,178.716380023193,178.716380023193,,,141.950000047684,180,0.224088175724281,0.326605613460525
2018-07-19T08:06:17Z,1531987577,107,40.0259601,44.6679733,182.24,0,-0.2,342.2,457440.34,-27979.96,337.2,Air+FixedWing,Red,Allies,J-11A,Red J-11A #001,xu,=36=Falcon,0,0,0,182.239990234375,2.239990234375,0,0,NaN,NaN,0.000116145732659947,0.0139882274201861,NaN,0.999993801116943,9.62481353720089e-05,-0.00349065172486007,0,178.716380023193,178.716380023193,,,142.950000047684,180,0.224088175724281,0.326605613460525
2018-07-19T08:06:18Z,1531987578,107,40.0259601,44.6679733,182.24,0,-0.2,342.2,457440.34,-27979.96,337.2,Air+FixedWing,Red,Allies,J-11A,Red J-11A #001,xu,=36=Falcon,0,0,0,182.239990234375,2.239990234375,0,0,NaN,NaN,0.000116146566423273,0.0139882274201861,NaN,0.999993741512668,9.827527008089e-05,-0.00349065172486007,0,178.716380023193,178.716380023193,,,143.950000047684,180,0.224088175724281,0.326605613460525
2018-07-19T08:06:19Z,1531987579,107,40.0259601,44.6679733,182.24,0,-0.2,342.2,457440.34,-27979.96,337.2,Air+FixedWing,Red,Allies,J-11A,Red J-11A #001,xu,=36=Falcon,0,0,0,182.239990234375,2.239990234375,0,0,NaN,NaN,0.000116146566423273,0.0139882274201861,NaN,0.999993741512668,0.000100302397513859,-0.00349065172486007,0,178.716380023193,178.716380023193,,,144.950000047684,180,0.224088175724281,0.326605613460525
2018-07-19T08:06:20Z,1531987580,107,40.0259601,44.6679733,182.24,0,-0.2,342.2,457440.34,-27979.96,337.2,Air+FixedWing,Red,Allies,J-11A,Red J-11A #001,xu,=36=Falcon,0,0,0,182.239990234375,2.239990234375,0,0,NaN,NaN,0.000116146566423273,0.0139882274201861,NaN,0.999993741512668,0.00010232953222274,-0.00349065172486007,0,178.716380023193,178.716380023193,,,145.950000047684,180,0.224088175724281,0.326605613460525
2018-07-19T08:06:21Z,1531987581,107,40.0259601,44.6679733,182.24,0,-0.2,342.2,457440.34,-27979.96,337.2,Air+FixedWing,Red,Allies,J-11A,Red J-11A #001,xu,=36=Falcon,0,0,0,182.239990234375,2.239990234375,0,0,NaN,NaN,0.000116146566423273,0.0139882274201861,NaN,0.999993741512668,0.000104356659655708,-0.00349065172486007,0,178.716380023193,178.716380023193,,,146.950000047684,180,0.224088175724281,0.326605613460525
2018-07-19T08:06:22Z,1531987582,107,40.0259601,44.6679733,182.24,0,-0.2,342.2,457440.34,-27979.96,337.2,Air+FixedWing,Red,Allies,J-11A,Red J-11A #001,xu,=36=Falcon,0,0,0,182.239990234375,2.239990234375,0,0,NaN,NaN,0.000116145732659947,0.0139882274201861,NaN,0.999993741512668,0.000106383787088677,-0.00349065172486007,0,178.716380023193,178.716380023193,,,147.950000047684,180,0.224088175724281,0.326605613460525
2018-07-19T08:06:23Z,1531987583,107,40.0259601,44.6679733,182.24,0,-0.2,342.2,457440.34,-27979.96,337.2,Air+FixedWing,Red,Allies,J-11A,Red J-11A #001,xu,=36=Falcon,0,0,0,182.239990234375,2.239990234375,0,0,NaN,NaN,0.000116146566423273,0.0139882274201861,NaN,0.999993741512668,0.000108410921797558,-0.00349065172486007,0,178.716380023193,178.716380023193,,,148.950000047684,180,0.224088175724281,0.326605613460525
