ISOTime,UnixTime,Id,Longitude,Latitude,Altitude,Roll,Pitch,Yaw,U,V,Heading,Type,Color,Coalition,Name,Group,Country,Pilot,TAS,CAS,M,ASL,AGL,GS,VS,AOA,AOS,RRT,TRT,TRD,G,LatG,LonG,Ek,Ep,Em,FFW,FFV,RelativeTime,Elev,GroundDistance,AirDistance
2018-07-19T08:04:15Z,1531987455,109,40.0274022,44.6682891,182.27,0,0.1,342.2,457551.62,-27934.98,337.2,Air+FixedWing,Red,Allies,J-11A,Red J-11A #003,xu,=36=Evil,0.108968249253796,0,0.000320764568436477,182.269989013672,2.26998901367188,NaN,NaN,NaN,NaN,0.199987938897973,NaN,NaN,NaN,NaN,NaN,NaN,178.745798776093,NaN,,,0.710000038146973,180,NaN,NaN
2018-07-19T08:04:16Z,1531987456,109,40.027402,44.6682894,182.3,0,-0.3,342.3,457551.62,-27934.95,337.3,Air+FixedWing,Red,Allies,J-11A,Red J-11A #003,xu,=36=Evil,0.041942214617134,0,0.000123463311826256,182.300003051758,2.30000305175781,0.029296875,0.0300140380859375,NaN,NaN,0,0.133439311401063,NaN,0.991903079811864,0.00161402432312855,-0.00905214340042406,8.79574683494866e-05,178.775232492752,178.77532045022,,,1.71000003814697,180,0.0389295528093982,0.0491572898449716
2018-07-19T08:04:17Z,1531987457,109,40.027402,44.6682892,182.25,0,-0.4,342.3,457551.62,-27934.96,337.3,Air+FixedWing,Red,Allies,J-11A,Red J-11A #003,xu,=36=Evil,0.0504372780913455,0,0.000148469745703392,182.250946044922,2.25094604492188,0.01171875,-0.0490570068359375,NaN,NaN,0,0.0850870949256471,NaN,1.00489326837318,-0.000768583011013596,-0.00534532970869746,0.000127195951063186,178.727124003143,178.727251199094,,,2.71000003814697,180,0.0596340880154862,0.102404751922606
2018-07-19T08:04:18Z,1531987458,109,40.0274022,44.6682893,182.25,0,-0.4,342.3,457551.62,-27934.95,337.3,Air+FixedWing,Red,Allies,J-11A,Red J-11A #003,xu,=36=Evil,0.00786957160487186,0,2.31652723280461e-05,182.25,2.25,0.0078125,-0.000946044921875,NaN,NaN,0,0.0197823405926261,NaN,1.00085217781874,0.000614866408810877,-0.0084573021936436,3.09650786221027e-06,178.72619625,178.726199346508,,,3.71000003814697,180,0.07898946232038,0.121783784859785
2018-07-19T08:04:19Z,1531987459,109,40.0274021,44.6682892,182.26,0,-0.3,342.3,457551.62,-27934.96,337.3,Air+FixedWing,Red,Allies,J-11A,Red J-11A #003,xu,=36=Evil,0.0110054697070998,0,3.23962647535509e-05,182.257751464844,2.25775146484375,0.0078125,0.00775146484375,NaN,NaN,0,0,NaN,0.998440302055189,-0.000307433204405438,-0.00449291737598059,6.05601817369461e-06,178.733797840271,178.733803896289,,,4.71000003814697,180,0.0926495445675844,0.137490271151831
2018-07-19T08:04:20Z,1531987460,109,40.0274021,44.6682892,182.25,0,-0.3,342.3,457551.62,-27934.96,337.3,Air+FixedWing,Red,Allies,J-11A,Red J-11A #003,xu,=36=Evil,0.0074462890625,0,2.19192763243438e-05,182.250305175781,2.25030517578125,0,-0.0074462890625,NaN,NaN,0,0,NaN,1.00071435237724,0,-0.00523977721311626,2.77236104011536e-06,178.726495525208,178.726498297569,,,5.71000003814697,180,0.0926495445675844,0.144936559904142
2018-07-19T08:04:21Z,1531987461,109,40.0274021,44.6682892,182.25,-0,-0.3,342.3,457551.62,-27934.96,337.3,Air+FixedWing,Red,Allies,J-11A,Red J-11A #003,xu,=36=Evil,0.00030517578125,0,8.98330993799452e-07,182.25,2.25,0,-0.00030517578125,NaN,NaN,0.00311456626152581,0,NaN,1.00001729055469,-5.23249274645458e-05,-0.00523612737170735,4.65661287307739e-09,178.72619625,178.726196254657,,,6.71000003814697,180,0.0926495445675844,0.145241736044624
2018-07-19T08:04:22Z,1531987462,109,40.0274021,44.6682892,182.25,-0,-0.3,342.3,457551.62,-27934.96,337.3,Air+FixedWing,Red,Allies,J-11A,Red J-11A #003,xu,=36=Evil,0,0,0,182.25,2.25,0,0,NaN,NaN,0.00311456626152581,0,NaN,0.999986171723233,-0.000106826729049806,-0.00523596443235874,0,178.72619625,178.72619625,,,7.71000003814697,180,0.0926495445675844,0.145241736044624
2018-07-19T08:04:23Z,1531987463,109,40.0274021,44.6682892,182.25,-0,-0.3,342.3,457551.62,-27934.96,337.3,Air+FixedWing,Red,Allies,J-11A,Red J-11A #003,xu,=36=Evil,0,0,0,182.25,2.25,0,0,NaN,NaN,0.00311456626152581,0,NaN,0.999986171723233,-0.000161330162535456,-0.00523596443235874,0,178.72619625,178.72619625,,,8.71000003814697,180,0.0926495445675844,0.145241736044624
2018-07-19T08:04:24Z,1531987464,109,40.0274021,44.6682892,182.25,-0,-0.3,342.3,457551.62,-27934.96,337.3,Air+FixedWing,Red,Allies,J-11A,Red J-11A #003,xu,=36=Evil,0,0,0,182.25,2.25,0,0,NaN,NaN,0.00311456626152581,0,NaN,0.999986171723233,-0.000215833610572821,-0.00523596443235874,0,178.72619625,178.72619625,,,9.71000003814697,180,0.0926495445675844,0.145241736044624
2018-07-19T08:04:25Z,1531987465,109,40.0274021,44.6682892,182.25,-0,-0.3,342.3,457551.62,-27934.96,337.3,Air+FixedWing,Red,Allies,J-11A,Red J-11A #003,xu,=36=Evil,0,0,0,182.25,2.25,0,0,NaN,NaN,0.00311456626152581,0,NaN,0.999986171723233,-0.000270337044058471,-0.00523596443235874,0,178.72619625,178.72619625,,,10.710000038147,180,0.0926495445675844,0.145241736044624
2018-07-19T08:04:26Z,1531987466,109,40.0274021,44.6682892,182.25,-0,-0.3,342.3,457551.62,-27934.96,337.3,Air+FixedWing,Red,Allies,J-11A,Red J-11A #003,xu,=36=Evil,0,0,0,182.25,2.25,0,0,NaN,NaN,0.00311456626152581,0,NaN,0.999986171723233,-0.000324840462992406,-0.00523596443235874,0,178.72619625,178.72619625,,,11.710000038147,180,0.0926495445675844,0.145241736044624
2018-07-19T08:04:27Z,1531987467,109,40.0274021,44.6682892,182.25,-0,-0.3,342.3,457551.62,-27934.96,337.3,Air+FixedWing,Red,Allies,J-11A,Red J-11A #003,xu,=36=Evil,0,0,0,182.25,2.25,0,0,NaN,NaN,0.00311456626152581,0,NaN,0.999986112119409,-0.000379343911029771,-0.00523596443235874,0,178.72619625,178.72619625,,,12.710000038147,180,0.0926495445675844,0.145241736044624
2018-07-19T08:04:28Z,1531987468,109,40.0274021,44.6682892,182.25,-0,-0.3,342.3,457551.62,-27934.96,337.3,Air+FixedWing,Red,Allies,J-11A,Red J-11A #003,xu,=36=Evil,0,0,0,182.25,2.25,0,0,NaN,NaN,0.00311456626152581,0,NaN,0.999986112119409,-0.000433847329963707,-0.00523596443235874,0,178.72619625,178.72619625,,,13.710000038147,180,0.0926495445675844,0.145241736044624
2018-07-19T08:04:29Z,1531987469,109,40.0274021,44.6682892,182.25,-0,-0.3,342.3,457551.62,-27934.96,337.3,Air+FixedWing,Red,Allies,J-11A,Red J-11A #003,xu,=36=Evil,0,0,0,182.25,2.25,0,0,NaN,NaN,0.00311456626152581,0,NaN,0.999986112119409,-0.000488350778001072,-0.00523596443235874,0,178.72619625,178.72619625,,,14.710000038147,180,0.0926495445675844,0.145241736044624
2018-07-19T08:04:30Z,1531987470,109,40.0274021,44.6682892,182.25,-0,-0.3,342.3,457551.62,-27934.96,337.3,Air+FixedWing,Red,Allies,J-11A,Red J-11A #003,xu,=36=Evil,0,0,0,182.25,2.25,0,0,NaN,NaN,0.00311456626152581,0,NaN,0.999986112119409,-0.000542854226038437,-0.00523596443235874,0,178.72619625,178.72619625,,,15.710000038147,180,0.0926495445675844,0.145241736044624
2018-07-19T08:04:31Z,1531987471,109,40.0274021,44.6682892,182.25,-0,-0.3,342.3,457551.62,-27934.96,337.3,Air+FixedWing,Red,Allies,J-11A,Red J-11A #003,xu,=36=Evil,0,0,0,182.25,2.25,0,0,NaN,NaN,0.00311456626152581,0,NaN,0.99998599291176,-0.000597357615868942,-0.00523596443235874,0,178.72619625,178.72619625,,,16.710000038147,180,0.0926495445675844,0.145241736044624
2018-07-19T08:04:32Z,1531987472,109,40.0274021,44.6682892,182.25,-0,-0.3,342.3,457551.62,-27934.96,337.3,Air+FixedWing,Red,Allies,J-11A,Red J-11A #003,xu,=36=Evil,0,0,0,182.25,2.25,0,0,NaN,NaN,0.00311456626152581,0,NaN,0.99998599291176,-0.000651861005699448,-0.00523596443235874,0,178.72619625,178.72619625,,,17.710000038147,180,0.0926495445675844,0.145241736044624
2018-07-19T08:04:33Z,1531987473,109,40.0274021,44.6682892,182.25,-0,-0.3,342.3,457551.62,-27934.96,337.3,Air+FixedWing,Red,Allies,J-11A,Red J-11A #003,xu,=36=Evil,0,0,0,182.25,2.25,0,0,NaN,NaN,0.00311456626152581,0,NaN,0.99998599291176,-0.000706364453736813,-0.00523596443235874,0,178.72619625,178.72619625,,,18.710000038147,180,0.0926495445675844,0.145241736044624
2018-07-19T08:04:34Z,1531987474,109,40.0274021,44.6682892,182.25,-0,-0.3,342.3,457551.62,-27934.96,337.3,Air+FixedWing,Red,Allies,J-11A,Red J-11A #003,xu,=36=Evil,0,0,0,182.25,2.25,0,0,NaN,NaN,0.00311456626152581,0,NaN,0.999985933307936,-0.000760867901774178,-0.00523596443235874,0,178.72619625,178.72619625,,,19.710000038147,180,0.0926495445675844,0.145241736044624
2018-07-19T08:04:35Z,1531987475,109,40.0274021,44.6682892,182.25,-0,-0.3,342.3,457551.62,-27934.96,337.3,Air+FixedWing,Red,Allies,J-11A,Red J-11A #003,xu,=36=Evil,0,0,0,182.25,2.25,0,0,NaN,NaN,0.00311456626152581,0,NaN,0.999985873704112,-0.000815371291604684,-0.00523596443235874,0,178.72619625,178.72619625,,,20.710000038147,180,0.0926495445675844,0.145241736044624
2018-07-19T08:04:36Z,1531987476,109,40.0274021,44.6682892,182.25,-0,-0.3,342.3,457551.62,-27934.96,337.3,Air+FixedWing,Red,Allies,J-11A,Red J-11A #003,xu,=36=Evil,0,0,0,182.25,2.25,0,0,NaN,NaN,0.00311456626152581,0,NaN,0.999985814100288,-0.000869874681435189,-0.00523596443235874,0,178.72619625,178.72619625,,,21.710000038147,180,0.0926495445675844,0.145241736044624
2018-07-19T08:04:37Z,1531987477,109,40.0274021,44.6682892,182.25,-0.1,-0.3,342.3,457551.62,-27934.96,337.3,Air+FixedWing,Red,Allies,J-11A,Red J-11A #003,xu,=36=Evil,0,0,0,182.25,2.25,0,0,NaN,NaN,0.00311456626152581,0,NaN,0.999985754496464,-0.000924378187679414,-0.00523596443235874,0,178.72619625,178.72619625,,,22.710000038147,180,0.0926495445675844,0.145241736044624
2018-07-19T08:04:38Z,1531987478,109,40.0274021,44.6682892,182.25,-0.1,-0.3,342.3,457551.62,-27934.96,337.3,Air+FixedWing,Red,Allies,J-11A,Red J-11A #003,xu,=36=Evil,0,0,0,182.25,2.25,0,0,NaN,NaN,0.00311456626152581,0,NaN,0.99998569489264,-0.00097888151930306,-0.00523596443235874,0,178.72619625,178.72619625,,,23.710000038147,180,0.0926495445675844,0.145241736044624
2018-07-19T08:04:39Z,1531987479,109,40.0274021,44.6682892,182.25,-0.1,-0.3,342.3,457551.62,-27934.96,337.3,Air+FixedWing,Red,Allies,J-11A,Red J-11A #003,xu,=36=Evil,0,0,0,182.25,2.25,0,0,NaN,NaN,0.00311456626152581,0,NaN,0.99998569489264,-0.00103338490913357,-0.00523596443235874,0,178.72619625,178.72619625,,,24.710000038147,180,0.0926495445675844,0.145241736044624
2018-07-19T08:04:40Z,1531987480,109,40.0274021,44.6682892,182.25,-0.1,-0.3,342.3,457551.62,-27934.96,337.3,Air+FixedWing,Red,Allies,J-11A,Red J-11A #003,xu,=36=Evil,0,0,0,182.25,2.25,0,0,NaN,NaN,0.00311456626152581,0,NaN,0.999985575684992,-0.00108788829896407,-0.00523596443235874,0,178.72619625,178.72619625,,,25.710000038147,180,0.0926495445675844,0.145241736044624
2018-07-19T08:04:41Z,1531987481,109,40.0274021,44.6682892,182.25,-0.1,-0.3,342.3,457551.62,-27934.96,337.3,Air+FixedWing,Red,Allies,J-11A,Red J-11A #003,xu,=36=Evil,0,0,0,182.25,2.25,0,0,NaN,NaN,0.00311456626152581,0,NaN,0.999985516081168,-0.0011423918052083,-0.00523596443235874,0,178.72619625,178.72619625,,,26.710000038147,180,0.0926495445675844,0.145241736044624
2018-07-19T08:04:42Z,1531987482,109,40.0274021,44.6682892,182.25,-0.1,-0.3,342.3,457551.62,-27934.96,337.3,Air+FixedWing,Red,Allies,J-11A,Red J-11A #003,xu,=36=Evil,0,0,0,182.25,2.25,0,0,NaN,NaN,0.00311456626152581,0,NaN,0.99998539687352,-0.0011968951950388,-0.00523596443235874,0,178.72619625,178.72619625,,,27.710000038147,180,0.0926495445675844,0.145241736044624
2018-07-19T08:04:43Z,1531987483,109,40.0274021,44.6682892,182.25,-0.1,-0.3,342.3,457551.62,-27934.96,337.3,Air+FixedWing,Red,Allies,J-11A,Red J-11A #003,xu,=36=Evil,0,0,0,182.25,2.25,0,0,NaN,NaN,0.00311456626152581,0,NaN,0.99998539687352,-0.00125139858486931,-0.00523596443235874,0,178.72619625,178.72619625,,,28.710000038147,180,0.0926495445675844,0.145241736044624
2018-07-19T08:04:44Z,1531987484,109,40.0274021,44.6682892,182.25,-0.1,-0.3,342.3,457551.62,-27934.96,337.3,Air+FixedWing,Red,Allies,J-11A,Red J-11A #003,xu,=36=Evil,0,0,0,182.25,2.25,0,0,NaN,NaN,0.00311456626152581,0,NaN,0.999985337269695,-0.00130590197469981,-0.00523596443235874,0,178.72619625,178.72619625,,,29.710000038147,180,0.0926495445675844,0.145241736044624
2018-07-19T08:04:45Z,1531987485,109,40.0274021,44.6682892,182.25,-0.1,-0.3,342.3,457551.62,-27934.96,337.3,Air+FixedWing,Red,Allies,J-11A,Red J-11A #003,xu,=36=Evil,0,0,0,182.25,2.25,0,0,NaN,NaN,0.00311456626152581,0,NaN,0.999985277665871,-0.0013604052481166,-0.00523596443235874,0,178.72619625,178.72619625,,,30.710000038147,180,0.0926495445675844,0.145241736044624
2018-07-19T08:04:46Z,1531987486,109,40.0274021,44.6682892,182.25,-0.1,-0.3,342.3,457551.62,-27934.96,337.3,Air+FixedWing,Red,Allies,J-11A,Red J-11A #003,xu,=36=Evil,0,0,0,182.25,2.25,0,0,NaN,NaN,0.00311456626152581,0,NaN,0.999985158458223,-0.0014149086379471,-0.00523596443235874,0,178.72619625,178.72619625,,,31.710000038147,180,0.0926495445675844,0.145241736044624
2018-07-19T08:04:47Z,1531987487,109,40.0274021,44.6682892,182.25,-0.1,-0.3,342.3,457551.62,-27934.96,337.3,Air+FixedWing,Red,Allies,J-11A,Red J-11A #003,xu,=36=Evil,0,0,0,182.25,2.25,0,0,NaN,NaN,0.00311456626152581,0,NaN,0.999985098854399,-0.00146941202777761,-0.00523596443235874,0,178.72619625,178.72619625,,,32.710000038147,180,0.0926495445675844,0.145241736044624
2018-07-19T08:04:48Z,1531987488,109,40.0274021,44.6682892,182.25,-0.1,-0.3,342.3,457551.62,-27934.96,337.3,Air+FixedWing,Red,Allies,J-11A,Red J-11A #003,xu,=36=Evil,0,0,0,182.25,2.25,0,0,NaN,NaN,0.00311456626152581,0,NaN,0.999985039250575,-0.00152391541760812,-0.00523596443235874,0,178.72619625,178.72619625,,,33.710000038147,180,0.0926495445675844,0.145241736044624
2018-07-19T08:04:49Z,1531987489,109,40.0274021,44.6682892,182.25,-0.1,-0.3,342.3,457551.62,-27934.96,337.3,Air+FixedWing,Red,Allies,J-11A,Red J-11A #003,xu,=36=Evil,0,0,0,182.25,2.25,0,0,NaN,NaN,0.00311456626152581,0,NaN,0.999984920042927,-0.00157841880743862,-0.00523596443235874,0,178.72619625,178.72619625,,,34.710000038147,180,0.0926495445675844,0.145241736044624
2018-07-19T08:04:50Z,1531987490,109,40.0274021,44.6682892,182.25,-0.1,-0.3,342.3,457551.62,-27934.96,337.3,Air+FixedWing,Red,Allies,J-11A,Red J-11A #003,xu,=36=Evil,0,0,0,182.25,2.25,0,0,NaN,NaN,0.00311456626152581,0,NaN,0.999984860439103,-0.00163292219726913,-0.00523596443235874,0,178.72619625,178.72619625,,,35.710000038147,180,0.0926495445675844,0.145241736044624
2018-07-19T08:04:51Z,1531987491,109,40.0274021,44.6682892,182.25,-0.1,-0.3,342.3,457551.62,-27934.96,337.3,Air+FixedWing,Red,Allies,J-11A,Red J-11A #003,xu,=36=Evil,0,0,0,182.25,2.25,0,0,NaN,NaN,0.00311456626152581,0,NaN,0.999984741231454,-0.00168742558709963,-0.00523596443235874,0,178.72619625,178.72619625,,,36.710000038147,180,0.0926495445675844,0.145241736044624
2018-07-19T08:04:52Z,1531987492,109,40.0274021,44.6682892,182.25,-0.1,-0.3,342.3,457551.62,-27934.96,337.3,Air+FixedWing,Red,Allies,J-11A,Red J-11A #003,xu,=36=Evil,0,0,0,182.25,2.25,0,0,NaN,NaN,0.00311456626152581,0,NaN,0.999794857028864,-0.00174159807810916,-0.00523497050233221,0,178.72619625,178.72619625,,,37.710000038147,180,0.0926495445675844,0.145241736044624
2018-07-19T08:04:53Z,1531987493,109,40.0274021,44.6682892,182.25,0,-0.3,342.3,457551.62,-27934.96,337.3,Air+FixedWing,Red,Allies,J-11A,Red J-11A #003,xu,=36=Evil,0.001861572265625,0,5.47981894683003e-06,182.248138427734,2.24813842773438,0,-0.001861572265625,NaN,NaN,0.0166656482346179,0,NaN,0.999762116137384,0,-0.00523479126904874,1.7327256500721e-07,178.724370671234,178.724370844507,,,38.710000038147,180,0.0926495445675844,0.147103308570211
2018-07-19T08:04:54Z,1531987494,109,40.0274021,44.6682892,182.24,0,-0.3,342.3,457551.62,-27934.96,337.3,Air+FixedWing,Red,Allies,J-11A,Red J-11A #003,xu,=36=Evil,0.004058837890625,0,1.19478014177011e-05,182.244079589844,2.24407958984375,0,-0.004058837890625,NaN,NaN,0,0,NaN,0.999987727664801,0,-0.00523597257932617,8.2370825111866e-07,178.720390310974,178.720391134682,,,39.710000038147,180,0.0926495445675844,0.151162145706397
2018-07-19T08:04:55Z,1531987495,109,40.0274021,44.6682892,182.24,0,-0.3,342.3,457551.62,-27934.96,337.3,Air+FixedWing,Red,Allies,J-11A,Red J-11A #003,xu,=36=Evil,0.0040435791015625,0,1.1902884326795e-05,182.240036010742,2.24003601074219,0,-0.0040435791015625,NaN,NaN,0,0.0312786278555019,NaN,1.00141452608302,0,-0.00524344334846003,8.1752659752965e-07,178.716424914474,178.716425732001,,,40.710000038147,180,0.0926495445675844,0.155205725177381
2018-07-19T08:04:56Z,1531987496,109,40.0274021,44.6682892,182.25,0,-0.3,342.3,457551.62,-27934.96,337.3,Air+FixedWing,Red,Allies,J-11A,Red J-11A #003,xu,=36=Evil,0.0099639892578125,0,2.93305069475521e-05,182.25,2.25,0,0.0099639892578125,NaN,NaN,0.00370827870422619,0,NaN,0.998970201300148,3.23275113374966e-05,-0.00523064446262656,4.96405409649014e-06,178.72619625,178.726201214054,,,41.710000038147,180,0.0926495445675844,0.165169714310137
2018-07-19T08:04:57Z,1531987497,109,40.0274021,44.6682892,182.25,0,-0.3,342.3,457551.62,-27934.96,337.3,Air+FixedWing,Red,Allies,J-11A,Red J-11A #003,xu,=36=Evil,0,0,0,182.25,2.25,0,0,NaN,NaN,0.0123609398530105,0.0312786278555019,NaN,0.999986231327057,0.000248096523192244,-0.00523596443235874,0,178.72619625,178.72619625,,,42.710000038147,180,0.0926495445675844,0.165169714310137
2018-07-19T08:04:58Z,1531987498,109,40.0274021,44.6682892,182.25,0,-0.3,342.3,457551.62,-27934.96,337.3,Air+FixedWing,Red,Allies,J-11A,Red J-11A #003,xu,=36=Evil,0,0,0,182.25,2.25,0,0,NaN,NaN,0.0123609381854839,0,NaN,0.999986112119409,0.000463832622723736,-0.00523596443235874,0,178.72619625,178.72619625,,,43.710000038147,180,0.0926495445675844,0.165169714310137
2018-07-19T08:04:59Z,1531987499,109,40.0274021,44.6682892,182.25,0,-0.3,342.3,457551.62,-27934.96,337.3,Air+FixedWing,Red,Allies,J-11A,Red J-11A #003,xu,=36=Evil,0,0,0,182.25,2.25,0,0,NaN,NaN,0.0123609415205372,0,NaN,0.99998599291176,0.000679568751358658,-0.00523596443235874,0,178.72619625,178.72619625,,,44.710000038147,180,0.0926495445675844,0.165169714310137
2018-07-19T08:05:00Z,1531987500,109,40.0274021,44.6682892,182.25,0.1,-0.3,342.3,457551.62,-27934.96,337.3,Air+FixedWing,Red,Allies,J-11A,Red J-11A #003,xu,=36=Evil,0,0,0,182.25,2.25,0,0,NaN,NaN,0.0123609348504306,0,NaN,0.999985754496464,0.00089530479268329,-0.00523596443235874,0,178.72619625,178.72619625,,,45.710000038147,180,0.0926495445675844,0.165169714310137
2018-07-19T08:05:01Z,1531987501,109,40.0274021,44.6682892,182.25,0.1,-0.3,342.3,457551.62,-27934.96,337.3,Air+FixedWing,Red,Allies,J-11A,Red J-11A #003,xu,=36=Evil,0,0,0,182.25,2.25,0,0,NaN,NaN,0.0123609481906438,0,NaN,0.999985575684992,0.00111104089221478,-0.00523596443235874,0,178.72619625,178.72619625,,,46.710000038147,180,0.0926495445675844,0.165169714310137
2018-07-19T08:05:02Z,1531987502,109,40.0274021,44.6682892,182.25,0.1,-0.3,342.3,457551.62,-27934.96,337.3,Air+FixedWing,Red,Allies,J-11A,Red J-11A #003,xu,=36=Evil,0,0,0,182.25,2.25,0,0,NaN,NaN,0.0123609348504306,0,NaN,0.999985337269695,0.0013267768171257,-0.00523596443235874,0,178.72619625,178.72619625,,,47.710000038147,180,0.0926495445675844,0.165169714310137
2018-07-19T08:05:03Z,1531987503,109,40.0274021,44.6682892,182.25,0.1,-0.3,342.3,457551.62,-27934.96,337.3,Air+FixedWing,Red,Allies,J-11A,Red J-11A #003,xu,=36=Evil,0,0,0,182.25,2.25,0,0,NaN,NaN,0.0123609348504306,0,NaN,0.999984979646751,0.00154251274203661,-0.00523596443235874,0,178.72619625,178.72619625,,,48.710000038147,180,0.0926495445675844,0.165169714310137
2018-07-19T08:05:04Z,1531987504,109,40.0274021,44.6682892,182.25,0.1,-0.3,342.3,457551.62,-27934.96,337.3,Air+FixedWing,Red,Allies,J-11A,Red J-11A #003,xu,=36=Evil,0,0,0,182.25,2.25,0,0,NaN,NaN,0.0108776365422007,0.0139882274201861,NaN,0.999720171937711,0.00174484273571064,-0.00523457944789554,0,178.72619625,178.72619625,,,49.710000038147,180,0.0949115176741429,0.16743175156883
2018-07-19T08:05:05Z,1531987505,109,40.0274022,44.6682892,182.25,0.1,-0.3,342.3,457551.62,-27934.96,337.3,Air+FixedWing,Red,Allies,J-11A,Red J-11A #003,xu,=36=Evil,0.002593994140625,0,7.63581322332883e-06,182.247406005859,2.24740600585938,0,-0.002593994140625,NaN,NaN,0,0,NaN,1.00051370100747,0.00174622770671135,-0.00523873440128514,3.36440280079842e-07,178.723652410736,178.723652747176,,,50.710000038147,180,0.10056646058102,0.173653408434388
2018-07-19T08:05:06Z,1531987506,109,40.0274022,44.6682892,182.25,0,-0.3,342.3,457551.62,-27934.96,337.3,Air+FixedWing,Red,Allies,J-11A,Red J-11A #003,xu,=36=Evil,0.002593994140625,0,7.63581344729534e-06,182.25,2.25,0,0.002593994140625,NaN,NaN,0.0605974383163531,0.0139882274201861,NaN,0.99971622830164,0.00123032635432214,-0.00615324529391713,3.36440280079842e-07,178.72619625,178.72619658644,,,51.710000038147,180,0.10056646058102,0.176247402265069
2018-07-19T08:05:07Z,1531987507,109,40.0274021,44.6682891,182.25,0,-0.2,342.3,457551.62,-27934.97,337.3,Air+FixedWing,Red,Allies,J-11A,Red J-11A #003,xu,=36=Evil,0.009765625,0,2.87465918015824e-05,182.25,2.25,0.009765625,0,NaN,NaN,0.0363912478978279,0.0484566469995765,NaN,0.99999684592927,-0.000384291505506798,-0.00265518937365421,4.76837158203125e-06,178.72619625,178.726201018372,,,52.710000038147,180,0.113576063388144,0.189257377286619
2018-07-19T08:05:08Z,1531987508,109,40.0274021,44.6682892,182.25,0,-0.2,342.3,457551.62,-27934.97,337.3,Air+FixedWing,Red,Allies,J-11A,Red J-11A #003,xu,=36=Evil,0,0,0,182.25,2.25,0,0,NaN,NaN,0.0727229184034034,0.0484566469995765,NaN,0.999996948298834,-0.000384291505506798,-0.00257197900846159,0,178.72619625,178.72619625,,,53.710000038147,180,0.124184620861071,0.199866238764664
2018-07-19T08:05:09Z,1531987509,109,40.0274021,44.6682892,182.25,0,-0.2,342.3,457551.62,-27934.96,337.3,Air+FixedWing,Red,Allies,J-11A,Red J-11A #003,xu,=36=Evil,0.009765625,0,2.87465918015824e-05,182.25,2.25,0.009765625,0,NaN,NaN,0.199987938897973,0,NaN,0.999990534726502,0.000384291505506798,-0.00440932444125856,4.76837158203125e-06,178.72619625,178.726201018372,,,54.710000038147,180,0.12606650959731,0.201748181398393
2018-07-19T08:05:10Z,1531987510,109,40.0274022,44.6682892,182.25,0,-0.2,342.3,457551.62,-27934.96,337.3,Air+FixedWing,Red,Allies,J-11A,Red J-11A #003,xu,=36=Evil,0,0,0,182.25,2.25,0,0,NaN,NaN,0.04242421258544,0,NaN,0.999993681908393,0.000370218801133693,-0.00349065172486007,0,178.72619625,178.72619625,,,55.710000038147,180,0.132101536874506,0.207783380922193
2018-07-19T08:05:11Z,1531987511,109,40.0274021,44.6682892,182.25,0,-0.2,342.3,457551.62,-27934.96,337.3,Air+FixedWing,Red,Allies,J-11A,Red J-11A #003,xu,=36=Evil,0,0,0,182.25,2.25,0,0,NaN,NaN,0,0,NaN,0.999993741512668,0,-0.00349065172486007,0,178.72619625,178.72619625,,,56.710000038147,180,0.139666590898795,0.215348651135421
2018-07-19T08:05:12Z,1531987512,109,40.0274022,44.6682892,182.25,0,-0.2,342.3,457551.62,-27934.96,337.3,Air+FixedWing,Red,Allies,J-11A,Red J-11A #003,xu,=36=Evil,0,0,0,182.25,2.25,0,0,NaN,NaN,0,0,NaN,0.999993741512668,0,-0.00349065172486007,0,178.72619625,178.72619625,,,57.710000038147,180,0.146013658031763,0.221695899400424
2018-07-19T08:05:13Z,1531987513,109,40.027402,44.6682892,182.25,0,-0.2,342.3,457551.62,-27934.96,337.3,Air+FixedWing,Red,Allies,J-11A,Red J-11A #003,xu,=36=Evil,0,0,0,182.25,2.25,0,0,NaN,NaN,0,0,NaN,0.999993741512668,0,-0.00349065172486007,0,178.72619625,178.72619625,,,58.710000038147,180,0.157381536687853,0.233064102639415
2018-07-19T08:05:14Z,1531987514,109,40.0274021,44.6682892,182.25,0,-0.2,342.3,457551.62,-27934.96,337.3,Air+FixedWing,Red,Allies,J-11A,Red J-11A #003,xu,=36=Evil,0,0,0,182.25,2.25,0,0,NaN,NaN,0.0761858776734527,0,NaN,0.999993741512668,0,-0.00349065172486007,0,178.72619625,178.72619625,,,59.710000038147,180,0.162809642990693,0.238492363959899
2018-07-19T08:05:15Z,1531987515,109,40.0274022,44.6682892,182.25,0,-0.2,342.3,457551.62,-27934.96,337.3,Air+FixedWing,Red,Allies,J-11A,Red J-11A #003,xu,=36=Evil,0,0,0,182.25,2.25,0,0,NaN,NaN,0,0,NaN,0.999993741512668,0,-0.00349065172486007,0,178.72619625,178.72619625,,,60.710000038147,180,0.166424671916613,0.242107496031253
2018-07-19T08:05:16Z,1531987516,109,40.0274022,44.6682892,182.25,0,-0.2,342.3,457551.62,-27934.96,337.3,Air+FixedWing,Red,Allies,J-11A,Red J-11A #003,xu,=36=Evil,0,0,0,182.25,2.25,0,0,NaN,NaN,0.0190475983339072,0,NaN,0.999993801116943,0.000166220622373446,-0.00349065172486007,0,178.72619625,178.72619625,,,61.710000038147,180,0.169967402235264,0.245650327826633
2018-07-19T08:05:17Z,1531987517,109,40.0274021,44.6682892,182.25,0,-0.2,342.3,457551.62,-27934.96,337.3,Air+FixedWing,Red,Allies,J-11A,Red J-11A #003,xu,=36=Evil,0,0,0,182.25,2.25,0,0,NaN,NaN,0.199987938897973,0,NaN,0.999993741512668,0,-0.00349065172486007,0,178.72619625,178.72619625,,,62.710000038147,180,0.175209684718234,0.250892760378211
2018-07-19T08:05:18Z,1531987518,109,40.0274022,44.6682892,182.25,0,-0.2,342.3,457551.62,-27934.96,337.3,Air+FixedWing,Red,Allies,J-11A,Red J-11A #003,xu,=36=Evil,0,0,0,182.25,2.25,0,0,NaN,NaN,0,0,NaN,0.999993741512668,0,-0.00349065172486007,0,178.72619625,178.72619625,,,63.710000038147,180,0.177247501062013,0.25293063521194
2018-07-19T08:05:19Z,1531987519,109,40.0274021,44.6682892,182.25,-0.1,-0.2,342.3,457551.62,-27934.96,337.3,Air+FixedWing,Red,Allies,J-11A,Red J-11A #003,xu,=36=Evil,0,0,0,182.25,2.25,0,0,NaN,NaN,0.142832915923307,0,NaN,0.999992966657089,-0.00124657999511074,-0.00349065172486007,0,178.72619625,178.72619625,,,64.710000038147,180,0.181959950936256,0.257643219651618
2018-07-19T08:05:20Z,1531987520,109,40.0274021,44.6682892,182.25,-0.1,-0.2,342.3,457551.62,-27934.96,337.3,Air+FixedWing,Red,Allies,J-11A,Red J-11A #003,xu,=36=Evil,0,0,0,182.25,2.25,0,0,NaN,NaN,0.10726129072588,0,NaN,0.999993145469915,-0.00110223974422252,-0.00349065172486007,0,178.72619625,178.72619625,,,65.710000038147,180,0.181959950936256,0.257643219651618
2018-07-19T08:05:21Z,1531987521,109,40.0274021,44.6682892,182.25,-0,-0.2,342.3,457551.62,-27934.96,337.3,Air+FixedWing,Red,Allies,J-11A,Red J-11A #003,xu,=36=Evil,0,0,0,182.25,2.25,0,0,NaN,NaN,0.0775439714104812,0,NaN,0.999993741512668,-0.000108651383430147,-0.00349065172486007,0,178.72619625,178.72619625,,,66.710000038147,180,0.181959950936256,0.257643219651618
2018-07-19T08:05:22Z,1531987522,109,40.0274021,44.6682892,182.25,-0,-0.2,342.3,457551.62,-27934.96,337.3,Air+FixedWing,Red,Allies,J-11A,Red J-11A #003,xu,=36=Evil,0,0,0,182.25,2.25,0,0,NaN,NaN,0.0194523787561963,0,NaN,0.999993681908393,-0.000448186984843515,-0.00349065172486007,0,178.72619625,178.72619625,,,67.710000038147,180,0.181959950936256,0.257643219651618
2018-07-19T08:05:23Z,1531987523,109,40.0274021,44.6682892,182.25,-0,-0.2,342.3,457551.62,-27934.96,337.3,Air+FixedWing,Red,Allies,J-11A,Red J-11A #003,xu,=36=Evil,0,0,0,182.25,2.25,0,0,NaN,NaN,0.0194523787561963,0,NaN,0.999993503095567,-0.000787722593532797,-0.00349065172486007,0,178.72619625,178.72619625,,,68.710000038147,180,0.181959950936256,0.257643219651618
2018-07-19T08:05:24Z,1531987524,109,40.0274021,44.6682892,182.25,-0.1,-0.2,342.3,457551.62,-27934.96,337.3,Air+FixedWing,Red,Allies,J-11A,Red J-11A #003,xu,=36=Evil,0,0,0,182.25,2.25,0,0,NaN,NaN,0.0194523787561963,0,NaN,0.999993145469915,-0.00112725805670383,-0.00349065172486007,0,178.72619625,178.72619625,,,69.710000038147,180,0.181959950936256,0.257643219651618
2018-07-19T08:05:25Z,1531987525,109,40.0274021,44.6682892,182.25,-0.1,-0.2,342.3,457551.62,-27934.96,337.3,Air+FixedWing,Red,Allies,J-11A,Red J-11A #003,xu,=36=Evil,0,0,0,182.25,2.25,0,0,NaN,NaN,0.0194523787561963,0,NaN,0.999992668635713,-0.00146679334525296,-0.00349065172486007,0,178.72619625,178.72619625,,,70.710000038147,180,0.181959950936256,0.257643219651618
2018-07-19T08:05:26Z,1531987526,109,40.0274021,44.6682892,182.25,-0.1,-0.2,342.3,457551.62,-27934.96,337.3,Air+FixedWing,Red,Allies,J-11A,Red J-11A #003,xu,=36=Evil,0,0,0,182.25,2.25,0,0,NaN,NaN,0.0693626520947422,0,NaN,0.999990454201186,-0.000646967323789665,-0.00440932444125856,0,178.72619625,178.72619625,,,71.710000038147,180,0.181959950936256,0.257643219651618
2018-07-19T08:05:27Z,1531987527,109,40.0274021,44.6682892,182.25,0,-0.2,342.3,457551.62,-27934.97,337.3,Air+FixedWing,Red,Allies,J-11A,Red J-11A #003,xu,=36=Evil,0.009765625,0,2.87465918015824e-05,182.25,2.25,0.009765625,0,NaN,NaN,0,0,NaN,0.999996948298834,-0.000384291505506798,-0.00257197900846159,4.76837158203125e-06,178.72619625,178.726201018372,,,72.710000038147,180,0.181959950936256,0.257643219651618
2018-07-19T08:05:28Z,1531987528,109,40.0274022,44.6682892,182.25,0,-0.2,342.3,457551.62,-27934.97,337.3,Air+FixedWing,Red,Allies,J-11A,Red J-11A #003,xu,=36=Evil,0,0,0,182.25,2.25,0,0,NaN,NaN,0,0,NaN,0.999993741512668,0,-0.00349065172486007,0,178.72619625,178.72619625,,,73.710000038147,180,0.188132460533224,0.263815905788159
2018-07-19T08:05:29Z,1531987529,109,40.0274022,44.6682891,182.25,0,-0.2,342.3,457551.62,-27934.97,337.3,Air+FixedWing,Red,Allies,J-11A,Red J-11A #003,xu,=36=Evil,0,0,0,182.25,2.25,0,0,NaN,NaN,0.0731662803898592,0,NaN,0.999993741512668,0,-0.00349065172486007,0,178.72619625,178.72619625,,,74.710000038147,180,0.199373422254076,0.27505718864776
2018-07-19T08:05:30Z,1531987530,109,40.0274021,44.6682891,182.25,0,-0.2,342.3,457551.62,-27934.97,337.3,Air+FixedWing,Red,Allies,J-11A,Red J-11A #003,xu,=36=Evil,0,0,0,182.25,2.25,0,0,NaN,NaN,0,0,NaN,0.999993741512668,0,-0.00349065172486007,0,178.72619625,178.72619625,,,75.710000038147,180,0.205463356982012,0.281147297233924
2018-07-19T08:05:31Z,1531987531,109,40.0274022,44.6682891,182.25,0,-0.2,342.3,457551.62,-27934.97,337.3,Air+FixedWing,Red,Allies,J-11A,Red J-11A #003,xu,=36=Evil,0,0,0,182.25,2.25,0,0,NaN,NaN,0,0,NaN,0.999993741512668,0,-0.00349065172486007,0,178.72619625,178.72619625,,,76.710000038147,180,0.21046200213786,0.286146085484065
2018-07-19T08:05:32Z,1531987532,109,40.0274022,44.6682891,182.25,0,-0.2,342.3,457551.62,-27934.97,337.3,Air+FixedWing,Red,Allies,J-11A,Red J-11A #003,xu,=36=Evil,0,0,0,182.25,2.25,0,0,NaN,NaN,0,0,NaN,0.999993741512668,0,-0.00349065172486007,0,178.72619625,178.72619625,,,77.710000038147,180,0.211736033663331,0.287420153128253
2018-07-19T08:05:33Z,1531987533,109,40.0274022,44.6682891,182.25,0,-0.2,342.3,457551.62,-27934.97,337.3,Air+FixedWing,Red,Allies,J-11A,Red J-11A #003,xu,=36=Evil,0,0,0,182.25,2.25,0,0,NaN,NaN,0,0,NaN,0.999993741512668,0,-0.00349065172486007,0,178.72619625,178.72619625,,,78.710000038147,180,0.211748241515929,0.287432361692701
2018-07-19T08:05:34Z,1531987534,109,40.0274022,44.6682891,182.25,0,-0.2,342.3,457551.62,-27934.97,337.3,Air+FixedWing,Red,Allies,J-11A,Red J-11A #003,xu,=36=Evil,0,0,0,182.25,2.25,0,0,NaN,NaN,0,0,NaN,0.999993741512668,0,-0.00349065172486007,0,178.72619625,178.72619625,,,79.710000038147,180,0.211760448294486,0.287444569845497
2018-07-19T08:05:35Z,1531987535,109,40.0274022,44.6682891,182.25,0,-0.2,342.3,457551.62,-27934.97,337.3,Air+FixedWing,Red,Allies,J-11A,Red J-11A #003,xu,=36=Evil,0,0,0,182.25,2.25,0,0,NaN,NaN,0,0,NaN,0.999993741512668,0,-0.00349065172486007,0,178.72619625,178.72619625,,,80.710000038147,180,0.211772657771967,0.287456777948746
2018-07-19T08:05:36Z,1531987536,109,40.0274022,44.6682891,182.25,0,-0.2,342.3,457551.62,-27934.97,337.3,Air+FixedWing,Red,Allies,J-11A,Red J-11A #003,xu,=36=Evil,0,0,0,182.25,2.25,0,0,NaN,NaN,0,0,NaN,0.999993741512668,0,-0.00349065172486007,0,178.72619625,178.72619625,,,81.710000038147,180,0.211784865674077,0.287468986974412
2018-07-19T08:05:37Z,1531987537,109,40.0274022,44.6682891,182.25,0,-0.2,342.3,457551.62,-27934.97,337.3,Air+FixedWing,Red,Allies,J-11A,Red J-11A #003,xu,=36=Evil,0,0,0,182.25,2.25,0,0,NaN,NaN,0,0,NaN,0.999993741512668,0,-0.00349065172486007,0,178.72619625,178.72619625,,,82.710000038147,180,0.211797075160979,0.287481197374313
2018-07-19T08:05:38Z,1531987538,109,40.0274022,44.6682891,182.25,0,-0.2,342.3,457551.62,-27934.97,337.3,Air+FixedWing,Red,Allies,J-11A,Red J-11A #003,xu,=36=Evil,0,0,0,182.25,2.25,0,0,NaN,NaN,0,0,NaN,0.999993741512668,0,-0.00349065172486007,0,178.72619625,178.72619625,,,83.710000038147,180,0.211809283514891,0.287493404815198
2018-07-19T08:05:39Z,1531987539,109,40.0274022,44.6682891,182.25,0,-0.2,342.3,457551.62,-27934.97,337.3,Air+FixedWing,Red,Allies,J-11A,Red J-11A #003,xu,=36=Evil,0,0,0,182.25,2.25,0,0,NaN,NaN,0,0,NaN,0.999993741512668,0,-0.00349065172486007,0,178.72619625,178.72619625,,,84.710000038147,180,0.211821490955777,0.287505613840864
2018-07-19T08:05:40Z,1531987540,109,40.0274022,44.6682891,182.25,0,-0.2,342.3,457551.62,-27934.97,337.3,Air+FixedWing,Red,Allies,J-11A,Red J-11A #003,xu,=36=Evil,0,0,0,182.25,2.25,0,0,NaN,NaN,0,0,NaN,0.999993741512668,0,-0.00349065172486007,0,178.72619625,178.72619625,,,85.710000038147,180,0.211833699520225,0.287517822857162
2018-07-19T08:05:41Z,1531987541,109,40.0274022,44.6682891,182.25,0,-0.2,342.3,457551.62,-27934.97,337.3,Air+FixedWing,Red,Allies,J-11A,Red J-11A #003,xu,=36=Evil,0,0,0,182.25,2.25,0,0,NaN,NaN,0,0,NaN,0.999993741512668,0,-0.00349065172486007,0,178.72619625,178.72619625,,,86.710000038147,180,0.211845907623474,0.287530030759272
2018-07-19T08:05:42Z,1531987542,109,40.0274022,44.6682891,182.25,0,-0.2,342.3,457551.62,-27934.97,337.3,Air+FixedWing,Red,Allies,J-11A,Red J-11A #003,xu,=36=Evil,0,0,0,182.25,2.25,0,0,NaN,NaN,0,0,NaN,0.999993741512668,0,-0.00349065172486007,0,178.72619625,178.72619625,,,87.710000038147,180,0.211858115315037,0.287542238862521
2018-07-19T08:05:43Z,1531987543,109,40.0274022,44.6682891,182.25,0,-0.2,342.3,457551.62,-27934.97,337.3,Air+FixedWing,Red,Allies,J-11A,Red J-11A #003,xu,=36=Evil,0,0,0,182.25,2.25,0,0,NaN,NaN,0,0,NaN,0.999993741512668,0,-0.00349065172486007,0,178.72619625,178.72619625,,,88.710000038147,180,0.211870323628826,0.287554447888187
2018-07-19T08:05:44Z,1531987544,109,40.0274022,44.6682891,182.25,0,-0.2,342.3,457551.62,-27934.97,337.3,Air+FixedWing,Red,Allies,J-11A,Red J-11A #003,xu,=36=Evil,0,0,0,182.25,2.25,0,0,NaN,NaN,0,0,NaN,0.999993741512668,0,-0.00349065172486007,0,178.72619625,178.72619625,,,89.710000038147,180,0.211882533366417,0.287566657415226
2018-07-19T08:05:45Z,1531987545,109,40.0274022,44.6682891,182.25,0,-0.2,342.3,457551.62,-27934.97,337.3,Air+FixedWing,Red,Allies,J-11A,Red J-11A #003,xu,=36=Evil,0,0,0,182.25,2.25,0,0,NaN,NaN,0,0,NaN,0.999993741512668,0,-0.00349065172486007,0,178.72619625,178.72619625,,,90.710000038147,180,0.21189474105798,0.287578865729015
2018-07-19T08:05:46Z,1531987546,109,40.0274022,44.6682891,182.25,0,-0.2,342.3,457551.62,-27934.97,337.3,Air+FixedWing,Red,Allies,J-11A,Red J-11A #003,xu,=36=Evil,0,0,0,182.25,2.25,0,0,NaN,NaN,0,0,NaN,0.999993741512668,0,-0.00349065172486007,0,178.72619625,178.72619625,,,91.710000038147,180,0.211906949823627,0.287591074544136
2018-07-19T08:05:47Z,1531987547,109,40.0274022,44.6682891,182.25,0,-0.2,342.3,457551.62,-27934.97,337.3,Air+FixedWing,Red,Allies,J-11A,Red J-11A #003,xu,=36=Evil,0,0,0,182.25,2.25,0,0,NaN,NaN,0,0,NaN,0.999993741512668,0,-0.00349065172486007,0,178.72619625,178.72619625,,,92.710000038147,180,0.211919157725737,0.287603283108584
2018-07-19T08:05:48Z,1531987548,109,40.0274022,44.6682891,182.25,0,-0.2,342.3,457551.62,-27934.97,337.3,Air+FixedWing,Red,Allies,J-11A,Red J-11A #003,xu,=36=Evil,0,0,0,182.25,2.25,0,0,NaN,NaN,0,0,NaN,0.999993741512668,0,-0.00349065172486007,0,178.72619625,178.72619625,,,93.710000038147,180,0.211931365828986,0.287615491874232
2018-07-19T08:05:49Z,1531987549,109,40.0274022,44.6682891,182.25,0,-0.2,342.3,457551.62,-27934.97,337.3,Air+FixedWing,Red,Allies,J-11A,Red J-11A #003,xu,=36=Evil,0,0,0,182.25,2.25,0,0,NaN,NaN,0,0,NaN,0.999993741512668,0,-0.00349065172486007,0,178.72619625,178.72619625,,,94.710000038147,180,0.211943576027839,0.287627701410835
2018-07-19T08:05:50Z,1531987550,109,40.0274022,44.6682891,182.25,0,-0.2,342.3,457551.62,-27934.97,337.3,Air+FixedWing,Red,Allies,J-11A,Red J-11A #003,xu,=36=Evil,0,0,0,182.25,2.25,0,0,NaN,NaN,0,0,NaN,0.999993741512668,0,-0.00349065172486007,0,178.72619625,178.72619625,,,95.710000038147,180,0.211955783719402,0.287639910687181
2018-07-19T08:05:51Z,1531987551,109,40.0274022,44.6682891,182.25,0,-0.2,342.3,457551.62,-27934.97,337.3,Air+FixedWing,Red,Allies,J-11A,Red J-11A #003,xu,=36=Evil,0,0,0,182.25,2.25,0,0,NaN,NaN,0,0,NaN,0.999993741512668,0,-0.00349065172486007,0,178.72619625,178.72619625,,,96.710000038147,180,0.211967991361469,0.287652118329249
2018-07-19T08:05:52Z,1531987552,109,40.0274022,44.6682891,182.25,0,-0.2,342.3,457551.62,-27934.97,337.3,Air+FixedWing,Red,Allies,J-11A,Red J-11A #003,xu,=36=Evil,0,0,0,182.25,2.25,0,0,NaN,NaN,0,0,NaN,0.999993741512668,0,-0.00349065172486007,0,178.72619625,178.72619625,,,97.710000038147,180,0.211980200387135,0.287664327144369
2018-07-19T08:05:53Z,1531987553,109,40.0274022,44.6682891,182.25,0,-0.2,342.3,457551.62,-27934.97,337.3,Air+FixedWing,Red,Allies,J-11A,Red J-11A #003,xu,=36=Evil,0,0,0,182.25,2.25,0,0,NaN,NaN,0,0,NaN,0.999993741512668,0,-0.00349065172486007,0,178.72619625,178.72619625,,,98.710000038147,180,0.211992407828021,0.287676535458158
2018-07-19T08:05:54Z,1531987554,109,40.0274022,44.6682891,182.25,0,-0.2,342.3,457551.62,-27934.97,337.3,Air+FixedWing,Red,Allies,J-11A,Red J-11A #003,xu,=36=Evil,0,0,0,182.25,2.25,0,0,NaN,NaN,0,0,NaN,0.999993741512668,0,-0.00349065172486007,0,178.72619625,178.72619625,,,99.710000038147,180,0.212004616392469,0.287688744273279
2018-07-19T08:05:55Z,1531987555,109,40.0274022,44.6682891,182.25,0,-0.2,342.3,457551.62,-27934.97,337.3,Air+FixedWing,Red,Allies,J-11A,Red J-11A #003,xu,=36=Evil,0,0,0,182.25,2.25,0,0,NaN,NaN,0,0,NaN,0.999993741512668,0,-0.00349065172486007,0,178.72619625,178.72619625,,,100.710000038147,180,0.212016824746382,0.287700952837727
2018-07-19T08:05:56Z,1531987556,109,40.0274022,44.6682891,182.25,0,-0.2,342.3,457551.62,-27934.97,337.3,Air+FixedWing,Red,Allies,J-11A,Red J-11A #003,xu,=36=Evil,0,0,0,182.25,2.25,0,0,NaN,NaN,0,0,NaN,0.999993741512668,0,-0.00349065172486007,0,178.72619625,178.72619625,,,101.710000038147,180,0.212029032187267,0.287713160940976
2018-07-19T08:05:57Z,1531987557,109,40.0274022,44.6682891,182.25,0,-0.2,342.3,457551.62,-27934.97,337.3,Air+FixedWing,Red,Allies,J-11A,Red J-11A #003,xu,=36=Evil,0,0,0,182.25,2.25,0,0,NaN,NaN,0,0,NaN,0.999993741512668,0,-0.00349065172486007,0,178.72619625,178.72619625,,,102.710000038147,180,0.212041242587168,0.287725371139829
2018-07-19T08:05:58Z,1531987558,109,40.0274022,44.6682891,182.25,0,-0.2,342.3,457551.62,-27934.97,337.3,Air+FixedWing,Red,Allies,J-11A,Red J-11A #003,xu,=36=Evil,0,0,0,182.25,2.25,0,0,NaN,NaN,0,0,NaN,0.999993741512668,0,-0.00349065172486007,0,178.72619625,178.72619625,,,103.710000038147,180,0.212053450238605,0.287737579704277
2018-07-19T08:05:59Z,1531987559,109,40.0274022,44.6682891,182.25,0,-0.2,342.3,457551.62,-27934.97,337.3,Air+FixedWing,Red,Allies,J-11A,Red J-11A #003,xu,=36=Evil,0,0,0,182.25,2.25,0,0,NaN,NaN,0,0,NaN,0.999993741512668,0,-0.00349065172486007,0,178.72619625,178.72619625,,,104.710000038147,180,0.212065657930168,0.287749787807526
2018-07-19T08:06:00Z,1531987560,109,40.0274022,44.6682891,182.25,0,-0.2,342.3,457551.62,-27934.97,337.3,Air+FixedWing,Red,Allies,J-11A,Red J-11A #003,xu,=36=Evil,0,0,0,182.25,2.25,0,0,NaN,NaN,0,0,NaN,0.999993741512668,0,-0.00349065172486007,0,178.72619625,178.72619625,,,105.710000038147,180,0.212077866695815,0.287761996873331
2018-07-19T08:06:01Z,1531987561,109,40.0274022,44.6682891,182.25,0,-0.2,342.3,457551.62,-27934.97,337.3,Air+FixedWing,Red,Allies,J-11A,Red J-11A #003,xu,=36=Evil,0,0,0,182.25,2.25,0,0,NaN,NaN,0,0,NaN,0.999993741512668,0,-0.00349065172486007,0,178.72619625,178.72619625,,,106.710000038147,180,0.212090074597925,0.287774204725929
2018-07-19T08:06:02Z,1531987562,109,40.0274022,44.6682891,182.25,0,-0.2,342.3,457551.62,-27934.97,337.3,Air+FixedWing,Red,Allies,J-11A,Red J-11A #003,xu,=36=Evil,0,0,0,182.25,2.25,0,0,NaN,NaN,0,0,NaN,0.999993741512668,0,-0.00349065172486007,0,178.72619625,178.72619625,,,107.710000038147,180,0.212102283874272,0.287786414924782
2018-07-19T08:06:03Z,1531987563,109,40.0274022,44.6682891,182.25,0,-0.2,342.3,457551.62,-27934.97,337.3,Air+FixedWing,Red,Allies,J-11A,Red J-11A #003,xu,=36=Evil,0,0,0,182.25,2.25,0,0,NaN,NaN,0,0,NaN,0.999993741512668,0,-0.00349065172486007,0,178.72619625,178.72619625,,,108.710000038147,180,0.212114492899938,0.287798623739902
2018-07-19T08:06:04Z,1531987564,109,40.0274022,44.6682891,182.25,0,-0.2,342.3,457551.62,-27934.97,337.3,Air+FixedWing,Red,Allies,J-11A,Red J-11A #003,xu,=36=Evil,0,0,0,182.25,2.25,0,0,NaN,NaN,0,0,NaN,0.999993741512668,0,-0.00349065172486007,0,178.72619625,178.72619625,,,109.710000038147,180,0.212126699879617,0.28781083138197
2018-07-19T08:06:05Z,1531987565,109,40.0274022,44.6682891,182.25,0,-0.2,342.3,457551.62,-27934.97,337.3,Air+FixedWing,Red,Allies,J-11A,Red J-11A #003,xu,=36=Evil,0,0,0,182.25,2.25,0,0,NaN,NaN,0,0,NaN,0.999993741512668,0,-0.00349065172486007,0,178.72619625,178.72619625,,,110.710000038147,180,0.21213890823353,0.287823039745323
2018-07-19T08:06:06Z,1531987566,109,40.0274022,44.6682891,182.25,0,-0.2,342.3,457551.62,-27934.97,337.3,Air+FixedWing,Red,Allies,J-11A,Red J-11A #003,xu,=36=Evil,0,0,0,182.25,2.25,0,0,NaN,NaN,0,0,NaN,0.999993741512668,0,-0.00349065172486007,0,178.72619625,178.72619625,,,111.710000038147,180,0.212151117259196,0.28783524851097
2018-07-19T08:06:07Z,1531987567,109,40.0274022,44.6682891,182.25,0,-0.2,342.3,457551.62,-27934.97,337.3,Air+FixedWing,Red,Allies,J-11A,Red J-11A #003,xu,=36=Evil,0,0,0,182.25,2.25,0,0,NaN,NaN,0,0,NaN,0.999993741512668,0,-0.00349065172486007,0,178.72619625,178.72619625,,,112.710000038147,180,0.212163324950759,0.287847457536636
2018-07-19T08:06:08Z,1531987568,109,40.0274022,44.6682891,182.25,0,-0.2,342.3,457551.62,-27934.97,337.3,Air+FixedWing,Red,Allies,J-11A,Red J-11A #003,xu,=36=Evil,0,0,0,182.25,2.25,0,0,NaN,NaN,0,0,NaN,0.999993741512668,0,-0.00349065172486007,0,178.72619625,178.72619625,,,113.710000038147,180,0.212175533264548,0.287859665228199
2018-07-19T08:06:09Z,1531987569,109,40.0274022,44.6682891,182.25,0,-0.2,342.3,457551.62,-27934.97,337.3,Air+FixedWing,Red,Allies,J-11A,Red J-11A #003,xu,=36=Evil,0,0,0,182.25,2.25,0,0,NaN,NaN,0,0,NaN,0.999993741512668,0,-0.00349065172486007,0,178.72619625,178.72619625,,,114.710000038147,180,0.212187740906615,0.287871874204375
2018-07-19T08:06:10Z,1531987570,109,40.0274022,44.6682891,182.25,0,-0.2,342.3,457551.62,-27934.97,337.3,Air+FixedWing,Red,Allies,J-11A,Red J-11A #003,xu,=36=Evil,0,0,0,182.25,2.25,0,0,NaN,NaN,0,0,NaN,0.999993741512668,0,-0.00349065172486007,0,178.72619625,178.72619625,,,115.710000038147,180,0.212199950443218,0.287884084653937
2018-07-19T08:06:11Z,1531987571,109,40.0274022,44.6682891,182.25,0,-0.2,342.3,457551.62,-27934.97,337.3,Air+FixedWing,Red,Allies,J-11A,Red J-11A #003,xu,=36=Evil,0,0,0,182.25,2.25,0,0,NaN,NaN,0,0,NaN,0.999993741512668,0,-0.00349065172486007,0,178.72619625,178.72619625,,,116.710000038147,180,0.212212159459516,0.287896292757186
2018-07-19T08:06:12Z,1531987572,109,40.0274022,44.6682891,182.25,0,-0.2,342.3,457551.62,-27934.97,337.3,Air+FixedWing,Red,Allies,J-11A,Red J-11A #003,xu,=36=Evil,0,0,0,182.25,2.25,0,0,NaN,NaN,0,0,NaN,0.999993741512668,0,-0.00349065172486007,0,178.72619625,178.72619625,,,117.710000038147,180,0.212224367110953,0.287908501111099
2018-07-19T08:06:13Z,1531987573,109,40.0274022,44.6682891,182.25,0,-0.2,342.3,457551.62,-27934.97,337.3,Air+FixedWing,Red,Allies,J-11A,Red J-11A #003,xu,=36=Evil,0,0,0,182.25,2.25,0,0,NaN,NaN,0,0,NaN,0.999993741512668,0,-0.00349065172486007,0,178.72619625,178.72619625,,,118.710000038147,180,0.212236574802516,0.287920709474452
2018-07-19T08:06:14Z,1531987574,109,40.0274022,44.6682891,182.25,0,-0.2,342.3,457551.62,-27934.97,337.3,Air+FixedWing,Red,Allies,J-11A,Red J-11A #003,xu,=36=Evil,0,0,0,182.25,2.25,0,0,NaN,NaN,0,0,NaN,0.999993741512668,0,-0.00349065172486007,0,178.72619625,178.72619625,,,119.710000038147,180,0.212248784951741,0.287932919623677
2018-07-19T08:06:15Z,1531987575,109,40.0274022,44.6682891,182.25,0,-0.2,342.3,457551.62,-27934.97,337.3,Air+FixedWing,Red,Allies,J-11A,Red J-11A #003,xu,=36=Evil,0,0,0,182.25,2.25,0,0,NaN,NaN,0,0,NaN,0.999993741512668,0,-0.00349065172486007,0,178.72619625,178.72619625,,,120.710000038147,180,0.212260992643304,0.28794512797759
2018-07-19T08:06:16Z,1531987576,109,40.0274022,44.6682891,182.25,0,-0.2,342.3,457551.62,-27934.97,337.3,Air+FixedWing,Red,Allies,J-11A,Red J-11A #003,xu,=36=Evil,0,0,0,182.25,2.25,0,0,NaN,NaN,0,0,NaN,0.999993741512668,0,-0.00349065172486007,0,178.72619625,178.72619625,,,121.710000038147,180,0.212273200746553,0.287957336340942
2018-07-19T08:06:17Z,1531987577,109,40.0274022,44.6682891,182.25,0,-0.2,342.3,457551.62,-27934.97,337.3,Air+FixedWing,Red,Allies,J-11A,Red J-11A #003,xu,=36=Evil,0,0,0,182.25,2.25,0,0,NaN,NaN,0,0,NaN,0.999993741512668,0,-0.00349065172486007,0,178.72619625,178.72619625,,,122.710000038147,180,0.212285409311001,0.28796954510659
2018-07-19T08:06:18Z,1531987578,109,40.0274022,44.6682891,182.25,0,-0.2,342.3,457551.62,-27934.97,337.3,Air+FixedWing,Red,Allies,J-11A,Red J-11A #003,xu,=36=Evil,0,0,0,182.25,2.25,0,0,NaN,NaN,0,0,NaN,0.999993741512668,0,-0.00349065172486007,0,178.72619625,178.72619625,,,123.710000038147,180,0.212297617002564,0.2879817530087
2018-07-19T08:06:19Z,1531987579,109,40.0274022,44.6682891,182.25,0,-0.2,342.3,457551.62,-27934.97,337.3,Air+FixedWing,Red,Allies,J-11A,Red J-11A #003,xu,=36=Evil,0,0,0,182.25,2.25,0,0,NaN,NaN,0,0,NaN,0.999993741512668,0,-0.00349065172486007,0,178.72619625,178.72619625,,,124.710000038147,180,0.212309825105813,0.287993961111949
2018-07-19T08:06:20Z,1531987580,109,40.0274022,44.6682891,182.25,0,-0.2,342.3,457551.62,-27934.97,337.3,Air+FixedWing,Red,Allies,J-11A,Red J-11A #003,xu,=36=Evil,0,0,0,182.25,2.25,0,0,NaN,NaN,0,0,NaN,0.999993741512668,0,-0.00349065172486007,0,178.72619625,178.72619625,,,125.710000038147,180,0.212322033007923,0.288006170177754
2018-07-19T08:06:21Z,1531987581,109,40.0274022,44.6682891,182.25,0,-0.2,342.3,457551.62,-27934.97,337.3,Air+FixedWing,Red,Allies,J-11A,Red J-11A #003,xu,=36=Evil,0,0,0,182.25,2.25,0,0,NaN,NaN,0,0,NaN,0.999993741512668,0,-0.00349065172486007,0,178.72619625,178.72619625,,,126.710000038147,180,0.212334241823044,0.288018378491543
2018-07-19T08:06:22Z,1531987582,109,40.0274022,44.6682891,182.25,0,-0.2,342.3,457551.62,-27934.97,337.3,Air+FixedWing,Red,Allies,J-11A,Red J-11A #003,xu,=36=Evil,0,0,0,182.25,2.25,0,0,NaN,NaN,0,0,NaN,0.999993741512668,0,-0.00349065172486007,0,178.72619625,178.72619625,,,127.710000038147,180,0.21234645084871,0.288030588891443
2018-07-19T08:06:23Z,1531987583,109,40.0274022,44.6682891,182.25,0,-0.2,342.3,457551.62,-27934.97,337.3,Air+FixedWing,Red,Allies,J-11A,Red J-11A #003,xu,=36=Evil,0,0,0,182.25,2.25,0,0,NaN,NaN,0,0,NaN,0.999993741512668,0,-0.00349065172486007,0,178.72619625,178.72619625,,,128.710000038147,180,0.212358659212063,0.288042797044239
2018-07-19T08:06:24Z,1531987584,109,40.0274022,44.6682891,182.25,0,-0.2,342.3,457551.62,-27934.97,337.3,Air+FixedWing,Red,Allies,J-11A,Red J-11A #003,xu,=36=Evil,0,0,0,182.25,2.25,0,0,NaN,NaN,0,0,NaN,0.999993741512668,0,-0.00349065172486007,0,178.72619625,178.72619625,,,129.710000038147,180,0.212370867315312,0.288055005358028
2018-07-19T08:06:25Z,1531987585,109,40.0274022,44.6682891,182.25,0,-0.2,342.3,457551.62,-27934.97,337.3,Air+FixedWing,Red,Allies,J-11A,Red J-11A #003,xu,=36=Evil,0,0,0,182.25,2.25,0,0,NaN,NaN,0,0,NaN,0.999993741512668,0,-0.00349065172486007,0,178.72619625,178.72619625,,,130.710000038147,180,0.212383076331609,0.288067214835508
2018-07-19T08:06:26Z,1531987586,109,40.0274022,44.6682891,182.25,0,-0.2,342.3,457551.62,-27934.97,337.3,Air+FixedWing,Red,Allies,J-11A,Red J-11A #003,xu,=36=Evil,0,0,0,182.25,2.25,0,0,NaN,NaN,0,0,NaN,0.999993741512668,0,-0.00349065172486007,0,178.72619625,178.72619625,,,131.710000038147,180,0.212395283983046,0.288079422737619
2018-07-19T08:06:27Z,1531987587,109,40.0274022,44.6682891,182.25,0,-0.2,342.3,457551.62,-27934.97,337.3,Air+FixedWing,Red,Allies,J-11A,Red J-11A #003,xu,=36=Evil,0,0,0,182.25,2.25,0,0,NaN,NaN,0,0,NaN,0.999993741512668,0,-0.00349065172486007,0,178.72619625,178.72619625,,,132.710000038147,180,0.2124074928478,0.288091632013965
2018-07-19T08:06:28Z,1531987588,109,40.0274022,44.6682891,182.25,0,-0.2,342.3,457551.62,-27934.97,337.3,Air+FixedWing,Red,Allies,J-11A,Red J-11A #003,xu,=36=Evil,0,0,0,182.25,2.25,0,0,NaN,NaN,0,0,NaN,0.999993741512668,0,-0.00349065172486007,0,178.72619625,178.72619625,,,133.710000038147,180,0.212419702074622,0.288103841952646
2018-07-19T08:06:29Z,1531987589,109,40.0274022,44.6682891,182.25,0,-0.2,342.3,457551.62,-27934.97,337.3,Air+FixedWing,Red,Allies,J-11A,Red J-11A #003,xu,=36=Evil,0,0,0,182.25,2.25,0,0,NaN,NaN,0,0,NaN,0.999993741512668,0,-0.00349065172486007,0,178.72619625,178.72619625,,,134.710000038147,180,0.212431908853179,0.288116049393532
2018-07-19T08:06:30Z,1531987590,109,40.0274022,44.6682891,182.25,0,-0.2,342.3,457551.62,-27934.97,337.3,Air+FixedWing,Red,Allies,J-11A,Red J-11A #003,xu,=36=Evil,0,0,0,182.25,2.25,0,0,NaN,NaN,0,0,NaN,0.999993741512668,0,-0.00349065172486007,0,178.72619625,178.72619625,,,135.710000038147,180,0.212444117869476,0.28812825795798
2018-07-19T08:06:31Z,1531987591,109,40.0274022,44.6682891,182.25,0,-0.2,342.3,457551.62,-27934.97,337.3,Air+FixedWing,Red,Allies,J-11A,Red J-11A #003,xu,=36=Evil,0,0,0,182.25,2.25,0,0,NaN,NaN,0,0,NaN,0.999993741512668,0,-0.00349065172486007,0,178.72619625,178.72619625,,,136.710000038147,180,0.212456325520914,0.288140466773101
2018-07-19T08:06:32Z,1531987592,109,40.0274022,44.6682891,182.25,0,-0.2,342.3,457551.62,-27934.97,337.3,Air+FixedWing,Red,Allies,J-11A,Red J-11A #003,xu,=36=Evil,0,0,0,182.25,2.25,0,0,NaN,NaN,0,0,NaN,0.999993741512668,0,-0.00349065172486007,0,178.72619625,178.72619625,,,137.710000038147,180,0.212468533874826,0.288152674415168
2018-07-19T08:06:33Z,1531987593,109,40.0274022,44.6682891,182.25,0,-0.2,342.3,457551.62,-27934.97,337.3,Air+FixedWing,Red,Allies,J-11A,Red J-11A #003,xu,=36=Evil,0,0,0,182.25,2.25,0,0,NaN,NaN,0,0,NaN,0.999993741512668,0,-0.00349065172486007,0,178.72619625,178.72619625,,,138.710000038147,180,0.212480741978075,0.288164883440834
2018-07-19T08:06:34Z,1531987594,109,40.0274022,44.6682891,182.25,0,-0.2,342.3,457551.62,-27934.97,337.3,Air+FixedWing,Red,Allies,J-11A,Red J-11A #003,xu,=36=Evil,0,0,0,182.25,2.25,0,0,NaN,NaN,0,0,NaN,0.999993741512668,0,-0.00349065172486007,0,178.72619625,178.72619625,,,139.710000038147,180,0.212492949880185,0.288177091544083
2018-07-19T08:06:35Z,1531987595,109,40.0274022,44.6682891,182.25,0,-0.2,342.3,457551.62,-27934.97,337.3,Air+FixedWing,Red,Allies,J-11A,Red J-11A #003,xu,=36=Evil,0,0,0,182.25,2.25,0,0,NaN,NaN,0,0,NaN,0.999993741512668,0,-0.00349065172486007,0,178.72619625,178.72619625,,,140.710000038147,180,0.212505159367087,0.288189301281674
2018-07-19T08:06:36Z,1531987596,109,40.0274022,44.6682891,182.25,0,-0.2,342.3,457551.62,-27934.97,337.3,Air+FixedWing,Red,Allies,J-11A,Red J-11A #003,xu,=36=Evil,0,0,0,182.25,2.25,0,0,NaN,NaN,0,0,NaN,0.999993741512668,0,-0.00349065172486007,0,178.72619625,178.72619625,,,141.710000038147,180,0.212517367721,0.28820151030734
2018-07-19T08:06:37Z,1531987597,109,40.0274022,44.6682891,182.25,0,-0.2,342.3,457551.62,-27934.97,337.3,Air+FixedWing,Red,Allies,J-11A,Red J-11A #003,xu,=36=Evil,0,0,0,182.25,2.25,0,0,NaN,NaN,0,0,NaN,0.999993741512668,0,-0.00349065172486007,0,178.72619625,178.72619625,,,142.710000038147,180,0.212529575161885,0.288213718410589
2018-07-19T08:06:38Z,1531987598,109,40.0274022,44.6682891,182.25,0,-0.2,342.3,457551.62,-27934.97,337.3,Air+FixedWing,Red,Allies,J-11A,Red J-11A #003,xu,=36=Evil,0,0,0,182.25,2.25,0,0,NaN,NaN,0,0,NaN,0.999993741512668,0,-0.00349065172486007,0,178.72619625,178.72619625,,,143.710000038147,180,0.212541784187552,0.288225927436255
2018-07-19T08:06:39Z,1531987599,109,40.0274022,44.6682891,182.25,0,-0.2,342.3,457551.62,-27934.97,337.3,Air+FixedWing,Red,Allies,J-11A,Red J-11A #003,xu,=36=Evil,0,0,0,182.25,2.25,0,0,NaN,NaN,0,0,NaN,0.999993741512668,0,-0.00349065172486007,0,178.72619625,178.72619625,,,144.710000038147,180,0.212553993213218,0.288238137173846
2018-07-19T08:06:40Z,1531987600,109,40.0274022,44.6682891,182.25,0,-0.2,342.3,457551.62,-27934.97,337.3,Air+FixedWing,Red,Allies,J-11A,Red J-11A #003,xu,=36=Evil,0,0,0,182.25,2.25,0,0,NaN,NaN,0,0,NaN,0.999993741512668,0,-0.00349065172486007,0,178.72619625,178.72619625,,,145.710000038147,180,0.212566201616712,0.288250344865409
2018-07-19T08:06:41Z,1531987601,109,40.0274022,44.6682891,182.25,0,-0.2,342.3,457551.62,-27934.97,337.3,Air+FixedWing,Red,Allies,J-11A,Red J-11A #003,xu,=36=Evil,0,0,0,182.25,2.25,0,0,NaN,NaN,0,0,NaN,0.999993741512668,0,-0.00349065172486007,0,178.72619625,178.72619625,,,146.710000038147,180,0.212578410382359,0.288262554553423
2018-07-19T08:06:42Z,1531987602,109,40.0274022,44.6682891,182.25,0,-0.2,342.3,457551.62,-27934.97,337.3,Air+FixedWing,Red,Allies,J-11A,Red J-11A #003,xu,=36=Evil,0,0,0,182.25,2.25,0,0,NaN,NaN,0,0,NaN,0.999993741512668,0,-0.00349065172486007,0,178.72619625,178.72619625,,,147.710000038147,180,0.212590618284469,0.288274762656672
2018-07-19T08:06:43Z,1531987603,109,40.0274022,44.6682891,182.25,0,-0.2,342.3,457551.62,-27934.97,337.3,Air+FixedWing,Red,Allies,J-11A,Red J-11A #003,xu,=36=Evil,0,0,0,182.25,2.25,0,0,NaN,NaN,0,0,NaN,0.999993741512668,0,-0.00349065172486007,0,178.72619625,178.72619625,,,148.710000038147,180,0.212602825725355,0.288286970348235
2018-07-19T08:06:44Z,1531987604,109,40.0274022,44.6682891,182.25,0,-0.2,342.3,457551.62,-27934.97,337.3,Air+FixedWing,Red,Allies,J-11A,Red J-11A #003,xu,=36=Evil,0,0,0,182.25,2.25,0,0,NaN,NaN,0,0,NaN,0.999993741512668,0,-0.00349065172486007,0,178.72619625,178.72619625,,,149.710000038147,180,0.212615034741652,0.288299180036249
2018-07-19T08:06:45Z,1531987605,109,40.0274022,44.6682891,182.25,0,-0.2,342.3,457551.62,-27934.97,337.3,Air+FixedWing,Red,Allies,J-11A,Red J-11A #003,xu,=36=Evil,0,0,0,182.25,2.25,0,0,NaN,NaN,0,0,NaN,0.999993741512668,0,-0.00349065172486007,0,178.72619625,178.72619625,,,150.710000038147,180,0.212627242393089,0.288311388139498
2018-07-19T08:06:46Z,1531987606,109,40.0274022,44.6682891,182.25,0,-0.2,342.3,457551.62,-27934.97,337.3,Air+FixedWing,Red,Allies,J-11A,Red J-11A #003,xu,=36=Evil,0,0,0,182.25,2.25,0,0,NaN,NaN,0,0,NaN,0.999993741512668,0,-0.00349065172486007,0,178.72619625,178.72619625,,,151.710000038147,180,0.212639450747002,0.288323596703947
2018-07-19T08:06:47Z,1531987607,109,40.0274022,44.6682891,182.25,0,-0.2,342.3,457551.62,-27934.97,337.3,Air+FixedWing,Red,Allies,J-11A,Red J-11A #003,xu,=36=Evil,0,0,0,182.25,2.25,0,0,NaN,NaN,0,0,NaN,0.999993741512668,0,-0.00349065172486007,0,178.72619625,178.72619625,,,152.710000038147,180,0.212651660233904,0.288335806902799
2018-07-19T08:06:48Z,1531987608,109,40.0274022,44.6682891,182.25,0,-0.2,342.3,457551.62,-27934.97,337.3,Air+FixedWing,Red,Allies,J-11A,Red J-11A #003,xu,=36=Evil,0,0,0,182.25,2.25,0,0,NaN,NaN,0,0,NaN,0.999993741512668,0,-0.00349065172486007,0,178.72619625,178.72619625,,,153.710000038147,180,0.212663867925467,0.288348014594362
2018-07-19T08:06:49Z,1531987609,109,40.0274022,44.6682891,182.25,0,-0.2,342.3,457551.62,-27934.97,337.3,Air+FixedWing,Red,Allies,J-11A,Red J-11A #003,xu,=36=Evil,0,0,0,182.25,2.25,0,0,NaN,NaN,0,0,NaN,0.999993741512668,0,-0.00349065172486007,0,178.72619625,178.72619625,,,154.710000038147,180,0.212676076951133,0.288360224282377
2018-07-19T08:06:50Z,1531987610,109,40.0274022,44.6682891,182.25,0,-0.2,342.3,457551.62,-27934.97,337.3,Air+FixedWing,Red,Allies,J-11A,Red J-11A #003,xu,=36=Evil,0,0,0,182.25,2.25,0,0,NaN,NaN,0,0,NaN,0.999993741512668,0,-0.00349065172486007,0,178.72619625,178.72619625,,,155.710000038147,180,0.2126882845932,0.288372431924444
2018-07-19T08:06:51Z,1531987611,109,40.0274022,44.6682891,182.25,0,-0.2,342.3,457551.62,-27934.97,337.3,Air+FixedWing,Red,Allies,J-11A,Red J-11A #003,xu,=36=Evil,0,0,0,182.25,2.25,0,0,NaN,NaN,0,0,NaN,0.999993741512668,0,-0.00349065172486007,0,178.72619625,178.72619625,,,156.710000038147,180,0.212700492034086,0.28838464007724
2018-07-19T08:06:52Z,1531987612,109,40.0274022,44.6682891,182.25,0,-0.2,342.3,457551.62,-27934.97,337.3,Air+FixedWing,Red,Allies,J-11A,Red J-11A #003,xu,=36=Evil,0,0,0,182.25,2.25,0,0,NaN,NaN,0,0,NaN,0.999993741512668,0,-0.00349065172486007,0,178.72619625,178.72619625,,,157.710000038147,180,0.212712702483648,0.288396850938377
2018-07-19T08:06:53Z,1531987613,109,40.0274022,44.6682891,182.25,0,-0.2,342.3,457551.62,-27934.97,337.3,Air+FixedWing,Red,Allies,J-11A,Red J-11A #003,xu,=36=Evil,0,0,0,182.25,2.25,0,0,NaN,NaN,0,0,NaN,0.999993741512668,0,-0.00349065172486007,0,178.72619625,178.72619625,,,158.710000038147,180,0.212724910336246,0.288409058790975
2018-07-19T08:06:54Z,1531987614,109,40.0274022,44.6682891,182.25,0,-0.2,342.3,457551.62,-27934.97,337.3,Air+FixedWing,Red,Allies,J-11A,Red J-11A #003,xu,=36=Evil,0,0,0,182.25,2.25,0,0,NaN,NaN,0,0,NaN,0.999993741512668,0,-0.00349065172486007,0,178.72619625,178.72619625,,,159.710000038147,180,0.212737118489042,0.288421266943771
2018-07-19T08:06:55Z,1531987615,109,40.0274022,44.6682891,182.25,0,-0.2,342.3,457551.62,-27934.97,337.3,Air+FixedWing,Red,Allies,J-11A,Red J-11A #003,xu,=36=Evil,0,0,0,182.25,2.25,0,0,NaN,NaN,0,0,NaN,0.999993741512668,0,-0.00349065172486007,0,178.72619625,178.72619625,,,160.710000038147,180,0.212749327254689,0.288433475709418
2018-07-19T08:06:56Z,1531987616,109,40.0274022,44.6682891,182.25,0,-0.2,342.3,457551.62,-27934.97,337.3,Air+FixedWing,Red,Allies,J-11A,Red J-11A #003,xu,=36=Evil,0,0,0,182.25,2.25,0,0,NaN,NaN,0,0,NaN,0.999993741512668,0,-0.00349065172486007,0,178.72619625,178.72619625,,,161.710000038147,180,0.212761535156799,0.288445684072771
2018-07-19T08:06:57Z,1531987617,109,40.0274022,44.6682891,182.25,0,-0.2,342.3,457551.62,-27934.97,337.3,Air+FixedWing,Red,Allies,J-11A,Red J-11A #003,xu,=36=Evil,0,0,0,182.25,2.25,0,0,NaN,NaN,0,0,NaN,0.999993741512668,0,-0.00349065172486007,0,178.72619625,178.72619625,,,162.710000038147,180,0.212773742597685,0.288457892426684
2018-07-19T08:06:58Z,1531987618,109,40.0274022,44.6682891,182.25,0,-0.2,342.3,457551.62,-27934.97,337.3,Air+FixedWing,Red,Allies,J-11A,Red J-11A #003,xu,=36=Evil,0,0,0,182.25,2.25,0,0,NaN,NaN,0,0,NaN,0.999993741512668,0,-0.00349065172486007,0,178.72619625,178.72619625,,,163.710000038147,180,0.212785951613982,0.288470101653506
2018-07-19T08:06:59Z,1531987619,109,40.0274022,44.6682891,182.25,0,-0.2,342.3,457551.62,-27934.97,337.3,Air+FixedWing,Red,Allies,J-11A,Red J-11A #003,xu,=36=Evil,0,0,0,182.25,2.25,0,0,NaN,NaN,0,0,NaN,0.999993741512668,0,-0.00349065172486007,0,178.72619625,178.72619625,,,164.710000038147,180,0.21279815926542,0.288482309806301
2018-07-19T08:07:00Z,1531987620,109,40.0274022,44.6682891,182.25,0,-0.2,342.3,457551.62,-27934.97,337.3,Air+FixedWing,Red,Allies,J-11A,Red J-11A #003,xu,=36=Evil,0,0,0,182.25,2.25,0,0,NaN,NaN,0,0,NaN,0.999993741512668,0,-0.00349065172486007,0,178.72619625,178.72619625,,,165.710000038147,180,0.21281036900301,0.288494519293203
2018-07-19T08:07:01Z,1531987621,109,40.0274022,44.6682891,182.25,0,-0.2,342.3,457551.62,-27934.97,337.3,Air+FixedWing,Red,Allies,J-11A,Red J-11A #003,xu,=36=Evil,0,0,0,182.25,2.25,0,0,NaN,NaN,0,0,NaN,0.999993741512668,0,-0.00349065172486007,0,178.72619625,178.72619625,,,166.710000038147,180,0.212822577106259,0.288506727857652
2018-07-19T08:07:02Z,1531987622,109,40.0274022,44.6682891,182.25,0,-0.2,342.3,457551.62,-27934.97,337.3,Air+FixedWing,Red,Allies,J-11A,Red J-11A #003,xu,=36=Evil,0,0,0,182.25,2.25,0,0,NaN,NaN,0,0,NaN,0.999993741512668,0,-0.00349065172486007,0,178.72619625,178.72619625,,,167.710000038147,180,0.212834784797822,0.288518936672772
2018-07-19T08:07:03Z,1531987623,109,40.0274022,44.6682891,182.25,0,-0.2,342.3,457551.62,-27934.97,337.3,Air+FixedWing,Red,Allies,J-11A,Red J-11A #003,xu,=36=Evil,0,0,0,182.25,2.25,0,0,NaN,NaN,0,0,NaN,0.999993741512668,0,-0.00349065172486007,0,178.72619625,178.72619625,,,168.710000038147,180,0.21284699336227,0.28853114431484
2018-07-19T08:07:04Z,1531987624,109,40.0274022,44.6682891,182.25,0,-0.2,342.3,457551.62,-27934.97,337.3,Air+FixedWing,Red,Allies,J-11A,Red J-11A #003,xu,=36=Evil,0,0,0,182.25,2.25,0,0,NaN,NaN,0,0,NaN,0.999993741512668,0,-0.00349065172486007,0,178.72619625,178.72619625,,,169.710000038147,180,0.212859201465519,0.288543353340506
