ISOTime,UnixTime,Id,Longitude,Latitude,Altitude,Roll,Pitch,Yaw,U,V,Heading,Type,Color,Coalition,Name,Group,Country,Pilot,TAS,CAS,M,ASL,AGL,GS,VS,AOA,AOS,RRT,TRT,TRD,G,LatG,LonG,Ek,Ep,Em,FFW,FFV,RelativeTime,Elev,GroundDistance,AirDistance
2018-07-19T08:03:50Z,1531987430,10A,40.0398592,44.6790693,182.45,-0.8,-0.5,119.7,458435.19,-26651.76,114.7,Air+FixedWing,Red,Allies,F-15C,Red F-15C #002,xu,=36=Barbarossa,0.0270419550316236,0,7.96022536173214e-05,182.445129394531,2.44512939453125,NaN,NaN,NaN,NaN,NaN,NaN,NaN,NaN,NaN,NaN,NaN,178.917552817688,NaN,,,0.180000066757202,180,NaN,NaN
2018-07-19T08:03:51Z,1531987431,10A,40.0398561,44.6790701,181.83,4.6,4.9,120,458434.94,-26651.7,115,Air+FixedWing,Red,Allies,F-15C,Red F-15C #002,xu,=36=Barbarossa,0.662790493885353,0.643535614013672,0.00195101472959245,181.834289550781,1.83428955078125,0.257227378154553,-0.61083984375,NaN,NaN,7.73333569245343,NaN,NaN,1.11249530580719,0.101976336686229,0.153015857696088,0.0219645619392395,178.318523562317,178.340488124256,,,1.1800000667572,180,0.261039513217674,0.66428219381997
2018-07-19T08:03:52Z,1531987432,10A,40.0398597,44.6790691,182.46,3.6,3.2,119.9,458435.25,-26651.78,114.9,Air+FixedWing,Red,Allies,F-15C,Red F-15C #002,xu,=36=Barbarossa,0.703114186475307,0.695097923278809,0.00206972768184218,182.459518432617,2.45951843261719,0.321649505737248,0.625228881835938,NaN,NaN,2.58093724205106,0.689992273339594,NaN,0.930781947824393,0.0507799636988434,0.0138934715001486,0.0247184779611416,178.931663643723,178.956382121684,,,2.1800000667572,180,0.568981247466871,1.36123605404583
2018-07-19T08:03:53Z,1531987433,10A,40.0398593,44.6790692,182.41,2.5,2.3,119.9,458435.19,-26651.76,114.9,Air+FixedWing,Red,Allies,F-15C,Red F-15C #002,xu,=36=Barbarossa,0.079825072709797,0,0.000234977586594242,182.412384033203,2.41238403320312,0.0644235254002759,-0.0471343994140625,NaN,NaN,0.676188727831262,1.3175368741497,NaN,1.00269128378569,0.0443498681514417,0.0460998751462431,0.000318602111656219,178.885440587921,178.885759190033,,,3.1800000667572,180,0.606119882949592,1.42124446004049
2018-07-19T08:03:54Z,1531987434,10A,40.0398593,44.6790692,182.41,2.1,1.9,119.9,458435.19,-26651.76,114.9,Air+FixedWing,Red,Allies,F-15C,Red F-15C #002,xu,=36=Barbarossa,0.0009613037109375,0,2.82974779548355e-06,182.411422729492,2.41142272949219,0,-0.0009613037109375,NaN,NaN,0.42855338928328,0.376127391854775,NaN,0.997818202106255,0.0363392303765682,0.0331228964053065,4.62052412331104e-08,178.884497871017,178.884497917223,,,4.1800000667572,180,0.610360619799707,1.42559290721097
2018-07-19T08:03:55Z,1531987435,10A,40.0398593,44.6790693,182.4,1.8,1.6,119.9,458435.19,-26651.76,114.9,Air+FixedWing,Red,Allies,F-15C,Red F-15C #002,xu,=36=Barbarossa,0.0104827880859375,0,3.08577223026324e-05,182.400939941406,2.40093994140625,0,-0.0104827880859375,NaN,NaN,0.295228096684631,0.349987510849195,NaN,0.997456490922203,0.0313463359887119,0.0278754613537776,5.49444230273366e-06,178.874217767639,178.874223262081,,,5.1800000667572,180,0.620432384236775,1.44013027570213
2018-07-19T08:03:56Z,1531987436,10A,40.0398591,44.6790693,182.37,1.5,1.3,119.9,458435.19,-26651.76,114.9,Air+FixedWing,Red,Allies,F-15C,Red F-15C #002,xu,=36=Barbarossa,0.0267791748046875,0,7.88286553753149e-05,182.374160766602,2.37416076660156,0,-0.0267791748046875,NaN,NaN,0.199987938897973,0.313568835472981,NaN,1.00068593845045,0.0262038849594235,0.0227165897600242,3.58562101610005e-05,178.847956368179,178.847992224389,,,6.1800000667572,180,0.636298730841258,1.47125710634144
2018-07-19T08:03:57Z,1531987437,10A,40.0398591,44.6790693,182.36,1.3,1.1,119.9,458435.19,-26651.76,114.8,Air+FixedWing,Red,Allies,F-15C,Red F-15C #002,xu,=36=Barbarossa,0.01416015625,0,4.16826099575558e-05,182.360000610352,2.36000061035156,0,-0.01416015625,NaN,NaN,0.0702689861810912,0.206534154949115,NaN,1.00109678659906,0.0211313812567102,0.0160831101250271,1.00255012512207e-05,178.83406999855,178.834080024052,,,7.1800000667572,180,0.636298730841258,1.48541726301239
2018-07-19T08:03:58Z,1531987438,10A,40.039859,44.6790693,182.36,1.1,0.9,119.9,458435.16,-26651.76,114.8,Air+FixedWing,Red,Allies,F-15C,Red F-15C #002,xu,=36=Barbarossa,0.03125,0,9.19892081821921e-05,182.360000610352,2.36000061035156,0.03125,0,NaN,NaN,0.276212850035316,0.168440802565779,NaN,0.999646831162796,0.0198662124990554,0.0179349645046158,4.8828125e-05,178.83406999855,178.834118826675,,,8.1800000667572,180,0.644214174295497,1.49333293285317
2018-07-19T08:03:59Z,1531987439,10A,40.039859,44.6790693,182.36,0.9,0.7,119.8,458435.16,-26651.76,114.8,Air+FixedWing,Red,Allies,F-15C,Red F-15C #002,xu,=36=Barbarossa,0,0,0,182.360000610352,2.36000061035156,0,0,NaN,NaN,0.199987938897973,0.201012747417953,NaN,0.999805638012141,0.0157062026908739,0.0119136394932866,0,178.83406999855,178.83406999855,,,9.1800000667572,180,0.644214174295497,1.49333293285317
2018-07-19T08:04:00Z,1531987440,10A,40.039859,44.6790693,182.36,0.8,0.5,119.8,458435.16,-26651.76,114.8,Air+FixedWing,Red,Allies,F-15C,Red F-15C #002,xu,=36=Barbarossa,0,0,0,182.360000610352,2.36000061035156,0,0,NaN,NaN,0.085732534462,0.158258924844207,NaN,0.999859575638464,0.0139615829254184,0.00925890542566776,0,178.83406999855,178.83406999855,,,10.1800000667572,180,0.644214174295497,1.49333293285317
2018-07-19T08:04:01Z,1531987441,10A,40.039859,44.6790693,182.36,0.7,0.4,119.8,458435.16,-26651.76,114.8,Air+FixedWing,Red,Allies,F-15C,Red F-15C #002,xu,=36=Barbarossa,0,0,0,182.360000610352,2.36000061035156,0,0,NaN,NaN,0,0.109698454300172,NaN,0.999898614493532,0.0122166757603352,0.00730708288028836,0,178.83406999855,178.83406999855,,,11.1800000667572,180,0.644214174295497,1.49333293285317
2018-07-19T08:04:02Z,1531987442,10A,40.039859,44.6790693,182.36,0.6,0.3,119.8,458435.16,-26651.76,114.8,Air+FixedWing,Red,Allies,F-15C,Red F-15C #002,xu,=36=Barbarossa,0,0,0,182.360000610352,2.36000061035156,0,0,NaN,NaN,0,0.0938359269221987,NaN,0.99992823693368,0.0104716078704586,0.00581186031922698,0,178.83406999855,178.83406999855,,,12.1800000667572,180,0.644214174295497,1.49333293285317
2018-07-19T08:04:03Z,1531987443,10A,40.039859,44.6790693,182.36,0.5,0.3,119.8,458435.16,-26651.76,114.8,Air+FixedWing,Red,Allies,F-15C,Red F-15C #002,xu,=36=Barbarossa,0,0,0,182.360000610352,2.36000061035156,0,0,NaN,NaN,0.0499969847244933,0.0453270429826955,NaN,0.999921334175958,0.0100628643870587,0.00812882012486689,0,178.83406999855,178.83406999855,,,13.1800000667572,180,0.644214174295497,1.49333293285317
2018-07-19T08:04:04Z,1531987444,10A,40.039859,44.6790693,182.36,0.5,0.2,119.8,458435.19,-26651.76,114.8,Air+FixedWing,Red,Allies,F-15C,Red F-15C #002,xu,=36=Barbarossa,0.03125,0,9.19892081821921e-05,182.360000610352,2.36000061035156,0.03125,0,NaN,NaN,0,0.0593470334505648,NaN,0.999977476731555,0.00738998990854784,0.000680852477356411,4.8828125e-05,178.83406999855,178.834118826675,,,14.1800000667572,180,0.644214174295497,1.49333293285317
2018-07-19T08:04:05Z,1531987445,10A,40.039859,44.6790693,182.36,0.4,0.2,119.8,458435.19,-26651.76,114.8,Air+FixedWing,Red,Allies,F-15C,Red F-15C #002,xu,=36=Barbarossa,0,0,0,182.360000610352,2.36000061035156,0,0,NaN,NaN,0,0.0873564853083433,NaN,0.999971866699209,0.00698123439360152,0.00272568361833692,0,178.83406999855,178.83406999855,,,15.1800000667572,180,0.644214174295497,1.49333293285317
2018-07-19T08:04:06Z,1531987446,10A,40.039859,44.6790693,182.36,0.4,0.1,119.8,458435.19,-26651.76,114.8,Air+FixedWing,Red,Allies,F-15C,Red F-15C #002,xu,=36=Barbarossa,0,0,0,182.360000610352,2.36000061035156,0,0,NaN,NaN,0,0.0453270429826955,NaN,0.999974072017302,0.00698124978987719,0.00174522306770086,0,178.83406999855,178.83406999855,,,16.1800000667572,180,0.644214174295497,1.49333293285317
2018-07-19T08:04:07Z,1531987447,10A,40.039859,44.6790693,182.36,0.3,0.1,119.8,458435.19,-26651.76,114.8,Air+FixedWing,Red,Allies,F-15C,Red F-15C #002,xu,=36=Barbarossa,0,0,0,182.360000610352,2.36000061035156,0,0,NaN,NaN,0.0484670223504105,0.0221173298063182,NaN,0.99998468162763,0.00523595631807594,0.00174522306770086,0,178.83406999855,178.83406999855,,,17.1800000667572,180,0.644214174295497,1.49333293285317
2018-07-19T08:04:08Z,1531987448,10A,40.039859,44.6790693,182.36,0.3,0.1,119.8,458435.19,-26651.76,114.8,Air+FixedWing,Red,Allies,F-15C,Red F-15C #002,xu,=36=Barbarossa,0,0,0,182.360000610352,2.36000061035156,0,0,NaN,NaN,0,0.0171320104161963,NaN,0.999996728579692,0.00389936995951074,-0.00114750751025462,0,178.83406999855,178.83406999855,,,18.1800000667572,180,0.644214174295497,1.49333293285317
2018-07-19T08:04:09Z,1531987449,10A,40.039859,44.6790693,182.36,0.3,0.1,119.8,458435.16,-26651.76,114.8,Air+FixedWing,Red,Allies,F-15C,Red F-15C #002,xu,=36=Barbarossa,0.03125,0,9.19892081821921e-05,182.360000610352,2.36000061035156,0.03125,0,NaN,NaN,0,0.0279764548403722,NaN,0.999960587723507,0.00790912903520634,0.00753068422361183,4.8828125e-05,178.83406999855,178.834118826675,,,19.1800000667572,180,0.644214174295497,1.49333293285317
2018-07-19T08:04:10Z,1531987450,10A,40.039859,44.6790693,182.36,0.3,0,119.8,458435.19,-26651.76,114.8,Air+FixedWing,Red,Allies,F-15C,Red F-15C #002,xu,=36=Barbarossa,0.03125,0,9.19892081821921e-05,182.360000610352,2.36000061035156,0.03125,0,NaN,NaN,0,0.0532655904281015,NaN,1.00000016882977,0.00256273853595163,-0.00578546939755673,4.8828125e-05,178.83406999855,178.834118826675,,,20.1800000667572,180,0.644214174295497,1.49333293285317
2018-07-19T08:04:11Z,1531987451,10A,40.039859,44.6790693,182.36,0.3,0,119.8,458435.16,-26651.76,114.8,Air+FixedWing,Red,Allies,F-15C,Red F-15C #002,xu,=36=Barbarossa,0.03125,0,9.19892081821921e-05,182.360000610352,2.36000061035156,0.03125,0,NaN,NaN,0,0.0342640208323925,NaN,0.999979173169966,0.0065725769124306,0.00289273469877836,4.8828125e-05,178.83406999855,178.834118826675,,,21.1800000667572,180,0.644214174295497,1.49333293285317
2018-07-19T08:04:12Z,1531987452,10A,40.039859,44.6790693,182.36,0.2,0,119.8,458435.16,-26651.76,114.8,Air+FixedWing,Red,Allies,F-15C,Red F-15C #002,xu,=36=Barbarossa,0,0,0,182.360000610352,2.36000061035156,0,0,NaN,NaN,0,0.0197823405926261,NaN,0.999993741512668,0.00349065151680102,-0,0,178.83406999855,178.83406999855,,,22.1800000667572,180,0.644214174295497,1.49333293285317
2018-07-19T08:04:13Z,1531987453,10A,40.039859,44.6790693,182.36,0.2,0,119.8,458435.16,-26651.76,114.8,Air+FixedWing,Red,Allies,F-15C,Red F-15C #002,xu,=36=Barbarossa,0,0,0,182.360000610352,2.36000061035156,0,0,NaN,NaN,0,0.0197823405926261,NaN,0.999989075799194,0.00482727430501759,0.00289273469877836,0,178.83406999855,178.83406999855,,,23.1800000667572,180,0.644214174295497,1.49333293285317
2018-07-19T08:04:14Z,1531987454,10A,40.039859,44.6790693,182.36,0.2,0,119.8,458435.19,-26651.76,114.8,Air+FixedWing,Red,Allies,F-15C,Red F-15C #002,xu,=36=Barbarossa,0.03125,0,9.19892081821921e-05,182.360000610352,2.36000061035156,0.03125,0,NaN,NaN,0,0.0197823405926261,NaN,0.999998407226142,0.00215402872858444,-0.00289273469877836,4.8828125e-05,178.83406999855,178.834118826675,,,24.1800000667572,180,0.644214174295497,1.49333293285317
2018-07-19T08:04:15Z,1531987455,10A,40.039859,44.6790693,182.36,0.2,0,119.8,458435.19,-26651.76,114.8,Air+FixedWing,Red,Allies,F-15C,Red F-15C #002,xu,=36=Barbarossa,0,0,0,182.360000610352,2.36000061035156,0,0,NaN,NaN,0,0.0197823405926261,NaN,0.999998407226142,0.00215402872858444,-0.00289273469877836,0,178.83406999855,178.83406999855,,,25.1800000667572,180,0.644214174295497,1.49333293285317
2018-07-19T08:04:16Z,1531987456,10A,40.039859,44.6790693,182.36,0.2,0,119.8,458435.16,-26651.76,114.8,Air+FixedWing,Red,Allies,F-15C,Red F-15C #002,xu,=36=Barbarossa,0.03125,0,9.19892081821921e-05,182.360000610352,2.36000061035156,0.03125,0,NaN,NaN,0,0.0197823405926261,NaN,0.999989075799194,0.00482727430501759,0.00289273469877836,4.8828125e-05,178.83406999855,178.834118826675,,,26.1800000667572,180,0.644214174295497,1.49333293285317
2018-07-19T08:04:17Z,1531987457,10A,40.039859,44.6790693,182.36,0.2,0,119.8,458435.16,-26651.76,114.8,Air+FixedWing,Red,Allies,F-15C,Red F-15C #002,xu,=36=Barbarossa,0,0,0,182.360000610352,2.36000061035156,0,0,NaN,NaN,0,0.0197823405926261,NaN,0.999956400781894,0.00482716024720288,0.00289273469877836,0,178.83406999855,178.83406999855,,,27.1800000667572,180,0.644214174295497,1.49333293285317
2018-07-19T08:04:18Z,1531987458,10A,40.039859,44.6790693,182.36,0.2,0,119.8,458435.19,-26651.76,114.8,Air+FixedWing,Red,Allies,F-15C,Red F-15C #002,xu,=36=Barbarossa,0.0312516428098404,0,9.19940437137192e-05,182.359680175781,2.35968017578125,0.03125,-0.0003204345703125,NaN,NaN,0,0.0197823405926261,NaN,0.999376025944245,0.00215185619878038,-0.00289273469877836,4.88332589156926e-05,178.833755759583,178.833804592841,,,28.1800000667572,180,0.644214174295497,1.49365336730287
2018-07-19T08:04:19Z,1531987459,10A,40.039859,44.6790693,182.35,0.2,0,119.8,458435.19,-26651.76,114.8,Air+FixedWing,Red,Allies,F-15C,Red F-15C #002,xu,=36=Barbarossa,0.0064239501953125,0,1.89098894977102e-05,182.353256225586,2.35325622558594,0,-0.0064239501953125,NaN,NaN,0,0.0197823405926261,NaN,1.00036094646899,0.00349193330938541,-0,2.06335680559278e-06,178.827456016464,178.827458079821,,,29.1800000667572,180,0.644214174295497,1.50007731752959
2018-07-19T08:04:20Z,1531987460,10A,40.0398591,44.6790693,182.35,0.2,-0.1,119.8,458435.19,-26651.76,114.8,Air+FixedWing,Red,Allies,F-15C,Red F-15C #002,xu,=36=Barbarossa,0.0028228759765625,0,8.30957112924612e-06,182.350433349609,2.35043334960938,0,-0.0028228759765625,NaN,NaN,0,0.0532655904281015,NaN,1.0011841098632,0.00349480670369991,-0.00174740862436347,3.98431438952684e-07,178.824687720795,178.824688119226,,,30.1800000667572,180,0.652129617749736,1.50848127209178
2018-07-19T08:04:21Z,1531987461,10A,40.0398591,44.6790693,182.36,0.2,-0.1,119.8,458435.19,-26651.76,114.8,Air+FixedWing,Red,Allies,F-15C,Red F-15C #002,xu,=36=Barbarossa,0.0088653564453125,0,2.60965476219106e-05,182.359298706055,2.35929870605469,0,0.0088653564453125,NaN,NaN,0,0.0532655904281015,NaN,0.999159817626782,0.0034877405610416,-0.00174387554180988,3.92972724512219e-06,178.833381665573,178.8333855953,,,31.1800000667572,180,0.652129617749736,1.51734662848708
2018-07-19T08:04:22Z,1531987462,10A,40.039859,44.6790693,182.36,0.2,-0.1,119.8,458435.19,-26651.76,114.8,Air+FixedWing,Red,Allies,F-15C,Red F-15C #002,xu,=36=Barbarossa,0.000701904296875,0,2.0661638556547e-06,182.360000610352,2.36000061035156,0,0.000701904296875,NaN,NaN,0,0.0171320104161963,NaN,0.999920677660301,0.00349039647476944,-0.00174520350289266,2.46334820985794e-08,178.83406999855,178.834070023184,,,32.1800000667572,180,0.657646441806917,1.52290808102772
2018-07-19T08:04:23Z,1531987463,10A,40.039859,44.6790693,182.36,0.2,-0.1,119.8,458435.19,-26651.76,114.8,Air+FixedWing,Red,Allies,F-15C,Red F-15C #002,xu,=36=Barbarossa,0,0,0,182.360000610352,2.36000061035156,0,0,NaN,NaN,0,0.0171320104161963,NaN,0.999992251405786,0.00349064631532461,-0.00174532842356712,0,178.83406999855,178.83406999855,,,33.1800000667572,180,0.660045061203975,1.52530676916938
2018-07-19T08:04:24Z,1531987464,10A,40.039859,44.6790693,182.36,0.2,-0.1,119.8,458435.19,-26651.76,114.8,Air+FixedWing,Red,Allies,F-15C,Red F-15C #002,xu,=36=Barbarossa,0,0,0,182.360000610352,2.36000061035156,0,0,NaN,NaN,0,0.0171320104161963,NaN,0.998971164530062,0.00215044296003311,-0.00463627752514201,0,178.83406999855,178.83406999855,,,34.1800000667572,180,0.661929688595067,1.5271914504579
2018-07-19T08:04:25Z,1531987465,10A,40.039859,44.6790693,182.35,0.2,-0.1,119.8,458435.16,-26651.76,114.8,Air+FixedWing,Red,Allies,F-15C,Red F-15C #002,xu,=36=Barbarossa,0.032813989514648,0,9.65930422752845e-05,182.349990844727,2.34999084472656,0.03125,-0.010009765625,NaN,NaN,0,0.0532655904281015,NaN,1.00203326716376,0.00483440990878318,0.001701964140543,5.38378953933716e-05,178.824253771744,178.824307609639,,,35.1800000667572,180,0.663814315986158,1.53737709868959
2018-07-19T08:04:26Z,1531987466,10A,40.039859,44.6790693,182.36,0.2,-0.1,119.8,458435.16,-26651.76,114.8,Air+FixedWing,Red,Allies,F-15C,Red F-15C #002,xu,=36=Barbarossa,0.010009765625,0,2.94652932458584e-05,182.360000610352,2.36000061035156,0,0.010009765625,NaN,NaN,0,0.0171320104161963,NaN,0.998368221600564,0.00482161643270749,0.00115023731162892,5.00977039337158e-06,178.83406999855,178.834075008321,,,36.1800000667572,180,0.663814315986158,1.54738686424974
2018-07-19T08:04:27Z,1531987467,10A,40.039859,44.6790693,182.35,0.2,-0.1,119.8,458435.19,-26651.76,114.8,Air+FixedWing,Red,Allies,F-15C,Red F-15C #002,xu,=36=Barbarossa,0.0318058761303352,0,9.36255092769874e-05,182.354080200195,2.35408020019531,0.03125,-0.00592041015625,NaN,NaN,0,0.0532655904281015,NaN,1.00017858249736,0.00215465766157258,-0.00463838488260672,5.05806878209114e-05,178.828264059525,178.828314640212,,,37.1800000667572,180,0.663814315986158,1.55330727421101
2018-07-19T08:04:28Z,1531987468,10A,40.0398591,44.6790693,182.35,0.2,-0.1,119.8,458435.19,-26651.76,114.8,Air+FixedWing,Red,Allies,F-15C,Red F-15C #002,xu,=36=Barbarossa,0.00408935546875,0,1.20376489270013e-05,182.349990844727,2.34999084472656,0,-0.00408935546875,NaN,NaN,0,0.0171320104161963,NaN,1.00040886324371,0.00215546149640227,-0.00463878680129844,8.36141407489777e-07,178.824253771744,178.824254607885,,,38.1800000667572,180,0.668337426810489,1.55940502202835
2018-07-19T08:04:29Z,1531987469,10A,40.039859,44.6790693,182.35,0.2,-0.1,119.8,458435.16,-26651.76,114.8,Air+FixedWing,Red,Allies,F-15C,Red F-15C #002,xu,=36=Barbarossa,0.03125,0,9.19891977705173e-05,182.349990844727,2.34999084472656,0.03125,0,NaN,NaN,0,0.0171320104161963,NaN,0.999993017459939,0.00616392713876873,0.00404013273447146,4.8828125e-05,178.824253771744,178.824302599869,,,39.1800000667572,180,0.672860537634821,1.56392826241201
2018-07-19T08:04:30Z,1531987470,10A,40.039859,44.6790693,182.35,0.2,-0.1,119.8,458435.19,-26651.76,114.8,Air+FixedWing,Red,Allies,F-15C,Red F-15C #002,xu,=36=Barbarossa,0.03125,0,9.19891977705173e-05,182.349990844727,2.34999084472656,0.03125,0,NaN,NaN,0,0.0171320104161963,NaN,0.999991868378709,0.00215400590360255,-0.0046380590025864,4.8828125e-05,178.824253771744,178.824302599869,,,40.1800000667572,180,0.672860537634821,1.56392826241201
2018-07-19T08:04:31Z,1531987471,10A,40.0398592,44.6790693,182.35,0.1,-0.1,119.8,458435.19,-26651.76,114.8,Air+FixedWing,Red,Allies,F-15C,Red F-15C #002,xu,=36=Barbarossa,0,0,0,182.349990844727,2.34999084472656,0,0,NaN,NaN,0.152395180761324,0.0171320104161963,NaN,0.99999606609714,0.00216087853004462,-0.00174532842356712,0,178.824253771744,178.824253771744,,,41.1800000667572,180,0.688691424543298,1.57975960245007
2018-07-19T08:04:32Z,1531987472,10A,40.0398591,44.6790693,182.35,0.2,-0.1,119.8,458435.19,-26651.76,114.8,Air+FixedWing,Red,Allies,F-15C,Red F-15C #002,xu,=36=Barbarossa,0,0,0,182.349990844727,2.34999084472656,0,0,NaN,NaN,0,0.0171320104161963,NaN,0.999992251405786,0.00349064631532461,-0.00174532842356712,0,178.824253771744,178.824253771744,,,42.1800000667572,180,0.698973340951663,1.59004181267742
2018-07-19T08:04:33Z,1531987473,10A,40.039859,44.6790693,182.35,0.2,-0.1,119.8,458435.19,-26651.76,114.8,Air+FixedWing,Red,Allies,F-15C,Red F-15C #002,xu,=36=Barbarossa,0,0,0,182.349990844727,2.34999084472656,0,0,NaN,NaN,0,0.0171320104161963,NaN,0.999992251405786,0.00349064631532461,-0.00174532842356712,0,178.824253771744,178.824253771744,,,43.1800000667572,180,0.703053465894072,1.59412205430022
2018-07-19T08:04:34Z,1531987474,10A,40.0398591,44.6790693,182.35,0.2,-0.1,119.8,458435.19,-26651.76,114.8,Air+FixedWing,Red,Allies,F-15C,Red F-15C #002,xu,=36=Barbarossa,0,0,0,182.349990844727,2.34999084472656,0,0,NaN,NaN,0.133325292598649,0.0171320104161963,NaN,0.999993805202704,0.00312905774973255,-0.0015782497715622,0,178.824253771744,178.824253771744,,,44.1800000667572,180,0.709500063790607,1.60056883630958
2018-07-19T08:04:35Z,1531987475,10A,40.0398591,44.6790693,182.35,0.2,-0.1,119.8,458435.19,-26651.76,114.8,Air+FixedWing,Red,Allies,F-15C,Red F-15C #002,xu,=36=Barbarossa,0.00390625,0,1.14986497213147e-05,182.349990844727,2.34999084472656,0.00390625,0,NaN,NaN,0,0.0171320104161963,NaN,0.999986036218113,0.00493700057769285,-0.00241364303158679,7.62939453125e-07,178.824253771744,178.824254534683,,,45.1800000667572,180,0.714800998688295,1.60586992290656
2018-07-19T08:04:36Z,1531987476,10A,40.0398591,44.6790693,182.35,0.2,-0.1,119.8,458435.19,-26651.75,114.8,Air+FixedWing,Red,Allies,F-15C,Red F-15C #002,xu,=36=Barbarossa,0.01171875,0,3.4495949163944e-05,182.349990844727,2.34999084472656,0.01171875,0,NaN,NaN,0,0.0171320104161963,NaN,1.00000002039038,0.00168270348736432,-0.000909935163542523,6.866455078125e-06,178.824253771744,178.824260638199,,,46.1800000667572,180,0.720101933585984,1.61117100950354
2018-07-19T08:04:37Z,1531987477,10A,40.0398591,44.6790693,182.35,0.2,-0.1,119.8,458435.19,-26651.76,114.8,Air+FixedWing,Red,Allies,F-15C,Red F-15C #002,xu,=36=Barbarossa,0.0078125,0,2.29972994426293e-05,182.349990844727,2.34999084472656,0.0078125,0,NaN,NaN,0.0761904667068013,0.0171320104161963,NaN,0.999989143811949,0.00421382344650873,-0.00207948572757695,3.0517578125e-06,178.824253771744,178.824256823502,,,47.1800000667572,180,0.721789490139181,1.6128586142921
2018-07-19T08:04:38Z,1531987478,10A,40.039859,44.6790693,182.35,0.2,-0.1,119.8,458435.19,-26651.76,114.8,Air+FixedWing,Red,Allies,F-15C,Red F-15C #002,xu,=36=Barbarossa,0,0,0,182.349990844727,2.34999084472656,0,0,NaN,NaN,0,0.0171320104161963,NaN,1.0000167291294,-0.00363141114587039,-0.00196480057050771,0,178.824253771744,178.824253771744,,,48.1800000667572,180,0.725807482187865,1.61687672105293
2018-07-19T08:04:39Z,1531987479,10A,40.0398587,44.6790688,182.35,1.3,-0.1,119.8,458435.16,-26651.82,114.8,Air+FixedWing,Red,Allies,F-15C,Red F-15C #002,xu,=36=Barbarossa,0.0698771242968684,0,0.000205694099410549,182.349990844727,2.34999084472656,0.0698771242968684,0,NaN,NaN,2.2857142680083,0.0541761800424684,NaN,1.00038395410996,0.0345532328461273,-0.00361489612529269,0.000244140625,178.824253771744,178.824497912369,,,49.1800000667572,180,0.789142074962874,1.68021312511615
2018-07-19T08:04:40Z,1531987480,10A,40.039859,44.6790692,182.36,0.7,-0.1,119.8,458435.16,-26651.78,114.8,Air+FixedWing,Red,Allies,F-15C,Red F-15C #002,xu,=36=Barbarossa,0.0439142859391651,0,0.00012926849114295,182.35905456543,2.35905456542969,0.04296875,0.009063720703125,NaN,NaN,0.51428592374528,0.0541761800424684,NaN,0.998136770516777,0.00734306098002514,0.000346380938695493,9.64232254773378e-05,178.833142245407,178.833238668633,,,50.1800000667572,180,0.841904018181256,1.73374940083382
2018-07-19T08:04:41Z,1531987481,10A,40.0398589,44.6790691,182.35,0.7,-0.1,119.8,458435.16,-26651.79,114.8,Air+FixedWing,Red,Allies,F-15C,Red F-15C #002,xu,=36=Barbarossa,0.0107927433201611,0,3.17701055924713e-05,182.349990844727,2.34999084472656,0.005859375,-0.009063720703125,NaN,NaN,0.409538142633965,0.0504352774299245,NaN,1.0012095687513,0.0187727116890384,-0.001528232485108,5.82416541874409e-06,178.824253771744,178.824259595909,,,51.1800000667572,180,0.854564626462392,1.74932024463898
2018-07-19T08:04:42Z,1531987482,10A,40.0398591,44.6790695,182.35,-0.4,-0.2,119.8,458435.19,-26651.73,114.8,Air+FixedWing,Red,Allies,F-15C,Red F-15C #002,xu,=36=Barbarossa,0.0648313769778506,0,0.000190841172726097,182.354278564453,2.35427856445312,0.0646894342253094,0.0042877197265625,NaN,NaN,1.7809308449458,0.0197823405926261,NaN,0.998993897844458,-0.0199090119205995,-0.00476193074594762,0.000210155372042209,178.828458588409,178.828668743781,,,52.1800000667572,180,0.902855738228617,1.7978027093725
2018-07-19T08:04:43Z,1531987483,10A,40.0398588,44.6790691,182.35,0.3,-0.2,119.8,458435.16,-26651.78,114.8,Air+FixedWing,Red,Allies,F-15C,Red F-15C #002,xu,=36=Barbarossa,0.0581303090604994,0,0.000171115535892082,182.349990844727,2.34999084472656,0.0579719612486556,-0.0042877197265625,NaN,NaN,1.08572687046523,0.0504352774299245,NaN,0.99936681141476,0.0137209290778843,-0.000543510498454859,0.000168956641573459,178.824253771744,178.824422728385,,,53.1800000667572,180,0.952674695507709,1.84780725823982
2018-07-19T08:04:44Z,1531987484,10A,40.0398591,44.6790693,182.34,0.3,-0.2,119.8,458435.19,-26651.76,114.8,Air+FixedWing,Red,Allies,F-15C,Red F-15C #002,xu,=36=Barbarossa,0.0372215414163523,0,0.000109567339127188,182.339996337891,2.33999633789062,0.0358546088880582,-0.0099945068359375,NaN,NaN,0.485708412257947,0.0197823405926261,NaN,1.00100792249234,0.00234611381926524,-0.00555153666793054,6.92721572704613e-05,178.814452508698,178.814521780855,,,54.1800000667572,180,0.982045105337281,1.87883241608241
2018-07-19T08:04:45Z,1531987485,10A,40.0398591,44.6790693,182.34,0.4,-0.2,119.8,458435.19,-26651.76,114.8,Air+FixedWing,Red,Allies,F-15C,Red F-15C #002,xu,=36=Barbarossa,0.001953125,0,5.74932421091985e-06,182.339996337891,2.33999633789062,0.001953125,0,NaN,NaN,0.180969810762602,0.0197823405926261,NaN,0.999964440062769,0.00749892476395829,-0.00407542419470568,1.9073486328125e-07,178.814452508698,178.814452699432,,,55.1800000667572,180,0.984722237232559,1.88150962444859
2018-07-19T08:04:46Z,1531987486,10A,40.0398592,44.6790693,182.34,0.3,-0.2,119.8,458435.19,-26651.75,114.8,Air+FixedWing,Red,Allies,F-15C,Red F-15C #002,xu,=36=Barbarossa,0.01171875,0,3.44959452655191e-05,182.339996337891,2.33999633789062,0.01171875,0,NaN,NaN,0.290048918983484,0.0197823405926261,NaN,0.999996009483923,0.00245394154521783,-0.00257172355795984,6.866455078125e-06,178.814452508698,178.814459375153,,,56.1800000667572,180,0.993252781720059,1.89004041262242
2018-07-19T08:04:47Z,1531987487,10A,40.0398591,44.6790692,182.34,0.2,-0.2,119.8,458435.19,-26651.76,114.8,Air+FixedWing,Red,Allies,F-15C,Red F-15C #002,xu,=36=Barbarossa,0.009765625,0,2.87466210545992e-05,182.339996337891,2.33999633789062,0.009765625,0,NaN,NaN,0,0.0197823405926261,NaN,0.999982988768565,0.00439459895595331,-0.00390834634617836,4.76837158203125e-06,178.814452508698,178.814457277069,,,57.1800000667572,180,1.00647320548591,1.90326121409895
2018-07-19T08:04:48Z,1531987488,10A,40.0398591,44.6790693,182.34,0.2,-0.2,119.8,458435.19,-26651.76,114.8,Air+FixedWing,Red,Allies,F-15C,Red F-15C #002,xu,=36=Barbarossa,0,0,0,182.339996337891,2.33999633789062,0,0,NaN,NaN,0.133333336747222,0.0197823405926261,NaN,0.999987116655795,0.00345124300827735,-0.00374126849765105,0,178.814452508698,178.814452508698,,,58.1800000667572,180,1.01706213180266,1.91385044259123
2018-07-19T08:04:49Z,1531987489,10A,40.0398591,44.6790693,182.34,0.2,-0.2,119.8,458435.19,-26651.75,114.8,Air+FixedWing,Red,Allies,F-15C,Red F-15C #002,xu,=36=Barbarossa,0.005859375,0,1.72479726327595e-05,182.339996337891,2.33999633789062,0.005859375,0,NaN,NaN,0,0.0197823405926261,NaN,0.999990370374561,0.00294824876517719,-0.0032400349520691,1.71661376953125e-06,178.814452508698,178.814454225311,,,59.1800000667572,180,1.01706213180266,1.91385044259123
2018-07-19T08:04:50Z,1531987490,10A,40.0398591,44.6790693,182.34,0.2,-0.2,119.8,458435.19,-26651.75,114.8,Air+FixedWing,Red,Allies,F-15C,Red F-15C #002,xu,=36=Barbarossa,0,0,0,182.339996337891,2.33999633789062,0,0,NaN,NaN,0,0.0197823405926261,NaN,0.999990370374561,0.00294824876517719,-0.0032400349520691,0,178.814452508698,178.814452508698,,,60.1800000667572,180,1.01706213180266,1.91385044259123
2018-07-19T08:04:51Z,1531987491,10A,40.0398591,44.6790693,182.34,0.2,-0.2,119.8,458435.19,-26651.76,114.8,Air+FixedWing,Red,Allies,F-15C,Red F-15C #002,xu,=36=Barbarossa,0.005859375,0,1.72479726327595e-05,182.339996337891,2.33999633789062,0.005859375,0,NaN,NaN,0,0.0197823405926261,NaN,0.999984834170064,0.00403301140825928,-0.00374126849765105,1.71661376953125e-06,178.814452508698,178.814454225311,,,61.1800000667572,180,1.01706856087734,1.91385687202242
2018-07-19T08:04:52Z,1531987492,10A,40.0398591,44.6790693,182.34,0.2,-0.2,119.8,458435.19,-26651.76,114.8,Air+FixedWing,Red,Allies,F-15C,Red F-15C #002,xu,=36=Barbarossa,0,0,0,182.339996337891,2.33999633789062,0,0,NaN,NaN,0,0.0197823405926261,NaN,0.999987602272313,0.00349063008671824,-0.00349065172486007,0,178.814452508698,178.814452508698,,,62.1800000667572,180,1.01707749092897,1.91386580237363
2018-07-19T08:04:53Z,1531987493,10A,40.0398591,44.6790693,182.34,0.2,-0.2,119.8,458435.19,-26651.76,114.8,Air+FixedWing,Red,Allies,F-15C,Red F-15C #002,xu,=36=Barbarossa,0,0,0,182.339996337891,2.33999633789062,0,0,NaN,NaN,0,0.0197823405926261,NaN,0.999987602272313,0.00349063008671824,-0.00349065172486007,0,178.814452508698,178.814452508698,,,63.1800000667572,180,1.01708642092369,1.91387473272483
2018-07-19T08:04:54Z,1531987494,10A,40.0398591,44.6790693,182.34,0.2,-0.2,119.8,458435.19,-26651.76,114.8,Air+FixedWing,Red,Allies,F-15C,Red F-15C #002,xu,=36=Barbarossa,0,0,0,182.339996337891,2.33999633789062,0,0,NaN,NaN,0,0.0197823405926261,NaN,0.999987602272313,0.00349063008671824,-0.00349065172486007,0,178.814452508698,178.814452508698,,,64.1800000667572,180,1.01709535007668,1.91388366187782
2018-07-19T08:04:55Z,1531987495,10A,40.0398591,44.6790693,182.34,0.2,-0.2,119.8,458435.19,-26651.76,114.8,Air+FixedWing,Red,Allies,F-15C,Red F-15C #002,xu,=36=Barbarossa,0,0,0,182.339996337891,2.33999633789062,0,0,NaN,NaN,0,0.0197823405926261,NaN,0.999987602272313,0.00349063008671824,-0.00349065172486007,0,178.814452508698,178.814452508698,,,65.1800000667572,180,1.01710428012831,1.91389259222903
2018-07-19T08:04:56Z,1531987496,10A,40.0398591,44.6790693,182.34,0.2,-0.2,119.8,458435.19,-26651.76,114.8,Air+FixedWing,Red,Allies,F-15C,Red F-15C #002,xu,=36=Barbarossa,0,0,0,182.339996337891,2.33999633789062,0,0,NaN,NaN,0,0.0197823405926261,NaN,0.999987602272313,0.00349063008671824,-0.00349065172486007,0,178.814452508698,178.814452508698,,,66.1800000667572,180,1.01711320976654,1.91390152222375
2018-07-19T08:04:57Z,1531987497,10A,40.0398591,44.6790693,182.34,0.2,-0.2,119.8,458435.19,-26651.76,114.8,Air+FixedWing,Red,Allies,F-15C,Red F-15C #002,xu,=36=Barbarossa,0,0,0,182.339996337891,2.33999633789062,0,0,NaN,NaN,0,0.0197823405926261,NaN,0.999987602272313,0.00349063008671824,-0.00349065172486007,0,178.814452508698,178.814452508698,,,67.1800000667572,180,1.01712213951861,1.91391045197582
2018-07-19T08:04:58Z,1531987498,10A,40.0398591,44.6790693,182.34,0.2,-0.2,119.8,458435.19,-26651.76,114.8,Air+FixedWing,Red,Allies,F-15C,Red F-15C #002,xu,=36=Barbarossa,0,0,0,182.339996337891,2.33999633789062,0,0,NaN,NaN,0,0.0197823405926261,NaN,0.999987602272313,0.00349063008671824,-0.00349065172486007,0,178.814452508698,178.814452508698,,,68.1800000667572,180,1.01713106825809,1.91391938137137
2018-07-19T08:04:59Z,1531987499,10A,40.0398591,44.6790693,182.34,0.2,-0.2,119.8,458435.19,-26651.76,114.8,Air+FixedWing,Red,Allies,F-15C,Red F-15C #002,xu,=36=Barbarossa,0,0,0,182.339996337891,2.33999633789062,0,0,NaN,NaN,0,0.0197823405926261,NaN,0.999987602272313,0.00349063008671824,-0.00349065172486007,0,178.814452508698,178.814452508698,,,69.1800000667572,180,1.01713999830972,1.91392831172258
2018-07-19T08:05:00Z,1531987500,10A,40.0398591,44.6790693,182.34,0.2,-0.2,119.8,458435.19,-26651.76,114.8,Air+FixedWing,Red,Allies,F-15C,Red F-15C #002,xu,=36=Barbarossa,0,0,0,182.339996337891,2.33999633789062,0,0,NaN,NaN,0,0.0197823405926261,NaN,0.999987602272313,0.00349063008671824,-0.00349065172486007,0,178.814452508698,178.814452508698,,,70.1800000667572,180,1.01714892866093,1.91393724177421
2018-07-19T08:05:01Z,1531987501,10A,40.0398591,44.6790693,182.34,0.2,-0.2,119.8,458435.19,-26651.76,114.8,Air+FixedWing,Red,Allies,F-15C,Red F-15C #002,xu,=36=Barbarossa,0,0,0,182.339996337891,2.33999633789062,0,0,NaN,NaN,0,0.0197823405926261,NaN,0.999987602272313,0.00349063008671824,-0.00349065172486007,0,178.814452508698,178.814452508698,,,71.1800000667572,180,1.01715785745738,1.91394617122673
2018-07-19T08:05:02Z,1531987502,10A,40.0398591,44.6790693,182.34,0.2,-0.2,119.8,458435.19,-26651.76,114.8,Air+FixedWing,Red,Allies,F-15C,Red F-15C #002,xu,=36=Barbarossa,0,0,0,182.339996337891,2.33999633789062,0,0,NaN,NaN,0,0.0197823405926261,NaN,0.999987602272313,0.00349063008671824,-0.00349065172486007,0,178.814452508698,178.814452508698,,,72.1800000667572,180,1.0171667871525,1.91395510122145
2018-07-19T08:05:03Z,1531987503,10A,40.0398591,44.6790693,182.34,0.2,-0.2,119.8,458435.19,-26651.76,114.8,Air+FixedWing,Red,Allies,F-15C,Red F-15C #002,xu,=36=Barbarossa,0,0,0,182.339996337891,2.33999633789062,0,0,NaN,NaN,0,0.0197823405926261,NaN,0.999987602272313,0.00349063008671824,-0.00349065172486007,0,178.814452508698,178.814452508698,,,73.1800000667572,180,1.01717571714722,1.91396403127308
2018-07-19T08:05:04Z,1531987504,10A,40.0398591,44.6790693,182.34,0.2,-0.2,119.8,458435.19,-26651.76,114.8,Air+FixedWing,Red,Allies,F-15C,Red F-15C #002,xu,=36=Barbarossa,0,0,0,182.339996337891,2.33999633789062,0,0,NaN,NaN,0,0.0197823405926261,NaN,0.999987602272313,0.00349063008671824,-0.00349065172486007,0,178.814452508698,178.814452508698,,,74.1800000667572,180,1.01718464719885,1.91397296162428
2018-07-19T08:05:05Z,1531987505,10A,40.0398591,44.6790693,182.34,0.2,-0.2,119.8,458435.19,-26651.76,114.8,Air+FixedWing,Red,Allies,F-15C,Red F-15C #002,xu,=36=Barbarossa,0,0,0,182.339996337891,2.33999633789062,0,0,NaN,NaN,0,0.0197823405926261,NaN,0.999987602272313,0.00349063008671824,-0.00349065172486007,0,178.814452508698,178.814452508698,,,75.1800000667572,180,1.01719357635184,1.91398189107681
2018-07-19T08:05:06Z,1531987506,10A,40.0398591,44.6790693,182.34,0.2,-0.2,119.8,458435.19,-26651.76,114.8,Air+FixedWing,Red,Allies,F-15C,Red F-15C #002,xu,=36=Barbarossa,0,0,0,182.339996337891,2.33999633789062,0,0,NaN,NaN,0,0.0197823405926261,NaN,0.999987602272313,0.00349063008671824,-0.00349065172486007,0,178.814452508698,178.814452508698,,,76.1800000667572,180,1.01720250634655,1.91399082112844
2018-07-19T08:05:07Z,1531987507,10A,40.0398591,44.6790693,182.34,0.2,-0.2,119.8,458435.19,-26651.76,114.8,Air+FixedWing,Red,Allies,F-15C,Red F-15C #002,xu,=36=Barbarossa,0,0,0,182.339996337891,2.33999633789062,0,0,NaN,NaN,0,0.0197823405926261,NaN,0.999987602272313,0.00349063008671824,-0.00349065172486007,0,178.814452508698,178.814452508698,,,77.1800000667572,180,1.01721143604168,1.91399975112315
2018-07-19T08:05:08Z,1531987508,10A,40.0398591,44.6790693,182.34,0.2,-0.2,119.8,458435.19,-26651.76,114.8,Air+FixedWing,Red,Allies,F-15C,Red F-15C #002,xu,=36=Barbarossa,0,0,0,182.339996337891,2.33999633789062,0,0,NaN,NaN,0,0.0197823405926261,NaN,0.999987602272313,0.00349063008671824,-0.00349065172486007,0,178.814452508698,178.814452508698,,,78.1800000667572,180,1.01722036513767,1.91400868087522
2018-07-19T08:05:09Z,1531987509,10A,40.0398591,44.6790693,182.34,0.2,-0.2,119.8,458435.19,-26651.76,114.8,Air+FixedWing,Red,Allies,F-15C,Red F-15C #002,xu,=36=Barbarossa,0,0,0,182.339996337891,2.33999633789062,0,0,NaN,NaN,0,0.0197823405926261,NaN,0.999987602272313,0.00349063008671824,-0.00349065172486007,0,178.814452508698,178.814452508698,,,79.1800000667572,180,1.0172292948328,1.91401761027078
2018-07-19T08:05:10Z,1531987510,10A,40.0398591,44.6790693,182.34,0.2,-0.2,119.8,458435.19,-26651.76,114.8,Air+FixedWing,Red,Allies,F-15C,Red F-15C #002,xu,=36=Barbarossa,0,0,0,182.339996337891,2.33999633789062,0,0,NaN,NaN,0,0.0197823405926261,NaN,0.999987602272313,0.00349063008671824,-0.00349065172486007,0,178.814452508698,178.814452508698,,,80.1800000667572,180,1.01723822452793,1.91402654062198
2018-07-19T08:05:11Z,1531987511,10A,40.0398591,44.6790693,182.34,0.2,-0.2,119.8,458435.19,-26651.76,114.8,Air+FixedWing,Red,Allies,F-15C,Red F-15C #002,xu,=36=Barbarossa,0,0,0,182.339996337891,2.33999633789062,0,0,NaN,NaN,0,0.0197823405926261,NaN,0.999987602272313,0.00349063008671824,-0.00349065172486007,0,178.814452508698,178.814452508698,,,81.1800000667572,180,1.01724715487913,1.91403547097319
2018-07-19T08:05:12Z,1531987512,10A,40.0398591,44.6790693,182.34,0.2,-0.2,119.8,458435.19,-26651.76,114.8,Air+FixedWing,Red,Allies,F-15C,Red F-15C #002,xu,=36=Barbarossa,0,0,0,182.339996337891,2.33999633789062,0,0,NaN,NaN,0,0.0197823405926261,NaN,0.999987602272313,0.00349063008671824,-0.00349065172486007,0,178.814452508698,178.814452508698,,,82.1800000667572,180,1.01725608403212,1.91404440012618
2018-07-19T08:05:13Z,1531987513,10A,40.0398591,44.6790693,182.34,0.2,-0.2,119.8,458435.19,-26651.76,114.8,Air+FixedWing,Red,Allies,F-15C,Red F-15C #002,xu,=36=Barbarossa,0,0,0,182.339996337891,2.33999633789062,0,0,NaN,NaN,0,0.0197823405926261,NaN,0.999987602272313,0.00349063008671824,-0.00349065172486007,0,178.814452508698,178.814452508698,,,83.1800000667572,180,1.01726501402684,1.91405333077698
2018-07-19T08:05:14Z,1531987514,10A,40.0398591,44.6790693,182.34,0.2,-0.2,119.8,458435.19,-26651.76,114.8,Air+FixedWing,Red,Allies,F-15C,Red F-15C #002,xu,=36=Barbarossa,0,0,0,182.339996337891,2.33999633789062,0,0,NaN,NaN,0,0.0197823405926261,NaN,0.999987602272313,0.00349063008671824,-0.00349065172486007,0,178.814452508698,178.814452508698,,,84.1800000667572,180,1.01727394377891,1.91406226082861
2018-07-19T08:05:15Z,1531987515,10A,40.0398591,44.6790693,182.34,0.2,-0.2,119.8,458435.19,-26651.76,114.8,Air+FixedWing,Red,Allies,F-15C,Red F-15C #002,xu,=36=Barbarossa,0,0,0,182.339996337891,2.33999633789062,0,0,NaN,NaN,0,0.0197823405926261,NaN,0.999987602272313,0.00349063008671824,-0.00349065172486007,0,178.814452508698,178.814452508698,,,85.1800000667572,180,1.01728287353098,1.91407119058068
2018-07-19T08:05:16Z,1531987516,10A,40.0398591,44.6790693,182.34,0.2,-0.2,119.8,458435.19,-26651.76,114.8,Air+FixedWing,Red,Allies,F-15C,Red F-15C #002,xu,=36=Barbarossa,0,0,0,182.339996337891,2.33999633789062,0,0,NaN,NaN,0,0.0197823405926261,NaN,0.999987602272313,0.00349063008671824,-0.00349065172486007,0,178.814452508698,178.814452508698,,,86.1800000667572,180,1.01729180286961,1.91408012027581
2018-07-19T08:05:17Z,1531987517,10A,40.0398591,44.6790693,182.34,0.2,-0.2,119.8,458435.19,-26651.76,114.8,Air+FixedWing,Red,Allies,F-15C,Red F-15C #002,xu,=36=Barbarossa,0,0,0,182.339996337891,2.33999633789062,0,0,NaN,NaN,0,0.0197823405926261,NaN,0.999987602272313,0.00349063008671824,-0.00349065172486007,0,178.814452508698,178.814452508698,,,87.1800000667572,180,1.01730073322082,1.91408905062701
2018-07-19T08:05:18Z,1531987518,10A,40.0398591,44.6790693,182.34,0.2,-0.2,119.8,458435.19,-26651.76,114.8,Air+FixedWing,Red,Allies,F-15C,Red F-15C #002,xu,=36=Barbarossa,0,0,0,182.339996337891,2.33999633789062,0,0,NaN,NaN,0,0.0197823405926261,NaN,0.999987602272313,0.00349063008671824,-0.00349065172486007,0,178.814452508698,178.814452508698,,,88.1800000667572,180,1.01730966255945,1.91409798062173
2018-07-19T08:05:19Z,1531987519,10A,40.0398591,44.6790693,182.34,0.2,-0.2,119.8,458435.19,-26651.76,114.8,Air+FixedWing,Red,Allies,F-15C,Red F-15C #002,xu,=36=Barbarossa,0,0,0,182.339996337891,2.33999633789062,0,0,NaN,NaN,0,0.0197823405926261,NaN,0.999987602272313,0.00349063008671824,-0.00349065172486007,0,178.814452508698,178.814452508698,,,89.1800000667572,180,1.01731859171244,1.91410690977472
2018-07-19T08:05:20Z,1531987520,10A,40.0398591,44.6790693,182.34,0.2,-0.2,119.8,458435.19,-26651.76,114.8,Air+FixedWing,Red,Allies,F-15C,Red F-15C #002,xu,=36=Barbarossa,0,0,0,182.339996337891,2.33999633789062,0,0,NaN,NaN,0,0.0197823405926261,NaN,0.999987602272313,0.00349063008671824,-0.00349065172486007,0,178.814452508698,178.814452508698,,,90.1800000667572,180,1.01732752140757,1.91411584012593
2018-07-19T08:05:21Z,1531987521,10A,40.0398591,44.6790693,182.34,0.2,-0.2,119.8,458435.19,-26651.76,114.8,Air+FixedWing,Red,Allies,F-15C,Red F-15C #002,xu,=36=Barbarossa,0,0,0,182.339996337891,2.33999633789062,0,0,NaN,NaN,0,0.0197823405926261,NaN,0.999987602272313,0.00349063008671824,-0.00349065172486007,0,178.814452508698,178.814452508698,,,91.1800000667572,180,1.01733645175878,1.91412477047713
2018-07-19T08:05:22Z,1531987522,10A,40.0398591,44.6790693,182.34,0.2,-0.2,119.8,458435.19,-26651.76,114.8,Air+FixedWing,Red,Allies,F-15C,Red F-15C #002,xu,=36=Barbarossa,0,0,0,182.339996337891,2.33999633789062,0,0,NaN,NaN,0,0.0197823405926261,NaN,0.999987602272313,0.00349063008671824,-0.00349065172486007,0,178.814452508698,178.814452508698,,,92.1800000667572,180,1.01734538091177,1.91413369963012
2018-07-19T08:05:23Z,1531987523,10A,40.0398591,44.6790693,182.34,0.2,-0.2,119.8,458435.19,-26651.76,114.8,Air+FixedWing,Red,Allies,F-15C,Red F-15C #002,xu,=36=Barbarossa,0,0,0,182.339996337891,2.33999633789062,0,0,NaN,NaN,0,0.0197823405926261,NaN,0.999987602272313,0.00349063008671824,-0.00349065172486007,0,178.814452508698,178.814452508698,,,93.1800000667572,180,1.0173543102504,1.91414262962484
2018-07-19T08:05:24Z,1531987524,10A,40.0398591,44.6790693,182.34,0.2,-0.2,119.8,458435.19,-26651.76,114.8,Air+FixedWing,Red,Allies,F-15C,Red F-15C #002,xu,=36=Barbarossa,0,0,0,182.339996337891,2.33999633789062,0,0,NaN,NaN,0,0.0197823405926261,NaN,0.999987602272313,0.00349063008671824,-0.00349065172486007,0,178.814452508698,178.814452508698,,,94.1800000667572,180,1.01736324060161,1.91415155997604
2018-07-19T08:05:25Z,1531987525,10A,40.0398591,44.6790693,182.34,0.2,-0.2,119.8,458435.19,-26651.76,114.8,Air+FixedWing,Red,Allies,F-15C,Red F-15C #002,xu,=36=Barbarossa,0,0,0,182.339996337891,2.33999633789062,0,0,NaN,NaN,0,0.0197823405926261,NaN,0.999987602272313,0.00349063008671824,-0.00349065172486007,0,178.814452508698,178.814452508698,,,95.1800000667572,180,1.01737217029673,1.91416049032725
2018-07-19T08:05:26Z,1531987526,10A,40.0398591,44.6790693,182.34,0.2,-0.2,119.8,458435.19,-26651.76,114.8,Air+FixedWing,Red,Allies,F-15C,Red F-15C #002,xu,=36=Barbarossa,0,0,0,182.339996337891,2.33999633789062,0,0,NaN,NaN,0,0.0197823405926261,NaN,0.999987602272313,0.00349063008671824,-0.00349065172486007,0,178.814452508698,178.814452508698,,,96.1800000667572,180,1.01738109944972,1.91416941948024
2018-07-19T08:05:27Z,1531987527,10A,40.0398591,44.6790693,182.34,0.2,-0.2,119.8,458435.19,-26651.76,114.8,Air+FixedWing,Red,Allies,F-15C,Red F-15C #002,xu,=36=Barbarossa,0,0,0,182.339996337891,2.33999633789062,0,0,NaN,NaN,0,0.0197823405926261,NaN,0.999987602272313,0.00349063008671824,-0.00349065172486007,0,178.814452508698,178.814452508698,,,97.1800000667572,180,1.01739002944444,1.91417834947496
2018-07-19T08:05:28Z,1531987528,10A,40.0398591,44.6790693,182.34,0.2,-0.2,119.8,458435.19,-26651.76,114.8,Air+FixedWing,Red,Allies,F-15C,Red F-15C #002,xu,=36=Barbarossa,0,0,0,182.339996337891,2.33999633789062,0,0,NaN,NaN,0,0.0197823405926261,NaN,0.999987602272313,0.00349063008671824,-0.00349065172486007,0,178.814452508698,178.814452508698,,,98.1800000667572,180,1.01739895913956,1.91418727982616
2018-07-19T08:05:29Z,1531987529,10A,40.0398591,44.6790693,182.34,0.2,-0.2,119.8,458435.19,-26651.76,114.8,Air+FixedWing,Red,Allies,F-15C,Red F-15C #002,xu,=36=Barbarossa,0,0,0,182.339996337891,2.33999633789062,0,0,NaN,NaN,0,0.0197823405926261,NaN,0.999987602272313,0.00349063008671824,-0.00349065172486007,0,178.814452508698,178.814452508698,,,99.1800000667572,180,1.01740788823556,1.91419620892216
2018-07-19T08:05:30Z,1531987530,10A,40.0398591,44.6790693,182.34,0.2,-0.2,119.8,458435.19,-26651.76,114.8,Air+FixedWing,Red,Allies,F-15C,Red F-15C #002,xu,=36=Barbarossa,0,0,0,182.339996337891,2.33999633789062,0,0,NaN,NaN,0,0.0197823405926261,NaN,0.999987602272313,0.00349063008671824,-0.00349065172486007,0,178.814452508698,178.814452508698,,,100.180000066757,180,1.01741681793068,1.91420513897379
2018-07-19T08:05:31Z,1531987531,10A,40.0398591,44.6790693,182.34,0.2,-0.2,119.8,458435.19,-26651.76,114.8,Air+FixedWing,Red,Allies,F-15C,Red F-15C #002,xu,=36=Barbarossa,0,0,0,182.339996337891,2.33999633789062,0,0,NaN,NaN,0,0.0197823405926261,NaN,0.999987602272313,0.00349063008671824,-0.00349065172486007,0,178.814452508698,178.814452508698,,,101.180000066757,180,1.01742574798232,1.914214069325
2018-07-19T08:05:32Z,1531987532,10A,40.0398591,44.6790693,182.34,0.2,-0.2,119.8,458435.19,-26651.76,114.8,Air+FixedWing,Red,Allies,F-15C,Red F-15C #002,xu,=36=Barbarossa,0,0,0,182.339996337891,2.33999633789062,0,0,NaN,NaN,0,0.0197823405926261,NaN,0.999987602272313,0.00349063008671824,-0.00349065172486007,0,178.814452508698,178.814452508698,,,102.180000066757,180,1.01743467833352,1.91422299937663
2018-07-19T08:05:33Z,1531987533,10A,40.0398591,44.6790693,182.34,0.2,-0.2,119.8,458435.19,-26651.76,114.8,Air+FixedWing,Red,Allies,F-15C,Red F-15C #002,xu,=36=Barbarossa,0,0,0,182.339996337891,2.33999633789062,0,0,NaN,NaN,0,0.0197823405926261,NaN,0.999987602272313,0.00349063008671824,-0.00349065172486007,0,178.814452508698,178.814452508698,,,103.180000066757,180,1.01744360742952,1.9142319291287
2018-07-19T08:05:34Z,1531987534,10A,40.0398591,44.6790693,182.34,0.2,-0.2,119.8,458435.19,-26651.76,114.8,Air+FixedWing,Red,Allies,F-15C,Red F-15C #002,xu,=36=Barbarossa,0,0,0,182.339996337891,2.33999633789062,0,0,NaN,NaN,0,0.0197823405926261,NaN,0.999987602272313,0.00349063008671824,-0.00349065172486007,0,178.814452508698,178.814452508698,,,104.180000066757,180,1.01745253748115,1.91424085947991
2018-07-19T08:05:35Z,1531987535,10A,40.0398591,44.6790693,182.34,0.2,-0.2,119.8,458435.19,-26651.76,114.8,Air+FixedWing,Red,Allies,F-15C,Red F-15C #002,xu,=36=Barbarossa,0,0,0,182.339996337891,2.33999633789062,0,0,NaN,NaN,0,0.0197823405926261,NaN,0.999987602272313,0.00349063008671824,-0.00349065172486007,0,178.814452508698,178.814452508698,,,105.180000066757,180,1.01746146747586,1.91424978953154
2018-07-19T08:05:36Z,1531987536,10A,40.0398591,44.6790693,182.34,0.2,-0.2,119.8,458435.19,-26651.76,114.8,Air+FixedWing,Red,Allies,F-15C,Red F-15C #002,xu,=36=Barbarossa,0,0,0,182.339996337891,2.33999633789062,0,0,NaN,NaN,0,0.0197823405926261,NaN,0.999987602272313,0.00349063008671824,-0.00349065172486007,0,178.814452508698,178.814452508698,,,106.180000066757,180,1.01747039627231,1.91425871862753
2018-07-19T08:05:37Z,1531987537,10A,40.0398591,44.6790693,182.34,0.2,-0.2,119.8,458435.19,-26651.76,114.8,Air+FixedWing,Red,Allies,F-15C,Red F-15C #002,xu,=36=Barbarossa,0,0,0,182.339996337891,2.33999633789062,0,0,NaN,NaN,0,0.0197823405926261,NaN,0.999987602272313,0.00349063008671824,-0.00349065172486007,0,178.814452508698,178.814452508698,,,107.180000066757,180,1.01747932632394,1.91426764897874
2018-07-19T08:05:38Z,1531987538,10A,40.0398591,44.6790693,182.34,0.2,-0.2,119.8,458435.19,-26651.76,114.8,Air+FixedWing,Red,Allies,F-15C,Red F-15C #002,xu,=36=Barbarossa,0,0,0,182.339996337891,2.33999633789062,0,0,NaN,NaN,0,0.0197823405926261,NaN,0.999987602272313,0.00349063008671824,-0.00349065172486007,0,178.814452508698,178.814452508698,,,108.180000066757,180,1.01748825596218,1.91427657867387
2018-07-19T08:05:39Z,1531987539,10A,40.0398591,44.6790693,182.34,0.2,-0.2,119.8,458435.19,-26651.76,114.8,Air+FixedWing,Red,Allies,F-15C,Red F-15C #002,xu,=36=Barbarossa,0,0,0,182.339996337891,2.33999633789062,0,0,NaN,NaN,0,0.0197823405926261,NaN,0.999987602272313,0.00349063008671824,-0.00349065172486007,0,178.814452508698,178.814452508698,,,109.180000066757,180,1.01749718601381,1.91428550902507
2018-07-19T08:05:40Z,1531987540,10A,40.0398591,44.6790693,182.34,0.2,-0.2,119.8,458435.19,-26651.76,114.8,Air+FixedWing,Red,Allies,F-15C,Red F-15C #002,xu,=36=Barbarossa,0,0,0,182.339996337891,2.33999633789062,0,0,NaN,NaN,0,0.0197823405926261,NaN,0.999987602272313,0.00349063008671824,-0.00349065172486007,0,178.814452508698,178.814452508698,,,110.180000066757,180,1.01750611481026,1.9142944384776
2018-07-19T08:05:41Z,1531987541,10A,40.0398591,44.6790693,182.34,0.2,-0.2,119.8,458435.19,-26651.76,114.8,Air+FixedWing,Red,Allies,F-15C,Red F-15C #002,xu,=36=Barbarossa,0,0,0,182.339996337891,2.33999633789062,0,0,NaN,NaN,0,0.0197823405926261,NaN,0.999987602272313,0.00349063008671824,-0.00349065172486007,0,178.814452508698,178.814452508698,,,111.180000066757,180,1.01751504486189,1.91430336852923
2018-07-19T08:05:42Z,1531987542,10A,40.0398591,44.6790693,182.34,0.2,-0.2,119.8,458435.19,-26651.76,114.8,Air+FixedWing,Red,Allies,F-15C,Red F-15C #002,xu,=36=Barbarossa,0,0,0,182.339996337891,2.33999633789062,0,0,NaN,NaN,0,0.0197823405926261,NaN,0.999987602272313,0.00349063008671824,-0.00349065172486007,0,178.814452508698,178.814452508698,,,112.180000066757,180,1.0175239752131,1.91431229888043
2018-07-19T08:05:43Z,1531987543,10A,40.0398591,44.6790693,182.34,0.2,-0.2,119.8,458435.19,-26651.76,114.8,Air+FixedWing,Red,Allies,F-15C,Red F-15C #002,xu,=36=Barbarossa,0,0,0,182.339996337891,2.33999633789062,0,0,NaN,NaN,0,0.0197823405926261,NaN,0.999987602272313,0.00349063008671824,-0.00349065172486007,0,178.814452508698,178.814452508698,,,113.180000066757,180,1.01753290365302,1.91432122797643
2018-07-19T08:05:44Z,1531987544,10A,40.0398591,44.6790693,182.34,0.2,-0.2,119.8,458435.19,-26651.76,114.8,Air+FixedWing,Red,Allies,F-15C,Red F-15C #002,xu,=36=Barbarossa,0,0,0,182.339996337891,2.33999633789062,0,0,NaN,NaN,0,0.0197823405926261,NaN,0.999987602272313,0.00349063008671824,-0.00349065172486007,0,178.814452508698,178.814452508698,,,114.180000066757,180,1.01754183370465,1.91433015802806
2018-07-19T08:05:45Z,1531987545,10A,40.0398591,44.6790693,182.34,0.2,-0.2,119.8,458435.19,-26651.76,114.8,Air+FixedWing,Red,Allies,F-15C,Red F-15C #002,xu,=36=Barbarossa,0,0,0,182.339996337891,2.33999633789062,0,0,NaN,NaN,0,0.0197823405926261,NaN,0.999987602272313,0.00349063008671824,-0.00349065172486007,0,178.814452508698,178.814452508698,,,115.180000066757,180,1.01755076369936,1.91433908837927
2018-07-19T08:05:46Z,1531987546,10A,40.0398591,44.6790693,182.34,0.2,-0.2,119.8,458435.19,-26651.76,114.8,Air+FixedWing,Red,Allies,F-15C,Red F-15C #002,xu,=36=Barbarossa,0,0,0,182.339996337891,2.33999633789062,0,0,NaN,NaN,0,0.0197823405926261,NaN,0.999987602272313,0.00349063008671824,-0.00349065172486007,0,178.814452508698,178.814452508698,,,116.180000066757,180,1.01755969375099,1.91434801873047
2018-07-19T08:05:47Z,1531987547,10A,40.0398591,44.6790693,182.34,0.2,-0.2,119.8,458435.19,-26651.76,114.8,Air+FixedWing,Red,Allies,F-15C,Red F-15C #002,xu,=36=Barbarossa,0,0,0,182.339996337891,2.33999633789062,0,0,NaN,NaN,0,0.0197823405926261,NaN,0.999987602272313,0.00349063008671824,-0.00349065172486007,0,178.814452508698,178.814452508698,,,117.180000066757,180,1.01756862219091,1.91435694752692
2018-07-19T08:05:48Z,1531987548,10A,40.0398591,44.6790693,182.34,0.2,-0.2,119.8,458435.19,-26651.76,114.8,Air+FixedWing,Red,Allies,F-15C,Red F-15C #002,xu,=36=Barbarossa,0,0,0,182.339996337891,2.33999633789062,0,0,NaN,NaN,0,0.0197823405926261,NaN,0.999987602272313,0.00349063008671824,-0.00349065172486007,0,178.814452508698,178.814452508698,,,118.180000066757,180,1.01757755254212,1.91436587787813
2018-07-19T08:05:49Z,1531987549,10A,40.0398591,44.6790693,182.34,0.2,-0.2,119.8,458435.19,-26651.76,114.8,Air+FixedWing,Red,Allies,F-15C,Red F-15C #002,xu,=36=Barbarossa,0,0,0,182.339996337891,2.33999633789062,0,0,NaN,NaN,0,0.0197823405926261,NaN,0.999987602272313,0.00349063008671824,-0.00349065172486007,0,178.814452508698,178.814452508698,,,119.180000066757,180,1.01758648259375,1.91437480822934
2018-07-19T08:05:50Z,1531987550,10A,40.0398591,44.6790693,182.34,0.2,-0.2,119.8,458435.19,-26651.76,114.8,Air+FixedWing,Red,Allies,F-15C,Red F-15C #002,xu,=36=Barbarossa,0,0,0,182.339996337891,2.33999633789062,0,0,NaN,NaN,0,0.0197823405926261,NaN,0.999987602272313,0.00349063008671824,-0.00349065172486007,0,178.814452508698,178.814452508698,,,120.180000066757,180,1.01759541133323,1.91438373762489
2018-07-19T08:05:51Z,1531987551,10A,40.0398591,44.6790693,182.34,0.2,-0.2,119.8,458435.19,-26651.76,114.8,Air+FixedWing,Red,Allies,F-15C,Red F-15C #002,xu,=36=Barbarossa,0,0,0,182.339996337891,2.33999633789062,0,0,NaN,NaN,0,0.0197823405926261,NaN,0.999987602272313,0.00349063008671824,-0.00349065172486007,0,178.814452508698,178.814452508698,,,121.180000066757,180,1.01760434168443,1.91439266767652
2018-07-19T08:05:52Z,1531987552,10A,40.0398591,44.6790693,182.34,0.2,-0.2,119.8,458435.19,-26651.76,114.8,Air+FixedWing,Red,Allies,F-15C,Red F-15C #002,xu,=36=Barbarossa,0,0,0,182.339996337891,2.33999633789062,0,0,NaN,NaN,0,0.0197823405926261,NaN,0.999987602272313,0.00349063008671824,-0.00349065172486007,0,178.814452508698,178.814452508698,,,122.180000066757,180,1.01761327137956,1.91440159802773
2018-07-19T08:05:53Z,1531987553,10A,40.0398591,44.6790693,182.34,0.2,-0.2,119.8,458435.19,-26651.76,114.8,Air+FixedWing,Red,Allies,F-15C,Red F-15C #002,xu,=36=Barbarossa,0,0,0,182.339996337891,2.33999633789062,0,0,NaN,NaN,0,0.0197823405926261,NaN,0.999987602272313,0.00349063008671824,-0.00349065172486007,0,178.814452508698,178.814452508698,,,123.180000066757,180,1.01762220143119,1.91441052843588
2018-07-19T08:05:54Z,1531987554,10A,40.0398591,44.6790693,182.34,0.2,-0.2,119.8,458435.19,-26651.76,114.8,Air+FixedWing,Red,Allies,F-15C,Red F-15C #002,xu,=36=Barbarossa,0,0,0,182.339996337891,2.33999633789062,0,0,NaN,NaN,0,0.0197823405926261,NaN,0.999987602272313,0.00349063008671824,-0.00349065172486007,0,178.814452508698,178.814452508698,,,124.180000066757,180,1.01763113088371,1.9144194578884
2018-07-19T08:05:55Z,1531987555,10A,40.0398591,44.6790693,182.34,0.2,-0.2,119.8,458435.19,-26651.76,114.8,Air+FixedWing,Red,Allies,F-15C,Red F-15C #002,xu,=36=Barbarossa,0,0,0,182.339996337891,2.33999633789062,0,0,NaN,NaN,0,0.0197823405926261,NaN,0.999987602272313,0.00349063008671824,-0.00349065172486007,0,178.814452508698,178.814452508698,,,125.180000066757,180,1.01764006057884,1.91442838823961
2018-07-19T08:05:56Z,1531987556,10A,40.0398591,44.6790693,182.34,0.2,-0.2,119.8,458435.19,-26651.76,114.8,Air+FixedWing,Red,Allies,F-15C,Red F-15C #002,xu,=36=Barbarossa,0,0,0,182.339996337891,2.33999633789062,0,0,NaN,NaN,0,0.0197823405926261,NaN,0.999987602272313,0.00349063008671824,-0.00349065172486007,0,178.814452508698,178.814452508698,,,126.180000066757,180,1.01764899057356,1.91443731823432
2018-07-19T08:05:57Z,1531987557,10A,40.0398591,44.6790693,182.34,0.2,-0.2,119.8,458435.19,-26651.76,114.8,Air+FixedWing,Red,Allies,F-15C,Red F-15C #002,xu,=36=Barbarossa,0,0,0,182.339996337891,2.33999633789062,0,0,NaN,NaN,0,0.0197823405926261,NaN,0.999987602272313,0.00349063008671824,-0.00349065172486007,0,178.814452508698,178.814452508698,,,127.180000066757,180,1.01765791937001,1.91444624738731
2018-07-19T08:05:58Z,1531987558,10A,40.0398591,44.6790693,182.34,0.2,-0.2,119.8,458435.19,-26651.76,114.8,Air+FixedWing,Red,Allies,F-15C,Red F-15C #002,xu,=36=Barbarossa,0,0,0,182.339996337891,2.33999633789062,0,0,NaN,NaN,0,0.0197823405926261,NaN,0.999987602272313,0.00349063008671824,-0.00349065172486007,0,178.814452508698,178.814452508698,,,128.180000066757,180,1.01766684906513,1.91445517738203
2018-07-19T08:05:59Z,1531987559,10A,40.0398591,44.6790693,182.34,0.2,-0.2,119.8,458435.19,-26651.76,114.8,Air+FixedWing,Red,Allies,F-15C,Red F-15C #002,xu,=36=Barbarossa,0,0,0,182.339996337891,2.33999633789062,0,0,NaN,NaN,0,0.0197823405926261,NaN,0.999987602272313,0.00349063008671824,-0.00349065172486007,0,178.814452508698,178.814452508698,,,129.180000066757,180,1.01767577941634,1.91446410773323
2018-07-19T08:06:00Z,1531987560,10A,40.0398591,44.6790693,182.34,0.2,-0.2,119.8,458435.19,-26651.76,114.8,Air+FixedWing,Red,Allies,F-15C,Red F-15C #002,xu,=36=Barbarossa,0,0,0,182.339996337891,2.33999633789062,0,0,NaN,NaN,0,0.0197823405926261,NaN,0.999987602272313,0.00349063008671824,-0.00349065172486007,0,178.814452508698,178.814452508698,,,130.180000066757,180,1.01768470911147,1.91447303808444
2018-07-19T08:06:01Z,1531987561,10A,40.0398591,44.6790693,182.34,0.2,-0.2,119.8,458435.19,-26651.76,114.8,Air+FixedWing,Red,Allies,F-15C,Red F-15C #002,xu,=36=Barbarossa,0,0,0,182.339996337891,2.33999633789062,0,0,NaN,NaN,0,0.0197823405926261,NaN,0.999987602272313,0.00349063008671824,-0.00349065172486007,0,178.814452508698,178.814452508698,,,131.180000066757,180,1.01769363826446,1.91448196723743
2018-07-19T08:06:02Z,1531987562,10A,40.0398591,44.6790693,182.34,0.2,-0.2,119.8,458435.19,-26651.76,114.8,Air+FixedWing,Red,Allies,F-15C,Red F-15C #002,xu,=36=Barbarossa,0,0,0,182.339996337891,2.33999633789062,0,0,NaN,NaN,0,0.0197823405926261,NaN,0.999987602272313,0.00349063008671824,-0.00349065172486007,0,178.814452508698,178.814452508698,,,132.180000066757,180,1.01770256795958,1.91449089758864
2018-07-19T08:06:03Z,1531987563,10A,40.0398591,44.6790693,182.34,0.2,-0.2,119.8,458435.19,-26651.76,114.8,Air+FixedWing,Red,Allies,F-15C,Red F-15C #002,xu,=36=Barbarossa,0,0,0,182.339996337891,2.33999633789062,0,0,NaN,NaN,0,0.0197823405926261,NaN,0.999987602272313,0.00349063008671824,-0.00349065172486007,0,178.814452508698,178.814452508698,,,133.180000066757,180,1.01771149705558,1.91449982638509
2018-07-19T08:06:04Z,1531987564,10A,40.0398591,44.6790693,182.34,0.2,-0.2,119.8,458435.19,-26651.76,114.8,Air+FixedWing,Red,Allies,F-15C,Red F-15C #002,xu,=36=Barbarossa,0,0,0,182.339996337891,2.33999633789062,0,0,NaN,NaN,0,0.0197823405926261,NaN,0.999987602272313,0.00349063008671824,-0.00349065172486007,0,178.814452508698,178.814452508698,,,134.180000066757,180,1.01772042710721,1.91450875673629
2018-07-19T08:06:05Z,1531987565,10A,40.0398591,44.6790693,182.34,0.2,-0.2,119.8,458435.19,-26651.76,114.8,Air+FixedWing,Red,Allies,F-15C,Red F-15C #002,xu,=36=Barbarossa,0,0,0,182.339996337891,2.33999633789062,0,0,NaN,NaN,0,0.0197823405926261,NaN,0.999987602272313,0.00349063008671824,-0.00349065172486007,0,178.814452508698,178.814452508698,,,135.180000066757,180,1.01772935680234,1.9145176870875
2018-07-19T08:06:06Z,1531987566,10A,40.0398591,44.6790693,182.34,0.2,-0.2,119.8,458435.19,-26651.76,114.8,Air+FixedWing,Red,Allies,F-15C,Red F-15C #002,xu,=36=Barbarossa,0,0,0,182.339996337891,2.33999633789062,0,0,NaN,NaN,0,0.0197823405926261,NaN,0.999987602272313,0.00349063008671824,-0.00349065172486007,0,178.814452508698,178.814452508698,,,136.180000066757,180,1.01773828715354,1.91452661743871
2018-07-19T08:06:07Z,1531987567,10A,40.0398591,44.6790693,182.34,0.2,-0.2,119.8,458435.19,-26651.76,114.8,Air+FixedWing,Red,Allies,F-15C,Red F-15C #002,xu,=36=Barbarossa,0,0,0,182.339996337891,2.33999633789062,0,0,NaN,NaN,0,0.0197823405926261,NaN,0.999987602272313,0.00349063008671824,-0.00349065172486007,0,178.814452508698,178.814452508698,,,137.180000066757,180,1.01774721649218,1.91453554713384
2018-07-19T08:06:08Z,1531987568,10A,40.0398591,44.6790693,182.34,0.2,-0.2,119.8,458435.19,-26651.76,114.8,Air+FixedWing,Red,Allies,F-15C,Red F-15C #002,xu,=36=Barbarossa,0,0,0,182.339996337891,2.33999633789062,0,0,NaN,NaN,0,0.0197823405926261,NaN,0.999987602272313,0.00349063008671824,-0.00349065172486007,0,178.814452508698,178.814452508698,,,138.180000066757,180,1.01775614564517,1.91454447658636
2018-07-19T08:06:09Z,1531987569,10A,40.0398591,44.6790693,182.34,0.2,-0.2,119.8,458435.19,-26651.76,114.8,Air+FixedWing,Red,Allies,F-15C,Red F-15C #002,xu,=36=Barbarossa,0,0,0,182.339996337891,2.33999633789062,0,0,NaN,NaN,0,0.0197823405926261,NaN,0.999987602272313,0.00349063008671824,-0.00349065172486007,0,178.814452508698,178.814452508698,,,139.180000066757,180,1.01776507593948,1.91455340723716
2018-07-19T08:06:10Z,1531987570,10A,40.0398591,44.6790693,182.34,0.2,-0.2,119.8,458435.19,-26651.76,114.8,Air+FixedWing,Red,Allies,F-15C,Red F-15C #002,xu,=36=Barbarossa,0,0,0,182.339996337891,2.33999633789062,0,0,NaN,NaN,0,0.0197823405926261,NaN,0.999987602272313,0.00349063008671824,-0.00349065172486007,0,178.814452508698,178.814452508698,,,140.180000066757,180,1.01777400473593,1.91456233603361
2018-07-19T08:06:11Z,1531987571,10A,40.0398591,44.6790693,182.34,0.2,-0.2,119.8,458435.19,-26651.76,114.8,Air+FixedWing,Red,Allies,F-15C,Red F-15C #002,xu,=36=Barbarossa,0,0,0,182.339996337891,2.33999633789062,0,0,NaN,NaN,0,0.0197823405926261,NaN,0.999987602272313,0.00349063008671824,-0.00349065172486007,0,178.814452508698,178.814452508698,,,141.180000066757,180,1.01778293478756,1.91457126638481
2018-07-19T08:06:12Z,1531987572,10A,40.0398591,44.6790693,182.34,0.2,-0.2,119.8,458435.19,-26651.76,114.8,Air+FixedWing,Red,Allies,F-15C,Red F-15C #002,xu,=36=Barbarossa,0,0,0,182.339996337891,2.33999633789062,0,0,NaN,NaN,0,0.0197823405926261,NaN,0.999987602272313,0.00349063008671824,-0.00349065172486007,0,178.814452508698,178.814452508698,,,142.180000066757,180,1.01779186478228,1.91458019673602
