ISOTime,UnixTime,Id,Longitude,Latitude,Altitude,Roll,Pitch,Yaw,U,V,Heading,Type,Color,Coalition,Name,Group,Country,Pilot,TAS,CAS,M,ASL,AGL,GS,VS,AOA,AOS,RRT,TRT,TRD,G,LatG,LonG,Ek,Ep,Em,FFW,FFV,RelativeTime,Elev,GroundDistance,AirDistance
2018-07-19T08:04:24Z,1531987464,10C,40.0397326,44.6789138,182.42,-0.4,-0.4,119.7,458426.66,-26669.91,114.7,Air+FixedWing,Red,Allies,F-15C,Red F-15C #001,xu,=36=Merlin,0.374985098824595,0.37154546380043,0.00110382738312174,182.419998168945,2.41999816894531,NaN,NaN,NaN,NaN,NaN,NaN,NaN,NaN,NaN,NaN,NaN,178.892907504349,NaN,,,0.0799999237060547,180,NaN,NaN
2018-07-19T08:04:25Z,1531987465,10C,40.0397323,44.6789138,182.36,0.3,-0.1,119.8,458426.62,-26669.91,114.8,Air+FixedWing,Red,Allies,F-15C,Red F-15C #001,xu,=36=Merlin,0.0677564187352402,0,0.000199451497603605,182.359878540039,2.35987854003906,0.03125,-0.06011962890625,NaN,NaN,0,NaN,NaN,1.0060975734322,0.00660461307818795,0.00113672958478683,0.000229546613991261,178.833950288467,178.834179835081,,,1.07999992370605,180,0.021107917092522,0.0637176538119553
2018-07-19T08:04:26Z,1531987466,10C,40.0397323,44.6789138,182.36,0.3,-0.1,119.8,458426.62,-26669.91,114.8,Air+FixedWing,Red,Allies,F-15C,Red F-15C #001,xu,=36=Merlin,0.000152587890625,0,4.49166054182157e-07,182.359725952148,2.35972595214844,0,-0.000152587890625,NaN,NaN,0,0.0171320104161963,NaN,0.99998468162763,0.00523595631807594,-0.00174532842356712,1.16415321826935e-09,178.833800650864,178.833800652028,,,2.07999992370605,180,0.021107917092522,0.0638702414624941
2018-07-19T08:04:27Z,1531987467,10C,40.0397323,44.6789138,182.36,0.3,-0.1,119.8,458426.62,-26669.91,114.8,Air+FixedWing,Red,Allies,F-15C,Red F-15C #001,xu,=36=Merlin,0.000152587890625,0,4.49166053407184e-07,182.359573364258,2.35957336425781,0,-0.000152587890625,NaN,NaN,0,0.0171320104161963,NaN,0.99998468162763,0.00523595631807594,-0.00174532842356712,1.16415321826935e-09,178.83365101326,178.833651014424,,,3.07999992370605,180,0.021107917092522,0.0640228293665327
2018-07-19T08:04:28Z,1531987468,10C,40.0397323,44.6789138,182.36,0.3,-0.1,119.8,458426.62,-26669.91,114.8,Air+FixedWing,Red,Allies,F-15C,Red F-15C #001,xu,=36=Merlin,0.000152587890625,0,4.4916605263221e-07,182.359420776367,2.35942077636719,0,-0.000152587890625,NaN,NaN,0,0.0171320104161963,NaN,0.99998468162763,0.00523595631807594,-0.00174532842356712,1.16415321826935e-09,178.833501375656,178.83350137682,,,4.07999992370605,180,0.021107917092522,0.0641754176719159
2018-07-19T08:04:29Z,1531987469,10C,40.0397323,44.6789138,182.36,0.3,-0.1,119.8,458426.62,-26669.91,114.8,Air+FixedWing,Red,Allies,F-15C,Red F-15C #001,xu,=36=Merlin,0.000152587890625,0,4.49166051857237e-07,182.359268188477,2.35926818847656,0,-0.000152587890625,NaN,NaN,0,0.0171320104161963,NaN,0.99998468162763,0.00523595631807594,-0.00174532842356712,1.16415321826935e-09,178.833351738052,178.833351739217,,,5.07999992370605,180,0.021107917092522,0.0643280057889658
2018-07-19T08:04:30Z,1531987470,10C,40.0397323,44.6789138,182.36,0.3,-0.1,119.8,458426.62,-26669.91,114.8,Air+FixedWing,Red,Allies,F-15C,Red F-15C #001,xu,=36=Merlin,0.000152587890625,0,4.49166051082263e-07,182.359115600586,2.35911560058594,0,-0.000152587890625,NaN,NaN,0,0.0171320104161963,NaN,0.99998468162763,0.00523595631807594,-0.00174532842356712,1.16415321826935e-09,178.833202100449,178.833202101613,,,6.07999992370605,180,0.021107917092522,0.064480592972995
2018-07-19T08:04:31Z,1531987471,10C,40.0397323,44.6789138,182.36,0.3,-0.1,119.8,458426.62,-26669.91,114.8,Air+FixedWing,Red,Allies,F-15C,Red F-15C #001,xu,=36=Merlin,0.000152587890625,0,4.4916605030729e-07,182.358963012695,2.35896301269531,0,-0.000152587890625,NaN,NaN,0,0.0171320104161963,NaN,0.99998468162763,0.00523595631807594,-0.00174532842356712,1.16415321826935e-09,178.833052462845,178.833052464009,,,7.07999992370605,180,0.021107917092522,0.0646331812783781
2018-07-19T08:04:32Z,1531987472,10C,40.0397323,44.6789138,182.36,0.3,-0.1,119.8,458426.62,-26669.91,114.8,Air+FixedWing,Red,Allies,F-15C,Red F-15C #001,xu,=36=Merlin,0.000152587890625,0,4.49166049532316e-07,182.358810424805,2.35881042480469,0,-0.000152587890625,NaN,NaN,0,0.0171320104161963,NaN,0.99998468162763,0.00523595631807594,-0.00174532842356712,1.16415321826935e-09,178.832902825241,178.832902826405,,,8.07999992370605,180,0.021107917092522,0.0647857689289169
2018-07-19T08:04:33Z,1531987473,10C,40.0397323,44.6789138,182.36,0.3,-0.1,119.8,458426.62,-26669.91,114.8,Air+FixedWing,Red,Allies,F-15C,Red F-15C #001,xu,=36=Merlin,0.000152587890625,0,4.49166048757343e-07,182.358657836914,2.35865783691406,0,-0.000152587890625,NaN,NaN,0,0.0171320104161963,NaN,0.99998468162763,0.00523595631807594,-0.00174532842356712,1.16415321826935e-09,178.832753187637,178.832753188801,,,9.07999992370605,180,0.021107917092522,0.0649383568329556
2018-07-19T08:04:34Z,1531987474,10C,40.0397323,44.6789138,182.36,0.3,-0.1,119.8,458426.62,-26669.91,114.8,Air+FixedWing,Red,Allies,F-15C,Red F-15C #001,xu,=36=Merlin,0.000152587890625,0,4.49166047982369e-07,182.358505249023,2.35850524902344,0,-0.000152587890625,NaN,NaN,0,0.0171320104161963,NaN,0.99998468162763,0.00523595631807594,-0.00174532842356712,1.16415321826935e-09,178.832603550034,178.832603551198,,,10.0799999237061,180,0.021107917092522,0.0650909453513495
2018-07-19T08:04:35Z,1531987475,10C,40.0397323,44.6789138,182.36,0.3,-0.1,119.8,458426.62,-26669.91,114.8,Air+FixedWing,Red,Allies,F-15C,Red F-15C #001,xu,=36=Merlin,0.000152587890625,0,4.49166047207396e-07,182.358352661133,2.35835266113281,0,-0.000152587890625,NaN,NaN,0,0.0171320104161963,NaN,0.99998468162763,0.00523595631807594,-0.00174532842356712,1.16415321826935e-09,178.83245391243,178.832453913594,,,11.0799999237061,180,0.021107917092522,0.0652435325353786
2018-07-19T08:04:36Z,1531987476,10C,40.0397323,44.6789138,182.36,0.3,-0.1,119.8,458426.62,-26669.91,114.8,Air+FixedWing,Red,Allies,F-15C,Red F-15C #001,xu,=36=Merlin,0.000152587890625,0,4.49166046432422e-07,182.358200073242,2.35820007324219,0,-0.000152587890625,NaN,NaN,0,0.0171320104161963,NaN,0.99998468162763,0.00523595631807594,-0.00174532842356712,1.16415321826935e-09,178.832304274826,178.83230427599,,,12.0799999237061,180,0.021107917092522,0.0653961204394172
2018-07-19T08:04:37Z,1531987477,10C,40.0397323,44.6789138,182.36,0.3,-0.1,119.8,458426.62,-26669.91,114.8,Air+FixedWing,Red,Allies,F-15C,Red F-15C #001,xu,=36=Merlin,0.000152587890625,0,4.49166045657449e-07,182.358047485352,2.35804748535156,0,-0.000152587890625,NaN,NaN,0,0.0171320104161963,NaN,0.99998468162763,0.00523595631807594,-0.00174532842356712,1.16415321826935e-09,178.832154637222,178.832154638386,,,13.0799999237061,180,0.021107917092522,0.0655487087448004
2018-07-19T08:04:38Z,1531987478,10C,40.0397323,44.6789138,182.36,0.3,-0.1,119.8,458426.62,-26669.91,114.8,Air+FixedWing,Red,Allies,F-15C,Red F-15C #001,xu,=36=Merlin,0.000152587890625,0,4.49166044882475e-07,182.357894897461,2.35789489746094,0,-0.000152587890625,NaN,NaN,0,0.0171320104161963,NaN,0.99998468162763,0.00523595631807594,-0.00174532842356712,1.16415321826935e-09,178.832004999619,178.832005000783,,,14.0799999237061,180,0.021107917092522,0.065701296648839
2018-07-19T08:04:39Z,1531987479,10C,40.0397323,44.6789138,182.36,0.3,-0.1,119.8,458426.62,-26669.91,114.8,Air+FixedWing,Red,Allies,F-15C,Red F-15C #001,xu,=36=Merlin,0.000152587890625,0,4.49166044107502e-07,182.35774230957,2.35774230957031,0,-0.000152587890625,NaN,NaN,0,0.0171320104161963,NaN,0.99998468162763,0.00523595631807594,-0.00174532842356712,1.16415321826935e-09,178.831855362015,178.831855363179,,,15.0799999237061,180,0.021107917092522,0.0658538838328681
2018-07-19T08:04:40Z,1531987480,10C,40.0397323,44.6789138,182.36,0.3,-0.1,119.8,458426.62,-26669.91,114.8,Air+FixedWing,Red,Allies,F-15C,Red F-15C #001,xu,=36=Merlin,0.000152587890625,0,4.49166043332528e-07,182.35758972168,2.35758972167969,0,-0.000152587890625,NaN,NaN,0,0.0171320104161963,NaN,0.99998468162763,0.00523595631807594,-0.00174532842356712,1.16415321826935e-09,178.831705724411,178.831705725575,,,16.0799999237061,180,0.021107917092522,0.066006472351262
2018-07-19T08:04:41Z,1531987481,10C,40.0397323,44.6789138,182.36,0.3,-0.1,119.8,458426.62,-26669.91,114.8,Air+FixedWing,Red,Allies,F-15C,Red F-15C #001,xu,=36=Merlin,0.000152587890625,0,4.49166042557555e-07,182.357437133789,2.35743713378906,0,-0.000152587890625,NaN,NaN,0,0.0171320104161963,NaN,0.99998468162763,0.00523595631807594,-0.00174532842356712,1.16415321826935e-09,178.831556086807,178.831556087971,,,17.0799999237061,180,0.021107917092522,0.0661590600018008
2018-07-19T08:04:42Z,1531987482,10C,40.0397323,44.6789138,182.36,0.3,-0.1,119.8,458426.62,-26669.91,114.8,Air+FixedWing,Red,Allies,F-15C,Red F-15C #001,xu,=36=Merlin,0.000152587890625,0,4.49166041782581e-07,182.357284545898,2.35728454589844,0,-0.000152587890625,NaN,NaN,0,0.0171320104161963,NaN,0.99998468162763,0.00523595631807594,-0.00174532842356712,1.16415321826935e-09,178.831406449203,178.831406450368,,,18.0799999237061,180,0.021107917092522,0.0663116479058395
2018-07-19T08:04:43Z,1531987483,10C,40.0397323,44.6789138,182.36,0.3,-0.1,119.8,458426.62,-26669.91,114.8,Air+FixedWing,Red,Allies,F-15C,Red F-15C #001,xu,=36=Merlin,0.000152587890625,0,4.49166041007608e-07,182.357131958008,2.35713195800781,0,-0.000152587890625,NaN,NaN,0,0.0171320104161963,NaN,0.99998468162763,0.00523595631807594,-0.00174532842356712,1.16415321826935e-09,178.8312568116,178.831256812764,,,19.0799999237061,180,0.021107917092522,0.0664642362112226
2018-07-19T08:04:44Z,1531987484,10C,40.0397323,44.6789138,182.36,0.3,-0.1,119.8,458426.62,-26669.91,114.8,Air+FixedWing,Red,Allies,F-15C,Red F-15C #001,xu,=36=Merlin,0.000152587890625,0,4.49166040232634e-07,182.356979370117,2.35697937011719,0,-0.000152587890625,NaN,NaN,0,0.0171320104161963,NaN,0.99998468162763,0.00523595631807594,-0.00174532842356712,1.16415321826935e-09,178.831107173996,178.83110717516,,,20.0799999237061,180,0.021107917092522,0.0666168233952518
2018-07-19T08:04:45Z,1531987485,10C,40.0397323,44.6789138,182.36,0.3,-0.1,119.8,458426.62,-26669.91,114.8,Air+FixedWing,Red,Allies,F-15C,Red F-15C #001,xu,=36=Merlin,0.000152587890625,0,4.49166039457661e-07,182.356826782227,2.35682678222656,0,-0.000152587890625,NaN,NaN,0,0.0171320104161963,NaN,0.99998468162763,0.00523595631807594,-0.00174532842356712,1.16415321826935e-09,178.830957536392,178.830957537556,,,21.0799999237061,180,0.021107917092522,0.0667694115123017
2018-07-19T08:04:46Z,1531987486,10C,40.0397323,44.6789138,182.36,0.3,-0.1,119.8,458426.62,-26669.91,114.8,Air+FixedWing,Red,Allies,F-15C,Red F-15C #001,xu,=36=Merlin,0.000152587890625,0,4.49166038682688e-07,182.356674194336,2.35667419433594,0,-0.000152587890625,NaN,NaN,0,0.0171320104161963,NaN,0.99998468162763,0.00523595631807594,-0.00174532842356712,1.16415321826935e-09,178.830807898788,178.830807899953,,,22.0799999237061,180,0.021107917092522,0.0669219998176848
2018-07-19T08:04:47Z,1531987487,10C,40.0397323,44.6789138,182.36,0.3,-0.1,119.8,458426.62,-26669.91,114.8,Air+FixedWing,Red,Allies,F-15C,Red F-15C #001,xu,=36=Merlin,0.000152587890625,0,4.49166037907714e-07,182.356521606445,2.35652160644531,0,-0.000152587890625,NaN,NaN,0,0.0171320104161963,NaN,0.99998468162763,0.00523595631807594,-0.00174532842356712,1.16415321826935e-09,178.830658261185,178.830658262349,,,23.0799999237061,180,0.021107917092522,0.0670745877217235
2018-07-19T08:04:48Z,1531987488,10C,40.0397323,44.6789138,182.36,0.3,-0.1,119.8,458426.62,-26669.91,114.8,Air+FixedWing,Red,Allies,F-15C,Red F-15C #001,xu,=36=Merlin,0.000152587890625,0,4.49166037132741e-07,182.356369018555,2.35636901855469,0,-0.000152587890625,NaN,NaN,0,0.0171320104161963,NaN,0.99998468162763,0.00523595631807594,-0.00174532842356712,1.16415321826935e-09,178.830508623581,178.830508624745,,,24.0799999237061,180,0.021107917092522,0.0672271753722623
2018-07-19T08:04:49Z,1531987489,10C,40.0397323,44.6789138,182.36,0.3,-0.1,119.8,458426.62,-26669.91,114.8,Air+FixedWing,Red,Allies,F-15C,Red F-15C #001,xu,=36=Merlin,0.000152587890625,0,4.49166036357767e-07,182.356216430664,2.35621643066406,0,-0.000152587890625,NaN,NaN,0,0.0171320104161963,NaN,0.99998468162763,0.00523595631807594,-0.00174532842356712,1.16415321826935e-09,178.830358985977,178.830358987141,,,25.0799999237061,180,0.021107917092522,0.0673797632111377
2018-07-19T08:04:50Z,1531987490,10C,40.0397323,44.6789138,182.36,0.3,-0.1,119.8,458426.62,-26669.91,114.8,Air+FixedWing,Red,Allies,F-15C,Red F-15C #001,xu,=36=Merlin,0.000152587890625,0,4.49166035582794e-07,182.356063842773,2.35606384277344,0,-0.000152587890625,NaN,NaN,0,0.0171320104161963,NaN,0.99998468162763,0.00523595631807594,-0.00174532842356712,1.16415321826935e-09,178.830209348373,178.830209349538,,,26.0799999237061,180,0.021107917092522,0.0675323508616766
2018-07-19T08:04:51Z,1531987491,10C,40.0397323,44.6789138,182.36,0.3,-0.1,119.8,458426.62,-26669.91,114.8,Air+FixedWing,Red,Allies,F-15C,Red F-15C #001,xu,=36=Merlin,0.000152587890625,0,4.4916603480782e-07,182.355911254883,2.35591125488281,0,-0.000152587890625,NaN,NaN,0,0.0171320104161963,NaN,0.99998468162763,0.00523595631807594,-0.00174532842356712,1.16415321826935e-09,178.83005971077,178.830059711934,,,27.0799999237061,180,0.021107917092522,0.0676849389787265
2018-07-19T08:04:52Z,1531987492,10C,40.0397323,44.6789138,182.36,0.3,-0.1,119.8,458426.62,-26669.91,114.8,Air+FixedWing,Red,Allies,F-15C,Red F-15C #001,xu,=36=Merlin,0.000152587890625,0,4.49166034032847e-07,182.355758666992,2.35575866699219,0,-0.000152587890625,NaN,NaN,0,0.0171320104161963,NaN,0.99998468162763,0.00523595631807594,-0.00174532842356712,1.16415321826935e-09,178.829910073166,178.82991007433,,,28.0799999237061,180,0.021107917092522,0.0678375272841096
2018-07-19T08:04:53Z,1531987493,10C,40.0397323,44.6789138,182.36,0.3,-0.1,119.8,458426.62,-26669.91,114.8,Air+FixedWing,Red,Allies,F-15C,Red F-15C #001,xu,=36=Merlin,0.000152587890625,0,4.49166033257874e-07,182.355606079102,2.35560607910156,0,-0.000152587890625,NaN,NaN,0,0.0171320104161963,NaN,0.99998468162763,0.00523595631807594,-0.00174532842356712,1.16415321826935e-09,178.829760435562,178.829760436726,,,29.0799999237061,180,0.021107917092522,0.0679901151881483
2018-07-19T08:04:54Z,1531987494,10C,40.0397323,44.6789138,182.36,0.3,-0.1,119.8,458426.62,-26669.91,114.8,Air+FixedWing,Red,Allies,F-15C,Red F-15C #001,xu,=36=Merlin,0.000152587890625,0,4.491660324829e-07,182.355453491211,2.35545349121094,0,-0.000152587890625,NaN,NaN,0,0.0171320104161963,NaN,0.99998468162763,0.00523595631807594,-0.00174532842356712,1.16415321826935e-09,178.829610797958,178.829610799123,,,30.0799999237061,180,0.021107917092522,0.0681427023721774
2018-07-19T08:04:55Z,1531987495,10C,40.0397323,44.6789138,182.36,0.3,-0.1,119.8,458426.62,-26669.91,114.8,Air+FixedWing,Red,Allies,F-15C,Red F-15C #001,xu,=36=Merlin,0.000152587890625,0,4.49166031707927e-07,182.35530090332,2.35530090332031,0,-0.000152587890625,NaN,NaN,0,0.0171320104161963,NaN,0.999986237566983,0.00523596446503084,-0.00174533113923395,1.16415321826935e-09,178.829461160355,178.829461161519,,,31.0799999237061,180,0.021107917092522,0.0682952900227162
2018-07-19T08:04:56Z,1531987496,10C,40.0397323,44.6789138,182.36,0.3,-0.1,119.8,458426.62,-26669.91,114.8,Air+FixedWing,Red,Allies,F-15C,Red F-15C #001,xu,=36=Merlin,0.0001373291015625,0,4.04249427909405e-07,182.355163574219,2.35516357421875,0,-0.0001373291015625,NaN,NaN,0,0.0171320104161963,NaN,0.999983125688278,0.00523594817112104,-0.00174532570790028,9.42964106798172e-10,178.829326486511,178.829326487454,,,32.0799999237061,180,0.021107917092522,0.0684326197938326
2018-07-19T08:04:57Z,1531987497,10C,40.0397323,44.6789138,182.36,0.3,-0.1,119.8,458426.62,-26669.91,114.8,Air+FixedWing,Red,Allies,F-15C,Red F-15C #001,xu,=36=Merlin,0.000152587890625,0,4.49166030235477e-07,182.355010986328,2.35501098632812,0,-0.000152587890625,NaN,NaN,0,0.0171320104161963,NaN,0.99998468162763,0.00523595631807594,-0.00174532842356712,1.16415321826935e-09,178.829176848907,178.829176850072,,,33.0799999237061,180,0.021107917092522,0.0685852079108825
2018-07-19T08:04:58Z,1531987498,10C,40.0397323,44.6789138,182.35,0.3,-0.1,119.8,458426.62,-26669.91,114.8,Air+FixedWing,Red,Allies,F-15C,Red F-15C #001,xu,=36=Merlin,0.000152587890625,0,4.49166029460504e-07,182.354858398438,2.3548583984375,0,-0.000152587890625,NaN,NaN,0,0.0171320104161963,NaN,0.99998468162763,0.00523595631807594,-0.00174532842356712,1.16415321826935e-09,178.829027211304,178.829027212468,,,34.0799999237061,180,0.021107917092522,0.0687377955614213
2018-07-19T08:04:59Z,1531987499,10C,40.0397323,44.6789138,182.35,0.3,-0.1,119.8,458426.62,-26669.91,114.8,Air+FixedWing,Red,Allies,F-15C,Red F-15C #001,xu,=36=Merlin,0.000152587890625,0,4.4916602868553e-07,182.354705810547,2.35470581054688,0,-0.000152587890625,NaN,NaN,0,0.0171320104161963,NaN,0.99998468162763,0.00523595631807594,-0.00174532842356712,1.16415321826935e-09,178.8288775737,178.828877574864,,,35.0799999237061,180,0.021107917092522,0.0688903834002968
2018-07-19T08:05:00Z,1531987500,10C,40.0397323,44.6789138,182.35,0.3,-0.1,119.8,458426.62,-26669.91,114.8,Air+FixedWing,Red,Allies,F-15C,Red F-15C #001,xu,=36=Merlin,0.000152587890625,0,4.49166027910557e-07,182.354553222656,2.35455322265625,0,-0.000152587890625,NaN,NaN,0,0.0171320104161963,NaN,0.99998468162763,0.00523595631807594,-0.00174532842356712,1.16415321826935e-09,178.828727936096,178.82872793726,,,36.0799999237061,180,0.021107917092522,0.0690429710508356
2018-07-19T08:05:01Z,1531987501,10C,40.0397323,44.6789138,182.35,0.3,-0.1,119.8,458426.62,-26669.91,114.8,Air+FixedWing,Red,Allies,F-15C,Red F-15C #001,xu,=36=Merlin,0.000152587890625,0,4.49166027135583e-07,182.354400634766,2.35440063476562,0,-0.000152587890625,NaN,NaN,0,0.0171320104161963,NaN,0.99998468162763,0.00523595631807594,-0.00174532842356712,1.16415321826935e-09,178.828578298492,178.828578299657,,,37.0799999237061,180,0.021107917092522,0.0691955589548742
2018-07-19T08:05:02Z,1531987502,10C,40.0397323,44.6789138,182.35,0.3,-0.1,119.8,458426.62,-26669.91,114.8,Air+FixedWing,Red,Allies,F-15C,Red F-15C #001,xu,=36=Merlin,0.000152587890625,0,4.4916602636061e-07,182.354248046875,2.354248046875,0,-0.000152587890625,NaN,NaN,0,0.0171320104161963,NaN,0.99998468162763,0.00523595631807594,-0.00174532842356712,1.16415321826935e-09,178.828428660889,178.828428662053,,,38.0799999237061,180,0.021107917092522,0.0693481474732681
2018-07-19T08:05:03Z,1531987503,10C,40.0397323,44.6789138,182.35,0.3,-0.1,119.8,458426.62,-26669.91,114.8,Air+FixedWing,Red,Allies,F-15C,Red F-15C #001,xu,=36=Merlin,0.000152587890625,0,4.49166025585637e-07,182.354095458984,2.35409545898438,0,-0.000152587890625,NaN,NaN,0,0.0171320104161963,NaN,0.99998468162763,0.00523595631807594,-0.00174532842356712,1.16415321826935e-09,178.828279023285,178.828279024449,,,39.0799999237061,180,0.021107917092522,0.0695007346572972
2018-07-19T08:05:04Z,1531987504,10C,40.0397323,44.6789138,182.35,0.3,-0.1,119.8,458426.62,-26669.91,114.8,Air+FixedWing,Red,Allies,F-15C,Red F-15C #001,xu,=36=Merlin,0.000152587890625,0,4.49166024810663e-07,182.353942871094,2.35394287109375,0,-0.000152587890625,NaN,NaN,0,0.0171320104161963,NaN,0.99998468162763,0.00523595631807594,-0.00174532842356712,1.16415321826935e-09,178.828129385681,178.828129386845,,,40.0799999237061,180,0.021107917092522,0.0696533225613359
2018-07-19T08:05:05Z,1531987505,10C,40.0397323,44.6789138,182.35,0.3,-0.1,119.8,458426.62,-26669.91,114.8,Air+FixedWing,Red,Allies,F-15C,Red F-15C #001,xu,=36=Merlin,0.000152587890625,0,4.4916602403569e-07,182.353790283203,2.35379028320312,0,-0.000152587890625,NaN,NaN,0,0.0171320104161963,NaN,0.99998468162763,0.00523595631807594,-0.00174532842356712,1.16415321826935e-09,178.827979748077,178.827979749242,,,41.0799999237061,180,0.021107917092522,0.069805910866719
2018-07-19T08:05:06Z,1531987506,10C,40.0397323,44.6789138,182.35,0.3,-0.1,119.8,458426.62,-26669.91,114.8,Air+FixedWing,Red,Allies,F-15C,Red F-15C #001,xu,=36=Merlin,0.000152587890625,0,4.49166023260717e-07,182.353637695312,2.3536376953125,0,-0.000152587890625,NaN,NaN,0,0.0171320104161963,NaN,0.99998468162763,0.00523595631807594,-0.00174532842356712,1.16415321826935e-09,178.827830110474,178.827830111638,,,42.0799999237061,180,0.021107917092522,0.0699584987707576
2018-07-19T08:05:07Z,1531987507,10C,40.0397323,44.6789138,182.35,0.3,-0.1,119.8,458426.62,-26669.91,114.8,Air+FixedWing,Red,Allies,F-15C,Red F-15C #001,xu,=36=Merlin,0.000152587890625,0,4.49166022485743e-07,182.353485107422,2.35348510742188,0,-0.000152587890625,NaN,NaN,0,0.0171320104161963,NaN,0.99998468162763,0.00523595631807594,-0.00174532842356712,1.16415321826935e-09,178.82768047287,178.827680474034,,,43.0799999237061,180,0.021107917092522,0.0701110866343081
2018-07-19T08:05:08Z,1531987508,10C,40.0397323,44.6789138,182.35,0.3,-0.1,119.8,458426.62,-26669.91,114.8,Air+FixedWing,Red,Allies,F-15C,Red F-15C #001,xu,=36=Merlin,0.000152587890625,0,4.4916602171077e-07,182.353332519531,2.35333251953125,0,-0.000152587890625,NaN,NaN,0,0.0171320104161963,NaN,0.99998468162763,0.00523595631807594,-0.00174532842356712,1.16415321826935e-09,178.827530835266,178.82753083643,,,44.0799999237061,180,0.021107917092522,0.0702636744731836
2018-07-19T08:05:09Z,1531987509,10C,40.0397323,44.6789138,182.35,0.3,-0.1,119.8,458426.62,-26669.91,114.8,Air+FixedWing,Red,Allies,F-15C,Red F-15C #001,xu,=36=Merlin,0.000152587890625,0,4.49166020935797e-07,182.353179931641,2.35317993164062,0,-0.000152587890625,NaN,NaN,0,0.0171320104161963,NaN,0.99998468162763,0.00523595631807594,-0.00174532842356712,1.16415321826935e-09,178.827381197662,178.827381198827,,,45.0799999237061,180,0.021107917092522,0.0704162623772222
2018-07-19T08:05:10Z,1531987510,10C,40.0397323,44.6789138,182.35,0.3,-0.1,119.8,458426.62,-26669.91,114.8,Air+FixedWing,Red,Allies,F-15C,Red F-15C #001,xu,=36=Merlin,0.000152587890625,0,4.49166020160823e-07,182.35302734375,2.35302734375,0,-0.000152587890625,NaN,NaN,0,0.0171320104161963,NaN,0.99998468162763,0.00523595631807594,-0.00174532842356712,1.16415321826935e-09,178.827231560059,178.827231561223,,,46.0799999237061,180,0.021107917092522,0.070568850027761
2018-07-19T08:05:11Z,1531987511,10C,40.0397323,44.6789138,182.35,0.3,-0.1,119.8,458426.62,-26669.91,114.8,Air+FixedWing,Red,Allies,F-15C,Red F-15C #001,xu,=36=Merlin,0.000152587890625,0,4.4916601938585e-07,182.352874755859,2.35287475585938,0,-0.000152587890625,NaN,NaN,0,0.0171320104161963,NaN,0.99998468162763,0.00523595631807594,-0.00174532842356712,1.16415321826935e-09,178.827081922455,178.827081923619,,,47.0799999237061,180,0.021107917092522,0.0707214376782998
2018-07-19T08:05:12Z,1531987512,10C,40.0397323,44.6789138,182.35,0.3,-0.1,119.8,458426.62,-26669.91,114.8,Air+FixedWing,Red,Allies,F-15C,Red F-15C #001,xu,=36=Merlin,0.000152587890625,0,4.49166018610876e-07,182.352722167969,2.35272216796875,0,-0.000152587890625,NaN,NaN,0,0.0171320104161963,NaN,0.99998468162763,0.00523595631807594,-0.00174532842356712,1.16415321826935e-09,178.826932284851,178.826932286015,,,48.0799999237061,180,0.021107917092522,0.0708740264501921
2018-07-19T08:05:13Z,1531987513,10C,40.0397323,44.6789138,182.35,0.3,-0.1,119.8,458426.62,-26669.91,114.8,Air+FixedWing,Red,Allies,F-15C,Red F-15C #001,xu,=36=Merlin,0.000152587890625,0,4.49166017835903e-07,182.352569580078,2.35256958007812,0,-0.000152587890625,NaN,NaN,0,0.0171320104161963,NaN,0.99998468162763,0.00523595631807594,-0.00174532842356712,1.16415321826935e-09,178.826782647247,178.826782648411,,,49.0799999237061,180,0.021107917092522,0.0710266136342212
2018-07-19T08:05:14Z,1531987514,10C,40.0397323,44.6789138,182.35,0.3,-0.1,119.8,458426.62,-26669.91,114.8,Air+FixedWing,Red,Allies,F-15C,Red F-15C #001,xu,=36=Merlin,0.000152587890625,0,4.4916601706093e-07,182.352416992188,2.3524169921875,0,-0.000152587890625,NaN,NaN,0,0.0171320104161963,NaN,0.99998468162763,0.00523595631807594,-0.00174532842356712,1.16415321826935e-09,178.826633009644,178.826633010808,,,50.0799999237061,180,0.021107917092522,0.07117920128476
2018-07-19T08:05:15Z,1531987515,10C,40.0397323,44.6789138,182.35,0.3,-0.1,119.8,458426.62,-26669.91,114.8,Air+FixedWing,Red,Allies,F-15C,Red F-15C #001,xu,=36=Merlin,0.000152587890625,0,4.49166016285956e-07,182.352264404297,2.35226440429688,0,-0.000152587890625,NaN,NaN,0,0.0171320104161963,NaN,0.99998468162763,0.00523595631807594,-0.00174532842356712,1.16415321826935e-09,178.82648337204,178.826483373204,,,51.0799999237061,180,0.021107917092522,0.0713317898436419
2018-07-19T08:05:16Z,1531987516,10C,40.0397323,44.6789138,182.35,0.3,-0.1,119.8,458426.62,-26669.91,114.8,Air+FixedWing,Red,Allies,F-15C,Red F-15C #001,xu,=36=Merlin,0.000152587890625,0,4.49166015510983e-07,182.352111816406,2.35211181640625,0,-0.000152587890625,NaN,NaN,0,0.0171320104161963,NaN,0.99998468162763,0.00523595631807594,-0.00174532842356712,1.16415321826935e-09,178.826333734436,178.8263337356,,,52.0799999237061,180,0.021107917092522,0.0714843774941807
2018-07-19T08:05:17Z,1531987517,10C,40.0397323,44.6789138,182.35,0.3,-0.1,119.8,458426.62,-26669.91,114.8,Air+FixedWing,Red,Allies,F-15C,Red F-15C #001,xu,=36=Merlin,0.000152587890625,0,4.4916601473601e-07,182.351959228516,2.35195922851562,0,-0.000152587890625,NaN,NaN,0,0.0171320104161963,NaN,0.99998468162763,0.00523595631807594,-0.00174532842356712,1.16415321826935e-09,178.826184096832,178.826184097996,,,53.0799999237061,180,0.021107917092522,0.0716369656112307
2018-07-19T08:05:18Z,1531987518,10C,40.0397323,44.6789138,182.35,0.3,-0.1,119.8,458426.62,-26669.91,114.8,Air+FixedWing,Red,Allies,F-15C,Red F-15C #001,xu,=36=Merlin,0.000152587890625,0,4.49166013961036e-07,182.351806640625,2.351806640625,0,-0.000152587890625,NaN,NaN,0,0.0171320104161963,NaN,0.99998468162763,0.00523595631807594,-0.00174532842356712,1.16415321826935e-09,178.826034459229,178.826034460393,,,54.0799999237061,180,0.021107917092522,0.0717895532370973
2018-07-19T08:05:19Z,1531987519,10C,40.0397323,44.6789138,182.35,0.3,-0.1,119.8,458426.62,-26669.91,114.8,Air+FixedWing,Red,Allies,F-15C,Red F-15C #001,xu,=36=Merlin,0.000152587890625,0,4.49166013186063e-07,182.351654052734,2.35165405273438,0,-0.000152587890625,NaN,NaN,0,0.0171320104161963,NaN,0.99998468162763,0.00523595631807594,-0.00174532842356712,1.16415321826935e-09,178.825884821625,178.825884822789,,,55.0799999237061,180,0.021107917092522,0.0719421411006477
2018-07-19T08:05:20Z,1531987520,10C,40.0397323,44.6789138,182.35,0.3,-0.1,119.8,458426.62,-26669.91,114.8,Air+FixedWing,Red,Allies,F-15C,Red F-15C #001,xu,=36=Merlin,0.000152587890625,0,4.4916601241109e-07,182.351501464844,2.35150146484375,0,-0.000152587890625,NaN,NaN,0,0.0171320104161963,NaN,0.99998468162763,0.00523595631807594,-0.00174532842356712,1.16415321826935e-09,178.825735184021,178.825735185185,,,56.0799999237061,180,0.021107917092522,0.0720947287511866
2018-07-19T08:05:21Z,1531987521,10C,40.0397323,44.6789138,182.35,0.3,-0.1,119.8,458426.62,-26669.91,114.8,Air+FixedWing,Red,Allies,F-15C,Red F-15C #001,xu,=36=Merlin,0.000152587890625,0,4.49166011636116e-07,182.351348876953,2.35134887695312,0,-0.000152587890625,NaN,NaN,0,0.0171320104161963,NaN,0.99998468162763,0.00523595631807594,-0.00174532842356712,1.16415321826935e-09,178.825585546417,178.825585547581,,,57.0799999237061,180,0.021107917092522,0.0722473173100684
2018-07-19T08:05:22Z,1531987522,10C,40.0397323,44.6789138,182.35,0.3,-0.1,119.8,458426.62,-26669.91,114.8,Air+FixedWing,Red,Allies,F-15C,Red F-15C #001,xu,=36=Merlin,0.000152587890625,0,4.49166010861143e-07,182.351196289062,2.3511962890625,0,-0.000152587890625,NaN,NaN,0,0.0171320104161963,NaN,0.99998468162763,0.00523595631807594,-0.00174532842356712,1.16415321826935e-09,178.825435908813,178.825435909978,,,58.0799999237061,180,0.021107917092522,0.0723999044940976
2018-07-19T08:05:23Z,1531987523,10C,40.0397323,44.6789138,182.35,0.3,-0.1,119.8,458426.62,-26669.91,114.8,Air+FixedWing,Red,Allies,F-15C,Red F-15C #001,xu,=36=Merlin,0.000152587890625,0,4.4916601008617e-07,182.351043701172,2.35104370117188,0,-0.000152587890625,NaN,NaN,0,0.0171320104161963,NaN,0.99998468162763,0.00523595631807594,-0.00174532842356712,1.16415321826935e-09,178.82528627121,178.825286272374,,,59.0799999237061,180,0.021107917092522,0.0725524921446364
2018-07-19T08:05:24Z,1531987524,10C,40.0397323,44.6789138,182.35,0.3,-0.1,119.8,458426.62,-26669.91,114.8,Air+FixedWing,Red,Allies,F-15C,Red F-15C #001,xu,=36=Merlin,0.000152587890625,0,4.49166009311196e-07,182.350891113281,2.35089111328125,0,-0.000152587890625,NaN,NaN,0,0.0171320104161963,NaN,0.99998468162763,0.00523595631807594,-0.00174532842356712,1.16415321826935e-09,178.825136633606,178.82513663477,,,60.0799999237061,180,0.021107917092522,0.0727050809165286
2018-07-19T08:05:25Z,1531987525,10C,40.0397323,44.6789138,182.35,0.3,-0.1,119.8,458426.62,-26669.91,114.8,Air+FixedWing,Red,Allies,F-15C,Red F-15C #001,xu,=36=Merlin,0.000152587890625,0,4.49166008536223e-07,182.350738525391,2.35073852539062,0,-0.000152587890625,NaN,NaN,0,0.0171320104161963,NaN,0.99998468162763,0.00523595631807594,-0.00174532842356712,1.16415321826935e-09,178.824986996002,178.824986997166,,,61.0799999237061,180,0.021107917092522,0.0728576685670674
2018-07-19T08:05:26Z,1531987526,10C,40.0397323,44.6789138,182.35,0.3,-0.1,119.8,458426.62,-26669.91,114.8,Air+FixedWing,Red,Allies,F-15C,Red F-15C #001,xu,=36=Merlin,0.000152587890625,0,4.4916600776125e-07,182.3505859375,2.3505859375,0,-0.000152587890625,NaN,NaN,0,0.0171320104161963,NaN,0.99998468162763,0.00523595631807594,-0.00174532842356712,1.16415321826935e-09,178.824837358398,178.824837359563,,,62.0799999237061,180,0.021107917092522,0.0730102564711061
2018-07-19T08:05:27Z,1531987527,10C,40.0397323,44.6789138,182.35,0.3,-0.1,119.8,458426.62,-26669.91,114.8,Air+FixedWing,Red,Allies,F-15C,Red F-15C #001,xu,=36=Merlin,0.000152587890625,0,4.49166006986277e-07,182.350433349609,2.35043334960938,0,-0.000152587890625,NaN,NaN,0,0.0171320104161963,NaN,0.99998468162763,0.00523595631807594,-0.00174532842356712,1.16415321826935e-09,178.824687720795,178.824687721959,,,63.0799999237061,180,0.021107917092522,0.0731628443099815
2018-07-19T08:05:28Z,1531987528,10C,40.0397323,44.6789138,182.35,0.3,-0.1,119.8,458426.62,-26669.91,114.8,Air+FixedWing,Red,Allies,F-15C,Red F-15C #001,xu,=36=Merlin,0.000152587890625,0,4.49166006211303e-07,182.350280761719,2.35028076171875,0,-0.000152587890625,NaN,NaN,0,0.0171320104161963,NaN,0.99998468162763,0.00523595631807594,-0.00174532842356712,1.16415321826935e-09,178.824538083191,178.824538084355,,,64.0799999237061,180,0.021107917092522,0.0733154319605203
2018-07-19T08:05:29Z,1531987529,10C,40.0397323,44.6789138,182.35,0.3,-0.1,119.8,458426.62,-26669.91,114.8,Air+FixedWing,Red,Allies,F-15C,Red F-15C #001,xu,=36=Merlin,0.000152587890625,0,4.4916600543633e-07,182.350128173828,2.35012817382812,0,-0.000152587890625,NaN,NaN,0,0.0171320104161963,NaN,0.999986237566983,0.00523596446503084,-0.00174533113923395,1.16415321826935e-09,178.824388445587,178.824388446751,,,65.0799999237061,180,0.021107917092522,0.0734680198240708
2018-07-19T08:05:30Z,1531987530,10C,40.0397323,44.6789138,182.35,0.3,-0.1,119.8,458426.62,-26669.91,114.8,Air+FixedWing,Red,Allies,F-15C,Red F-15C #001,xu,=36=Merlin,0.0001373291015625,0,4.04249404264969e-07,182.349990844727,2.34999084472656,0,-0.0001373291015625,NaN,NaN,0,0.0453270429826955,NaN,0.999998685081803,0.00523602964067004,-0.00174535286456864,9.42964106798172e-10,178.824253771744,178.824253772687,,,66.0799999237061,180,0.022612234144499,0.0749786347545198
2018-07-19T08:05:31Z,1531987531,10C,40.0397323,44.6789138,182.35,0.3,-0.2,119.8,458426.62,-26669.91,114.8,Air+FixedWing,Red,Allies,F-15C,Red F-15C #001,xu,=36=Merlin,0,0,0,182.349990844727,2.34999084472656,0,0,NaN,NaN,0,0.0171320104161963,NaN,0.999980032529351,0.00523593197522754,-0.00349065172486007,0,178.824253771744,178.824253771744,,,67.0799999237061,180,0.0232434566180559,0.0756098755548275
2018-07-19T08:05:32Z,1531987532,10C,40.0397323,44.6789138,182.35,0.3,-0.1,119.8,458426.62,-26669.91,114.8,Air+FixedWing,Red,Allies,F-15C,Red F-15C #001,xu,=36=Merlin,0,0,0,182.349990844727,2.34999084472656,0,0,NaN,NaN,0,0.0453270429826955,NaN,0.99998468162763,0.00523595631807594,-0.00174532842356712,0,178.824253771744,178.824253771744,,,68.0799999237061,180,0.0241165511964763,0.076482994789657
2018-07-19T08:05:33Z,1531987533,10C,40.0397323,44.6789137,182.35,0.4,-0.1,119.8,458426.62,-26669.91,114.8,Air+FixedWing,Red,Allies,F-15C,Red F-15C #001,xu,=36=Merlin,0,0,0,182.349990844727,2.34999084472656,0,0,NaN,NaN,0.184615370871243,0.0171320104161963,NaN,0.999973582374011,0.00702778774604335,-0.00182886774956958,0,178.824253771744,178.824253771744,,,69.0799999237061,180,0.0352484999043724,0.0876152626256218
2018-07-19T08:05:34Z,1531987534,10C,40.0397323,44.6789138,182.35,0.3,-0.1,119.8,458426.62,-26669.91,114.8,Air+FixedWing,Red,Allies,F-15C,Red F-15C #001,xu,=36=Merlin,0.001953125,0,5.74932486065733e-06,182.349990844727,2.34999084472656,0.001953125,0,NaN,NaN,0,0.0171320104161963,NaN,0.999982496741884,0.00559754167054082,-0.00191240707557204,1.9073486328125e-07,178.824253771744,178.824253962479,,,70.0799999237061,180,0.0463804486122685,0.0987475304615866
2018-07-19T08:05:35Z,1531987535,10C,40.0397323,44.6789138,182.35,0.3,-0.1,119.8,458426.62,-26669.9,114.8,Air+FixedWing,Red,Allies,F-15C,Red F-15C #001,xu,=36=Merlin,0.005859375,0,1.7247974581972e-05,182.349990844727,2.34999084472656,0.005859375,0,NaN,NaN,0,0.0171320104161963,NaN,0.999986866513377,0.00487437096561106,-0.0015782497715622,1.71661376953125e-06,178.824253771744,178.824255488358,,,71.0799999237061,180,0.0463804486122685,0.0987475304615866
2018-07-19T08:05:36Z,1531987536,10C,40.0397323,44.6789138,182.35,0.3,-0.1,119.8,458426.62,-26669.9,114.8,Air+FixedWing,Red,Allies,F-15C,Red F-15C #001,xu,=36=Merlin,0.001953125,0,5.74932486065733e-06,182.349990844727,2.34999084472656,0.001953125,0,NaN,NaN,0,0.0171320104161963,NaN,0.99999123628487,0.0041512002606813,-0.00124409246755236,1.9073486328125e-07,178.824253771744,178.824253962479,,,72.0799999237061,180,0.0511512827984903,0.103518500929642
2018-07-19T08:05:37Z,1531987537,10C,40.0397323,44.6789137,182.35,0.3,-0.1,119.8,458426.62,-26669.91,114.8,Air+FixedWing,Red,Allies,F-15C,Red F-15C #001,xu,=36=Merlin,0.009765625,0,2.87466243032867e-05,182.349990844727,2.34999084472656,0.009765625,0,NaN,NaN,0,0.0171320104161963,NaN,0.99998468162763,0.00523595631807594,-0.00174532842356712,4.76837158203125e-06,178.824253771744,178.824258540115,,,73.0799999237061,180,0.0647177299890977,0.117085336101219
2018-07-19T08:05:38Z,1531987538,10C,40.0397323,44.6789137,182.35,0.3,-0.1,119.8,458426.62,-26669.92,114.8,Air+FixedWing,Red,Allies,F-15C,Red F-15C #001,xu,=36=Merlin,0.009765625,0,2.87466243032867e-05,182.349990844727,2.34999084472656,0.009765625,0,NaN,NaN,0,0.0171320104161963,NaN,0.999973757198897,0.00704388308040034,-0.00258072168359171,4.76837158203125e-06,178.824253771744,178.824258540115,,,74.0799999237061,180,0.0710546112727301,0.123422398435605
2018-07-19T08:05:39Z,1531987539,10C,40.0397323,44.6789138,182.35,0.3,-0.1,119.8,458426.62,-26669.91,114.8,Air+FixedWing,Red,Allies,F-15C,Red F-15C #001,xu,=36=Merlin,0.009765625,0,2.87466243032867e-05,182.349990844727,2.34999084472656,0.009765625,0,NaN,NaN,0.174197144592005,0.0171320104161963,NaN,0.99998795895625,0.00469357828937862,-0.00149471044555974,4.76837158203125e-06,178.824253771744,178.824258540115,,,75.0799999237061,180,0.086187105560748,0.138555325473512
2018-07-19T08:05:40Z,1531987540,10C,40.0397323,44.6789138,182.35,0.3,-0.1,119.8,458426.62,-26669.91,114.8,Air+FixedWing,Red,Allies,F-15C,Red F-15C #001,xu,=36=Merlin,0.00390625,0,1.14986497213147e-05,182.349990844727,2.34999084472656,0.00390625,0,NaN,NaN,0,0.0171320104161963,NaN,0.99998468162763,0.00523595631807594,-0.00174532842356712,7.62939453125e-07,178.824253771744,178.824254534683,,,76.0799999237061,180,0.086187105560748,0.138555325473512
2018-07-19T08:05:41Z,1531987541,10C,40.0397323,44.6789138,182.35,0.3,-0.1,119.8,458426.62,-26669.9,114.8,Air+FixedWing,Red,Allies,F-15C,Red F-15C #001,xu,=36=Merlin,0.00390625,0,1.14986497213147e-05,182.349990844727,2.34999084472656,0.00390625,0,NaN,NaN,0,0.0171320104161963,NaN,0.99999123628487,0.0041512002606813,-0.00124409246755236,7.62939453125e-07,178.824253771744,178.824254534683,,,77.0799999237061,180,0.086187105560748,0.138555325473512
2018-07-19T08:05:42Z,1531987542,10C,40.0397323,44.6789137,182.35,0.3,-0.1,119.8,458426.62,-26669.91,114.8,Air+FixedWing,Red,Allies,F-15C,Red F-15C #001,xu,=36=Merlin,0.0078125,0,2.29972994426293e-05,182.349990844727,2.34999084472656,0.0078125,0,NaN,NaN,0,0.0171320104161963,NaN,0.999980311856137,0.0059591270230057,-0.00207948572757695,3.0517578125e-06,178.824253771744,178.824256823502,,,78.0799999237061,180,0.0946203988748441,0.14698885986386
2018-07-19T08:05:43Z,1531987543,10C,40.0397323,44.6789138,182.35,0.3,-0.1,119.8,458426.62,-26669.91,114.8,Air+FixedWing,Red,Allies,F-15C,Red F-15C #001,xu,=36=Merlin,0,0,0,182.349990844727,2.34999084472656,0,0,NaN,NaN,0.0641025526601861,0.0171320104161963,NaN,0.999981641795458,0.00579534690503758,-0.00174532842356712,0,178.824253771744,178.824253771744,,,79.0799999237061,180,0.10305369218894,0.155422394254208
2018-07-19T08:05:44Z,1531987544,10C,40.0397323,44.6789138,182.35,0.4,-0.1,119.8,458426.62,-26669.91,114.8,Air+FixedWing,Red,Allies,F-15C,Red F-15C #001,xu,=36=Merlin,0,0,0,182.349990844727,2.34999084472656,0,0,NaN,NaN,0.0641025526601861,0.0171320104161963,NaN,0.999974548853722,0.00691412388801577,-0.00174532842356712,0,178.824253771744,178.824253771744,,,80.0799999237061,180,0.10305369218894,0.155422394254208
2018-07-19T08:05:45Z,1531987545,10C,40.0397323,44.6789138,182.35,0.3,-0.1,119.8,458426.62,-26669.91,114.8,Air+FixedWing,Red,Allies,F-15C,Red F-15C #001,xu,=36=Merlin,0,0,0,182.349990844727,2.34999084472656,0,0,NaN,NaN,0,0.0171320104161963,NaN,0.99998468162763,0.00523595631807594,-0.00174532842356712,0,178.824253771744,178.824253771744,,,81.0799999237061,180,0.105808378766411,0.158177160719014
2018-07-19T08:05:46Z,1531987546,10C,40.0397323,44.6789137,182.35,0.3,-0.1,119.8,458426.62,-26669.91,114.8,Air+FixedWing,Red,Allies,F-15C,Red F-15C #001,xu,=36=Merlin,0,0,0,182.349990844727,2.34999084472656,0,0,NaN,NaN,0,0.0171320104161963,NaN,0.99998468162763,0.00523595631807594,-0.00174532842356712,0,178.824253771744,178.824253771744,,,82.0799999237061,180,0.109581920619235,0.161950809864
2018-07-19T08:05:47Z,1531987547,10C,40.0397323,44.6789137,182.35,0.3,-0.1,119.8,458426.62,-26669.91,114.8,Air+FixedWing,Red,Allies,F-15C,Red F-15C #001,xu,=36=Merlin,0,0,0,182.349990844727,2.34999084472656,0,0,NaN,NaN,0,0.0171320104161963,NaN,0.99998468162763,0.00523595631807594,-0.00174532842356712,0,178.824253771744,178.824253771744,,,83.0799999237061,180,0.113355463595594,0.165724460132521
2018-07-19T08:05:48Z,1531987548,10C,40.0397323,44.6789138,182.35,0.3,-0.1,119.8,458426.62,-26669.91,114.8,Air+FixedWing,Red,Allies,F-15C,Red F-15C #001,xu,=36=Merlin,0,0,0,182.349990844727,2.34999084472656,0,0,NaN,NaN,0,0.0171320104161963,NaN,0.99998795895625,0.00469357828937862,-0.00149471044555974,0,178.824253771744,178.824253771744,,,84.0799999237061,180,0.121569993812034,0.173939224634244
2018-07-19T08:05:49Z,1531987549,10C,40.0397323,44.6789137,182.35,0.4,-0.1,119.8,458426.62,-26669.92,114.8,Air+FixedWing,Red,Allies,F-15C,Red F-15C #001,xu,=36=Merlin,0.005859375,0,1.7247974581972e-05,182.349990844727,2.34999084472656,0.005859375,0,NaN,NaN,0.209523576670399,0.0494558589854351,NaN,0.999974898981003,0.00688356629869488,-0.00166178909756466,1.71661376953125e-06,178.824253771744,178.824255488358,,,85.0799999237061,180,0.130614701329718,0.182984191093621
2018-07-19T08:05:50Z,1531987550,10C,40.0397322,44.6789136,182.35,0.9,-0.2,119.8,458426.62,-26669.92,114.8,Air+FixedWing,Red,Allies,F-15C,Red F-15C #001,xu,=36=Merlin,0.0078125,0,2.29972994426293e-05,182.349990844727,2.34999084472656,0.0078125,0,NaN,NaN,1.25713729787587,0.0541761800424684,NaN,0.999815021918991,0.0161364747267017,-0.00357402227805388,3.0517578125e-06,178.824253771744,178.824256823502,,,86.0799999237061,180,0.140371307780092,0.19274107613878
2018-07-19T08:05:51Z,1531987551,10C,40.0397322,44.6789136,182.35,0.9,-0.2,119.8,458426.62,-26669.93,114.8,Air+FixedWing,Red,Allies,F-15C,Red F-15C #001,xu,=36=Merlin,0.00587843734670842,0,1.73040874488217e-05,182.349517822266,2.34951782226562,0.005859375,-0.0004730224609375,NaN,NaN,0.085732534462,0.0197823405926261,NaN,0.997897273314562,0.0174993175281587,-0.00440280159836762,1.72780128195882e-06,178.823789895172,178.823791622973,,,87.0799999237061,180,0.143855499880731,0.196257330013071
2018-07-19T08:05:52Z,1531987552,10C,40.0397324,44.6789138,182.33,0.4,-0.2,119.8,458426.62,-26669.91,114.8,Air+FixedWing,Red,Allies,F-15C,Red F-15C #001,xu,=36=Merlin,0.025000290757217,0,7.3592197471684e-05,182.330001831055,2.33000183105469,0.015625,-0.0195159912109375,NaN,NaN,0.742851374130587,0.0197823405926261,NaN,1.00404662456956,0.000137873193968155,-0.0037241845163588,3.12507268972695e-05,178.804651245651,178.804682496378,,,88.0799999237061,180,0.165540631269502,0.225431731948852
2018-07-19T08:05:53Z,1531987553,10C,40.039732,44.6789133,182.35,1,-0.2,119.8,458426.59,-26669.96,114.8,Air+FixedWing,Red,Allies,F-15C,Red F-15C #001,xu,=36=Merlin,0.059777828603709,0,0.000175965263926997,182.349990844727,2.34999084472656,0.0563367386791248,0.019989013671875,NaN,NaN,2.32382480258627,0.0197823405926261,NaN,0.996617074463275,0.0278225616252605,-0.0016208752760717,0.00017866943962872,178.824253771744,178.824432441183,,,89.0799999237061,180,0.222826616493384,0.286106541534862
2018-07-19T08:05:54Z,1531987554,10C,40.0397323,44.6789137,182.34,0.6,-0.2,119.8,458426.62,-26669.92,114.8,Air+FixedWing,Red,Allies,F-15C,Red F-15C #001,xu,=36=Merlin,0.0556275787753631,0,0.0001637483445494,182.339996337891,2.33999633789062,0.0547223661176637,-0.0099945068359375,NaN,NaN,0.638112771085968,0.0197823405926261,NaN,1.00100450224025,0.00593164776290937,-0.0046326085010303,0.000154721376020461,178.814452508698,178.814607230074,,,90.0799999237061,180,0.271785907813908,0.336076928642876
2018-07-19T08:05:55Z,1531987555,10C,40.0397323,44.6789137,182.34,0.5,-0.2,119.8,458426.62,-26669.91,114.8,Air+FixedWing,Red,Allies,F-15C,Red F-15C #001,xu,=36=Merlin,0.00390625,0,1.14986484218397e-05,182.339996337891,2.33999633789062,0.00390625,0,NaN,NaN,0.123792269508015,0.0197823405926261,NaN,0.999964250681074,0.00797419510741485,-0.00298941817927813,7.62939453125e-07,178.814452508698,178.814453271637,,,91.0799999237061,180,0.272846091838819,0.337137143904529
2018-07-19T08:05:56Z,1531987556,10C,40.0397323,44.6789136,182.34,0.4,-0.2,119.8,458426.62,-26669.92,114.8,Air+FixedWing,Red,Allies,F-15C,Red F-15C #001,xu,=36=Merlin,0.0078125,0,2.29972968436794e-05,182.339996337891,2.33999633789062,0.0078125,0,NaN,NaN,0.304790361522649,0.0197823405926261,NaN,0.999955438916863,0.0086083228730291,-0.00424250204323299,3.0517578125e-06,178.814452508698,178.814455560455,,,92.0799999237061,180,0.282981136663748,0.347272477918075
2018-07-19T08:05:57Z,1531987557,10C,40.0397324,44.6789138,182.34,0.4,-0.2,119.8,458426.62,-26669.91,114.8,Air+FixedWing,Red,Allies,F-15C,Red F-15C #001,xu,=36=Merlin,0.009765625,0,2.87466210545992e-05,182.339996337891,2.33999633789062,0.009765625,0,NaN,NaN,0.199987938897973,0.0197823405926261,NaN,0.99997719188584,0.00607726981054945,-0.00307295710354178,4.76837158203125e-06,178.814452508698,178.814457277069,,,93.0799999237061,180,0.302239019380727,0.366530911723802
2018-07-19T08:05:58Z,1531987558,10C,40.0397324,44.6789137,182.34,0.3,-0.2,119.8,458426.62,-26669.91,114.8,Air+FixedWing,Red,Allies,F-15C,Red F-15C #001,xu,=36=Merlin,0,0,0,182.339996337891,2.33999633789062,0,0,NaN,NaN,0.0472649090564882,0.0197823405926261,NaN,0.999976515877108,0.00587705930885929,-0.00349065172486007,0,178.814452508698,178.814452508698,,,94.0799999237061,180,0.309130224074477,0.37342231333735
2018-07-19T08:05:59Z,1531987559,10C,40.0397324,44.6789137,182.34,0.3,-0.2,119.8,458426.62,-26669.91,114.8,Air+FixedWing,Red,Allies,F-15C,Red F-15C #001,xu,=36=Merlin,0,0,0,182.339996337891,2.33999633789062,0,0,NaN,NaN,0.143270048030187,0.0197823405926261,NaN,0.999980032529351,0.00523593197522754,-0.00349065172486007,0,178.814452508698,178.814452508698,,,95.0799999237061,180,0.310190408560698,0.374482527224793
2018-07-19T08:06:00Z,1531987560,10C,40.0397324,44.6789138,182.34,0.3,-0.2,119.8,458426.62,-26669.91,114.8,Air+FixedWing,Red,Allies,F-15C,Red F-15C #001,xu,=36=Merlin,0,0,0,182.339996337891,2.33999633789062,0,0,NaN,NaN,0.11272544206189,0.0197823405926261,NaN,0.999980032529351,0.00523593197522754,-0.00349065172486007,0,178.814452508698,178.814452508698,,,96.0799999237061,180,0.31875785598107,0.383050219804006
2018-07-19T08:06:01Z,1531987561,10C,40.0397324,44.6789137,182.34,0.3,-0.2,119.8,458426.62,-26669.91,114.8,Air+FixedWing,Red,Allies,F-15C,Red F-15C #001,xu,=36=Merlin,0,0,0,182.339996337891,2.33999633789062,0,0,NaN,NaN,0,0.0197823405926261,NaN,0.999980032529351,0.00523593197522754,-0.00349065172486007,0,178.814452508698,178.814452508698,,,97.0799999237061,180,0.328385490278469,0.392678128661318
2018-07-19T08:06:02Z,1531987562,10C,40.0397324,44.6789137,182.34,0.3,-0.2,119.8,458426.62,-26669.91,114.8,Air+FixedWing,Red,Allies,F-15C,Red F-15C #001,xu,=36=Merlin,0,0,0,182.339996337891,2.33999633789062,0,0,NaN,NaN,0,0.0197823405926261,NaN,0.999980032529351,0.00523593197522754,-0.00349065172486007,0,178.814452508698,178.814452508698,,,98.0799999237061,180,0.328395017509691,0.392687656548622
2018-07-19T08:06:03Z,1531987563,10C,40.0397324,44.6789137,182.34,0.3,-0.2,119.8,458426.62,-26669.91,114.8,Air+FixedWing,Red,Allies,F-15C,Red F-15C #001,xu,=36=Merlin,0,0,0,182.339996337891,2.33999633789062,0,0,NaN,NaN,0,0.0197823405926261,NaN,0.999980032529351,0.00523593197522754,-0.00349065172486007,0,178.814452508698,178.814452508698,,,99.0799999237061,180,0.32840454419873,0.392697183237661
2018-07-19T08:06:04Z,1531987564,10C,40.0397324,44.6789137,182.34,0.3,-0.2,119.8,458426.62,-26669.91,114.8,Air+FixedWing,Red,Allies,F-15C,Red F-15C #001,xu,=36=Merlin,0,0,0,182.339996337891,2.33999633789062,0,0,NaN,NaN,0,0.0197823405926261,NaN,0.999980032529351,0.00523593197522754,-0.00349065172486007,0,178.814452508698,178.814452508698,,,100.079999923706,180,0.328414071130369,0.392706710525806
2018-07-19T08:06:05Z,1531987565,10C,40.0397324,44.6789137,182.34,0.3,-0.2,119.8,458426.62,-26669.91,114.8,Air+FixedWing,Red,Allies,F-15C,Red F-15C #001,xu,=36=Merlin,0,0,0,182.339996337891,2.33999633789062,0,0,NaN,NaN,0,0.0197823405926261,NaN,0.999980032529351,0.00523593197522754,-0.00349065172486007,0,178.814452508698,178.814452508698,,,101.079999923706,180,0.328423597762436,0.392716237457445
2018-07-19T08:06:06Z,1531987566,10C,40.0397324,44.6789137,182.34,0.3,-0.2,119.8,458426.62,-26669.91,114.8,Air+FixedWing,Red,Allies,F-15C,Red F-15C #001,xu,=36=Merlin,0,0,0,182.339996337891,2.33999633789062,0,0,NaN,NaN,0,0.0197823405926261,NaN,0.999980032529351,0.00523593197522754,-0.00349065172486007,0,178.814452508698,178.814452508698,,,102.079999923706,180,0.328433125293256,0.392725765344749
2018-07-19T08:06:07Z,1531987567,10C,40.0397324,44.6789137,182.34,0.3,-0.2,119.8,458426.62,-26669.91,114.8,Air+FixedWing,Red,Allies,F-15C,Red F-15C #001,xu,=36=Merlin,0,0,0,182.339996337891,2.33999633789062,0,0,NaN,NaN,0,0.0197823405926261,NaN,0.999980032529351,0.00523593197522754,-0.00349065172486007,0,178.814452508698,178.814452508698,,,103.079999923706,180,0.328442651625766,0.392735292033788
2018-07-19T08:06:08Z,1531987568,10C,40.0397324,44.6789137,182.34,0.3,-0.2,119.8,458426.62,-26669.91,114.8,Air+FixedWing,Red,Allies,F-15C,Red F-15C #001,xu,=36=Merlin,0,0,0,182.339996337891,2.33999633789062,0,0,NaN,NaN,0,0.0197823405926261,NaN,0.999980032529351,0.00523593197522754,-0.00349065172486007,0,178.814452508698,178.814452508698,,,104.079999923706,180,0.328452178614351,0.392744819321933
2018-07-19T08:06:09Z,1531987569,10C,40.0397324,44.6789137,182.34,0.3,-0.2,119.8,458426.62,-26669.91,114.8,Air+FixedWing,Red,Allies,F-15C,Red F-15C #001,xu,=36=Merlin,0,0,0,182.339996337891,2.33999633789062,0,0,NaN,NaN,0,0.0197823405926261,NaN,0.999980032529351,0.00523593197522754,-0.00349065172486007,0,178.814452508698,178.814452508698,,,105.079999923706,180,0.328461705189492,0.392754345897074
2018-07-19T08:06:10Z,1531987570,10C,40.0397324,44.6789137,182.34,0.3,-0.2,119.8,458426.62,-26669.91,114.8,Air+FixedWing,Red,Allies,F-15C,Red F-15C #001,xu,=36=Merlin,0,0,0,182.339996337891,2.33999633789062,0,0,NaN,NaN,0,0.0197823405926261,NaN,0.999980032529351,0.00523593197522754,-0.00349065172486007,0,178.814452508698,178.814452508698,,,106.079999923706,180,0.328471231522002,0.392763872529141
2018-07-19T08:06:11Z,1531987571,10C,40.0397324,44.6789137,182.34,0.3,-0.2,119.8,458426.62,-26669.91,114.8,Air+FixedWing,Red,Allies,F-15C,Red F-15C #001,xu,=36=Merlin,0,0,0,182.339996337891,2.33999633789062,0,0,NaN,NaN,0,0.0197823405926261,NaN,0.999980032529351,0.00523593197522754,-0.00349065172486007,0,178.814452508698,178.814452508698,,,107.079999923706,180,0.328480758154069,0.392773399517726
2018-07-19T08:06:12Z,1531987572,10C,40.0397324,44.6789137,182.34,0.3,-0.2,119.8,458426.62,-26669.91,114.8,Air+FixedWing,Red,Allies,F-15C,Red F-15C #001,xu,=36=Merlin,0,0,0,182.339996337891,2.33999633789062,0,0,NaN,NaN,0,0.0197823405926261,NaN,0.999980032529351,0.00523593197522754,-0.00349065172486007,0,178.814452508698,178.814452508698,,,108.079999923706,180,0.328490286041373,0.392782927405031
2018-07-19T08:06:13Z,1531987573,10C,40.0397324,44.6789137,182.34,0.3,-0.2,119.8,458426.62,-26669.91,114.8,Air+FixedWing,Red,Allies,F-15C,Red F-15C #001,xu,=36=Merlin,0,0,0,182.339996337891,2.33999633789062,0,0,NaN,NaN,0,0.0197823405926261,NaN,0.999980032529351,0.00523593197522754,-0.00349065172486007,0,178.814452508698,178.814452508698,,,109.079999923706,180,0.32849981267344,0.392792454693176
2018-07-19T08:06:14Z,1531987574,10C,40.0397324,44.6789137,182.34,0.3,-0.2,119.8,458426.62,-26669.91,114.8,Air+FixedWing,Red,Allies,F-15C,Red F-15C #001,xu,=36=Merlin,0,0,0,182.339996337891,2.33999633789062,0,0,NaN,NaN,0,0.0197823405926261,NaN,0.999980032529351,0.00523593197522754,-0.00349065172486007,0,178.814452508698,178.814452508698,,,110.079999923706,180,0.32850933864943,0.392801981325243
2018-07-19T08:06:15Z,1531987575,10C,40.0397324,44.6789137,182.34,0.3,-0.2,119.8,458426.62,-26669.91,114.8,Air+FixedWing,Red,Allies,F-15C,Red F-15C #001,xu,=36=Merlin,0,0,0,182.339996337891,2.33999633789062,0,0,NaN,NaN,0,0.0197823405926261,NaN,0.999980032529351,0.00523593197522754,-0.00349065172486007,0,178.814452508698,178.814452508698,,,111.079999923706,180,0.328518865937575,0.392811508313828
2018-07-19T08:06:16Z,1531987576,10C,40.0397324,44.6789137,182.34,0.3,-0.2,119.8,458426.62,-26669.91,114.8,Air+FixedWing,Red,Allies,F-15C,Red F-15C #001,xu,=36=Merlin,0,0,0,182.339996337891,2.33999633789062,0,0,NaN,NaN,0,0.0197823405926261,NaN,0.999980032529351,0.00523593197522754,-0.00349065172486007,0,178.814452508698,178.814452508698,,,112.079999923706,180,0.328528393168798,0.392821036201132
2018-07-19T08:06:17Z,1531987577,10C,40.0397324,44.6789137,182.34,0.3,-0.2,119.8,458426.62,-26669.91,114.8,Air+FixedWing,Red,Allies,F-15C,Red F-15C #001,xu,=36=Merlin,0,0,0,182.339996337891,2.33999633789062,0,0,NaN,NaN,0,0.0197823405926261,NaN,0.999980032529351,0.00523593197522754,-0.00349065172486007,0,178.814452508698,178.814452508698,,,113.079999923706,180,0.328537920157383,0.392830563189718
2018-07-19T08:06:18Z,1531987578,10C,40.0397324,44.6789137,182.34,0.3,-0.2,119.8,458426.62,-26669.91,114.8,Air+FixedWing,Red,Allies,F-15C,Red F-15C #001,xu,=36=Merlin,0,0,0,182.339996337891,2.33999633789062,0,0,NaN,NaN,0,0.0197823405926261,NaN,0.999980032529351,0.00523593197522754,-0.00349065172486007,0,178.814452508698,178.814452508698,,,114.079999923706,180,0.32854744678945,0.392840090121356
2018-07-19T08:06:19Z,1531987579,10C,40.0397324,44.6789137,182.34,0.3,-0.2,119.8,458426.62,-26669.91,114.8,Air+FixedWing,Red,Allies,F-15C,Red F-15C #001,xu,=36=Merlin,0,0,0,182.339996337891,2.33999633789062,0,0,NaN,NaN,0,0.0197823405926261,NaN,0.999980032529351,0.00523593197522754,-0.00349065172486007,0,178.814452508698,178.814452508698,,,115.079999923706,180,0.328556973421518,0.392849616753423
2018-07-19T08:06:20Z,1531987580,10C,40.0397324,44.6789137,182.34,0.3,-0.2,119.8,458426.62,-26669.91,114.8,Air+FixedWing,Red,Allies,F-15C,Red F-15C #001,xu,=36=Merlin,0,0,0,182.339996337891,2.33999633789062,0,0,NaN,NaN,0,0.0197823405926261,NaN,0.999980032529351,0.00523593197522754,-0.00349065172486007,0,178.814452508698,178.814452508698,,,116.079999923706,180,0.328566500053585,0.392859143742009
2018-07-19T08:06:21Z,1531987581,10C,40.0397324,44.6789137,182.34,0.3,-0.2,119.8,458426.62,-26669.91,114.8,Air+FixedWing,Red,Allies,F-15C,Red F-15C #001,xu,=36=Merlin,0,0,0,182.339996337891,2.33999633789062,0,0,NaN,NaN,0,0.0197823405926261,NaN,0.999980032529351,0.00523593197522754,-0.00349065172486007,0,178.814452508698,178.814452508698,,,117.079999923706,180,0.32857602704217,0.392868671030154
2018-07-19T08:06:22Z,1531987582,10C,40.0397324,44.6789137,182.34,0.3,-0.2,119.8,458426.62,-26669.91,114.8,Air+FixedWing,Red,Allies,F-15C,Red F-15C #001,xu,=36=Merlin,0,0,0,182.339996337891,2.33999633789062,0,0,NaN,NaN,0,0.0197823405926261,NaN,0.999980032529351,0.00523593197522754,-0.00349065172486007,0,178.814452508698,178.814452508698,,,118.079999923706,180,0.32858555457299,0.392878198917458
2018-07-19T08:06:23Z,1531987583,10C,40.0397324,44.6789137,182.34,0.3,-0.2,119.8,458426.62,-26669.91,114.8,Air+FixedWing,Red,Allies,F-15C,Red F-15C #001,xu,=36=Merlin,0,0,0,182.339996337891,2.33999633789062,0,0,NaN,NaN,0,0.0197823405926261,NaN,0.999980032529351,0.00523593197522754,-0.00349065172486007,0,178.814452508698,178.814452508698,,,119.079999923706,180,0.3285950809055,0.392887725606497
2018-07-19T08:06:24Z,1531987584,10C,40.0397324,44.6789137,182.34,0.3,-0.2,119.8,458426.62,-26669.91,114.8,Air+FixedWing,Red,Allies,F-15C,Red F-15C #001,xu,=36=Merlin,0,0,0,182.339996337891,2.33999633789062,0,0,NaN,NaN,0,0.0197823405926261,NaN,0.999980032529351,0.00523593197522754,-0.00349065172486007,0,178.814452508698,178.814452508698,,,120.079999923706,180,0.328604607537567,0.392897252538135
2018-07-19T08:06:25Z,1531987585,10C,40.0397324,44.6789137,182.34,0.3,-0.2,119.8,458426.62,-26669.91,114.8,Air+FixedWing,Red,Allies,F-15C,Red F-15C #001,xu,=36=Merlin,0,0,0,182.339996337891,2.33999633789062,0,0,NaN,NaN,0,0.0197823405926261,NaN,0.999980032529351,0.00523593197522754,-0.00349065172486007,0,178.814452508698,178.814452508698,,,121.079999923706,180,0.328614134469206,0.39290677982628
2018-07-19T08:06:26Z,1531987586,10C,40.0397324,44.6789137,182.34,0.3,-0.2,119.8,458426.62,-26669.91,114.8,Air+FixedWing,Red,Allies,F-15C,Red F-15C #001,xu,=36=Merlin,0,0,0,182.339996337891,2.33999633789062,0,0,NaN,NaN,0,0.0197823405926261,NaN,0.999980032529351,0.00523593197522754,-0.00349065172486007,0,178.814452508698,178.814452508698,,,122.079999923706,180,0.328623661700428,0.392916307000625
2018-07-19T08:06:27Z,1531987587,10C,40.0397324,44.6789137,182.34,0.3,-0.2,119.8,458426.62,-26669.91,114.8,Air+FixedWing,Red,Allies,F-15C,Red F-15C #001,xu,=36=Merlin,0,0,0,182.339996337891,2.33999633789062,0,0,NaN,NaN,0,0.0197823405926261,NaN,0.999980032529351,0.00523593197522754,-0.00349065172486007,0,178.814452508698,178.814452508698,,,123.079999923706,180,0.328633188632066,0.39292583428877
2018-07-19T08:06:28Z,1531987588,10C,40.0397324,44.6789137,182.34,0.3,-0.2,119.8,458426.62,-26669.91,114.8,Air+FixedWing,Red,Allies,F-15C,Red F-15C #001,xu,=36=Merlin,0,0,0,182.339996337891,2.33999633789062,0,0,NaN,NaN,0,0.0197823405926261,NaN,0.999980032529351,0.00523593197522754,-0.00349065172486007,0,178.814452508698,178.814452508698,,,124.079999923706,180,0.328642714964576,0.39293536062128
2018-07-19T08:06:29Z,1531987589,10C,40.0397324,44.6789137,182.34,0.3,-0.2,119.8,458426.62,-26669.91,114.8,Air+FixedWing,Red,Allies,F-15C,Red F-15C #001,xu,=36=Merlin,0,0,0,182.339996337891,2.33999633789062,0,0,NaN,NaN,0,0.0197823405926261,NaN,0.999980032529351,0.00523593197522754,-0.00349065172486007,0,178.814452508698,178.814452508698,,,125.079999923706,180,0.328652241297086,0.392944887609865
2018-07-19T08:06:30Z,1531987590,10C,40.0397324,44.6789137,182.34,0.3,-0.2,119.8,458426.62,-26669.91,114.8,Air+FixedWing,Red,Allies,F-15C,Red F-15C #001,xu,=36=Merlin,0,0,0,182.339996337891,2.33999633789062,0,0,NaN,NaN,0,0.0197823405926261,NaN,0.999980032529351,0.00523593197522754,-0.00349065172486007,0,178.814452508698,178.814452508698,,,126.079999923706,180,0.328661767929153,0.39295441489801
2018-07-19T08:06:31Z,1531987591,10C,40.0397324,44.6789137,182.34,0.3,-0.2,119.8,458426.62,-26669.91,114.8,Air+FixedWing,Red,Allies,F-15C,Red F-15C #001,xu,=36=Merlin,0,0,0,182.339996337891,2.33999633789062,0,0,NaN,NaN,0,0.0197823405926261,NaN,0.999980032529351,0.00523593197522754,-0.00349065172486007,0,178.814452508698,178.814452508698,,,127.079999923706,180,0.328671295217298,0.392963941886596
2018-07-19T08:06:32Z,1531987592,10C,40.0397324,44.6789137,182.34,0.3,-0.2,119.8,458426.62,-26669.91,114.8,Air+FixedWing,Red,Allies,F-15C,Red F-15C #001,xu,=36=Merlin,0,0,0,182.339996337891,2.33999633789062,0,0,NaN,NaN,0,0.0197823405926261,NaN,0.999980032529351,0.00523593197522754,-0.00349065172486007,0,178.814452508698,178.814452508698,,,128.079999923706,180,0.32868082244852,0.3929734697739
2018-07-19T08:06:33Z,1531987593,10C,40.0397324,44.6789137,182.34,0.3,-0.2,119.8,458426.62,-26669.91,114.8,Air+FixedWing,Red,Allies,F-15C,Red F-15C #001,xu,=36=Merlin,0,0,0,182.339996337891,2.33999633789062,0,0,NaN,NaN,0,0.0197823405926261,NaN,0.999980032529351,0.00523593197522754,-0.00349065172486007,0,178.814452508698,178.814452508698,,,129.079999923706,180,0.328690349380159,0.392982996705538
2018-07-19T08:06:34Z,1531987594,10C,40.0397324,44.6789137,182.34,0.3,-0.2,119.8,458426.62,-26669.91,114.8,Air+FixedWing,Red,Allies,F-15C,Red F-15C #001,xu,=36=Merlin,0,0,0,182.339996337891,2.33999633789062,0,0,NaN,NaN,0,0.0197823405926261,NaN,0.999980032529351,0.00523593197522754,-0.00349065172486007,0,178.814452508698,178.814452508698,,,130.079999923706,180,0.328699875712668,0.392992523694123
2018-07-19T08:06:35Z,1531987595,10C,40.0397324,44.6789137,182.34,0.3,-0.2,119.8,458426.62,-26669.91,114.8,Air+FixedWing,Red,Allies,F-15C,Red F-15C #001,xu,=36=Merlin,0,0,0,182.339996337891,2.33999633789062,0,0,NaN,NaN,0,0.0197823405926261,NaN,0.999980032529351,0.00523593197522754,-0.00349065172486007,0,178.814452508698,178.814452508698,,,131.079999923706,180,0.328709402701254,0.393002050326191
2018-07-19T08:06:36Z,1531987596,10C,40.0397324,44.6789137,182.34,0.3,-0.2,119.8,458426.62,-26669.91,114.8,Air+FixedWing,Red,Allies,F-15C,Red F-15C #001,xu,=36=Merlin,0,0,0,182.339996337891,2.33999633789062,0,0,NaN,NaN,0,0.0197823405926261,NaN,0.999980032529351,0.00523593197522754,-0.00349065172486007,0,178.814452508698,178.814452508698,,,132.079999923706,180,0.328718930232074,0.393011578213495
2018-07-19T08:06:37Z,1531987597,10C,40.0397324,44.6789137,182.34,0.3,-0.2,119.8,458426.62,-26669.91,114.8,Air+FixedWing,Red,Allies,F-15C,Red F-15C #001,xu,=36=Merlin,0,0,0,182.339996337891,2.33999633789062,0,0,NaN,NaN,0,0.0197823405926261,NaN,0.999980032529351,0.00523593197522754,-0.00349065172486007,0,178.814452508698,178.814452508698,,,133.079999923706,180,0.328728456921113,0.39302110520208
2018-07-19T08:06:38Z,1531987598,10C,40.0397324,44.6789137,182.34,0.3,-0.2,119.8,458426.62,-26669.91,114.8,Air+FixedWing,Red,Allies,F-15C,Red F-15C #001,xu,=36=Merlin,0,0,0,182.339996337891,2.33999633789062,0,0,NaN,NaN,0,0.0197823405926261,NaN,0.999980032529351,0.00523593197522754,-0.00349065172486007,0,178.814452508698,178.814452508698,,,134.079999923706,180,0.328737983496253,0.393030632133718
