ISOTime,UnixTime,Id,Longitude,Latitude,Altitude,Roll,Pitch,Yaw,U,V,Heading,Type,Color,Coalition,Name,Group,Country,Pilot,TAS,CAS,M,ASL,AGL,GS,VS,AOA,AOS,RRT,TRT,TRD,G,LatG,LonG,Ek,Ep,Em,FFW,FFV,RelativeTime,Elev,GroundDistance,AirDistance
2018-07-19T08:35:02Z,1531989302,6504,40.9088835,44.128236,3376.2,-35.9,-3.2,346.8,533262.38,-81491.97,341.2,Weapon+Missile,Blue,Enemies,R-27ER,,cn,,285.2092015,247.7663727,0.871625007,3376.203857,2420.79657,NaN,NaN,6.680220522,NaN,7.892310907,3.109974915,NaN,NaN,NaN,NaN,NaN,3310.924956,NaN,,,0.960000038,955.4072876,NaN,NaN
2018-07-19T08:35:03Z,1531989303,6504,40.9079011,44.132059,3317.96,-29.6,-4.7,347.1,533142.69,-81074.83,341.5,Weapon+Missile,Blue,Enemies,R-27ER,,cn,,437.8631292,385.4016418,1.337200227,3317.956787,2408.726013,433.9716565,-58.24707031,2.332598044,NaN,5.461569525,1.863153729,5000,2.543283701,2.543283701,2.543283701,9586.205994,3253.804093,12840.01009,,,1.960000038,909.2307739,432.7610655,436.8884001
2018-07-19T08:35:04Z,1531989304,6504,40.9059439,44.1379519,3234.72,-24.4,-7.5,345.7,532922.81,-80435.3,340.1,Weapon+Missile,Blue,Enemies,R-27ER,,cn,,681.3760776,586.3544922,2.078765264,3234.721436,2391.17572,676.2730479,-83.23535156,0.073116776,NaN,5.738482469,2.499189269,5000,2.939330578,2.939330578,2.939330578,23213.66796,3172.178097,26385.84605,,,2.960000038,843.5457153,1107.130653,1116.719117
2018-07-19T08:35:05Z,1531989305,6504,40.9028786,44.1459249,3113.23,-19.7,-8.1,343.5,532591.88,-79573.2,338,Weapon+Missile,Blue,Enemies,R-27ER,,cn,,931.396532,795.6955566,2.837352352,3113.227539,2332.238159,923.4385377,-121.4938965,0.179074334,NaN,4.323082858,2.32765227,5000,4.509448528,4.509448528,4.509448528,43374.97499,3053.033285,46428.00828,,,3.960000038,780.9893799,2027.843602,2045.867658
2018-07-19T08:35:06Z,1531989306,6504,40.8991285,44.1545269,2940.05,-16.5,-11.4,341.6,532199.56,-78646.53,336.1,Weapon+Missile,Blue,Enemies,R-27ER,,cn,,1021.081501,877.435791,3.104060315,2940.04541,2079.956543,1006.287922,-173.1821289,0.102178005,NaN,3.246160101,3.474578276,5000,5.999266624,5.999266624,5.999266624,52130.37161,2883.199632,55013.57124,,,4.960000038,860.0888672,3031.168195,3064.498063
2018-07-19T08:35:07Z,1531989307,6504,40.894946,44.1629023,2716.56,-13.3,-13.8,338.8,531775.12,-77748.35,333.2,Weapon+Missile,Blue,Enemies,R-27ER,,cn,,1018.243465,884.4042969,3.087123829,2716.559814,1921.153076,993.415292,-223.4855957,0.112671275,NaN,3.246168639,3.522558434,5000,5.897473812,5.897473812,5.897473812,51840.9877,2664.03513,54505.02283,,,5.960000038,795.4067383,4021.537338,4080.198274
2018-07-19T08:35:08Z,1531989308,6504,40.8901756,44.1710045,2467.82,-9.8,-14.4,335.4,531306.62,-76885.06,329.8,Weapon+Missile,Blue,Enemies,R-27ER,,cn,,1013.228064,890.5631714,3.062793649,2467.821289,1834.383301,982.2221009,-248.7385254,0.072533521,NaN,3.369238402,3.173867885,5000,5.496928692,5.496928692,5.496928692,51331.55547,2420.105964,53751.66144,,,6.960000038,633.4379883,5000.614403,5090.763506
2018-07-19T08:35:09Z,1531989309,6504,40.8848349,44.1788539,2219.84,-6.9,-14,332.5,530795.44,-76054.23,327,Weapon+Missile,Blue,Enemies,R-27ER,,cn,,1006.519377,895.1705322,3.033558198,2219.843018,1609.805481,975.4937383,-247.9782715,0.028387814,NaN,2.676958603,2.769103831,5000,5.20497942,5.20497942,5.20497942,50654.06283,2176.922353,52830.98518,,,7.960000038,610.0375366,5972.895799,6094.516086
2018-07-19T08:35:10Z,1531989310,6504,40.8789896,44.1865493,1988.19,-4.1,-12.2,330.3,530245.62,-75244.37,324.7,Weapon+Missile,Blue,Enemies,R-27ER,,cn,,1005.903106,904.401062,3.023410257,1988.191528,1439.150635,978.8660003,-231.6514893,0.100327578,NaN,2.892288854,2.697987475,5000,5.894121647,5.894121647,5.894121647,50592.05295,1949.749845,52541.8028,,,8.960000038,549.0408936,6948.390502,7097.451902
2018-07-19T08:35:11Z,1531989311,6504,40.8728195,44.1941231,1797.51,-2.2,-10.1,329.2,529671.31,-74450.51,323.6,Weapon+Missile,Blue,Enemies,R-27ER,,cn,,998.2014386,905.6074829,2.99354006,1797.512329,1259.492188,979.8201646,-190.6791992,0.048108817,NaN,1.415366314,2.36426742,5000,3.904837608,3.904837608,3.904837608,49820.3056,1762.757428,51583.06303,,,9.960000038,538.0201416,7924.803146,8092.593182
2018-07-19T08:35:12Z,1531989312,6504,40.8664782,44.2016254,1632.41,-1.1,-9,328.3,529084.12,-73665.85,322.7,Weapon+Missile,Blue,Enemies,R-27ER,,cn,,993.8476528,908.6621094,2.974724994,1632.410645,1100.372192,980.0380558,-165.1016846,0.341311989,NaN,1.07694218,2.237832721,5000,4.890330791,4.890330791,4.890330791,49386.65785,1600.847985,50987.50584,,,10.96000004,532.0384521,8901.331434,9083.238904
2018-07-19T08:35:13Z,1531989313,6504,40.8600628,44.2084354,1482.42,-0.2,-9.7,323.8,528498.56,-72958.65,318.2,Weapon+Missile,Blue,Enemies,R-27ER,,cn,,930.3316174,857.3225098,2.779742619,1482.419922,955.4199219,918.1610433,-149.9907227,0.281292419,NaN,0.53848379,2.493361837,5000,3.738918066,3.738918066,3.738918066,43275.84591,1453.757333,44729.60325,,,11.96000004,527,9816.089518,10010.43267
2018-07-19T08:35:14Z,1531989314,6504,40.8538426,44.2144991,1338.23,-0.1,-9.7,323.6,527936.69,-72332.82,318,Weapon+Missile,Blue,Enemies,R-27ER,,cn,,853.3197755,792.6766968,2.545366494,1338.231567,801.2427979,841.0495572,-144.1883545,0.055299774,NaN,0,0.895610796,5000,0.975445569,0.975445569,0.975445569,36407.73196,1312.35686,37720.08882,,,12.96000004,536.9887695,10653.92391,10860.76626
2018-07-19T08:35:15Z,1531989315,6504,40.8480551,44.2201289,1204.1,-0.1,-9.7,323.6,527414.12,-71751.84,318,Weapon+Missile,Blue,Enemies,R-27ER,,cn,,792.8464529,741.9822998,2.361306127,1204.100708,665.59021,781.4182045,-134.1308594,0.054476658,NaN,0,0.052339163,5000,0.988286972,0.988286972,0.988286972,31430.27489,1180.819421,32611.09431,,,13.96000004,538.510498,11432.36049,11650.82711
2018-07-19T08:35:16Z,1531989316,6504,40.8426643,44.2253716,1079.18,-0.1,-9.7,323.6,526927.5,-71210.77,318,Weapon+Missile,Blue,Enemies,R-27ER,,cn,,738.354332,695.857666,2.195841363,1079.176147,519.2677612,727.709402,-124.9245605,0.055396782,NaN,0,0.013988227,5000,0.989650548,0.989650548,0.989650548,27258.35598,1058.310277,28316.66625,,,14.96000004,559.9083862,12157.31395,12386.59326
2018-07-19T08:35:17Z,1531989317,6504,40.8376118,44.2302842,962.11,-0.1,-9.7,323.6,526471.44,-70703.76,318,Weapon+Missile,Blue,Enemies,R-27ER,,cn,,691.9202972,656.4067383,2.054973535,962.1130371,260.6021118,681.9456913,-117.0631104,0.055577166,NaN,0,0.013988227,5000,0.987284482,0.987284482,0.987284482,23937.68488,943.5105815,24881.19546,,,15.96000004,701.5109253,12836.64984,13076.04866
2018-07-19T08:35:18Z,1531989318,6504,40.8328978,44.2348669,852.9,-0.1,-9.7,323.6,526046.06,-70230.78,318,Weapon+Missile,Blue,Enemies,R-27ER,,cn,,645.4289644,616.2386475,1.914491094,852.8984375,171.5363159,636.121623,-109.2145996,0.054587702,NaN,0,0.013988227,5000,0.989261568,0.989261568,0.989261568,20828.9274,836.4076462,21665.33505,,,16.96000004,681.3621216,13470.37957,13719.2092
2018-07-19T08:35:19Z,1531989319,6504,40.8284855,44.2391556,750.69,-0.1,-9.7,323.6,525647.94,-69788.13,318,Weapon+Missile,Blue,Enemies,R-27ER,,cn,,604.0596357,580.2449341,1.789681138,750.6884155,110.7649536,595.3496072,-102.210022,0.054648873,NaN,0,0.013988227,5000,0.987934709,0.987934709,0.987934709,18244.40217,736.173855,18980.57603,,,17.96000004,639.9234619,14063.47643,14321.12217
2018-07-19T08:35:20Z,1531989320,6504,40.8243299,44.2431941,654.43,0,-9.7,323.6,525273,-69371.3,318,Weapon+Missile,Blue,Enemies,R-27ER,,cn,,568.8547424,549.5155029,1.683522445,654.4315186,-15.85369873,560.6516991,-96.25689697,0.054595689,NaN,0,0.013988227,5000,0.989313662,0.989313662,0.989313662,16179.7859,641.7780851,16821.56398,,,18.96000004,670.2852173,14621.99937,14887.9396
2018-07-19T08:35:21Z,1531989321,6504,40.8204442,44.2469697,564.44,0,-9.7,323.6,524922.44,-68981.58,318,Weapon+Missile,Blue,Enemies,R-27ER,,cn,,531.8577763,516.6409302,1.572413719,564.4430542,-105.3837891,524.1896322,-89.98846436,0.056762818,NaN,0,0.013988227,5000,0.986311316,0.986311316,0.986311316,14143.63471,553.5295477,14697.16426,,,19.96000004,669.8268433,15144.17545,15417.86213
2018-07-19T08:35:22Z,1531989322,6504,40.8167854,44.2505242,479.71,0,-9.7,323.6,524592.44,-68614.69,318,Weapon+Missile,Blue,Enemies,R-27ER,,cn,,500.6875569,488.8348694,1.478831864,479.7123108,-172.9084167,493.4660381,-84.73074341,0.057094955,NaN,0,0.013988227,5000,0.988554716,0.988554716,0.988554716,12534.40148,470.4370733,13004.83855,,,20.96000004,652.6207275,15635.78768,15916.76237
2018-07-19T08:35:23Z,1531989323,6504,40.8133489,44.2538626,400.14,0,-9.7,323.5,524282.5,-68270.09,318,Weapon+Missile,Blue,Enemies,R-27ER,,cn,,470.2534926,461.3309326,1.387685243,400.1369324,-233.3105774,463.4717968,-79.57537842,0.054743814,NaN,0,0.013988227,5000,0.986767411,0.986767411,0.986767411,11056.91736,392.4002848,11449.31765,,,21.96000004,633.4475098,16097.50907,16385.32217
2018-07-19T08:35:24Z,1531989324,6504,40.8101199,44.2569987,325.37,0,-9.7,323.5,523991.34,-67946.36,318,Weapon+Missile,Blue,Enemies,R-27ER,,cn,,441.775964,435.3022156,1.302543874,325.3699951,-283.47229,435.4031551,-74.76693726,0.055990829,NaN,0,0.013988227,5000,0.987750947,0.987750947,0.987750947,9758.300119,319.0789663,10077.37909,,,22.96000004,608.8422852,16531.28748,16825.52123
2018-07-19T08:35:25Z,1531989325,6504,40.8070767,44.259954,254.91,0,-9.7,323.5,523716.94,-67641.29,318,Weapon+Missile,Blue,Enemies,R-27ER,,cn,,416.3307531,411.8161011,1.226540564,254.9100037,-340.1858826,410.3250975,-70.45999146,0.053594765,NaN,0,0.013988227,5000,0.988282561,0.988282561,0.988282561,8666.5648,249.9813187,8916.546119,,,23.96000004,595.0958862,16940.06237,17240.34255
2018-07-19T08:35:26Z,1531989326,6504,40.8042297,44.2627181,189.01,0,-9.7,323.5,523460.25,-67355.96,318,Weapon+Missile,Blue,Enemies,R-27ER,,cn,,389.4142046,386.507782,1.146387143,189.0099945,-415.5174713,383.797618,-65.90000916,0.054880627,NaN,0,0.013988227,5000,0.987907588,0.987907588,0.987907588,7582.171139,185.3554863,7767.526625,,,24.96000004,604.5274658,17322.41197,17628.34281
2018-07-19T08:35:27Z,1531989327,6504,40.8015504,44.265319,127,0,-9.7,323.5,523218.72,-67087.46,318,Weapon+Missile,Blue,Enemies,R-27ER,,cn,,366.4347866,364.6844177,1.077982928,127.0030746,-475.4120255,361.1503769,-62.00691986,0.054555352,NaN,0,0.013988227,5000,0.987476945,0.987476945,0.987476945,6713.722642,124.5474702,6838.270112,,,25.96000004,602.4151001,17682.20138,17993.44511
2018-07-19T08:35:28Z,1531989328,6504,40.7990444,44.2677515,69.01,0,-9.7,323.5,522992.81,-66836.35,318,Weapon+Missile,Blue,Enemies,R-27ER,,cn,,342.7138009,341.8153076,1.007540554,69.00999451,-518.5147858,337.7714494,-57.99308014,0.051591345,NaN,0,0.013988227,5000,0.987848282,0.987848282,0.987848282,5872.637467,67.67568626,5940.313154,,,26.96000004,587.5247803,18018.69882,18334.90844
2018-07-19T08:35:29Z,1531989329,6504,40.7967005,44.2700264,14.78,0,-9.7,323.5,522781.56,-66601.51,318,Weapon+Missile,Blue,Enemies,R-27ER,,cn,,320.4979848,320.3243713,0.941652762,14.78076935,-549.2609787,315.8767947,-54.22922516,0.05496794,NaN,0,0.013988227,5000,0.986403465,0.986403465,0.986403465,5135.947914,14.49498317,5150.442897,,,27.96000004,564.041748,18333.40633,18654.2561
2018-07-19T08:35:30Z,1531989330,6504,40.7944867,44.2721748,-36.44,0,-9.7,323.5,522582.03,-66379.71,318,Weapon+Missile,Blue,Enemies,R-27ER,,cn,,302.7053598,303.1352234,0.888863632,-36.44384766,-577.9373779,298.3396948,-51.224617,0.049372947,NaN,0,0.013988227,5000,0.988098741,0.988098741,0.988098741,4581.526744,-35.73920586,4545.787538,,,28.96000004,541.4935303,18630.61902,18955.85027
2018-07-19T08:35:31Z,1531989331,6504,40.7923849,44.2742145,-85.06,0,-9.7,323.5,522392.59,-66169.15,318,Weapon+Missile,Blue,Enemies,R-27ER,,cn,,287.3794748,288.3451233,0.84339947,-85.06307983,-605.1007385,283.2368846,-48.61923218,0.052540757,NaN,0,0.013988227,5000,0.98594147,0.98594147,0.98594147,4129.348128,-83.41838519,4045.929742,,,29.96000004,520.0376587,18912.79199,19242.17858
2018-07-19T08:35:32Z,1531989332,6504,40.790389,44.276151,-131.23,0,-9.7,323.5,522212.75,-65969.23,318,Weapon+Missile,Blue,Enemies,R-27ER,,cn,,272.8383971,274.2764282,0.800309245,-131.2299957,-629.3365021,268.9040848,-46.16691589,0.053249095,NaN,0,0.013988227,5000,0.9870013,0.9870013,0.9870013,3722.039546,-128.6926638,3593.346882,,,30.96000004,498.1065063,19180.70397,19514.03475
2018-07-19T08:35:33Z,1531989333,6504,40.7884813,44.2780021,-175.36,0,-9.7,323.5,522040.84,-65778.12,318,Weapon+Missile,Blue,Enemies,R-27ER,,cn,,260.8099039,262.6726685,0.764647649,-175.3576965,-653.9395752,257.0497073,-44.12770081,0.054152809,NaN,0,0.013988227,5000,0.987223685,0.987223685,0.987223685,3401.090299,-171.9671555,3229.123144,,,31.96000004,478.5818787,19436.79576,19773.89453
2018-07-19T08:35:34Z,1531989334,6504,40.7866523,44.2797765,-217.65,0,-9.7,323.5,521876.03,-65594.92,318,Weapon+Missile,Blue,Enemies,R-27ER,,cn,,250.0311474,252.2752533,0.732698748,-217.6546173,-681.4031219,246.4275658,-42.29692078,0.04755581,NaN,0,0.013988227,5000,0.985781252,0.985781252,0.985781252,3125.778734,-213.4462653,2912.332468,,,32.96000004,463.7485046,19682.28593,20022.99439
2018-07-19T08:35:35Z,1531989335,6504,40.7848976,44.2814787,-258.23,0,-9.7,323.5,521717.94,-65419.19,318,Weapon+Missile,Blue,Enemies,R-27ER,,cn,,239.836281,242.4199677,0.702504036,-258.2330627,-712.4139404,236.3785765,-40.57844543,0.053829617,NaN,0,0.013988227,5000,0.987030804,0.987030804,0.987030804,2876.072084,-253.2401265,2622.831957,,,33.96000004,454.1808777,19917.78521,20261.95544
2018-07-19T08:35:36Z,1531989336,6504,40.7832109,44.2831148,-297.23,0,-9.7,323.5,521565.97,-65250.26,318,Weapon+Missile,Blue,Enemies,R-27ER,,cn,,230.548915,233.437149,0.675005755,-297.2338562,-745.3506165,227.2261875,-39.00079346,0.049565945,NaN,0,0.013988227,5000,0.985740364,0.985740364,0.985740364,2657.640109,-291.4868396,2366.15327,,,34.96000004,448.1167603,20144.14998,20491.64568
2018-07-19T08:35:37Z,1531989337,6504,40.781589,44.2846881,-334.74,0,-9.7,323.5,521419.84,-65087.84,318,Weapon+Missile,Blue,Enemies,R-27ER,,cn,,221.675515,224.8335114,0.648753918,-334.7392273,-779.0217896,218.4797041,-37.50537109,0.052252552,NaN,0,0.013988227,5000,0.98665899,0.98665899,0.98665899,2457.001698,-328.2670443,2128.734654,,,35.96000004,444.2825623,20361.81713,20712.50977
2018-07-19T08:35:38Z,1531989338,6504,40.780027,44.2862031,-370.85,0,-9.7,323.5,521279.12,-64931.43,318,Weapon+Missile,Blue,Enemies,R-27ER,,cn,,213.4715778,216.8703918,0.624492323,-370.8530884,-812.4433289,210.3946377,-36.11386108,0.049979193,NaN,0,0.013988227,5000,0.986206472,0.986206472,0.986206472,2278.505727,-363.6826439,1914.823083,,,36.96000004,441.5902405,20571.42503,20925.19457
2018-07-19T08:35:39Z,1531989339,6504,40.7785159,44.2876686,-405.79,0,-9.7,323.5,521143,-64780.11,318,Weapon+Missile,Blue,Enemies,R-27ER,,cn,,206.5149846,210.1390839,0.603905847,-405.789978,-846.789978,203.538332,-34.93688965,0.056238026,NaN,0,0.013988227,5000,0.98572892,0.98572892,0.98572892,2132.421943,-397.9440288,1734.477914,,,37.96000004,441,20774.197,21130.94211
2018-07-19T08:35:40Z,1531989340,6504,40.7770564,44.289084,-439.53,0,-9.7,323.5,521011.56,-64633.98,318,Weapon+Missile,Blue,Enemies,R-27ER,,cn,,199.4219328,203.2401428,0.58294439,-439.5315247,-881.9631348,196.5467255,-33.74154663,0.050797726,NaN,0,0.013988227,5000,0.986748993,0.986748993,0.986748993,1988.455363,-431.0331826,1557.422181,,,38.96000004,442.4316101,20970.02946,21329.64732
2018-07-19T08:35:41Z,1531989341,6504,40.7756441,44.2904536,-472.18,0,-9.7,323.5,520884.34,-64492.56,318,Weapon+Missile,Blue,Enemies,R-27ER,,cn,,192.9987557,196.9940796,0.56396307,-472.1807556,-916.1807556,190.217106,-32.64923096,0.049679233,NaN,0,0.013988227,5000,0.98549217,0.98549217,0.98549217,1862.425985,-463.0511407,1399.374845,,,39.96000004,444,21159.53524,21521.9317
2018-07-19T08:35:42Z,1531989342,6504,40.7742735,44.2917827,-503.87,0,-9.7,323.5,520760.91,-64355.34,318,Weapon+Missile,Blue,Enemies,R-27ER,,cn,,187.2752167,191.4355316,0.547045164,-503.8676758,-948.598999,184.5750413,-31.68692017,0.050225439,NaN,0,0.013988227,5000,0.98726517,0.98726517,0.98726517,1753.600339,-494.1253943,1259.474944,,,40.96000004,444.7313232,21343.43244,21708.52502
2018-07-19T08:35:43Z,1531989343,6504,40.7729538,44.2930624,-534.37,0,-9.7,323.5,520642.03,-64223.21,318,Weapon+Missile,Blue,Enemies,R-27ER,,cn,,180.329211,184.605957,0.526576547,-534.3692017,-978.6944275,177.7309237,-30.50152588,0.052114663,NaN,0,0.013988227,5000,0.98472172,0.98472172,0.98472172,1625.931217,-524.0371731,1101.894043,,,41.96000004,444.3252258,21520.49495,21888.18127
2018-07-19T08:35:44Z,1531989344,6504,40.7716667,44.2943103,-564.12,0,-9.7,323.5,520526.12,-64094.36,318,Weapon+Missile,Blue,Enemies,R-27ER,,cn,,175.8447129,180.2659912,0.513311511,-564.1246338,-1007.951233,173.3089072,-29.75543213,0.051307414,NaN,0,0.013988227,5000,0.986927092,0.986927092,0.986927092,1546.068153,-553.217284,992.8508686,,,42.96000004,443.8265991,21693.16005,22063.37684
2018-07-19T08:35:45Z,1531989345,6504,40.7704207,44.2955183,-592.92,0,-9.7,323.5,520413.91,-63969.62,318,Weapon+Missile,Blue,Enemies,R-27ER,,cn,,170.2442378,174.7666168,0.496803988,-592.9246216,-1034.880005,167.7905277,-28.79998779,0.050800484,NaN,0,0.013988227,5000,0.98572433,0.98572433,0.98572433,1449.155025,-581.460424,867.6946005,,,43.96000004,441.9553833,21860.31561,22232.98036
2018-07-19T08:35:46Z,1531989346,6504,40.7692146,44.2966876,-620.8,0,-9.7,323.5,520305.31,-63848.9,318,Weapon+Missile,Blue,Enemies,R-27ER,,cn,,164.7530093,169.3576965,0.480630719,-620.7991943,-1059.799194,162.377838,-27.87457275,0.051286677,NaN,0,0.013988227,5000,0.949827909,0.949827909,0.949827909,1357.177704,-608.7960419,748.381662,,,44.96000004,439,22022.10422,22397.1375
2018-07-19T08:35:47Z,1531989347,6504,40.7680392,44.2978271,-648.33,-0.5,-10.7,323.5,520199.44,-63731.24,318,Weapon+Missile,Blue,Enemies,R-27ER,,cn,,160.659312,165.3661041,0.468545018,-648.3307495,-1086.938354,158.282747,-27.53155518,0.036003771,NaN,1.015403243,1.326937242,3752.898019,0.295026094,0.295026094,0.295026094,1290.570726,-635.7952745,654.7754517,,,45.96000004,438.607605,22179.77915,22557.18256
2018-07-19T08:35:48Z,1531989348,6504,40.7669075,44.2989233,-681.59,-2.1,-14.1,323.5,520097.56,-63618.07,318,Weapon+Missile,Blue,Enemies,R-27ER,,cn,,155.8600699,160.6806335,0.454380879,-681.5869141,-1119.794281,152.270775,-33.25616455,0.116942121,NaN,1.53848645,3.015814746,2688.846093,0.060761157,0.060761157,0.060761157,1214.61807,-668.4084311,546.2096388,,,46.96000004,438.2073669,22331.50604,22712.49586
2018-07-19T08:35:49Z,1531989349,6504,40.7658143,44.2999796,-722.71,-3.4,-17.4,323.4,519999.16,-63509.01,317.9,Weapon+Missile,Blue,Enemies,R-27ER,,cn,,152.5413474,157.5589294,0.44450307,-722.7122803,-1160.712799,146.8930458,-41.12536621,0.070265035,NaN,1.153864838,3.27803574,2659.716344,0.076363452,0.076363452,0.076363452,1163.443133,-708.7386383,454.7044945,,,47.96000004,438.0005188,22477.83963,22864.48304
2018-07-19T08:35:50Z,1531989350,6504,40.7647621,44.300993,-771.08,-4.5,-20.5,323.3,519904.47,-63404.43,317.8,Weapon+Missile,Blue,Enemies,R-27ER,,cn,,149.1406513,154.3908844,0.434360748,-771.0838623,-1209.083862,141.0784318,-48.37158203,0.038024306,NaN,0.969231164,3.228322422,2671.035147,0.09864036,0.09864036,0.09864036,1112.146693,-756.1749558,355.9717374,,,48.96000004,438,22618.38462,23013.10363
