ISOTime,UnixTime,Id,Longitude,Latitude,Altitude,Roll,Pitch,Yaw,U,V,Heading,Type,Color,Coalition,Name,Group,Country,Pilot,TAS,CAS,M,ASL,AGL,GS,VS,AOA,AOS,RRT,TRT,TRD,G,LatG,LonG,Ek,Ep,Em,FFW,FFV,RelativeTime,Elev,GroundDistance,AirDistance
2018-07-19T08:35:58Z,1531989358,F50A,41.0757349,44.2955989,2687.11,70.8,-0.4,269,544774.5,-61592.85,263.3,Weapon+Missile,Blue,Enemies,AIM-120B,,us,,250.0397324,222.8181,0.757806103,2687.112305,2110.038696,NaN,NaN,2.674771046,NaN,15.87691133,2.321407945,NaN,NaN,NaN,NaN,NaN,2635.156988,NaN,,,0.75,577.0736084,NaN,NaN
2018-07-19T08:35:59Z,1531989359,F50A,41.0711712,44.2953857,2665.79,58.6,-3.4,268.4,544412.69,-61652.61,262.7,Weapon+Missile,Blue,Enemies,AIM-120B,,us,,367.3339361,332.4129944,1.113010291,2665.793945,2094.405884,366.714805,-21.31835938,1.44312316,NaN,10.09228752,2.928074776,5000,1.555153608,1.555153608,1.555153608,6746.711032,2614.250819,9360.961851,,,1.75,571.3880615,364.3985061,365.1742175
2018-07-19T08:36:00Z,1531989360,F50A,41.0649953,44.2952632,2633.39,50.1,-3.8,269.5,543921.25,-61715,263.8,Weapon+Missile,Blue,Enemies,AIM-120B,,us,,496.4415069,445.9667053,1.503618505,2633.385986,2066.075928,495.3825733,-32.40795898,0.028226002,NaN,8.461566193,1.079833698,5000,1.904899597,1.904899597,1.904899597,12322.70849,2582.469468,14905.17796,,,2.75,567.3100586,856.6618844,858.707278
2018-07-19T08:36:01Z,1531989361,F50A,41.0571372,44.295288,2588.15,42.6,-4.5,271.2,543294,-61774.27,265.5,Weapon+Missile,Blue,Enemies,AIM-120B,,us,,631.6653944,561.1174927,1.912148389,2588.145996,2024.686462,630.0432634,-45.23999023,0.009399767,NaN,7.292292448,1.765957363,5000,2.178128004,2.178128004,2.178128004,19950.05853,2538.104193,22488.16272,,,3.75,563.4595337,1482.778723,1486.712017
2018-07-19T08:36:02Z,1531989362,F50A,41.0480301,44.2955206,2525.85,35.8,-5.3,273.2,542564.75,-61820.22,267.5,Weapon+Missile,Blue,Enemies,AIM-120B,,us,,733.3474742,648.8536987,2.218303731,2525.846191,1928.298279,730.6964159,-62.29980469,0.085973683,NaN,6.584630209,2.254314608,5000,3.150119543,3.150119543,3.150119543,26889.92589,2477.008955,29366.93485,,,4.75,597.5479126,2208.859103,2215.750268
2018-07-19T08:36:03Z,1531989363,F50A,41.0383606,44.2960472,2443.93,29.5,-6.7,275.7,541787.44,-61837.86,270,Weapon+Missile,Blue,Enemies,AIM-120B,,us,,781.8157365,692.6307983,2.362605812,2443.932861,1781.057251,777.5127344,-81.91333008,0.068071833,NaN,6.076955908,2.767599482,5000,3.880265474,3.880265474,3.880265474,30561.79229,2396.679419,32958.47171,,,5.75,662.8756104,2981.516694,2993.037096
2018-07-19T08:36:04Z,1531989364,F50A,41.02818,44.2969371,2336,23.9,-8.2,278.3,540965.38,-61819.06,272.6,Weapon+Missile,Blue,Enemies,AIM-120B,,us,,829.331265,736.9315796,2.502977861,2335.997803,1695.463318,822.2775506,-107.9350586,0.051636551,NaN,5.384593293,2.845444215,5000,5.073847771,5.073847771,5.073847771,34389.51735,2290.831285,36680.34864,,,6.75,640.5344849,3798.687228,3817.608617
2018-07-19T08:36:05Z,1531989365,F50A,41.0177808,44.298267,2196.14,16.5,-11.8,284.6,540121.06,-61752.98,278.9,Weapon+Missile,Blue,Enemies,AIM-120B,,us,,858.3642731,766.8721924,2.586305625,2196.141357,1579.820251,846.8939721,-139.8564453,1.165977626,NaN,9.938471658,5.148460419,5000,9.2684021,9.2684021,9.2684021,36839.46127,2153.678964,38993.14023,,,7.75,616.321106,4640.353032,4671.110001
2018-07-19T08:36:06Z,1531989366,F50A,41.0078474,44.3002761,2011.88,13.1,-12.7,286.2,539306.56,-61607.71,280.5,Weapon+Missile,Blue,Enemies,AIM-120B,,us,,847.6239246,763.8974609,2.548387376,2011.878418,1429.121155,827.3533022,-184.2629395,0.051224543,NaN,2.353847113,3.867283417,5000,0.919743299,0.919743299,0.919743299,35923.31588,1972.978749,37896.29463,,,8.75,582.7572632,5462.758312,5514.169652
2018-07-19T08:36:07Z,1531989367,F50A,40.9985872,44.3021992,1837.12,11.3,-12.7,286.2,538546.81,-61466.61,280.5,Weapon+Missile,Blue,Enemies,AIM-120B,,us,,792.2571061,720.9002686,2.37703182,1837.119995,1224.983032,772.7423994,-174.7584229,0.031771522,NaN,1.738474389,0.079129389,5000,1.050768137,1.050768137,1.050768137,31383.56611,1801.59928,33185.16539,,,9.75,612.1369629,6230.940141,6302.205178
2018-07-19T08:36:08Z,1531989368,F50A,40.9899272,44.3039973,1674.41,9.8,-12.6,286.2,537836.31,-61334.62,280.5,Weapon+Missile,Blue,Enemies,AIM-120B,,us,,740.7477285,680.1814575,2.218250842,1674.405396,1042.202026,722.6556278,-162.7145996,0.044729577,NaN,1.53848645,0.050435277,5000,1.041340113,1.041340113,1.041340113,27435.35987,1642.030767,29077.39063,,,10.75,632.2033691,6949.302216,7038.957689
2018-07-19T08:36:09Z,1531989369,F50A,40.9818008,44.3056838,1522.34,8.5,-12.6,286.2,537169.62,-61210.79,280.5,Weapon+Missile,Blue,Enemies,AIM-120B,,us,,694.9321355,643.5754395,2.077357531,1522.336182,892.3070068,678.0896896,-152.0692139,0.033346839,NaN,1.26156326,0.050435277,5000,1.029289484,1.029289484,1.029289484,24146.53365,1492.901812,25639.43546,,,11.75,630.0291748,7623.35476,7730.115867
2018-07-19T08:36:10Z,1531989370,F50A,40.9742167,44.3072569,1380.94,7.3,-12.6,286.2,536547.5,-61095.27,280.5,Weapon+Missile,Blue,Enemies,AIM-120B,,us,,648.367378,605.4227905,1.934973894,1380.935425,763.8305664,632.7606837,-141.4007568,0.036081139,NaN,1.169219103,0,5000,1.018243551,1.018243551,1.018243551,21019.01284,1354.235038,22373.24788,,,12.75,617.1048584,8252.387693,8374.985416
2018-07-19T08:36:11Z,1531989371,F50A,40.9671562,44.3087207,1249.72,6.3,-12.5,286.2,535968.31,-60987.73,280.5,Weapon+Missile,Blue,Enemies,AIM-120B,,us,,603.5227393,568.017395,1.798400021,1249.72229,635.4314575,589.0864199,-131.2131348,0.05099743,NaN,0.969231164,0.051396036,5000,1.012327313,1.012327313,1.012327313,18211.98484,1225.55891,19437.54375,,,13.75,614.2908325,8837.950725,8975.187372
2018-07-19T08:36:12Z,1531989372,F50A,40.960561,44.3100874,1127.5,5.5,-12.5,286.1,535427.38,-60887.3,280.5,Weapon+Missile,Blue,Enemies,AIM-120B,,us,,563.5944855,534.3730469,1.677046875,1127.496094,513.5897217,550.1813347,-122.2261963,0.03131005,NaN,0.769243225,0.051396036,5000,1.005459666,1.005459666,1.005459666,15881.9372,1105.695957,16987.63316,,,14.75,613.9063721,9384.894195,9535.720966
2018-07-19T08:36:13Z,1531989373,F50A,40.9544112,44.3113614,1013.81,4.7,-12.5,286.1,534923,-60793.67,280.5,Weapon+Missile,Blue,Enemies,AIM-120B,,us,,525.4377576,501.7089844,1.561456925,1013.807678,399.6365356,512.9910148,-113.6884155,0.034394227,NaN,0.769243225,0.01713201,5000,1.000689387,1.000689387,1.000689387,13804.24185,994.2057068,14798.44756,,,15.75,614.1711426,9894.878424,10058.30712
2018-07-19T08:36:14Z,1531989374,F50A,40.9486635,44.3125517,907.79,4.1,-12.5,286.1,534451.56,-60706.17,280.5,Weapon+Missile,Blue,Enemies,AIM-120B,,us,,491.0692371,471.9450684,1.457543467,907.7915039,292.0018921,479.4888595,-106.0161743,0.051900914,NaN,0.569255286,0.051396036,5000,0.992367029,0.992367029,0.992367029,12057.44978,890.2393552,12947.68914,,,16.75,615.7896118,10371.50189,10546.64902
2018-07-19T08:36:15Z,1531989375,F50A,40.9433024,44.3136615,809.1,3.5,-12.4,286.1,534011.88,-60624.57,280.5,Weapon+Missile,Blue,Enemies,AIM-120B,,us,,457.9563865,442.7814331,1.357721567,809.0961304,193.901123,447.1948962,-98.69537354,0.040945546,NaN,0.507674301,0.051396036,5000,0.993879914,0.993879914,0.993879914,10486.2026,793.4522567,11279.65485,,,17.75,615.1950073,10816.03829,11002.06815
2018-07-19T08:36:16Z,1531989376,F50A,40.9383142,44.3146937,717.42,3.1,-12.4,286.1,533602.81,-60548.67,280.5,Weapon+Missile,Blue,Enemies,AIM-120B,,us,,426.0250996,414.1447144,1.261727611,717.4223022,97.28991699,416.0448229,-91.67382813,0.022725408,NaN,0.369212706,0,5000,0.99089396,0.99089396,0.99089396,9074.869273,703.550942,9778.420215,,,18.75,620.1323853,11229.63282,11425.749
2018-07-19T08:36:17Z,1531989377,F50A,40.9336893,44.3156507,632.56,2.6,-12.4,286.1,533223.56,-60478.3,280.5,Weapon+Missile,Blue,Enemies,AIM-120B,,us,,394.9496266,385.7001038,1.168559115,632.5576782,45.18786621,385.7242579,-84.86462402,0.018961406,NaN,0.384621613,0,5000,0.987209499,0.987209499,0.987209499,7799.260377,620.3271755,8419.587552,,,19.75,587.369812,11613.09986,11818.53407
2018-07-19T08:36:18Z,1531989378,F50A,40.9293915,44.3165396,553.81,2.3,-12.4,286.1,532871.19,-60412.91,280.5,Weapon+Missile,Blue,Enemies,AIM-120B,,us,,366.9407473,359.5873108,1.084712337,553.8084717,6.096557617,358.390952,-78.74920654,0.023285185,NaN,0.246160018,0,5000,0.986064672,0.986064672,0.986064672,6732.2756,543.1005849,7275.376185,,,20.75,547.7119141,11969.43049,12183.49512
2018-07-19T08:36:19Z,1531989379,F50A,40.9254085,44.3173632,480.91,2,-12.4,286.1,532544.56,-60352.31,280.5,Weapon+Missile,Blue,Enemies,AIM-120B,,us,,340.1026603,334.0766907,1.004541685,480.9122925,-47.74121094,332.1986854,-72.8961792,0.034532261,NaN,0.261514283,0,5000,0.983131766,0.983131766,0.983131766,5783.490975,471.6138533,6255.104829,,,21.75,528.6535034,12299.65303,12521.69399
2018-07-19T08:36:20Z,1531989380,F50A,40.9216969,44.3181306,413.07,1.7,-12.4,286.1,532240.25,-60295.84,280.5,Weapon+Missile,Blue,Enemies,AIM-120B,,us,,316.8554831,311.9112549,0.935155863,413.0699768,-125.6307068,309.5073786,-67.84231567,0.045180025,NaN,0.199987939,0.043114615,5000,0.981159747,0.981159747,0.981159747,5019.869859,405.0832688,5424.953128,,,22.75,538.7006836,12607.36366,12836.81568
2018-07-19T08:36:21Z,1531989381,F50A,40.9181977,44.3188539,349.17,1.5,-12.3,286.1,531953.38,-60242.61,280.5,Weapon+Missile,Blue,Enemies,AIM-120B,,us,,298.6858641,294.6523132,0.880891144,349.1723022,-173.4839478,291.7710277,-63.89767456,0.051366609,NaN,0.199987939,0.051396036,5000,0.985046387,0.985046387,0.985046387,4460.66227,342.4210558,4803.083326,,,23.75,522.65625,12897.45407,13133.87698
2018-07-19T08:36:22Z,1531989382,F50A,40.9148636,44.3195429,288.35,1.3,-12.3,286.1,531680,-60191.91,280.5,Weapon+Missile,Blue,Enemies,AIM-120B,,us,,284.6129686,281.3824768,0.838808168,288.3492126,-215.9045105,278.0379356,-60.8230896,0.041707596,NaN,0.199987939,0.013988227,5000,0.983224869,0.983224869,0.983224869,4050.227094,282.7739806,4333.001074,,,24.75,504.2537231,13173.85082,13416.90039
2018-07-19T08:36:23Z,1531989383,F50A,40.9116506,44.3202067,229.79,1.1,-12.3,286.1,531416.56,-60143.04,280.5,Weapon+Missile,Blue,Enemies,AIM-120B,,us,,274.2566351,271.7444153,0.807750154,229.7915344,-278.2766418,267.932268,-58.55767822,0.033019956,NaN,0.199987939,0.00989117,5000,0.982556522,0.982556522,0.982556522,3760.835094,225.3485151,3986.18361,,,25.75,508.0681763,13440.20699,13689.62804
2018-07-19T08:36:24Z,1531989384,F50A,40.908556,44.320846,173.45,1,-12.3,286.1,531162.88,-60095.98,280.5,Weapon+Missile,Blue,Enemies,AIM-120B,,us,,264.0948052,262.2468872,0.777325607,173.4514313,-355.5995331,258.01523,-56.34010315,0.026364375,NaN,0.015408907,0.00989117,5000,0.984883368,0.984883368,0.984883368,3487.303306,170.0977479,3657.401054,,,26.75,529.0509644,13696.73983,13952.28269
2018-07-19T08:36:25Z,1531989385,F50A,40.9055506,44.3214668,118.81,0.8,-12.3,286.1,530916.5,-60050.27,280.5,Weapon+Missile,Blue,Enemies,AIM-120B,,us,,256.4662436,255.2268524,0.75440616,118.8115387,-410.6370697,250.578164,-54.63989258,0.026804628,NaN,0.199987939,0.00989117,5000,0.994413674,0.994413674,0.994413674,3288.746706,116.5143176,3405.261024,,,27.75,529.4486084,13945.87095,14207.34088
2018-07-19T08:36:26Z,1531989386,F50A,40.9026492,44.3220659,66.23,0.8,-12.2,286.1,530678.62,-60006.16,280.5,Weapon+Missile,Blue,Enemies,AIM-120B,,us,,247.5778835,246.9054413,0.727828704,66.23154449,-457.6593857,241.9300572,-52.5799942,0.048703338,NaN,0,0.00989117,5000,0.981872976,0.981872976,0.981872976,3064.740419,64.95095758,3129.691376,,,28.75,523.8909302,14186.37549,14453.52935
2018-07-19T08:36:27Z,1531989387,F50A,40.8998198,44.3226501,14.99,0.6,-12.3,286.1,530446.62,-59963.13,280.5,Weapon+Missile,Blue,Enemies,AIM-120B,,us,,241.4572859,241.3105469,0.709425522,14.98769188,-517.8614292,235.9569632,-51.24385262,0.030739985,NaN,0.199987939,0.00989117,5000,0.954962134,0.954962134,0.954962134,2915.081045,14.69790486,2929.77895,,,29.75,532.8491211,14420.90343,14693.59182
2018-07-19T08:36:28Z,1531989388,F50A,40.8970777,44.3232164,-34.87,0.5,-12.3,286.1,530221.88,-59921.43,280.5,Weapon+Missile,Blue,Enemies,AIM-120B,,us,,233.9606362,234.3057556,0.687013874,-34.8707695,-554.7544365,228.5863363,-49.85846138,0.032073702,NaN,0.199987939,0.00989117,5000,0.963776469,0.963776469,0.963776469,2736.878965,-34.19654317,2702.682422,,,30.75,519.883667,14648.19754,14926.28974
2018-07-19T08:36:29Z,1531989389,F50A,40.8944174,44.3237657,-83.39,0.4,-12.4,286.1,530003.75,-59880.96,280.5,Weapon+Missile,Blue,Enemies,AIM-120B,,us,,227.0917202,227.8943176,0.666479858,-83.39307404,-580.3855667,221.8473244,-48.52230453,0.048608274,NaN,0.138461595,0.051396036,5000,0.963704526,0.963704526,0.963704526,2578.532469,-81.78066895,2496.7518,,,31.75,496.9924927,14868.70849,15152.07413
2018-07-19T08:36:30Z,1531989390,F50A,40.8918152,44.3243031,-130.97,0.3,-12.4,286.1,529790.44,-59841.37,280.5,Weapon+Missile,Blue,Enemies,AIM-120B,,us,,222.1106535,223.3485718,0.651512874,-130.9700012,-624.8927002,216.9552451,-47.57692719,0.025417424,NaN,0.199987939,0.051396036,5000,0.966775835,0.966775835,0.966775835,2466.657119,-128.4376962,2338.219423,,,32.75,493.922699,15084.40708,15372.95391
2018-07-19T08:36:31Z,1531989391,F50A,40.889287,44.3248251,-177.29,0.3,-12.4,286.1,529583.19,-59802.9,280.5,Weapon+Missile,Blue,Enemies,AIM-120B,,us,,215.8194175,217.4575958,0.63272993,-177.2907715,-691.8447876,210.78996,-46.32077026,0.02028842,NaN,0,0,5000,0.968241215,0.968241215,0.968241215,2328.901049,-173.8628544,2155.038195,,,33.75,514.5540161,15293.96266,15587.56294
2018-07-19T08:36:32Z,1531989392,F50A,40.8868105,44.3253364,-222.73,0.2,-12.4,286.1,529380.25,-59765.22,280.5,Weapon+Missile,Blue,Enemies,AIM-120B,,us,,211.3488118,213.3735352,0.619307637,-222.7322998,-763.7429199,206.4058811,-45.44152832,0.028928097,NaN,0,0,5000,0.971617103,0.971617103,0.971617103,2233.416013,-218.4257708,2014.990242,,,34.75,541.0106201,15499.22638,15797.79016
2018-07-19T08:36:33Z,1531989393,F50A,40.8844096,44.325832,-266.85,0.2,-12.4,286.1,529183.44,-59728.69,280.5,Weapon+Missile,Blue,Enemies,AIM-120B,,us,,204.9798927,207.3479919,0.600348304,-266.8546143,-821.4146729,200.174868,-44.12231445,0.038310366,NaN,0,0,5000,0.973882556,0.973882556,0.973882556,2100.837822,-261.6949803,1839.142841,,,35.75,554.5600586,15698.2315,16001.62043
2018-07-19T08:36:34Z,1531989394,F50A,40.8820507,44.3263189,-310.24,0.1,-12.4,286.1,528990.06,-59692.79,280.5,Weapon+Missile,Blue,Enemies,AIM-120B,,us,,201.4057229,204.1205444,0.589593984,-310.236145,-857.6116943,196.6781838,-43.38153076,0.054862268,NaN,0.199987939,0.051396036,5000,0.971134841,0.971134841,0.971134841,2028.21326,-304.2377292,1723.975531,,,36.75,547.3755493,15893.74217,16201.87756
2018-07-19T08:36:35Z,1531989395,F50A,40.8797489,44.326794,-352.61,0.1,-12.5,286.1,528801.44,-59657.77,280.5,Weapon+Missile,Blue,Enemies,AIM-120B,,us,,196.4731622,199.498291,0.574882077,-352.6115112,-866.909729,191.8489818,-42.37536621,0.053036899,NaN,0,0.051396036,5000,0.975031316,0.975031316,0.975031316,1930.085173,-345.7937677,1584.291405,,,37.75,514.2982178,16084.52158,16397.29678
2018-07-19T08:36:36Z,1531989396,F50A,40.8775074,44.3272566,-393.9,0.1,-12.5,286.1,528617.69,-59623.66,280.5,Weapon+Missile,Blue,Enemies,AIM-120B,,us,,191.3955349,194.704361,0.559766748,-393.8999939,-872.0924683,186.8890365,-41.28848267,0.049273234,NaN,0,0.01713201,5000,0.972658992,0.972658992,0.972658992,1831.612538,-386.2839375,1445.328601,,,38.75,478.1924744,16270.30119,16587.59855
2018-07-19T08:36:37Z,1531989397,F50A,40.8753158,44.3277089,-434.3,0.1,-12.5,286.1,528438.06,-59590.3,280.5,Weapon+Missile,Blue,Enemies,AIM-120B,,us,,187.1082978,190.6900787,0.546981468,-434.2953796,-895.7254333,182.695725,-40.39538574,0.040734959,NaN,0,0.01713201,5000,0.974813581,0.974813581,0.974813581,1750.475755,-425.8982785,1324.577477,,,39.75,461.4300537,16451.94151,16773.66496
2018-07-19T08:36:38Z,1531989398,F50A,40.8731641,44.3281529,-473.97,0.1,-12.5,286.1,528261.69,-59557.57,280.5,Weapon+Missile,Blue,Enemies,AIM-120B,,us,,183.723142,187.5743561,0.536848015,-473.97229,-933.7023926,179.3876687,-39.6769104,0.042162959,NaN,0,0.01713201,5000,0.973552406,0.973552406,0.973552406,1687.709645,-464.8080358,1222.901609,,,40.75,459.7301025,16630.2794,16956.35084
2018-07-19T08:36:39Z,1531989399,F50A,40.8710629,44.3285865,-512.73,0,-12.5,286.1,528089.5,-59525.59,280.5,Weapon+Missile,Blue,Enemies,AIM-120B,,us,,179.3688408,183.4533691,0.523898326,-512.7330322,-962.3345642,175.130768,-38.76074219,0.036452059,NaN,0.199987939,0.01713201,5000,0.976605475,0.976605475,0.976605475,1608.659052,-502.819339,1105.839713,,,41.75,449.601532,16804.4235,17134.74331
2018-07-19T08:36:40Z,1531989400,F50A,40.8690111,44.3290097,-550.59,0,-12.5,286.1,527921.31,-59494.37,280.5,Weapon+Missile,Blue,Enemies,AIM-120B,,us,,175.1996613,179.5012665,0.511505525,-550.5884399,-990.8060303,171.0610693,-37.85540771,0.035182367,NaN,0,0.01713201,5000,0.974790514,0.974790514,0.974790514,1534.746066,-539.9428125,994.8032532,,,42.75,440.2175903,16974.46191,17308.93077
2018-07-19T08:36:41Z,1531989401,F50A,40.8669972,44.3294252,-587.75,0,-12.5,286.1,527756.25,-59463.72,280.5,Weapon+Missile,Blue,Enemies,AIM-120B,,us,,171.9484732,176.469223,0.501806091,-587.7545776,-1024.357513,167.8837563,-37.1661377,0.034325025,NaN,0,0.01713201,5000,0.976140499,0.976140499,0.976140499,1478.313871,-576.3903429,901.9235281,,,43.75,436.6029358,17141.37301,17479.91517
2018-07-19T08:36:42Z,1531989402,F50A,40.8650308,44.3298308,-624.05,0,-12.5,286.1,527595.06,-59433.8,280.5,Weapon+Missile,Blue,Enemies,AIM-120B,,us,,167.9112984,172.6163635,0.489826659,-624.0484009,-1058.711029,163.9419487,-36.29382324,0.034223613,NaN,0,0.01713201,5000,0.973709881,0.973709881,0.973709881,1409.710207,-611.982425,797.7277822,,,44.75,434.6626282,17304.33779,17646.85742
2018-07-19T08:36:43Z,1531989403,F50A,40.8630978,44.3302295,-659.73,0,-12.5,286.1,527436.69,-59404.38,280.5,Weapon+Missile,Blue,Enemies,AIM-120B,,us,,164.9895866,169.8907623,0.481112892,-659.7346191,-1092.926544,161.0840076,-35.68621826,0.032819362,NaN,0,0.01713201,5000,0.977903366,0.977903366,0.977903366,1361.078184,-646.9786503,714.0995339,,,45.75,433.191925,17464.53286,17810.96349
2018-07-19T08:36:44Z,1531989404,F50A,40.8612161,44.3306176,-694.47,0,-12.5,286.1,527282.44,-59375.75,280.5,Weapon+Missile,Blue,Enemies,AIM-120B,,us,,160.6851339,165.7294769,0.468380512,-694.4738159,-1125.156555,156.8849912,-34.73919678,0.033959421,NaN,0,0.01713201,5000,0.974624932,0.974624932,0.974624932,1290.985612,-681.0461647,609.9394475,,,46.75,430.6827393,17620.46977,17970.70694
2018-07-19T08:36:45Z,1531989405,F50A,40.859365,44.3309993,-728.65,0,-12.5,286.1,527130.75,-59347.58,280.5,Weapon+Missile,Blue,Enemies,AIM-120B,,us,,158.0205039,163.2381134,0.460438941,-728.6522827,-1157.891663,154.2799795,-34.1784668,0.03185601,NaN,0,0.01713201,5000,0.975134015,0.975134015,0.975134015,1248.523983,-714.5637908,533.9601924,,,47.75,429.2393799,17773.8771,18127.85885
2018-07-19T08:36:46Z,1531989406,F50A,40.8575587,44.3313717,-762.01,0,-12.5,286.1,526982.75,-59320.09,280.5,Weapon+Missile,Blue,Enemies,AIM-120B,,us,,154.1838385,159.5261078,0.449093745,-762.0114746,-1189.083374,150.5317919,-33.35919189,0.032044707,NaN,0,0.01713201,5000,0.977980375,0.977980375,0.977980375,1188.632803,-747.2779827,441.3548201,,,48.75,427.0718994,17923.56229,18281.19919
2018-07-19T08:36:47Z,1531989407,F50A,40.8557834,44.3317378,-794.79,0,-12.5,286.1,526837.25,-59293.08,280.5,Weapon+Missile,Blue,Enemies,AIM-120B,,us,,151.571944,157.0624695,0.441325919,-794.7892456,-1221.703979,147.9853774,-32.777771,0.033372174,NaN,0,0.01713201,5000,0.974525392,0.974525392,0.974525392,1148.70271,-779.4219955,369.2807148,,,49.75,426.9147339,18070.68035,18431.90693
2018-07-19T08:36:48Z,1531989408,F50A,40.8540482,44.3320956,-826.84,0,-12.5,286.1,526695.06,-59266.68,280.5,Weapon+Missile,Blue,Enemies,AIM-120B,,us,,148.127398,153.7262421,0.431143736,-826.8384399,-1253.323883,144.6187235,-32.04919434,0.032482338,NaN,0,0.01713201,5000,0.977308095,0.977308095,0.977308095,1097.086303,-810.8515187,286.2347839,,,50.75,426.4854431,18214.48118,18579.21806
2018-07-19T08:36:49Z,1531989409,F50A,40.8523539,44.3324448,-858.13,0,-12.5,286.1,526556.19,-59240.9,280.5,Weapon+Missile,Blue,Enemies,AIM-120B,,us,,144.6716942,150.3637085,0.420939878,-858.1300049,-1284.42511,141.2470781,-31.29156494,0.030824112,NaN,0,0.01713201,5000,0.975572109,0.975572109,0.975572109,1046.494956,-841.5380612,204.9568944,,,51.75,426.295105,18354.87944,18723.04305
2018-07-19T08:36:50Z,1531989410,F50A,40.8506973,44.3327863,-888.72,0,-12.5,286.1,526420.44,-59215.69,280.5,Weapon+Missile,Blue,Enemies,AIM-120B,,us,,141.4195416,147.1976624,0.41133834,-888.7246094,-1315.381134,138.0704781,-30.59460449,0.034000114,NaN,0,0.01713201,5000,0.976506829,0.976506829,0.976506829,999.9743374,-871.5411191,128.4332184,,,52.75,426.6565247,18492.15859,18863.67176
2018-07-19T08:36:51Z,1531989411,F50A,40.8490696,44.3331218,-918.78,0,-12.5,286.1,526287.06,-59190.93,280.5,Weapon+Missile,Blue,Enemies,AIM-120B,,us,,138.9447617,144.8264923,0.404006062,-918.7815552,-1345.121429,135.6548075,-30.0569458,0.031139751,NaN,0,0.01713201,5000,0.976250589,0.976250589,0.976250589,965.2823399,-901.0169138,64.26542607,,,53.75,426.3398743,18627.03683,19001.83979
2018-07-19T08:36:52Z,1531989412,F50A,40.8474812,44.3334491,-948.12,0,-12.5,286.1,526156.88,-59166.76,280.5,Weapon+Missile,Blue,Enemies,AIM-120B,,us,,135.6230804,141.5636902,0.394220115,-948.1199951,-1374.98114,132.4117664,-29.33843994,0.030866712,NaN,0,0.01713201,5000,0.975367129,0.975367129,0.975367129,919.6809964,-929.788095,-10.10709861,,,54.75,426.861145,18758.65731,19136.67163
