ISOTime,UnixTime,Id,Longitude,Latitude,Altitude,Roll,Pitch,Yaw,U,V,Heading,Type,Color,Coalition,Name,Group,Country,Pilot,TAS,CAS,M,ASL,AGL,GS,VS,AOA,AOS,RRT,TRT,TRD,G,LatG,LonG,Ek,Ep,Em,FFW,FFV,RelativeTime,Elev,GroundDistance,AirDistance
2011-06-01T05:05:30Z,1306904730,1250E,55.5316399,25.5189397,574.89,1,32.4,98.4,-71797.61,-71707.11,99.1,Weapon+Missile,Blue,Enemies,AIM-120B,,us,,281.758041134273,275.362060546875,0.833104288312329,574.886901855469,572.855651855469,NaN,NaN,9.37158322667206,NaN,0.169224766876236,7.49520247304634,NaN,NaN,NaN,NaN,NaN,563.771463608093,NaN,,,0.799999952316284,2.03125,NaN,NaN
2011-06-01T05:05:31Z,1306904731,1250E,55.5347309,25.5185827,705.77,1.5,28.1,92.1,-71487.41,-71750.09,92.7,Weapon+Missile,Blue,Enemies,AIM-120B,,us,,339.416291046822,330.600189208984,1.00509052338844,705.767700195312,703.767700195312,313.167104361084,130.880798339844,5.03011763291079,NaN,0.969230737094666,6.13421082283502,2209.03824535545,6.03435802459717,6.03435802459717,6.03435802459717,5760.17093139906,692.121681712036,6452.29261311109,,,1.79999995231628,2,313.053589129761,339.340554271977
2011-06-01T05:05:32Z,1306904732,1250E,55.53876,25.5187281,880.84,3.7,20.7,83,-71082.29,-71738.43,83.6,Weapon+Missile,Blue,Enemies,AIM-120B,,us,,441.480708079061,426.180511474609,1.30995381725796,880.8369140625,878.8369140625,405.285067528911,175.069213867188,0.0925984904658481,NaN,2.81538433908539,10.0593771048688,2830.49763721888,7.18179893493652,7.18179893493652,7.18179893493652,9745.26078029946,863.805932329102,10609.0667126286,,,2.79999995231628,2,718.139669579879,780.68484663107
2011-06-01T05:05:33Z,1306904733,1250E,55.5438685,25.5195329,1049.25,4.8,17,79.2,-70567.88,-71654.94,79.9,Weapon+Missile,Blue,Enemies,AIM-120B,,us,,547.675978615702,521.4384765625,1.6282080484054,1049.25378417969,1047.25378417969,521.13792359854,168.416870117188,0.113107723158335,NaN,0.323095268498283,5.49501568020902,5000,0.996448755264282,0.996448755264282,0.996448755264282,14997.4488776334,1028.96646226257,16026.4153398959,,,3.79999995231628,2,1239.10094653858,1328.26774360802
2011-06-01T05:05:34Z,1306904734,1250E,55.5501123,25.5206211,1245.83,3.9,17.2,79,-69939.06,-71541.27,79.7,Weapon+Missile,Blue,Enemies,AIM-120B,,us,,668.563804046153,627.243530273438,1.99212196272129,1245.82763671875,1243.82763671875,639.011956522422,196.573852539062,0.0430022661076186,NaN,0.769243225083516,0.378202622104121,5000,1.31277716159821,1.31277716159821,1.31277716159821,22348.8780040331,1221.73955936279,23570.6175633959,,,4.79999995231628,2,1877.92997329894,1996.76656029079
2011-06-01T05:05:35Z,1306904735,1250E,55.557142,25.5218642,1470.93,3,17.5,78.9,-69231.09,-71411.27,79.5,Weapon+Missile,Blue,Enemies,AIM-120B,,us,,754.190701915205,698.37939453125,2.25314879678326,1470.93383789062,1468.93383789062,719.81304034403,225.106201171875,0.0388031557523336,NaN,0.769243225083516,0.289053659035792,5000,1.35930800437927,1.35930800437927,1.35930800437927,28440.1807427675,1442.49333213501,29882.6740749025,,,5.79999995231628,2,2597.5511152969,2750.92038599264
2011-06-01T05:05:36Z,1306904736,1250E,55.5644348,25.5231663,1708.72,2.5,17.7,78.9,-68496.6,-71274.98,79.5,Weapon+Missile,Blue,Enemies,AIM-120B,,us,,783.953536651074,717.634399414062,2.34857861369055,1708.71765136719,1706.71765136719,747.022091826118,237.783813476562,0.0590388434169028,NaN,0.369212705774209,0.259632325701272,5000,1.22196340560913,1.22196340560913,1.22196340560913,30729.1573813863,1675.679595578,32404.8369769643,,,6.79999995231628,2,3344.35819345876,3534.84641908509
2011-06-01T05:05:37Z,1306904737,1250E,55.5721714,25.5244981,1962.16,2.4,17.6,79.6,-67717.51,-71135.85,80.2,Weapon+Missile,Blue,Enemies,AIM-120B,,us,,831.008914780205,750.985961914062,2.49697031894878,1962.15991210938,1959.15991210938,791.418243986113,253.442260742188,0.0629347212575378,NaN,0,0.588763533754716,5000,1.23885476589203,1.23885476589203,1.23885476589203,34528.7908222087,1924.22155020874,36453.0123724174,,,7.79999995231628,3,4135.5576693343,4365.86382461162
2011-06-01T05:05:38Z,1306904738,1250E,55.5802465,25.5257789,2219.72,2.8,17.1,80.5,-66904.47,-71002.68,81.1,Weapon+Missile,Blue,Enemies,AIM-120B,,us,,863.194765853767,770.246276855469,2.60158705742687,2219.72143554688,2213.72143554688,823.873330944687,257.5615234375,0.0285381285417203,NaN,0.230769040166282,0.943133438049694,5000,1.25451290607452,1.25451290607452,1.25451290607452,37255.260189867,2176.80312159058,39432.0633114576,,,8.79999995231628,6,4959.1703160279,5229.06748591448
2011-06-01T05:05:39Z,1306904739,1250E,55.58826,25.5269372,2464.69,3.5,16.1,81.6,-66097.78,-70882.95,82.2,Weapon+Missile,Blue,Enemies,AIM-120B,,us,,851.520373859474,751.645446777344,2.57388617778589,2464.68627929688,2460.30288219452,815.523863798182,244.96484375,0.0352457453025657,NaN,0.953846589762859,1.43542679299777,5000,2.15747976303101,2.15747976303101,2.15747976303101,36254.3473548889,2417.03157008667,38671.3789249756,,,9.79999995231628,4.38339710235596,5774.41325400986,6080.60553048353
2011-06-01T05:05:40Z,1306904740,1250E,55.5957915,25.527864,2673.74,5.1,14.1,83.1,-65339.83,-70788.34,83.7,Weapon+Missile,Blue,Enemies,AIM-120B,,us,,791.923921153462,694.053894042969,2.3997331067049,2673.74145507812,2670.74145507812,763.832069485267,209.05517578125,0.00291146314922522,NaN,1.95384647529479,2.67213414129248,5000,3.8434464931488,3.8434464931488,3.8434464931488,31357.1748447537,2622.04466404419,33979.2195087979,,,10.7999999523163,3,6537.97012409158,6872.56067651736
2011-06-01T05:05:41Z,1306904741,1250E,55.6029496,25.5285447,2831.67,8.1,10,84.9,-64619.69,-70720.52,85.6,Weapon+Missile,Blue,Enemies,AIM-120B,,us,,740.365600062269,645.986145019531,2.24775564394873,2831.666015625,2827.78251314163,723.3263820238,157.924560546875,0.0761965075192681,NaN,3.43076901537791,4.61972010788272,5000,6.29243135452271,6.29243135452271,6.29243135452271,27407.0610877782,2776.91575321289,30183.9768409911,,,11.7999999523163,3.88350248336792,7261.0005666649,7612.94201491941
2011-06-01T05:05:42Z,1306904742,1250E,55.6096127,25.5289796,2912.4,12.7,3.2,87.2,-63949.6,-70679.38,87.8,Weapon+Missile,Blue,Enemies,AIM-120B,,us,,676.188904677024,590.357849121094,2.05491110561783,2912.39916992188,2909.39916992188,671.352063082844,80.733154296875,0.0907827506039222,NaN,4.80000081659109,6.86820557604622,5000,7.89053010940552,7.89053010940552,7.89053010940552,22861.5717404157,2856.08793197144,25717.6596723871,,,12.7999999523163,3,7932.06355553577,8289.14392685318
2011-06-01T05:05:43Z,1306904743,1250E,55.6157084,25.5291248,2908.3,16.8,-4.2,89.9,-63336.86,-70669.68,90.6,Weapon+Missile,Blue,Enemies,AIM-120B,,us,,612.832616829738,537.92333984375,1.86228180870147,2908.296875,2903.43835067749,612.818886316959,-4.102294921875,0.126111175377059,NaN,3.64615305443874,7.84013936050492,4403.92729680125,7.37774515151978,7.37774515151978,7.37774515151978,18778.1908125192,2852.06495492188,21630.2557674411,,,13.7999999523163,4.85852432250977,8544.6023700447,8901.97597374289
2011-06-01T05:05:44Z,1306904744,1250E,55.6211833,25.5289871,2833.51,20,-11.6,93.6,-62786.84,-70690.65,94.2,Weapon+Missile,Blue,Enemies,AIM-120B,,us,,555.476825859284,491.852020263672,1.68646927724873,2833.50830078125,2833.50830078125,550.419088725157,-74.78857421875,0.104768541341487,NaN,2.90769349194447,8.18076857837627,3702.70867207204,7.21620035171509,7.21620035171509,7.21620035171509,15427.7252033353,2778.72241778564,18206.4476211209,,,14.7999999523163,0,9094.76745623805,9457.44649321109
2011-06-01T05:05:45Z,1306904745,1250E,55.6259398,25.5285376,2702.93,21.9,-19,98.8,-62309.36,-70745.38,99.4,Weapon+Missile,Blue,Enemies,AIM-120B,,us,,498.02615140092,446.085968017578,1.50967542151388,2702.93139648438,2697.93139648438,480.603495142781,-130.576904296875,0.222863148570662,NaN,1.53846254450494,8.97373561176818,3072.91707576388,7.0442943572998,7.0442943572998,7.0442943572998,12401.5023739606,2650.67021793335,15052.172591894,,,15.7999999523163,5,9575.18205954953,9955.49157464079
2011-06-01T05:05:46Z,1306904746,1250E,55.6299121,25.5277679,2534.08,22.3,-26.2,106.3,-61911.05,-70834.76,106.9,Weapon+Missile,Blue,Enemies,AIM-120B,,us,,441.760489935709,400.658355712891,1.33641323702959,2534.07763671875,2530.07763671875,408.216533571645,-168.853759765625,0.205155909546877,NaN,0.12305268808695,9.93759141687287,2508.8745989589,6.9188494682312,6.9188494682312,6.9188494682312,9757.61652341187,2485.08124561279,12242.6977690247,,,16.7999999523163,4,9983.29893080423,10397.314797968
2011-06-01T05:05:47Z,1306904747,1250E,55.6330754,25.5266903,2345.64,19.3,-30,113.9,-61594.4,-70957.38,114.5,Weapon+Missile,Blue,Enemies,AIM-120B,,us,,388.346509124247,355.929321289062,1.17219034498064,2345.63696289062,2340.64566659927,339.563136391734,-188.440673828125,0.476333803098662,NaN,4.44612530059814,6.13811470283251,5000,2.12241125106812,2.12241125106812,2.12241125106812,7540.65055744946,2300.28407221313,9840.9346296626,,,17.7999999523163,4.99129629135132,10322.9517381687,10785.853335822
2011-06-01T05:05:48Z,1306904748,1250E,55.6359658,25.5255334,2169.31,15.3,-28.2,113.5,-61305.24,-71088.5,114.1,Weapon+Missile,Blue,Enemies,AIM-120B,,us,,363.17639334368,334.9814453125,1.09392566156038,2169.30834960938,2160.94818115234,317.498524123238,-176.32861328125,0.0416551100479067,NaN,3.41536779257318,1.54561759454735,5000,2.63716602325439,2.63716602325439,2.63716602325439,6594.85463410616,2127.36477266968,8722.21940677584,,,18.7999999523163,8.36016845703125,10640.5817151583,11149.2429500999
2011-06-01T05:05:49Z,1306904749,1250E,55.6387611,25.5244946,2018.53,10.4,-22.9,109.3,-61025.51,-71206.45,109.9,Weapon+Missile,Blue,Enemies,AIM-120B,,us,,338.965628264148,313.881042480469,1.01918249866141,2018.52612304688,2007.4052734375,303.58263668623,-150.7822265625,0.381617437244546,NaN,6.15383651764141,5.970985523371,2179.61630198579,5.84546756744385,5.84546756744385,5.84546756744385,5744.88485722542,1979.49792045776,7724.38277768318,,,19.7999999523163,11.120849609375,10944.2594798928,11488.3830769117
2011-06-01T05:05:50Z,1306904750,1250E,55.6415,25.5237672,1917.56,4.8,-15.7,103.3,-60751.09,-71289.8,103.9,Weapon+Missile,Blue,Enemies,AIM-120B,,us,,304.050777609848,281.74169921875,0.913115537923792,1917.55993652344,1905.08038330078,286.797323111753,-100.966186523438,0.129367894150807,NaN,5.38459329255789,9.33806473228583,1984.48391759984,5.34898996353149,5.34898996353149,5.34898996353149,4622.34376825765,1880.48391515076,6502.8276834084,,,20.7999999523163,12.4795532226562,11231.0663684302,11792.5263544415
2011-06-01T05:05:51Z,1306904751,1250E,55.6441498,25.5233107,1857.82,-0.2,-9.1,98.3,-60485.31,-71343.08,98.9,Weapon+Missile,Blue,Enemies,AIM-120B,,us,,277.574505147675,257.209991455078,0.833017351871888,1857.81848144531,1844.79119873047,271.069298248852,-59.741455078125,0.133206886612863,NaN,4.64611323949611,8.18822714494992,2264.38491864744,4.22494316101074,4.22494316101074,4.22494316101074,3852.38029539883,1821.89756110657,5674.2778565054,,,21.7999999523163,13.0272827148438,11502.0632628132,12070.1084778118
2011-06-01T05:05:52Z,1306904752,1250E,55.6466901,25.5230373,1828.04,-2.4,-6,97.1,-60230.33,-71375.98,97.7,Weapon+Missile,Blue,Enemies,AIM-120B,,us,,258.812351502664,239.72932434082,0.776439383908851,1828.04455566406,1815.04455566406,257.094042392878,-29.77392578125,0.499887453001196,NaN,0.0153542652541887,1.69498892249706,3759.75498254646,1.4544712305069,1.4544712305069,1.4544712305069,3349.19166451693,1792.6993141803,5141.89097869722,,,22.7999999523163,13,11759.0601144355,12328.8980487974
2011-06-01T05:05:53Z,1306904753,1250E,55.6490198,25.5226583,1791.77,1.4,-11.3,103.4,-59996.62,-71420.32,104,Weapon+Missile,Blue,Enemies,AIM-120B,,us,,240.629877443422,222.896621704102,0.721584483937572,1791.77380371094,1779.78833007812,237.880580273362,-36.270751953125,0.168004543306305,NaN,3.21539927702565,6.29899255165617,1774.63403574147,2.7545919418335,2.7545919418335,2.7545919418335,2895.13689592183,1757.12985721619,4652.26675313801,,,23.7999999523163,11.9854736328125,11996.866356961,12569.5211485536
2011-06-01T05:05:54Z,1306904754,1250E,55.651128,25.5220932,1739.24,3.2,-15.2,109.8,-59785.39,-71485.07,110.3,Weapon+Missile,Blue,Enemies,AIM-120B,,us,,227.084340319635,210.610397338867,0.680545660263513,1739.24072265625,1728.75231933594,220.924360389038,-52.5330810546875,0.0827773634560361,NaN,1.33846137211545,7.31287863865755,1900.55084548371,2.40255784988403,2.40255784988403,2.40255784988403,2578.3648809202,1705.61250328369,4283.97738420389,,,24.7999999523163,10.4884033203125,12217.7951950409,12796.6693411572
2011-06-01T05:05:55Z,1306904755,1250E,55.6530113,25.5213766,1678.32,3.3,-17.3,114.7,-59596.94,-71566.35,115.3,Weapon+Missile,Blue,Enemies,AIM-120B,,us,,214.086730372319,198.903854370117,0.641135681976149,1678.31530761719,1667.18103218079,205.2345534354,-60.9254150390625,0.275202274317683,NaN,0.292277454963186,4.35422510531562,5000,1.01567196846008,1.01567196846008,1.01567196846008,2291.65640607551,1645.86508114441,3937.52148721992,,,25.7999999523163,11.1342754364014,12423.1068402802,13010.8827100093
2011-06-01T05:05:56Z,1306904756,1250E,55.6548075,25.5206251,1616.79,2.7,-17.1,114.7,-59417.26,-71651.41,115.3,Weapon+Missile,Blue,Enemies,AIM-120B,,us,,208.102404287752,193.798614501953,0.622765912092773,1616.79467773438,1604.54455566406,198.800962696776,-61.5206298828125,0.0303565825111341,NaN,0.569255286185543,0.8254525336624,5000,1.01440620422363,1.01440620422363,1.01440620422363,2165.33053351715,1585.53395264038,3750.86448615753,,,26.7999999523163,12.2501220703125,12622.0057913213,13219.1278093282
2011-06-01T05:05:57Z,1306904757,1250E,55.6565786,25.5198857,1556.76,2.2,-17,114.6,-59240.1,-71735.11,115.2,Weapon+Missile,Blue,Enemies,AIM-120B,,us,,204.92385096948,191.315811157227,0.61282397043132,1556.7568359375,1542.72424316406,195.93172853965,-60.037841796875,0.0449034721266286,NaN,0.400030519309307,0.178041353815746,5000,1.01325368881226,1.01325368881226,1.01325368881226,2099.68923480809,1526.65694251465,3626.34617732274,,,27.7999999523163,14.0325927734375,12818.0438511178,13424.1999617
2011-06-01T05:05:58Z,1306904758,1250E,55.6583326,25.5191596,1497.95,1.8,-16.8,114.3,-59064.64,-71817.3,114.9,Weapon+Missile,Blue,Enemies,AIM-120B,,us,,202.48825110979,189.51530456543,0.605125143527551,1497.9453125,1480.93670654297,193.759377962621,-58.8115234375,0.00625692780360952,NaN,0.399975877795947,0.267794241676878,5000,1.01009237766266,1.01009237766266,1.01009237766266,2050.07459187508,1468.98253988281,3519.05713175789,,,28.7999999523163,17.0086059570312,13011.8989046307,13626.8241888404
2011-06-01T05:05:59Z,1306904759,1250E,55.6600575,25.518456,1440.73,1.5,-16.7,114,-58892.07,-71896.98,114.6,Weapon+Missile,Blue,Enemies,AIM-120B,,us,,198.49499546788,186.214157104492,0.592796376647822,1440.72998046875,1420.80712890625,190.07016863871,-57.21533203125,0.0193325951275699,NaN,0.323095268498283,0.411528529127215,5000,1.00580060482025,1.00580060482025,1.00580060482025,1970.01316128969,1412.87346629639,3382.88662758608,,,29.7999999523163,19.9228515625,13202.0655761016,13825.4535448143
2011-06-01T05:06:00Z,1306904760,1250E,55.6617555,25.5177776,1384.97,1.3,-16.6,113.5,-58722.18,-71973.84,114.1,Weapon+Missile,Blue,Enemies,AIM-120B,,us,,194.628758513054,183.008102416992,0.58087321061518,1384.97302246094,1362.97302246094,186.471218352988,-55.7569580078125,0.018509584853381,NaN,0.199987938897973,0.485983487454598,5000,1.00621891021729,1.00621891021729,1.00621891021729,1894.01768201664,1358.19456907166,3252.2122510883,,,30.7999999523163,22,13388.6133900162,14020.1952825484
2011-06-01T05:06:01Z,1306904761,1250E,55.6634345,25.5171247,1330.39,1.2,-16.5,112.8,-58554.17,-72047.84,113.4,Weapon+Missile,Blue,Enemies,AIM-120B,,us,,191.532795647019,180.512985229492,0.571270902117566,1330.38623046875,1307.86849784851,183.589471235047,-54.5867919921875,0.0222194962551548,NaN,0,0.599386505626495,5000,1.0077258348465,1.0077258348465,1.0077258348465,1834.24059041813,1304.66321270264,3138.90380312077,,,31.7999999523163,22.5177326202393,13572.2811931583,14211.8406393649
2011-06-01T05:06:02Z,1306904762,1250E,55.665093,25.5165007,1276.98,1.1,-16.5,112.2,-58388.18,-72118.62,112.7,Weapon+Missile,Blue,Enemies,AIM-120B,,us,,188.186484379761,177.759170532227,0.560942449715072,1276.98156738281,1253.00397872925,180.449701756172,-53.4046630859375,0.0498122396126553,NaN,0,0.733568880244275,5000,1.01021206378937,1.01021206378937,1.01021206378937,1770.7076451607,1252.29112877747,3022.99877393817,,,32.7999999523163,23.9775886535645,13752.7919007267,14400.1210028097
2011-06-01T05:06:03Z,1306904763,1250E,55.6667346,25.5159067,1224.62,1,-16.4,111.3,-58223.86,-72186.08,111.9,Weapon+Missile,Blue,Enemies,AIM-120B,,us,,185.183215822848,175.313354492188,0.551655560582924,1224.61999511719,1201.53210449219,177.62626262004,-52.361572265625,0.00803613228592987,NaN,0.169224766876236,0.787352030924777,5000,1.01418447494507,1.01418447494507,1.01418447494507,1714.64117112458,1200.9419675116,2915.58313863617,,,33.7999999523163,23.087890625,13930.4757891102,14585.392917839
2011-06-01T05:06:04Z,1306904764,1250E,55.6683659,25.5153419,1173.07,1,-16.3,110.4,-58060.54,-72250.27,111,Weapon+Missile,Blue,Enemies,AIM-120B,,us,,182.901184774607,173.541168212891,0.544532510043391,1173.07385253906,1150.66375732422,175.487431394019,-51.546142578125,0.0505516850625118,NaN,0,0.835760356337008,5000,1.01823174953461,1.01823174953461,1.01823174953461,1672.64216959775,1150.39246960022,2823.03463919796,,,34.7999999523163,22.4100952148438,14106.008383683,14768.3690925456
2011-06-01T05:06:05Z,1306904765,1250E,55.6699707,25.514813,1122.84,1,-16.3,109.5,-57899.84,-72310.46,110.1,Weapon+Missile,Blue,Enemies,AIM-120B,,us,,178.801522434358,170.009140014648,0.532018001760962,1122.84228515625,1100.85000038147,171.600623725878,-50.2315673828125,0.0144156866886908,NaN,0,0.883621626285403,5000,1.01724171638489,1.01724171638489,1.01724171638489,1598.49922124222,1101.13212957275,2699.63135081497,,,35.7999999523163,21.9922847747803,14277.6378086703,14947.2279034827
2011-06-01T05:06:06Z,1306904766,1250E,55.6715591,25.514317,1073.56,1,-16.2,108.5,-57740.75,-72366.99,109.1,Weapon+Missile,Blue,Enemies,AIM-120B,,us,,175.876122415212,167.583679199219,0.52301589883068,1073.56457519531,1050.40738677979,168.831625404769,-49.2777099609375,0.0527197981948699,NaN,0,0.976271168025069,5000,1.02245533466339,1.02245533466339,1.02245533466339,1546.62052179053,1052.80720413391,2599.42772592445,,,36.7999999523163,23.1571884155273,14446.5040271831,15123.165145535
2011-06-01T05:06:07Z,1306904767,1250E,55.6731334,25.5138534,1025.18,1,-16.2,107.4,-57583.04,-72419.91,108,Weapon+Missile,Blue,Enemies,AIM-120B,,us,,173.244102132726,165.423919677734,0.514901434300393,1025.177734375,1001.177734375,166.349729663754,-48.3868408203125,0.0228862872011153,NaN,0,1.0114700143042,5000,1.02772605419159,1.02772605419159,1.02772605419159,1500.67594618872,1005.35592288086,2506.03186906958,,,37.7999999523163,24,14612.8631477409,15296.4445463679
2011-06-01T05:06:08Z,1306904768,1250E,55.6746933,25.5134223,977.72,1,-16.1,106.4,-57426.74,-72469.23,107,Weapon+Missile,Blue,Enemies,AIM-120B,,us,,170.628591844154,163.264526367188,0.50685062743235,977.717651367188,952.756782531738,163.895261907141,-47.4600830078125,0.0275213643785964,NaN,0,0.998813993937284,5000,1.03327965736389,1.03327965736389,1.03327965736389,1455.70581773594,958.813480578003,2414.51929831394,,,38.7999999523163,24.9608688354492,14776.7647643372,15467.103961443
2011-06-01T05:06:09Z,1306904769,1250E,55.6762267,25.5130265,931.58,1,-16,105.4,-57273.07,-72514.61,105.9,Weapon+Missile,Blue,Enemies,AIM-120B,,us,,166.742247079913,159.86149597168,0.495043377107483,931.583801269531,905.882520675659,160.233095321865,-46.1338500976562,0.0167935822315583,NaN,0,1.04824257885679,5000,1.04064452648163,1.04064452648163,1.04064452648163,1390.14884806294,913.571628471985,2303.72047653493,,,39.7999999523163,25.7012805938721,14936.9953711542,15633.8668636468
2011-06-01T05:06:10Z,1306904770,1250E,55.6777462,25.5126621,886.44,1,-15.9,104.2,-57120.75,-72556.48,104.8,Weapon+Missile,Blue,Enemies,AIM-120B,,us,,164.30002591789,157.833358764648,0.487539519896057,886.436096191406,861.436096191406,157.975261489886,-45.147705078125,0.0246442373164394,NaN,0,1.05725906889144,5000,1.04223573207855,1.04223573207855,1.04223573207855,1349.72492583096,869.296854271545,2219.02178010251,,,40.7999999523163,25,15094.9497292424,15798.1684358561
2011-06-01T05:06:11Z,1306904771,1250E,55.6792482,25.5123297,842.38,1,-15.8,103.1,-56970.16,-72594.79,103.7,Weapon+Missile,Blue,Enemies,AIM-120B,,us,,161.511077426817,155.454803466797,0.47902122006863,842.376159667969,817.659299850464,155.38516700484,-44.0599365234375,0.0531645624814005,NaN,0,1.03957154698375,5000,1.04520857334137,1.04520857334137,1.04520857334137,1304.29140657857,826.088816620789,2130.38022319936,,,41.7999999523163,24.7168598175049,15250.3199238598,15959.6853668984
2011-06-01T05:06:12Z,1306904772,1250E,55.680724,25.5120302,799.67,1,-15.6,102.1,-56822.17,-72629.43,102.6,Weapon+Missile,Blue,Enemies,AIM-120B,,us,,157.87334609403,152.235733032227,0.468002831126428,799.673828125,776.164249420166,151.988500511452,-42.7023315429688,0.0454362598038553,NaN,0,1.09722933591435,5000,1.04539465904236,1.04539465904236,1.04539465904236,1246.19967034627,784.212134658203,2030.41180500447,,,42.7999999523163,23.509578704834,15402.286254609,16117.5562022925
2011-06-01T05:06:13Z,1306904773,1250E,55.6821858,25.5117607,757.93,0.9,-15.5,100.9,-56675.55,-72660.74,101.5,Weapon+Missile,Blue,Enemies,AIM-120B,,us,,155.62529638294,150.347198486328,0.461118011618408,757.934631347656,735.488090515137,149.923554942711,-41.7391967773438,0.0337347278251193,NaN,0,1.08867857940373,5000,1.04654490947723,1.04654490947723,1.04654490947723,1210.9616437139,743.279965250549,1954.24160896445,,,43.7999999523163,22.4465408325195,15552.172857318,16273.1635317697
2011-06-01T05:06:14Z,1306904774,1250E,55.6836212,25.5115229,717.49,0.9,-15.3,99.7,-56531.54,-72688.51,100.3,Weapon+Missile,Blue,Enemies,AIM-120B,,us,,152.137738239145,147.238693237305,0.450575655964116,717.492248535156,694.492248535156,146.663918769988,-40.4423828125,0.0175884260310601,NaN,0,1.08872350924186,5000,1.04338002204895,1.04338002204895,1.04338002204895,1157.29456982613,703.619535909729,1860.91410573586,,,44.7999999523163,23,15698.7986267928,16425.2808423782
2011-06-01T05:06:15Z,1306904775,1250E,55.6850448,25.5113137,677.88,1,-15.2,98.6,-56388.68,-72713.1,99.2,Weapon+Missile,Blue,Enemies,AIM-120B,,us,,150.27136651803,145.691787719727,0.444846520024601,677.88232421875,653.88232421875,144.957019460407,-39.6099243164062,0.0286007348015959,NaN,0.200000105172432,1.13294749001382,5000,1.04230713844299,1.04230713844299,1.04230713844299,1129.07417975981,664.775469479981,1793.84964923979,,,45.7999999523163,24,15843.6995834023,16575.5134188604
2011-06-01T05:06:16Z,1306904776,1250E,55.686436,25.5111354,639.64,1,-15.1,97.4,-56249.07,-72734.23,98,Weapon+Missile,Blue,Enemies,AIM-120B,,us,,146.289467042789,142.069137573242,0.432869690170846,639.640014648438,614.915954589844,141.202457225048,-38.2423095703125,0.0220422142376822,NaN,0,1.13863415610638,5000,1.04102516174316,1.04102516174316,1.04102516174316,1070.03040838316,627.27257496521,1697.30298334837,,,46.7999999523163,24.7240600585938,15984.8731837762,16721.7891065332
2011-06-01T05:06:17Z,1306904777,1250E,55.6878066,25.5109858,602.39,1,-15,96.3,-56111.47,-72752.16,96.8,Weapon+Missile,Blue,Enemies,AIM-120B,,us,,143.672975373579,139.760864257812,0.424946702752409,602.39306640625,577.091682434082,138.760904794329,-37.2469482421875,0.044482901141874,NaN,0,1.16404854295606,5000,1.03943979740143,1.03943979740143,1.03943979740143,1032.09619263485,590.745796467285,1622.84198910214,,,47.7999999523163,25.301383972168,16123.5728207863,16865.4159523308
2011-06-01T05:06:18Z,1306904778,1250E,55.6891503,25.5108646,566.29,1,-14.8,95.1,-55976.56,-72766.9,95.6,Weapon+Missile,Blue,Enemies,AIM-120B,,us,,140.437457692898,136.833190917969,0.415205799603866,566.288452148438,540.289155960083,135.717118863241,-36.1046142578125,0.0318239222325026,NaN,0,1.14664201929969,5000,1.0407646894455,1.0407646894455,1.0407646894455,986.133976162225,555.339264926148,1541.47324108837,,,48.7999999523163,25.9992961883545,16259.2416135795,17005.8187202626
2011-06-01T05:06:19Z,1306904779,1250E,55.6904691,25.5107711,531.25,1,-14.7,93.8,-55844.11,-72778.57,94.4,Weapon+Missile,Blue,Enemies,AIM-120B,,us,,137.501138514674,134.182968139648,0.406362156325138,531.252258300781,505.210075378418,132.962506796093,-35.0361938476562,0.572316227210113,NaN,0.0154089067675488,0.300341347052032,5000,1.0586245059967,1.0586245059967,1.0586245059967,945.328154641576,520.980495886536,1466.30865052811,,,49.7999999523163,26.0421829223633,16392.1436703675,17143.2724620257
2011-06-01T05:06:20Z,1306904780,1250E,55.6917571,25.5106635,497.77,0.3,-14.3,95.4,-55714.78,-72791.76,96,Weapon+Missile,Blue,Enemies,AIM-120B,,us,,134.244521349044,131.201583862305,0.396586455858963,497.772308349609,470.772308349609,130.002632525272,-33.4799499511719,0.0206529815745858,NaN,0.123054689118933,0.303097595186397,5000,1.01279950141907,1.01279950141907,1.01279950141907,901.079575611698,488.14788076767,1389.22745637937,,,50.7999999523163,27,16522.1021605875,17277.4843883963
2011-06-01T05:06:21Z,1306904781,1250E,55.6930175,25.5105658,465.43,0.4,-14.2,94.2,-55588.21,-72803.83,94.8,Weapon+Missile,Blue,Enemies,AIM-120B,,us,,131.189459635472,128.402435302734,0.387418497394824,465.431518554688,438.009399414062,127.140660824489,-32.3407897949219,0.036058389673214,NaN,0.199999998450727,1.15628816739845,5000,1.02754282951355,1.02754282951355,1.02754282951355,860.533715972351,456.432400143433,1316.96611611578,,,51.7999999523163,27.422119140625,16649.1987369658,17408.6404250641
2011-06-01T05:06:22Z,1306904782,1250E,55.6942449,25.510495,434.18,0.6,-14.1,93,-55464.93,-72812.88,93.6,Weapon+Missile,Blue,Enemies,AIM-120B,,us,,127.502040840875,124.96858215332,0.376395258949698,434.179992675781,406.642431259155,123.61275237138,-31.2515258789062,0.0508160470626751,NaN,0.199999998450727,1.23459127031248,5000,1.02431547641754,1.02431547641754,1.02431547641754,812.838520929404,425.785122517395,1238.6236434468,,,52.7999999523163,27.537561416626,16772.7592081313,17536.1002279757
2011-06-01T05:06:23Z,1306904783,1250E,55.6954498,25.5104495,403.71,1,-14.4,91.8,-55343.88,-72819.1,92.4,Weapon+Missile,Blue,Enemies,AIM-120B,,us,,124.986464323338,122.673034667969,0.368841297810781,403.706909179688,376.706909179688,121.214716294223,-30.4730834960938,0.280540048706992,NaN,0.707692441769417,1.37101277303926,3181.67193758,0.50701892375946,0.50701892375946,0.50701892375946,781.080813202448,395.901236090698,1176.98204929315,,,53.7999999523163,27,16893.9155464511,17661.0377945329
2011-06-01T05:06:24Z,1306904784,1250E,55.6966133,25.5104159,369.5,4,-18.3,91.8,-55226.97,-72823.98,92.4,Weapon+Missile,Blue,Enemies,AIM-120B,,us,,121.902185035049,119.832481384277,0.359599667604294,369.498443603516,342.967918395996,117.003946938739,-34.2084655761719,0.106348964986973,NaN,2.96923093504534,3.03635056368883,1827.39671357916,0.126881092786789,0.126881092786789,0.126881092786789,743.007135815965,362.354191196442,1105.36132701241,,,54.7999999523163,26.5305252075195,17010.8745307013,17782.9036284793
2011-06-01T05:06:25Z,1306904785,1250E,55.6977323,25.5103837,328.28,6.4,-22,91.8,-55114.55,-72828.64,92.4,Weapon+Missile,Blue,Enemies,AIM-120B,,us,,119.830941522565,118.020530700684,0.353324361106813,328.279235839844,303.098571777344,112.518582720898,-41.2192077636719,0.0511173905007023,NaN,2.30769296298376,3.69617052973074,1901.27863373477,0.163294896483421,0.163294896483421,0.163294896483421,717.972727309214,321.93195681488,1039.90468412409,,,55.7999999523163,25.1806640625,17123.3460390239,17902.6961458663
2011-06-01T05:06:26Z,1306904786,1250E,55.6988053,25.510353,280.84,8.3,-25.5,91.8,-55006.74,-72833.09,92.4,Weapon+Missile,Blue,Enemies,AIM-120B,,us,,117.870615972299,116.344764709473,0.347357417146148,280.843841552734,256.987579345703,107.904427520448,-47.4353942871094,0.084980761393899,NaN,1.73846072868667,3.18673788227758,2546.80487486315,0.351225703954697,0.351225703954697,0.351225703954697,694.674105484458,275.413725876312,970.08783136077,,,56.7999999523163,23.8562622070312,17231.203991207,18020.5289320962
2011-06-01T05:06:27Z,1306904787,1250E,55.6998609,25.5103272,228.22,8.3,-26.6,91,-54900.67,-72836.99,91.6,Weapon+Missile,Blue,Enemies,AIM-120B,,us,,118.466816966734,117.220672607422,0.348906377829178,228.221542358398,205.663009643555,106.138024994492,-52.6222991943359,0.0242195678289396,NaN,0.738480053061779,1.53787205330685,5000,0.875682890415192,0.875682890415192,0.875682890415192,701.719336111483,223.808878836899,925.528214948382,,,57.7999999523163,22.5585327148438,17337.291711694,18138.9544745461
2011-06-01T05:06:28Z,1306904788,1250E,55.7009006,25.5103173,176.01,7.5,-26.5,90.2,-54796.18,-72839.11,90.7,Weapon+Missile,Blue,Enemies,AIM-120B,,us,,116.833051064221,115.884368896484,0.343891464355825,176.009994506836,154.091659545898,104.517539637704,-52.2115478515625,0.060063968174664,NaN,0.876941647916277,0.736563864834473,5000,0.897680401802063,0.897680401802063,0.897680401802063,682.498091048747,172.606841263046,855.104932311794,,,58.7999999523163,21.9183349609375,17441.7620342714,18255.7482489794
2011-06-01T05:06:29Z,1306904789,1250E,55.7019451,25.5103154,123.55,6.4,-26.8,90.6,-54691.21,-72840.34,91.1,Weapon+Missile,Blue,Enemies,AIM-120B,,us,,117.35072905204,116.682136535645,0.345210537488109,123.549995422363,102.549995422363,104.972101556092,-52.4599990844727,0.10942456628395,NaN,1.1999822749012,0.41176619836599,5000,0.851652204990387,0.851652204990387,0.851652204990387,688.559680452271,121.161156260872,809.720836713142,,,59.7999999523163,21,17546.6950773335,18373.0662449726
2011-06-01T05:06:30Z,1306904790,1250E,55.7029741,25.5102934,71.07,5.3,-27,91.9,-54587.81,-72843.79,92.5,Weapon+Missile,Blue,Enemies,AIM-120B,,us,,116.006808987652,115.626777648926,0.341055060903474,71.0669250488281,49.6976776123047,103.455821758198,-52.4830703735352,0.0871973273669043,NaN,1.13845593085773,0.946602747261237,5000,0.842152893543243,0.842152893543243,0.842152893543243,672.878986574875,69.692846053009,742.571832627884,,,60.7999999523163,21.3692474365234,17650.1011582795,18489.0301036777
