ISOTime,UnixTime,Id,Longitude,Latitude,Altitude,Roll,Pitch,Yaw,U,V,Heading,Type,Color,Coalition,Name,Group,Country,Pilot,TAS,CAS,M,ASL,AGL,GS,VS,AOA,AOS,RRT,TRT,TRD,G,LatG,LonG,Ek,Ep,Em,FFW,FFV,RelativeTime,Elev,GroundDistance,AirDistance
2011-06-01T05:06:11Z,1306904771,1EF07,55.3272611,25.4909033,3025.12,38.6,-3.7,18.1,-92377.89,-74569.97,18.8,Weapon+Missile,Blue,Enemies,AIM-120B,,us,,325.928979856342,289.318939208984,0.991833474764388,3025.12377929688,3025.12377929688,NaN,NaN,4.27721130742745,NaN,8.66155413178993,1.72744768358961,NaN,NaN,NaN,NaN,NaN,2966.63301102417,NaN,,,0.930000066757202,0,NaN,NaN
2011-06-01T05:06:12Z,1306904772,1EF07,55.3283512,25.494361,2974.29,31.7,-4.8,18,-92263.51,-74188.35,18.7,Weapon+Missile,Blue,Enemies,AIM-120B,,us,,401.620901458194,359.177703857422,1.22142123282298,2974.28833007812,2974.28833007812,398.390644456945,-50.83544921875,1.68938269718331,NaN,6.75385497584869,0.369169883689764,5000,2.85385942459106,2.85385942459106,2.85385942459106,8064.96742440462,2916.78046521606,10981.7478896207,,,1.9300000667572,0,400.192168353298,403.594715022832
2011-06-01T05:06:13Z,1306904773,1EF07,55.3299755,25.4989087,2927.02,25.8,-5,18.1,-92093.88,-73686.67,18.8,Weapon+Missile,Blue,Enemies,AIM-120B,,us,,531.685082762559,470.213409423828,1.6160546170097,2927.0244140625,2927.0244140625,529.580163407862,-47.263916015625,0.119793680624032,NaN,5.6461622170127,0.375997298095427,5000,1.24411714076996,1.24411714076996,1.24411714076996,14134.4513616115,2870.4303970166,17004.8817586281,,,2.9300000667572,0,932.091752213525,937.835177854496
2011-06-01T05:06:14Z,1306904774,1EF07,55.3320694,25.5045713,2868.75,20.9,-5.2,19,-91875.53,-73062.08,19.7,Weapon+Missile,Blue,Enemies,AIM-120B,,us,,664.221463490473,581.526245117188,2.01748165518101,2868.75439453125,2868.75439453125,661.660605888891,-58.27001953125,0.0264954941710764,NaN,4.56923263019845,0.704794040322952,5000,1.10193645954132,1.10193645954132,1.10193645954132,22059.5076280713,2813.28702831299,24872.7946563843,,,3.9300000667572,0,1596.63772406606,1605.23171214455
2011-06-01T05:06:15Z,1306904775,1EF07,55.3346541,25.5112484,2793.52,17.1,-5.7,19.7,-91606.46,-72325.75,20.4,Weapon+Missile,Blue,Enemies,AIM-120B,,us,,787.551789599592,686.637817382812,2.38991705412253,2793.52221679688,2793.52221679688,783.950215724738,-75.232177734375,0.0638370527634549,NaN,3.66152781026044,0.950677168544561,5000,1.18679809570312,1.18679809570312,1.18679809570312,31011.891065076,2739.50946473511,33751.4005298111,,,4.9300000667572,0,2383.97950984736,2396.50753077498
2011-06-01T05:06:16Z,1306904776,1EF07,55.337619,25.5185878,2703.24,13.9,-6.1,20.6,-91298.27,-71516.52,21.3,Weapon+Missile,Blue,Enemies,AIM-120B,,us,,870.618940599309,759.632141113281,2.63913237790607,2703.24389648438,2703.24389648438,865.925611477,-90.2783203125,0.0322911322393335,NaN,3.0769182588207,0.885612679789314,5000,1.4732950925827,1.4732950925827,1.4732950925827,37898.8669865131,2650.97667574585,40549.843662259,,,5.9300000667572,0,3253.60166237684,3271.17589307641
2011-06-01T05:06:17Z,1306904777,1EF07,55.3408199,25.5261615,2605.88,11.2,-6.2,21.3,-90966.09,-70681.64,22,Weapon+Missile,Blue,Enemies,AIM-120B,,us,,903.80150976754,791.311340332031,2.73652674460732,2605.88208007812,2605.88208007812,898.542066774929,-97.36181640625,0.0294595615230966,NaN,2.50766297263516,0.759970656315842,5000,1.5196852684021,1.5196852684021,1.5196852684021,40842.8584529042,2555.49735005981,43398.355802964,,,6.9300000667572,0,4155.94141598415,4179.12646716133
2011-06-01T05:06:18Z,1306904778,1EF07,55.3442861,25.5340904,2504.32,9,-6,21.9,-90606.78,-69807.73,22.6,Weapon+Missile,Blue,Enemies,AIM-120B,,us,,950.337065945537,834.968444824219,2.87393724429123,2504.31982421875,2504.31982421875,944.89451638515,-101.562255859375,0.057465179840141,NaN,2.10768709483921,0.533764449319393,5000,1.45727515220642,1.45727515220642,1.45727515220642,45157.0269454986,2455.89880041748,47612.9257459161,,,7.9300000667572,0,5104.77513649056,5133.75821790806
2011-06-01T05:06:19Z,1306904779,1EF07,55.3479221,25.5422156,2402.28,7.3,-5.9,22.3,-90230.19,-68912.27,23.1,Weapon+Missile,Blue,Enemies,AIM-120B,,us,,976.765898325068,861.789916992188,2.9502707725381,2402.2783203125,2402.2783203125,971.421201956869,-102.04150390625,0.027565170502297,NaN,1.56919498067541,0.539416964466107,5000,1.63376080989838,1.63376080989838,1.63376080989838,47703.5810065389,2355.83026898926,50059.4112755281,,,8.9300000667572,0,6080.21574408238,6114.89477812189
2011-06-01T05:06:20Z,1306904780,1EF07,55.3515553,25.5500937,2305.57,5.7,-5.7,23.1,-89854.26,-68044.19,23.8,Weapon+Missile,Blue,Enemies,AIM-120B,,us,,950.92032890678,843.257934570312,2.8689043524845,2305.56665039062,2305.56665039062,945.989600803889,-96.711669921875,0.0172502944147413,NaN,1.53848645016703,0.783739767988339,5000,1.9717732667923,1.9717732667923,1.9717732667923,45212.473596409,2260.98851920532,47473.4621156143,,,9.9300000667572,0,7030.09846905765,7070.0368890358
2011-06-01T05:06:21Z,1306904781,1EF07,55.3550771,25.5574173,2218.77,4.5,-5.6,24,-89490.34,-67237.38,24.7,Weapon+Missile,Blue,Enemies,AIM-120B,,us,,889.333564127645,793.015808105469,2.68033656171523,2218.76611328125,2218.76611328125,885.087484399991,-86.800537109375,0.0482102764960376,NaN,1.12310166560354,0.88229176710966,5000,1.76041424274445,1.76041424274445,1.76041424274445,39545.709414199,2175.86627048096,41721.5756846799,,,10.9300000667572,0,7918.77405226741,7963.25518823092
2011-06-01T05:06:22Z,1306904782,1EF07,55.3584787,25.5642028,2139.17,3.5,-5.4,24.9,-89139.27,-66490.02,25.6,Weapon+Missile,Blue,Enemies,AIM-120B,,us,,829.536887767163,743.715209960938,2.49776174122803,2139.17309570312,2139.17309570312,825.70963402351,-79.593017578125,0.0341175694576815,NaN,0.969231163981489,0.878290130029679,5000,1.73393440246582,1.73393440246582,1.73393440246582,34406.5724083215,2097.81218389771,36504.3845922192,,,11.9300000667572,0,8747.77499021583,8796.35017113026
2011-06-01T05:06:23Z,1306904783,1EF07,55.3617742,25.5705223,2066.74,2.7,-5.3,25.7,-88799.52,-65794.11,26.4,Weapon+Missile,Blue,Enemies,AIM-120B,,us,,777.792885275764,700.903198242188,2.33995462645658,2066.74243164062,2066.74243164062,774.413049534331,-72.4306640625,0.0373267371680513,NaN,0.676953709018304,0.821948166370508,5000,1.45300543308258,1.45300543308258,1.45300543308258,30248.0886192799,2026.78196672485,32274.8705860047,,,12.9300000667572,0,9525.21481130999,9577.41195372007
2011-06-01T05:06:24Z,1306904784,1EF07,55.3649412,25.5763926,1999.44,2.1,-5.3,26.4,-88473.34,-65147.81,27.1,Weapon+Missile,Blue,Enemies,AIM-120B,,us,,727.06463961609,658.572570800781,2.1856042850395,1999.43603515625,1999.43603515625,723.942566211135,-67.306396484375,0.033450362646099,NaN,0.538492114163805,0.66662416847657,5000,1.31998538970947,1.31998538970947,1.31998538970947,26431.1495090038,1960.7769394165,28391.9264484203,,,13.9300000667572,0,10251.963367573,10307.50125135
2011-06-01T05:06:25Z,1306904785,1EF07,55.3679817,25.5818674,1936.64,1.6,-5.2,27.1,-88160.43,-64545.16,27.8,Weapon+Missile,Blue,Enemies,AIM-120B,,us,,681.947888328253,620.804504394531,2.04846409642414,1936.64147949219,1936.64147949219,679.050635942797,-62.7945556640625,0.0519525942970707,NaN,0.569200644672183,0.632506626520416,5000,1.31180143356323,1.31180143356323,1.31180143356323,23252.6461197682,1899.19651648621,25151.8426362544,,,14.9300000667572,0,10933.6048612997,10992.2384725988
2011-06-01T05:06:26Z,1306904786,1EF07,55.3708767,25.5869304,1878.68,1.2,-5.2,27.8,-87862.73,-63987.91,28.5,Weapon+Missile,Blue,Enemies,AIM-120B,,us,,634.433181895324,580.602966308594,1.90443814559059,1878.6806640625,1878.6806640625,631.780029887421,-57.9608154296875,0.0702913562333875,NaN,0.307686361730734,0.767911711721334,5000,1.34398627281189,1.34398627281189,1.34398627281189,20125.2731144913,1842.35637342285,21967.6294879141,,,15.9300000667572,0,11567.7604488308,11629.2261996331
2011-06-01T05:06:27Z,1306904787,1EF07,55.3736748,25.5916587,1824.32,0.8,-5.1,28.7,-87575.24,-63467.63,29.4,Weapon+Missile,Blue,Enemies,AIM-120B,,us,,596.907718823449,548.893737792969,1.79065023489718,1824.32153320312,1824.32153320312,594.427379654763,-54.359130859375,0.0470509947709295,NaN,0.523083207396256,0.922944999688723,5000,1.62725079059601,1.62725079059601,1.62725079059601,17814.9412395507,1789.04827635864,19603.9895159094,,,16.9300000667572,0,12164.3887179895,12228.498176335
2011-06-01T05:06:28Z,1306904788,1EF07,55.3763592,25.596012,1776.42,0.4,-4.8,29.8,-87299.69,-62988.75,30.5,Weapon+Missile,Blue,Enemies,AIM-120B,,us,,554.57159408805,512.611694335938,1.66271203705002,1776.42309570312,1776.42309570312,552.499224121101,-47.8984375,0.0357613693978066,NaN,0.384621612541758,1.095801399491,5000,1.69538235664368,1.69538235664368,1.69538235664368,15377.482648468,1742.07595514771,17119.5586036157,,,17.9300000667572,0,12718.8914614649,12785.2217700563
2011-06-01T05:06:29Z,1306904789,1EF07,55.3789739,25.6000638,1734.41,0,-4.4,30.9,-87031.58,-62543.15,31.7,Weapon+Missile,Blue,Enemies,AIM-120B,,us,,521.733010072449,484.394287109375,1.56348526146024,1734.40612792969,1734.40612792969,520.038371871138,-42.0169677734375,0.0371244282410386,NaN,0.369212705774209,1.22204261198158,5000,1.71144413948059,1.71144413948059,1.71144413948059,13610.2666899629,1700.87138544617,15311.1380754091,,,18.9300000667572,0,13240.7611773041,13308.9233642675
2011-06-01T05:06:30Z,1306904790,1EF07,55.3815112,25.6038082,1698,-0.2,-4.1,32.3,-86771.66,-62131.52,33,Weapon+Missile,Blue,Enemies,AIM-120B,,us,,488.185714726779,455.233764648438,1.46232988150059,1698.00305175781,1698.00305175781,486.826568819452,-36.403076171875,0.128832720511147,NaN,0.261514282941448,0.983162935619317,5000,1.28568542003632,1.28568542003632,1.28568542003632,11916.2646031648,1665.17216275208,13581.4367659169,,,19.9300000667572,0,13729.2571701471,13798.9049502929
2011-06-01T05:06:31Z,1306904791,1EF07,55.3839108,25.6072478,1665.32,-0.1,-4.2,32.2,-86526.02,-61753.47,32.9,Weapon+Missile,Blue,Enemies,AIM-120B,,us,,452.02537730833,423.377075195312,1.35349599454841,1665.31994628906,1665.31994628906,450.842274357293,-32.68310546875,0.0223684746208183,NaN,0.199987938897973,0.307265237879721,5000,0.965545356273651,0.965545356273651,0.965545356273651,10216.3470865369,1633.12098512756,11849.4680716644,,,20.9300000667572,0,14181.6212610475,14252.5671348326
2011-06-01T05:06:32Z,1306904792,1EF07,55.3861607,25.6104922,1634.18,-0.1,-4.2,32.1,-86295.69,-61396.86,32.9,Weapon+Missile,Blue,Enemies,AIM-120B,,us,,425.666307051329,399.978424072266,1.27410513154684,1634.17993164062,1634.17993164062,424.525740616999,-31.1400146484375,0.0486422387966724,NaN,0,0.0442346629476897,5000,0.997434318065643,0.997434318065643,0.997434318065643,9059.5902479358,1602.58306266235,10662.1733105982,,,21.9300000667572,0,14607.5882389952,14679.7807166423
2011-06-01T05:06:33Z,1306904793,1EF07,55.3882574,25.6135159,1605.16,-0.1,-4.2,32.1,-86081.03,-61064.49,32.9,Weapon+Missile,Blue,Enemies,AIM-120B,,us,,396.724037038592,373.797454833984,1.18707241101337,1605.16076660156,1605.16076660156,395.66128143228,-29.0191650390625,0.0480611365165901,NaN,0,0.00989117029631303,5000,0.996904969215393,0.996904969215393,0.996904969215393,7869.49807820991,1574.12498317932,9443.62306138923,,,22.9300000667572,0,15004.5742112311,15077.9264504693
2011-06-01T05:06:34Z,1306904794,1EF07,55.3902059,25.616326,1578.19,-0.1,-4.2,32.1,-85881.55,-60755.61,32.9,Weapon+Missile,Blue,Enemies,AIM-120B,,us,,368.679288171282,347.860565185547,1.1028098570418,1578.19152832031,1578.19152832031,367.691552409098,-26.96923828125,0.0485818675298897,NaN,0,0.00989117029631303,5000,0.996884405612946,0.996884405612946,0.996884405612946,6796.22087632418,1547.67719512024,8343.89807144442,,,23.9300000667572,0,15373.5065842564,15447.9350689069
2011-06-01T05:06:35Z,1306904795,1EF07,55.3920311,25.6189578,1552.93,-0.1,-4.2,32.1,-85694.73,-60466.33,32.9,Weapon+Missile,Blue,Enemies,AIM-120B,,us,,345.295179781957,325.767730712891,1.03255777287838,1552.9306640625,1552.9306640625,344.369931784996,-25.2608642578125,0.0456473150620837,NaN,0,0.00989117029631303,5000,0.997670769691467,0.997670769691467,0.997670769691467,5961.43805903271,1522.90474967285,7484.34280870556,,,24.9300000667572,0,15719.045574805,15794.4807748411
2011-06-01T05:06:36Z,1306904796,1EF07,55.3937212,25.6213948,1529.55,-0.1,-4.2,32.1,-85521.73,-60198.45,32.9,Weapon+Missile,Blue,Enemies,AIM-120B,,us,,319.73455923719,301.364624023438,0.955861446757495,1529.54528808594,1529.54528808594,318.878209605227,-23.3853759765625,0.0495432547734039,NaN,0,0.00989117029631303,5000,0.996533215045929,0.996533215045929,0.996533215045929,5111.50941853002,1499.9715299408,6611.48094847081,,,25.9300000667572,0,16039.006291748,16115.3720628146
2011-06-01T05:06:37Z,1306904797,1EF07,55.3953284,25.6237122,1507.3,0,-4.2,32.1,-85357.22,-59943.72,32.9,Weapon+Missile,Blue,Enemies,AIM-120B,,us,,304.052332112598,286.493957519531,0.90874296960958,1507.30078125,1507.30078125,303.237534910729,-22.2445068359375,0.0352355643904972,NaN,0,0.600528054352387,5000,1.36529421806335,1.36529421806335,1.36529421806335,4622.39103315547,1478.15712064453,6100.5481538,,,26.9300000667572,0,16343.2594347743,16420.5095302913
2011-06-01T05:06:38Z,1306904798,1EF07,55.3968974,25.6258268,1487,-0.8,-3.9,37.9,-85196.84,-59711.41,38.6,Weapon+Missile,Blue,Enemies,AIM-120B,,us,,283.029688889937,266.489440917969,0.84571095727409,1486.99694824219,1486.99694824219,282.300476723517,-20.3038330078125,0.151083165040528,NaN,1.16927374439282,5.02417530911372,2007.85034260754,4.08174657821655,4.08174657821655,4.08174657821655,4005.29023965672,1458.24586224792,5463.53610190464,,,27.9300000667572,0,16626.4736872676,16704.5169573488
2011-06-01T05:06:39Z,1306904799,1EF07,55.3986396,25.6275801,1469.91,-1.5,-3.6,45.5,-85019.54,-59519.32,46.2,Weapon+Missile,Blue,Enemies,AIM-120B,,us,,261.963178371104,246.457901000977,0.782607064564151,1469.90844726562,1469.90844726562,261.405221747128,-17.0885009765625,1.52356437103451,NaN,0.553846379417994,4.17895007149522,5000,0.942330598831177,0.942330598831177,0.942330598831177,3431.23534111455,1441.48776743774,4872.72310855229,,,28.9300000667572,0,16888.530593666,16967.1910518875
2011-06-01T05:06:40Z,1306904800,1EF07,55.4002324,25.6291908,1453.59,-0.3,-4.2,37.9,-84857.44,-59342.84,38.6,Weapon+Missile,Blue,Enemies,AIM-120B,,us,,240.184124956662,225.789001464844,0.717406508849703,1453.59460449219,1453.59460449219,239.629448138498,-16.3138427734375,0.0905290513413958,NaN,1.21537848178576,4.00815436110988,1983.46199427536,2.97925305366516,2.97925305366516,2.97925305366516,2884.42069405988,1425.48935281433,4309.91004687421,,,29.9300000667572,0,17128.7543533655,17208.0230476704
2011-06-01T05:06:41Z,1306904801,1EF07,55.401514,25.6308539,1436.19,0.5,-4.5,33.5,-84726.52,-59160.18,34.2,Weapon+Missile,Blue,Enemies,AIM-120B,,us,,225.400150530725,211.848190307617,0.673111871171744,1436.19311523438,1436.19311523438,224.727426076311,-17.4014892578125,0.134524900214937,NaN,0.20000005181158,3.99904630385167,5000,1.07435309886932,1.07435309886932,1.07435309886932,2540.26139296368,1408.42432135132,3948.685714315,,,30.9300000667572,0,17354.1852568657,17434.1754999133
2011-06-01T05:06:42Z,1306904802,1EF07,55.4027263,25.6324937,1419.06,0.2,-4.4,34.3,-84602.6,-58980.02,35,Weapon+Missile,Blue,Enemies,AIM-120B,,us,,219.333765833932,206.22412109375,0.654865292550132,1419.06079101562,1419.06079101562,218.663632782769,-17.13232421875,0.0547755009321247,NaN,0.169224766876236,0.295911008879927,5000,1.09846520423889,1.09846520423889,1.09846520423889,2405.36504174471,1391.62325062134,3796.98829236605,,,31.9300000667572,0,17573.5626986089,17654.2698553861
2011-06-01T05:06:43Z,1306904803,1EF07,55.4039248,25.6340558,1402.87,0,-4.3,35.3,-84480.16,-58808.43,36,Weapon+Missile,Blue,Enemies,AIM-120B,,us,,211.411544016289,198.822647094727,0.631093042420824,1402.86926269531,1402.86926269531,210.79059598095,-16.1915283203125,0.0514364610351248,NaN,0.199987938897973,1.07091571197176,5000,1.10053980350494,1.10053980350494,1.10053980350494,2234.74204716757,1375.7447855011,3610.48683266867,,,32.9300000667572,0,17785.0060849008,17866.378917041
2011-06-01T05:06:44Z,1306904804,1EF07,55.4051177,25.6355513,1387.48,-0.1,-4.3,36.4,-84358.4,-58644.23,37.1,Weapon+Missile,Blue,Enemies,AIM-120B,,us,,205.003326067786,192.856063842773,0.61185413306169,1387.47998046875,1387.47998046875,204.424885205804,-15.3892822265625,0.0433078908473685,NaN,0,1.06335031697062,5000,1.09466743469238,1.09466743469238,1.09466743469238,2101.31818494275,1360.65305504639,3461.97123998914,,,33.9300000667572,0,17990.0598152597,18072.054047684
2011-06-01T05:06:45Z,1306904805,1EF07,55.4063006,25.6369768,1372.87,-0.3,-4.2,37.5,-84237.73,-58487.76,38.2,Weapon+Missile,Blue,Enemies,AIM-120B,,us,,198.13548189724,186.444396972656,0.591255910611692,1372.86840820312,1372.86840820312,197.595979570886,-14.611572265625,0.0256798016476851,NaN,0.200042580411333,1.07105284936369,5000,1.09565937519073,1.09565937519073,1.09565937519073,1962.88345933259,1346.32399753052,3309.2074568631,,,34.9300000667572,0,18188.2394203609,18270.8143389286
2011-06-01T05:06:46Z,1306904806,1EF07,55.4074861,25.6383507,1358.89,-0.4,-4.1,38.6,-84116.87,-58337.03,39.3,Weapon+Missile,Blue,Enemies,AIM-120B,,us,,193.709099793414,182.349548339844,0.57795328261596,1358.89074707031,1358.89074707031,193.204141601652,-13.9776611328125,0.0362267320271427,NaN,0.199987938897973,1.07897245370632,5000,1.10290861129761,1.10290861129761,1.10290861129761,1876.16076713875,1332.61659447571,3208.77736161446,,,35.9300000667572,0,18382.0086071815,18465.1284034657
2011-06-01T05:06:47Z,1306904807,1EF07,55.4086628,25.6396639,1345.78,-0.5,-3.9,39.5,-83996.96,-58192.98,40.3,Weapon+Missile,Blue,Enemies,AIM-120B,,us,,187.882810486494,176.914352416992,0.560484545386143,1345.78295898438,1345.78295898438,187.425015320255,-13.1077880859375,0.0559364542115054,NaN,0.153815860108687,0.978523849790703,5000,1.15262258052826,1.15262258052826,1.15262258052826,1764.99752381518,1319.76224547241,3084.7597692876,,,36.9300000667572,0,18569.9313115632,18653.5474416663
2011-06-01T05:06:48Z,1306904808,1EF07,55.409829,25.6409107,1333.94,-1,-3.3,42.1,-83878.21,-58056.3,42.8,Weapon+Missile,Blue,Enemies,AIM-120B,,us,,181.447289743522,170.889312744141,0.54121193673494,1333.94152832031,1333.94152832031,181.06048568116,-11.8414306640625,0.0309358006144639,NaN,0.769243225083516,2.9734295803942,2247.91782042379,1.93131947517395,1.93131947517395,1.93131947517395,1646.15594776347,1308.14976887024,2954.30571663371,,,37.9300000667572,0,18751.4844541844,18835.5243991795
2011-06-01T05:06:49Z,1306904809,1EF07,55.4110454,25.6420201,1325.6,-1.7,-2.4,47.6,-83754.61,-57934.88,48.3,Weapon+Missile,Blue,Enemies,AIM-120B,,us,,173.462493453151,163.365753173828,0.517345190596678,1325.60083007812,1325.60083007812,173.261852084691,-8.3406982421875,0.315656947633074,NaN,0.384621612541758,4.39579022150973,2818.48153054073,1.41454529762268,1.41454529762268,1.41454529762268,1504.46183174923,1299.97033802856,2804.4321697778,,,38.9300000667572,0,18925.129146026,19009.4054518585
2011-06-01T05:06:50Z,1306904810,1EF07,55.4122736,25.6430104,1316.83,-0.8,-3.4,47.5,-83629.99,-57826.66,48.2,Weapon+Missile,Blue,Enemies,AIM-120B,,us,,165.278182473858,155.658935546875,0.492885604807322,1316.82690429688,1316.82690429688,165.045132700868,-8.77392578125,0.266577572794149,NaN,0.676919984959277,1.33282465178119,5000,0.900111138820648,0.900111138820648,0.900111138820648,1365.8438800931,1291.3660561023,2657.20993619539,,,39.9300000667572,0,19090.4960582933,19175.0391682616
2011-06-01T05:06:51Z,1306904811,1EF07,55.4134422,25.6439807,1307.11,-0.4,-3.8,47.7,-83511.35,-57720.59,48.4,Weapon+Missile,Blue,Enemies,AIM-120B,,us,,159.439461371182,150.186889648438,0.475420005746158,1307.10925292969,1307.10925292969,159.143046012819,-9.7176513671875,0.0543529703755869,NaN,0.569251070678164,0.628082424846393,5000,0.867514133453369,0.867514133453369,0.867514133453369,1271.04709211662,1281.83629552429,2552.88338764092,,,40.9300000667572,0,19249.9305081434,19334.8022272688
2011-06-01T05:06:52Z,1306904812,1EF07,55.4145884,25.6449203,1296.32,-0.5,-3.6,47.4,-83395.02,-57617.89,48.1,Weapon+Missile,Blue,Enemies,AIM-120B,,us,,155.552741410226,146.573623657227,0.463772427969278,1296.31616210938,1296.31616210938,155.177848131688,-10.7930908203125,0.209052339806899,NaN,0.60001845820728,0.982814489249941,3667.46904829995,1.31248128414154,1.31248128414154,1.31248128414154,1209.83276801184,1271.25188911499,2481.08465712683,,,41.9300000667572,0,19405.4113308161,19490.688870333
2011-06-01T05:06:53Z,1306904813,1EF07,55.4156534,25.645869,1287.32,-0.1,-3.4,43.1,-83286.84,-57514.1,43.8,Weapon+Missile,Blue,Enemies,AIM-120B,,us,,150.186093703255,141.542739868164,0.447725351784065,1287.32458496094,1287.32458496094,149.916691139534,-8.9915771484375,0.135764223573791,NaN,0.60001845820728,3.65379176725175,1859.63413714531,1.49336910247803,1.49336910247803,1.49336910247803,1127.79313709214,1262.43416411072,2390.22730120286,,,42.9300000667572,0,19555.6548832615,19641.2316161079
2011-06-01T05:06:54Z,1306904814,1EF07,55.4165832,25.6468423,1277.66,1,-4.7,38.5,-83192.21,-57407.41,39.2,Weapon+Missile,Blue,Enemies,AIM-120B,,us,,142.942666245219,134.736343383789,0.426083961949161,1277.66296386719,1277.66296386719,142.615773710809,-9.66162109375,0.163415621537805,NaN,1.33846179900227,4.65842977811694,1770.52084522172,1.23982214927673,1.23982214927673,1.23982214927673,1021.6302916646,1252.95935046082,2274.58964212542,,,43.9300000667572,0,19698.6455507074,19784.5770076654
2011-06-01T05:06:55Z,1306904815,1EF07,55.4173931,25.6478335,1264.58,1.9,-6,35.2,-83109.57,-57298.59,35.9,Weapon+Missile,Blue,Enemies,AIM-120B,,us,,137.267898827382,129.437606811523,0.409106547769476,1264.58081054688,1264.58081054688,136.643087322368,-13.0821533203125,0.663616951046999,NaN,0.600015043112695,1.93805465104689,5000,1.01700615882874,1.01700615882874,1.01700615882874,942.123802424222,1240.13014057495,2182.25394299917,,,44.9300000667572,0,19835.6920831522,19922.2737095236
2011-06-01T05:06:56Z,1306904816,1EF07,55.4181844,25.6487813,1252.17,0.6,-5,38.8,-83028.88,-57194.56,39.5,Weapon+Missile,Blue,Enemies,AIM-120B,,us,,132.239682839007,124.745239257812,0.394064036057857,1252.17468261719,1252.17468261719,131.656453344123,-12.4061279296875,0.679563021038501,NaN,1.0923384935818,1.43644929366086,3284.44458119233,0.753021478652954,0.753021478652954,0.753021478652954,874.366685868055,1227.96388512878,2102.33057099684,,,45.9300000667572,0,19967.7380885618,20054.9271692619
2011-06-01T05:06:57Z,1306904817,1EF07,55.4189761,25.6496736,1236.68,2.5,-9.1,38.8,-82948.21,-57096.67,39.5,Weapon+Missile,Blue,Enemies,AIM-120B,,us,,127.783363527774,120.60986328125,0.380716198144979,1236.67993164062,1236.67993164062,126.840453667769,-15.4947509765625,0.0483170190767991,NaN,1.90769275263889,3.03400930290739,1752.96910724488,0.050003744661808,0.050003744661808,0.050003744661808,816.42939972356,1212.76872516235,2029.19812488591,,,46.9300000667572,0,20094.9333120651,20183.0873267721
2011-06-01T05:06:58Z,1306904818,1EF07,55.4197404,25.6505337,1212.59,4,-13.2,38.9,-82870.34,-57002.32,39.6,Weapon+Missile,Blue,Enemies,AIM-120B,,us,,124.680295798773,117.802764892578,0.371367335355406,1212.58850097656,1212.58850097656,122.330614030292,-24.0914306640625,0.0314957091884452,NaN,1.53846126384447,4.14642513755444,1726.94286181061,0.0679118633270264,0.0679118633270264,0.0679118633270264,777.258808023483,1189.14310231018,1966.40191033366,,,47.9300000667572,0,20217.6041794111,20308.1245928909
2011-06-01T05:06:59Z,1306904819,1EF07,55.4204778,25.6513608,1180.41,5.3,-17.4,39,-82795.22,-56911.59,39.7,Weapon+Missile,Blue,Enemies,AIM-120B,,us,,122.116610243983,115.547058105469,0.36359583903092,1180.41296386719,1180.41296386719,117.801533560494,-32.175537109375,0.0681052465719798,NaN,1.13846190727325,4.06795394795381,1722.18677357028,0.0866734012961388,0.0866734012961388,0.0866734012961388,745.623324874044,1157.58967921082,1903.21300408486,,,48.9300000667572,0,20335.732197228,20430.5775623688
2011-06-01T05:07:00Z,1306904820,1EF07,55.4211852,25.6521503,1140.88,6.3,-21.3,39.2,-82723.15,-56824.98,39.8,Weapon+Missile,Blue,Enemies,AIM-120B,,us,,119.403442997748,113.182716369629,0.355355027066668,1140.87536621094,1140.87536621094,112.667477877554,-39.53759765625,0.038553096813836,NaN,0.969231163981489,4.00042045253531,1723.40988254265,0.0979420691728592,0.0979420691728592,0.0979420691728592,712.859109985828,1118.81654100525,1831.67565099108,,,49.9300000667572,0,20448.7084212749,20550.2917825079
2011-06-01T05:07:01Z,1306904821,1EF07,55.4218744,25.6529142,1093.8,7,-25.3,39.4,-82652.95,-56741.21,40.1,Weapon+Missile,Blue,Enemies,AIM-120B,,us,,119.010820446881,113.061904907227,0.353993980076178,1093.79614257812,1093.79614257812,109.302891478548,-47.0792236328125,0.0386546058483201,NaN,0.615385530066163,3.90817618647335,1773.86520104286,0.105179913341999,0.105179913341999,0.105179913341999,708.178769171983,1072.64759416138,1780.82636333336,,,50.9300000667572,0,20558.3170369314,20669.6010930685
2011-06-01T05:07:02Z,1306904822,1EF07,55.4225429,25.6536483,1039.75,7.5,-29,39.6,-82584.87,-56660.69,40.3,Weapon+Missile,Blue,Enemies,AIM-120B,,us,,118.484738291191,112.84986114502,0.35220945300887,1039.74768066406,1039.74768066406,105.439067582449,-54.0484619140625,0.0292628324351985,NaN,0.492308082543472,3.75382586406211,1870.01128991974,0.123997800052166,0.123997800052166,0.123997800052166,701.931660396606,1019.64415925842,1721.57581965503,,,51.9300000667572,0,20664.041782079,20788.3558712123
2011-06-01T05:07:03Z,1306904823,1EF07,55.4231928,25.6543543,979.13,7.6,-32,39.9,-82518.7,-56583.26,40.6,Weapon+Missile,Blue,Enemies,AIM-120B,,us,,118.528687478327,113.217468261719,0.352094061597589,979.126098632812,979.126098632812,101.853196058657,-60.62158203125,0.388957103653545,NaN,0.230751110919711,2.07741249478654,5000,0.734288394451141,0.734288394451141,0.734288394451141,702.452487766743,960.194695515747,1662.64718328249,,,52.9300000667572,0,20766.1671611922,20907.1324295499
2011-06-01T05:07:04Z,1306904824,1EF07,55.4238347,25.655061,917.44,6.4,-30.8,39,-82453.33,-56505.75,39.7,Weapon+Missile,Blue,Enemies,AIM-120B,,us,,118.681575717687,113.695335388184,0.352298078510321,917.441528320312,917.441528320312,101.391963193319,-61.6845703125,0.0551612087729311,NaN,0.938467991959752,0.599304863521573,5000,1.08659851551056,1.08659851551056,1.08659851551056,704.265820741653,899.702796370239,1603.96861711189,,,53.9300000667572,0,20867.8385354025,21026.0657240908
2011-06-01T05:07:05Z,1306904825,1EF07,55.4244751,25.6557885,857.21,5.6,-29.9,38.1,-82388.06,-56425.95,38.8,Weapon+Missile,Blue,Enemies,AIM-120B,,us,,119.401673232379,114.713722229004,0.354190424475591,857.210754394531,857.210754394531,103.097106860441,-60.2307739257812,0,NaN,0.630781630229018,1.17146516789934,5000,1.03746211528778,1.03746211528778,1.03746211528778,712.837978534587,840.636584458313,1553.4745629929,,,54.9300000667572,0,20971.2268054074,21145.7313200355
2011-06-01T05:07:06Z,1306904826,1EF07,55.4251088,25.6565325,798.16,5.1,-29.2,37.2,-82323.47,-56344.28,37.9,Weapon+Missile,Blue,Enemies,AIM-120B,,us,,119.70266010403,115.324913024902,0.354842731500426,798.156921386719,798.156921386719,104.121907603858,-59.0538330078125,0.0656055737012746,NaN,0.446147956585233,1.12540770822206,5000,1.00654947757721,1.00654947757721,1.00654947757721,716.436341799051,782.724557311707,1499.16089911076,,,55.9300000667572,0,21075.6460252388,21265.7044782174
2011-06-01T05:07:07Z,1306904827,1EF07,55.4257292,25.6572871,740.35,4.7,-28.8,36.2,-82260.17,-56261.45,36.9,Weapon+Missile,Blue,Enemies,AIM-120B,,us,,119.203161181631,115.155723571777,0.353128050103641,740.354614257812,740.354614257812,104.251076379429,-57.8023071289062,0.0222488816585453,NaN,0.199987938897973,0.941835595385686,5000,0.971945285797119,0.971945285797119,0.971945285797119,710.469681784697,726.039857791138,1436.50953957583,,,56.9300000667572,0,21180.2003521404,21385.1839786581
2011-06-01T05:07:08Z,1306904828,1EF07,55.4263388,25.6580551,683.13,4.4,-28.4,35.2,-82197.98,-56177.11,35.9,Weapon+Missile,Blue,Enemies,AIM-120B,,us,,119.397921268371,115.655418395996,0.353473452756904,683.132263183594,683.132263183594,104.792490860496,-57.2223510742188,0.0628718275675824,NaN,0.323095268498283,0.871018379801995,5000,0.954310774803162,0.954310774803162,0.954310774803162,712.793180160411,669.923900874939,1382.71708103535,,,57.9300000667572,0,21285.3244779108,21504.8833764169
2011-06-01T05:07:09Z,1306904829,1EF07,55.4269326,25.6588305,626.69,4.3,-28.3,34.3,-82137.34,-56091.93,35,Weapon+Missile,Blue,Enemies,AIM-120B,,us,,118.812853601442,115.393127441406,0.351514536650642,626.688415527344,626.688415527344,104.549444009405,-56.44384765625,0.0156803994446136,NaN,0.169224766876236,0.897793254956974,5000,0.936400413513184,0.936400413513184,0.936400413513184,705.824709045887,614.571395013123,1320.39610405901,,,58.9300000667572,0,21390.2023224232,21623.9947913353
2011-06-01T05:07:10Z,1306904830,1EF07,55.4275129,25.6596151,570.64,4.1,-28,33.3,-82078.06,-56005.72,34,Weapon+Missile,Blue,Enemies,AIM-120B,,us,,118.695783941478,115.583190917969,0.350943580632861,570.640014648438,570.640014648438,104.629182757008,-56.0484008789062,0.129991245137393,NaN,0.199987938897973,0.818129877181059,5000,0.923067510128021,0.923067510128021,0.923067510128021,704.4344562741,559.60668996521,1264.04114623931,,,59.9300000667572,0,21495.1774808872,21743.0043535926
2011-06-01T05:07:11Z,1306904831,1EF07,55.4280768,25.660404,515.13,4,-28.1,32.5,-82020.41,-55919,33.2,Weapon+Missile,Blue,Enemies,AIM-120B,,us,,118.003091815132,115.20694732666,0.348674813228468,515.133056640625,515.133056640625,104.133122927575,-55.5069580078125,0.0694035559560325,NaN,0.0307631720217374,0.771598039521584,5000,0.915201902389526,0.915201902389526,0.915201902389526,696.236483896524,505.172958990478,1201.409442887,,,60.9300000667572,0,21599.6515537572,21861.3162821508
2011-06-01T05:07:12Z,1306904832,1EF07,55.4286317,25.6612058,459.46,3.9,-28,31.7,-81963.65,-55830.85,32.4,Weapon+Missile,Blue,Enemies,AIM-120B,,us,,118.708067447727,116.198722839355,0.350535607361574,459.461517333984,459.461517333984,104.844098491061,-55.6715393066406,0.0214872481869203,NaN,0.0769352508110236,0.725251950991021,5000,0.903372824192047,0.903372824192047,0.903372824192047,704.580263858708,450.577828896332,1155.15809275504,,,61.9300000667572,0,21704.850762585,21980.345206937
2011-06-01T05:07:13Z,1306904833,1EF07,55.42917,25.6620076,404.36,3.7,-27.9,30.9,-81908.55,-55742.7,31.6,Weapon+Missile,Blue,Enemies,AIM-120B,,us,,117.657826835393,115.466682434082,0.347216687388997,404.356903076172,404.356903076172,103.955979641024,-55.1046142578125,0.0446918127325765,NaN,0.199987938897973,0.635515911819188,5000,0.903551995754242,0.903551995754242,0.903551995754242,692.168210781366,396.538662355194,1088.70687313656,,,62.9300000667572,0,21809.1703430206,22098.330660694
2011-06-01T05:07:14Z,1306904834,1EF07,55.4296975,25.6628157,349.33,3.5,-27.9,30.2,-81854.55,-55653.81,30.9,Weapon+Missile,Blue,Enemies,AIM-120B,,us,,117.665759485324,115.771743774414,0.347023170374972,349.333831787109,349.333831787109,104.008137091175,-55.0230712890625,0.041470012631983,NaN,0.153815860108687,0.592160485649739,5000,0.890787124633789,0.890787124633789,0.890787124633789,692.261547762901,342.579462149506,1034.84100991241,,,63.9300000667572,0,21913.5470710335,22216.3278095667
2011-06-01T05:07:15Z,1306904835,1EF07,55.430214,25.6636277,294.4,3.3,-27.8,29.7,-81801.62,-55564.48,30.4,Weapon+Missile,Blue,Enemies,AIM-120B,,us,,117.462498076167,115.868583679199,0.346207903445776,294.3984375,294.3984375,103.824567944266,-54.9353942871094,0.026935515133637,NaN,0.399975877795947,0.555677723889204,5000,0.908263981342316,0.908263981342316,0.908263981342316,689.871922714682,288.706243710937,978.57816642562,,,64.9300000667572,0,22017.7375442582,22334.1185049668
2011-06-01T05:07:16Z,1306904836,1EF07,55.4307214,25.6644446,239.65,3.1,-27.8,29.1,-81749.62,-55474.61,29.8,Weapon+Missile,Blue,Enemies,AIM-120B,,us,,117.382980773098,116.085815429688,0.345759021751093,239.652313232422,239.652313232422,103.834609128443,-54.7461242675781,0.0181966635908972,NaN,0.199987938897973,0.5099538762642,5000,0.884284198284149,0.884284198284149,0.884284198284149,688.938208758878,235.018635756073,923.956844514951,,,65.9300000667572,0,22121.9574956308,22451.8463516281
2011-06-01T05:07:17Z,1306904837,1EF07,55.4312181,25.6652608,185.15,2.9,-27.8,28.6,-81698.68,-55384.79,29.3,Weapon+Missile,Blue,Enemies,AIM-120B,,us,,116.758230048375,115.760711669922,0.343706763380681,185.153076171875,185.153076171875,103.258498167694,-54.4992370605469,0.0431652667634573,NaN,0.199987938897973,0.418015394569729,5000,0.883660554885864,0.883660554885864,0.883660554885864,681.624214201467,181.573141444092,863.197355645559,,,66.9300000667572,0,22225.5872107756,22568.9360607171
2011-06-01T05:07:18Z,1306904838,1EF07,55.4317068,25.6660786,130.73,2.7,-27.9,28.2,-81648.55,-55294.8,28.9,Weapon+Missile,Blue,Enemies,AIM-120B,,us,,116.509516626195,115.806610107422,0.34276373561456,130.729995727539,130.729995727539,103.017453761093,-54.4230804443359,0.0456709073666135,NaN,0.261568924454808,0.330580088611559,5000,0.88165694475174,0.88165694475174,0.88165694475174,678.72337322348,128.202331260147,806.925704483627,,,67.9300000667572,0,22328.9891615995,22685.7879526776
2011-06-01T05:07:19Z,1306904839,1EF07,55.4321854,25.6668923,76.71,2.5,-27.8,27.9,-81599.44,-55205.23,28.6,Weapon+Missile,Blue,Enemies,AIM-120B,,us,,115.553299950387,115.144638061523,0.33974339425547,76.711540222168,76.711540222168,102.149750828077,-54.0184555053711,0.0623516501367845,NaN,0.323095268498283,0.323247827176698,5000,0.88421368598938,0.88421368598938,0.88421368598938,667.628256471202,75.2283225919723,742.856579063174,,,68.9300000667572,0,22431.5180251963,22801.6780010181
2011-06-01T05:07:20Z,1306904840,1EF07,55.4326606,25.6677118,22.46,2.3,-27.8,27.5,-81550.66,-55115.02,28.2,Weapon+Missile,Blue,Enemies,AIM-120B,,us,,116.019791475737,115.901054382324,0.340906365702497,22.4553833007812,22.4553833007812,102.55175010791,-54.2561569213867,0.0934688502166559,NaN,0.184579032130425,0.292920239797107,5000,0.880741775035858,0.880741775035858,0.880741775035858,673.029600703673,22.0212084646606,695.050809168333,,,69.9300000667572,0,22534.4418924145,22918.0275507029
