ISOTime,UnixTime,Id,Longitude,Latitude,Altitude,Roll,Pitch,Yaw,U,V,Heading,Type,Color,Coalition,Name,Group,Country,Pilot,TAS,CAS,M,ASL,AGL,GS,VS,AOA,AOS,RRT,TRT,TRD,G,LatG,LonG,Ek,Ep,Em,FFW,FFV,RelativeTime,Elev,GroundDistance,AirDistance
2011-06-01T04:59:42Z,1306904382,204,55.4770031,25.4620273,9890.37,4.5,-1,48.3,-77360.94,-77949.01,49,Weapon+Missile,Blue,Enemies,R-27ET,,cn,,352.101833108071,228.710601806641,1.17322340696759,9890.369140625,9888.369140625,NaN,NaN,NaN,NaN,NaN,NaN,NaN,NaN,NaN,NaN,NaN,9699.13885329102,NaN,,,0.450000047683716,2,NaN,NaN
2011-06-01T04:59:43Z,1306904383,204,55.480956,25.4651908,9870.17,3.5,-0.7,49.6,-76959.46,-77603.16,50.3,Weapon+Missile,Blue,Enemies,R-27ET,,cn,,530.287600496613,346.984588623047,1.76643156328002,9870.1650390625,9868.1650390625,529.902569837614,-20.2041015625,1.11437265840409,NaN,0.969231163981489,3.89300984855472,5000,4.17591714859009,4.17591714859009,4.17591714859009,14060.2469620228,9679.32539803223,23739.572360055,,,1.45000004768372,2,530.902845592361,532.108970230287
2011-06-01T04:59:44Z,1306904384,204,55.4871811,25.46968,9856.13,2.7,-0.4,53.6,-76327.88,-77113.05,54.3,Weapon+Missile,Blue,Enemies,R-27ET,,cn,,799.554518305636,497.177307128906,2.66284072884449,9856.130859375,9854.130859375,799.431341356753,-14.0341796875,0.263211223943024,NaN,0.769243225083516,2.97451707457611,5000,4.24201154708862,4.24201154708862,4.24201154708862,31964.3713871479,9665.56256920899,41629.9339563569,,,2.45000004768372,2,1331.6312933281,1334.1984516419
2011-06-01T04:59:45Z,1306904385,204,55.495627,25.4752297,9848.11,2.4,-0.5,53.8,-75471.77,-76508,54.5,Weapon+Missile,Blue,Enemies,R-27ET,,cn,,1048.37592470413,633.504760742188,3.49111184731289,9848.1142578125,9847.75667127967,1048.34527403839,-8.0166015625,0.050420137270439,NaN,0.261568924454808,1.1318673596296,5000,1.06439983844757,1.06439983844757,1.06439983844757,54954.6039749622,9657.7009686377,64612.3049435999,,,3.45000004768372,0.357586532831192,2381.4427860871,2385.66211830762
2011-06-01T04:59:46Z,1306904386,204,55.5045323,25.4811659,9837.09,2.1,-0.6,53.6,-74569.04,-75860.59,54.2,Weapon+Missile,Blue,Enemies,R-27ET,,cn,,1110.93735005138,668.419067382812,3.6988524627301,9837.087890625,9835.087890625,1110.8826287983,-11.0263671875,0.0360266807810803,NaN,0.199987938897973,0.441908410142638,5000,0.894930243492126,0.894930243492126,0.894930243492126,61709.0897869587,9646.88779625977,71355.9775832185,,,4.45000004768372,2,3493.9039053332,3499.89452256503
2011-06-01T04:59:47Z,1306904387,204,55.513487,25.4871938,9823.13,1.9,-0.8,53.2,-73661.34,-75203.02,53.9,Weapon+Missile,Blue,Enemies,R-27ET,,cn,,1120.94541082981,674.471008300781,3.7314206225423,9823.1259765625,9820.1259765625,1120.85845628077,-13.9619140625,0.0563345178901488,NaN,0.199987938897973,0.420000151492999,5000,1.13032531738281,1.13032531738281,1.13032531738281,62825.9307030201,9633.19583580566,72459.1265388258,,,5.45000004768372,3,4616.40231624882,4624.209643451
2011-06-01T04:59:48Z,1306904388,204,55.5225541,25.49341,9803.75,1.8,-1.1,52.5,-72742.16,-74524.66,53.1,Weapon+Missile,Blue,Enemies,R-27ET,,cn,,1142.55146219057,687.177551269531,3.80227797698079,9803.7490234375,9797.74298524857,1142.38713991423,-19.376953125,0.025574014066985,NaN,0,0.794527251369581,5000,1.92501783370972,1.92501783370972,1.92501783370972,65271.1921876907,9614.19353606934,74885.3857237601,,,6.45000004768372,6.00603818893433,5760.48477365554,5770.21621935432
2011-06-01T04:59:49Z,1306904389,204,55.5316691,25.499869,9777.92,1.8,-1.5,51.6,-71817.98,-73819.41,52.2,Weapon+Missile,Blue,Enemies,R-27ET,,cn,,1162.81640086044,699.4326171875,3.86827344099462,9777.916015625,9777.90953527391,1162.52941374289,-25.8330078125,0.03011954855378,NaN,0,1.08467117935164,5000,2.27233219146729,2.27233219146729,2.27233219146729,67607.0991055012,9588.86000946289,77195.9591149641,,,7.45000004768372,0.00648035109043121,6924.8701742773,6936.67511389244
2011-06-01T04:59:50Z,1306904390,204,55.540693,25.5065169,9743.95,1.7,-1.8,50.1,-70902.85,-73093.08,50.8,Weapon+Missile,Blue,Enemies,R-27ET,,cn,,1168.83943960138,704.105041503906,3.88640411278309,9743.9501953125,9741.9501953125,1168.34582150071,-33.9658203125,0.0863672347251232,NaN,0.199987938897973,1.08935252697574,5000,2.20583367347717,2.20583367347717,2.20583367347717,68309.2817783833,9555.55091828613,77864.8326966694,,,8.45000004768372,2,8095.20004484,8109.28805545777
2011-06-01T04:59:51Z,1306904391,204,55.5496854,25.5133821,9706.36,1.5,-1.9,50,-69990.7,-72342.59,50.7,Weapon+Missile,Blue,Enemies,R-27ET,,cn,,1181.80649243913,712.826904296875,3.92739022363229,9706.3564453125,9704.3564453125,1181.20840478394,-37.59375,0.0358602793814877,NaN,0.199987938897973,0.366910265013254,5000,0.94890022277832,0.94890022277832,0.94890022277832,69833.3292785645,9518.68404344238,79352.0133220068,,,9.45000004768372,2,9278.52177758976,9295.01018609461
2011-06-01T04:59:52Z,1306904392,204,55.5587866,25.5202277,9662.41,1.5,-2.4,50.8,-69067.77,-71594.31,51.5,Weapon+Missile,Blue,Enemies,R-27ET,,cn,,1188.96760469111,718.582458496094,3.94868788102641,9662.40625,9660.40625,1188.1550173849,-43.9501953125,0.0357513203549197,NaN,0.0769230845365645,0.974716339493539,5000,2.56131505966187,2.56131505966187,2.56131505966187,70682.198250246,9475.58362515625,80157.7818754023,,,10.4500000476837,2,10468.7689770081,10487.8745539117
2011-06-01T04:59:53Z,1306904393,204,55.5675856,25.5265636,9605.79,1.7,-3.3,52.5,-68175.89,-70902.12,53.2,Weapon+Missile,Blue,Enemies,R-27ET,,cn,,1130.39571658227,687.837890625,3.75110906450298,9605.7919921875,9604.68835449219,1128.97710423192,-56.6142578125,0.0378473913927615,NaN,0.0153845742186306,1.8873266226378,5000,4.34725570678711,4.34725570678711,4.34725570678711,63889.7238033772,9420.06400401855,73309.7878073957,,,11.4500000476837,1.1036376953125,11599.5942660716,11621.8221042548
2011-06-01T04:59:54Z,1306904394,204,55.5761349,25.5322461,9536.68,1.6,-4,55.1,-67309.99,-70281.97,55.7,Weapon+Missile,Blue,Enemies,R-27ET,,cn,,1067.30553461572,654.856262207031,3.53823809993378,9536.6767578125,9536.6767578125,1065.06534475526,-69.115234375,0.0282180034888483,NaN,0.169224766876236,2.62132799259475,5000,5.17795562744141,5.17795562744141,5.17795562744141,56957.0552110672,9352.2851127002,66309.3403237674,,,12.4500000476837,0,12666.2038420337,12692.2658768153
2011-06-01T04:59:55Z,1306904395,204,55.5844326,25.5372103,9464.95,1.2,-4.1,58.2,-66470.3,-69741.05,58.8,Weapon+Missile,Blue,Enemies,R-27ET,,cn,,1001.40700621663,620.186279296875,3.31636755579283,9464.9521484375,9461.78842926025,998.835107767927,-71.724609375,0.0413839394984862,NaN,0.569255286185543,2.90505703892484,5000,5.17102575302124,5.17102575302124,5.17102575302124,50140.7996049881,9281.94729864746,59422.7469036356,,,13.4500000476837,3.16371917724609,13666.2279106651,13696.344609525
2011-06-01T04:59:56Z,1306904396,204,55.5925339,25.5415363,9397.88,0.8,-4.1,60.6,-65651.15,-69270.56,61.2,Weapon+Missile,Blue,Enemies,R-27ET,,cn,,947.032838844184,591.6669921875,3.13328994001402,9397.8798828125,9397.8798828125,944.654703599788,-67.072265625,0.0246559794165229,NaN,0.230751110919711,2.62026248308423,5000,3.8296275138855,3.8296275138855,3.8296275138855,44843.5598924637,9216.17187527832,54059.731767742,,,14.4500000476837,0,14611.7708149199,14645.6581052869
2011-06-01T04:59:57Z,1306904397,204,55.6003777,25.5453511,9333.2,0.5,-4.2,63,-64858.55,-68856.36,63.6,Weapon+Missile,Blue,Enemies,R-27ET,,cn,,896.637460419682,565.149230957031,2.96381812964496,9333.2001953125,9333.2001953125,894.301556217341,-64.6796875,0.0528074031986428,NaN,0.199987938897973,2.30396837545199,5000,3.82605075836182,3.82605075836182,3.82605075836182,40197.9367713928,9152.74276953613,49350.679540929,,,15.4500000476837,0,15506.7570877287,15544.2892678798
2011-06-01T04:59:58Z,1306904398,204,55.607983,25.5486871,9271.6,0.1,-4.1,65.5,-64090.5,-68494.9,66.1,Weapon+Missile,Blue,Enemies,R-27ET,,cn,,851.091443099356,541.122497558594,2.81079900555108,9271.599609375,9271.599609375,848.859241764559,-61.6005859375,0.0338043081699396,NaN,0.307686361730734,2.50200992387992,5000,4.092116355896,4.092116355896,4.092116355896,36217.8322258472,9092.33323092773,45310.165456775,,,16.4500000476837,0,16356.0969511138,16397.0955793469
2011-06-01T04:59:59Z,1306904399,204,55.6153399,25.55154,9215.43,-0.3,-3.9,68.3,-63348.02,-68186.65,68.9,Weapon+Missile,Blue,Enemies,R-27ET,,cn,,805.88110107839,516.983093261719,2.6593630252139,9215.431640625,9215.431640625,803.92133219726,-56.16796875,0.0464546675820516,NaN,0.446202598098593,2.76667890044427,5000,4.26996994018555,4.26996994018555,4.26996994018555,32472.2174537659,9037.25126985352,41509.4687236194,,,17.4500000476837,0,17160.3334466824,17204.4537893751
2011-06-01T05:00:00Z,1306904400,204,55.622517,25.5539461,9166.43,-0.8,-3.4,71.2,-62624.15,-67927.66,71.8,Weapon+Missile,Blue,Enemies,R-27ET,,cn,,770.365608759108,498.024505615234,2.54039564305502,9166.4326171875,9166.4326171875,768.80574065297,-48.9990234375,0.0595212912062851,NaN,0.400030519309307,2.75110478847617,5000,3.84377574920654,3.84377574920654,3.84377574920654,29673.1585579395,8989.19964253418,38662.3582004737,,,18.4500000476837,0,17929.2898139133,17976.0755507489
2011-06-01T05:00:01Z,1306904401,204,55.6294196,25.5559442,9126.72,-1.2,-2.9,73.2,-61928.35,-67713.53,73.8,Weapon+Missile,Blue,Enemies,R-27ET,,cn,,729.083854114682,475.423553466797,2.4029091321412,9126.7197265625,9126.7197265625,728.001478466168,-39.712890625,0.0631879543115989,NaN,0.200042580411333,2.16381075924921,5000,2.51717519760132,2.51717519760132,2.51717519760132,26578.163316536,8950.25460064941,35528.4179171854,,,19.4500000476837,0,18657.3283593072,18706.2389138584
2011-06-01T05:00:02Z,1306904402,204,55.6361008,25.5576815,9091.34,-1.2,-2.9,74.8,-61255.12,-67528.03,75.4,Weapon+Missile,Blue,Enemies,R-27ET,,cn,,699.218400494877,459.118835449219,2.30332405192904,9091.341796875,9091.341796875,698.32282912822,-35.3779296875,0.0330649056342547,NaN,0.0923441575785724,1.58948448449176,5000,2.08441829681396,2.08441829681396,2.08441829681396,24445.3185795307,8915.56070323242,33360.8792827631,,,20.4500000476837,0,19355.6209548206,19406.423120745
2011-06-01T05:00:03Z,1306904403,204,55.6425776,25.5592014,9057.57,-1.1,-2.9,76.2,-60602.7,-67366.35,76.8,Weapon+Missile,Blue,Enemies,R-27ET,,cn,,673.000822002283,444.763488769531,2.2159002017881,9057.5693359375,9055.5693359375,672.152904700987,-33.7724609375,0.0381480532469706,NaN,0,1.43764116167103,5000,1.94683957099915,1.94683957099915,1.94683957099915,22646.5053207874,8882.44123282715,31528.9465536146,,,21.4500000476837,2,20027.7051509094,20080.3103211412
2011-06-01T05:00:04Z,1306904404,204,55.6488005,25.5605169,9026.1,-1.2,-2.6,77.5,-59976.02,-67227.04,78.1,Weapon+Missile,Blue,Enemies,R-27ET,,cn,,642.752348543533,427.901947021484,2.11536357425481,9026.1005859375,9023.1005859375,641.981541270203,-31.46875,0.053953362175734,NaN,0.138516236367859,1.34539550822689,5000,1.90497756004333,1.90497756004333,1.90497756004333,20656.5290779114,8851.5809311084,29508.1100090198,,,22.4500000476837,3,20669.5735228388,20723.8584775424
2011-06-01T05:00:05Z,1306904405,204,55.6548114,25.5616574,8998.02,-1.1,-2.6,78.9,-59370.86,-67106.85,79.4,Weapon+Missile,Blue,Enemies,R-27ET,,cn,,617.610714594148,413.787506103516,2.03181359407357,8998.0185546875,8994.0185546875,616.971955847564,-28.08203125,0.0599090467364417,NaN,0.0923272955490589,1.33700366033618,5000,1.67691171169281,1.67691171169281,1.67691171169281,19072.1497390747,8824.04186593262,27896.1916050073,,,23.4500000476837,4,21286.4129047111,21342.207424833
2011-06-01T05:00:06Z,1306904406,204,55.6606435,25.5626348,8969.33,-0.9,-2.8,80.3,-58783.85,-67004.52,80.9,Weapon+Missile,Blue,Enemies,R-27ET,,cn,,596.557740466563,401.94287109375,1.96175905299159,8969.3349609375,8963.3349609375,595.867761470745,-28.68359375,0.0564173855282873,NaN,0,1.44429771462573,5000,1.78644990921021,1.78644990921021,1.78644990921021,17794.0568855286,8795.91286946777,26589.9697549963,,,24.4500000476837,6,21882.1191243206,21939.4418995313
2011-06-01T05:00:07Z,1306904407,204,55.6662906,25.5634418,8940.14,-0.6,-3.1,81.8,-58215.63,-66920.86,82.4,Weapon+Missile,Blue,Enemies,R-27ET,,cn,,575.082485559404,389.712097167969,1.89035991897525,8940.14453125,8931.59490966797,574.341173878245,-29.1904296875,0.0405144563741488,NaN,0.400030519309307,1.45812393849654,5000,1.52241659164429,1.52241659164429,1.52241659164429,16535.9932598591,8767.28683673828,25303.2800965974,,,25.4500000476837,8.54962158203125,22456.285229994,22515.1546187184
2011-06-01T05:00:08Z,1306904408,204,55.6717652,25.5641007,8908.09,-0.3,-3.4,83.2,-57664.92,-66853.39,83.7,Weapon+Missile,Blue,Enemies,R-27ET,,cn,,555.757309022581,378.653961181641,1.82601088584606,8908.0927734375,8893.05303955078,554.832291195411,-32.0517578125,0.0406950178771608,NaN,0.107685829671479,1.40144318678237,5000,1.6883100271225,1.6883100271225,1.6883100271225,15443.309326601,8735.85479966309,24179.1641262641,,,26.4500000476837,15.0397338867188,23010.9202886504,23071.4897633699
2011-06-01T05:00:09Z,1306904409,204,55.6770217,25.5646133,8877.33,-0.5,-3.2,84.6,-57136.29,-66801.88,85.2,Weapon+Missile,Blue,Enemies,R-27ET,,cn,,532.026304369107,364.678131103516,1.74728265944578,8877.3310546875,8857.90417480469,531.136239772994,-30.76171875,0.0652396487518817,NaN,0.169224766876236,1.44419600884012,5000,1.8398255109787,1.8398255109787,1.8398255109787,14152.5994270325,8705.68785874512,22858.2872857776,,,27.4500000476837,19.4268798828125,23541.8605644887,23604.0594571496
2011-06-01T05:00:10Z,1306904410,204,55.6821229,25.5649927,8850,-0.8,-2.9,86.1,-56623.4,-66764.96,86.7,Weapon+Missile,Blue,Enemies,R-27ET,,cn,,514.939592734315,354.499389648438,1.69051632654641,8850.00390625,8830.99499511719,514.213974064938,-27.3271484375,0.07770734968807,NaN,0.199987938897973,1.52065442706972,5000,1.99400949478149,1.99400949478149,1.99400949478149,13258.1392082691,8678.88908072266,21937.0282889918,,,28.4500000476837,19.0089111328125,24055.8661352166,24119.5042455167
2011-06-01T05:00:11Z,1306904411,204,55.6870557,25.5652415,8828.17,-1.4,-2.1,87.6,-56127.56,-66742.31,88.2,Weapon+Missile,Blue,Enemies,R-27ET,,cn,,496.833092803453,343.369903564453,1.63057303276864,8828.166015625,8811.92327880859,496.352927499874,-21.837890625,0.0230795540804673,NaN,0.569255286185543,1.74254710280104,5000,2.28877520561218,2.28877520561218,2.28877520561218,12342.1561052322,8657.47342571289,20999.6295309451,,,29.4500000476837,16.2427368164062,24552.0013801491,24616.8067667198
2011-06-01T05:00:12Z,1306904412,204,55.6918101,25.5653582,8814.86,-2.1,-1.1,89.3,-55649.82,-66734.11,89.9,Weapon+Missile,Blue,Enemies,R-27ET,,cn,,477.997970325359,331.355255126953,1.5684640081961,8814.85546875,8803.02838134766,477.812608641767,-13.310546875,0.0353392848586559,NaN,0.72307114629423,1.93873660274684,5000,2.30863881111145,2.30863881111145,2.30863881111145,11424.1029817581,8644.42023826172,20068.5232200198,,,30.4500000476837,11.8270874023438,25029.6120781382,25095.2632252747
2011-06-01T05:00:13Z,1306904413,204,55.6963721,25.5653409,8809.43,-2.4,-0.3,91.2,-55191.54,-66740.53,91.8,Weapon+Missile,Blue,Enemies,R-27ET,,cn,,458.354474804727,318.358062744141,1.50389274166952,8809.427734375,8798.427734375,458.322336650824,-5.427734375,0.043343531827828,NaN,0.199987938897973,1.967063531669,5000,2.17631483078003,2.17631483078003,2.17631483078003,10504.4412286758,8639.09744913086,19143.5386778067,,,31.4500000476837,11,25487.7357783399,25554.0519846334
2011-06-01T05:00:14Z,1306904414,204,55.7007393,25.5651926,8809.58,-2.7,0.2,93.1,-54752.97,-66761.25,93.7,Weapon+Missile,Blue,Enemies,R-27ET,,cn,,439.059457979898,305.175354003906,1.44058746060625,8809.576171875,8796.89326095581,439.059432887975,0.1484375,0.0208621969832652,NaN,0.0461720787892862,2.00307079486942,5000,1.95382487773895,1.95382487773895,1.95382487773895,9638.66038208008,8639.2430165918,18277.9033986719,,,32.4500000476837,12.6829109191895,25926.6047927388,25993.5271912993
2011-06-01T05:00:15Z,1306904415,204,55.7049573,25.5649172,8811.95,-2.6,0.3,95.2,-54329.53,-66795.9,95.8,Weapon+Missile,Blue,Enemies,R-27ET,,cn,,424.867124660148,295.234436035156,1.39406779156048,8811.9482421875,8796.84869384766,424.860502870547,2.3720703125,0.0710604071522421,NaN,0.199987938897973,2.10243275837677,5000,1.95635640621185,1.95635640621185,1.95635640621185,9025.60368084908,8641.56922292481,17667.1729037739,,,33.4500000476837,15.0995483398438,26351.2921891876,26418.8078665184
2011-06-01T05:00:16Z,1306904416,204,55.709005,25.5645088,8814.7,-2.4,0.4,97.6,-53923.34,-66845.09,98.2,Weapon+Missile,Blue,Enemies,R-27ET,,cn,,409.165048817986,284.026763916016,1.34259827916993,8814.7001953125,8800.17593383789,409.155794200965,2.751953125,0.0563343322108039,NaN,0.200042580411333,2.56551382113152,5000,2.29074287414551,2.29074287414551,2.29074287414551,8370.80185871124,8644.26796703613,17015.0698257474,,,34.4500000476837,14.5242614746094,26760.2996556911,26828.3897456675
2011-06-01T05:00:17Z,1306904417,204,55.7128432,25.5639422,8817.46,-2.2,0.4,100.7,-53538.37,-66911.59,101.3,Weapon+Missile,Blue,Enemies,R-27ET,,cn,,390.682418109147,270.566223144531,1.28200063733084,8817.4560546875,8804.61439704895,390.672698123014,2.755859375,0.3717496701697,NaN,0.169220498008005,2.14996297759383,5000,1.37117695808411,1.37117695808411,1.37117695808411,7631.63759098053,8646.97054187012,16278.6081328506,,,35.4500000476837,12.8416576385498,27150.8605416204,27219.5001874998
2011-06-01T05:00:18Z,1306904418,204,55.7165415,25.5633157,8820.19,-2.1,0.4,100.3,-53167.51,-66984.57,100.9,Weapon+Missile,Blue,Enemies,R-27ET,,cn,,377.982606053673,261.140960693359,1.24037456479244,8820.1865234375,8807.1865234375,377.972743752154,2.73046875,0.0213184662090176,NaN,0.199987938897973,0.377166434382263,5000,1.05621457099915,1.05621457099915,1.05621457099915,7143.5425239563,8649.64821700684,15793.1907409631,,,36.4500000476837,13,27528.7477107206,27597.9196985511
2011-06-01T05:00:19Z,1306904419,204,55.7201252,25.5627401,8822.77,-1.9,0.4,99.8,-52808.1,-67051.8,100.3,Weapon+Missile,Blue,Enemies,R-27ET,,cn,,365.64868442607,251.868759155273,1.19994363465145,8822.7744140625,8805.76019287109,365.639526370753,2.587890625,0.0312555028152124,NaN,0.199987938897973,0.56924600139714,5000,1.05457043647766,1.05457043647766,1.05457043647766,6684.94802112579,8652.1860707666,15337.1340918924,,,37.4500000476837,17.0142211914062,27894.288910633,27963.9756194396
2011-06-01T05:00:20Z,1306904420,204,55.7236088,25.5622121,8825.21,-1.7,0.4,99.2,-52458.69,-67113.65,99.7,Weapon+Missile,Blue,Enemies,R-27ET,,cn,,354.85453287637,243.665573120117,1.16456051115561,8825.2109375,8801.556640625,354.84616787623,2.4365234375,0.0577430782603096,NaN,0.353824716460994,0.540866085148061,5000,1.01114284992218,1.01114284992218,1.01114284992218,6296.08697514534,8654.57548402344,14950.6624591688,,,38.4500000476837,23.654296875,28249.0296190582,28319.2154586708
2011-06-01T05:00:21Z,1306904421,204,55.726973,25.5617319,8827.09,-1.4,0.3,98.7,-52121.23,-67170.07,99.2,Weapon+Missile,Blue,Enemies,R-27ET,,cn,,342.142626959532,233.930892944336,1.12287230014208,8827.091796875,8806.79983139038,342.137457099893,1.880859375,0.0425882127885312,NaN,0.276927458577228,0.529069601399508,5000,1.00089132785797,1.00089132785797,1.00089132785797,5853.07885913849,8656.41997698242,14509.4988361209,,,39.4500000476837,20.2919654846191,28591.0715191647,28661.7358450955
2011-06-01T05:00:22Z,1306904422,204,55.7302396,25.5612947,8828.38,-1.2,0.2,98.1,-51793.52,-67221.64,98.7,Weapon+Missile,Blue,Enemies,R-27ET,,cn,,331.746310987566,225.922088623047,1.08877251197233,8828.3798828125,8812.22023391724,331.743810324287,1.2880859375,0.00892433114765508,NaN,0.230763704080993,0.559100662519585,5000,0.999656975269318,0.999656975269318,0.999656975269318,5502.78074269295,8657.68315777832,14160.4639004713,,,40.4500000476837,16.1596488952637,28922.7128327347,28993.8386687203
2011-06-01T05:00:23Z,1306904423,204,55.7333967,25.5608976,8829.2,-0.9,0.1,97.6,-51476.78,-67268.64,98.2,Weapon+Missile,Blue,Enemies,R-27ET,,cn,,320.215171440308,217.02214050293,1.0509400423342,8829.197265625,8812.197265625,320.214128210927,0.8173828125,0.0354453122281959,NaN,0.169220498008005,0.521994966162403,5000,1.00228714942932,1.00228714942932,1.00228714942932,5126.8878010273,8658.48473649414,13785.3725375214,,,41.4500000476837,17,29242.8221260114,29314.392108009
2011-06-01T05:00:24Z,1306904424,204,55.7364692,25.5605349,8829.67,-0.8,0.1,97.1,-51168.48,-67311.77,97.7,Weapon+Missile,Blue,Enemies,R-27ET,,cn,,311.296022816565,210.148773193359,1.02167429938424,8829.666015625,8812.39227676392,311.295669894152,0.46875,0.048364334249338,NaN,0.0615347750582316,0.472095044829318,5000,1.01069116592407,1.01069116592407,1.01069116592407,4845.26069107056,8658.94442321289,13504.2051142834,,,42.4500000476837,17.273738861084,29554.0126394967,29626.0137636921
2011-06-01T05:00:25Z,1306904425,204,55.7394386,25.5602077,8829.86,-0.6,0,96.7,-50870.52,-67350.84,97.2,Weapon+Missile,Blue,Enemies,R-27ET,,cn,,300.518374500144,201.92529296875,0.98630475282769,8829.8623046875,8809.03314208984,300.518310395244,0.1962890625,0.0376962530893965,NaN,0.200042580411333,0.47188779127669,5000,1.01583814620972,1.01583814620972,1.01583814620972,4515.56467061043,8659.13691702637,13174.7015876368,,,43.4500000476837,20.8291625976562,29854.4308811717,29926.847962356
2011-06-01T05:00:26Z,1306904426,204,55.7423236,25.5599134,8829.86,-0.5,0,96.1,-50581,-67386.18,96.7,Weapon+Missile,Blue,Enemies,R-27ET,,cn,,291.668886998763,195.219650268555,0.957260607041715,8829.8603515625,8805.94521903992,291.668886992223,-0.001953125,0.0267293523724927,NaN,0.199987938897973,0.51945840465939,5000,1.02266788482666,1.02266788482666,1.02266788482666,4253.53698215485,8659.13500166504,12912.6719838199,,,44.4500000476837,23.915132522583,30145.9973923768,30218.8181168046
2011-06-01T05:00:27Z,1306904427,204,55.7451138,25.5596526,8829.72,-0.4,0,95.6,-50300.95,-67417.72,96.1,Weapon+Missile,Blue,Enemies,R-27ET,,cn,,281.817290082007,187.827545166016,0.924925700184395,8829.7177734375,8805.30072021484,281.817254015159,-0.142578125,0.049011049095909,NaN,0.199987938897973,0.569331965731147,5000,1.02759695053101,1.02759695053101,1.02759695053101,3971.04924945831,8658.99518028809,12630.0444297464,,,45.4500000476837,24.4170532226562,30427.7113410925,30500.9221017566
2011-06-01T05:00:28Z,1306904428,204,55.7478218,25.5594231,8829.49,-0.4,-0.1,95.1,-50029.14,-67445.7,95.6,Weapon+Missile,Blue,Enemies,R-27ET,,cn,,273.24547325531,181.457061767578,0.896790087963419,8829.490234375,8805.06574630737,273.245378516258,-0.2275390625,0.056992584828437,NaN,0.0615347750582316,0.571561648969186,5000,1.03300905227661,1.03300905227661,1.03300905227661,3733.15443272591,8658.77204069336,12391.9264734193,,,46.4500000476837,24.424488067627,30700.8580007611,30774.4469879315
2011-06-01T05:00:29Z,1306904429,204,55.7504576,25.5592235,8829.24,-0.3,-0.1,94.5,-49764.55,-67470.3,95,Weapon+Missile,Blue,Enemies,R-27ET,,cn,,265.730503432918,175.918228149414,0.872122935145063,8829.240234375,8804.27085876465,265.730385832543,-0.25,0.0516952298669298,NaN,0,0.571647239777222,5000,1.03704297542572,1.03704297542572,1.03704297542572,3530.6350227356,8658.52687444336,12189.161897179,,,47.4500000476837,24.9693756103516,30966.4898934524,31040.4467169228
2011-06-01T05:00:30Z,1306904430,204,55.7530177,25.5590536,8829.01,-0.3,0,93.9,-49507.53,-67491.53,94.4,Weapon+Missile,Blue,Enemies,R-27ET,,cn,,257.895314143648,170.187896728516,0.846405190503989,8829.005859375,8805.0903377533,257.895207643745,-0.234375,0.207598879299908,NaN,0,0.583756791649685,5000,0.663978636264801,0.663978636264801,0.663978636264801,3325.49965286255,8658.29703108398,11983.7966839465,,,48.4500000476837,23.9155216217041,31224.2812851899,31298.5950703436
2011-06-01T05:00:31Z,1306904431,204,55.7554934,25.5589033,8825.28,1.3,-1.9,93.8,-49258.98,-67510.52,94.4,Weapon+Missile,Blue,Enemies,R-27ET,,cn,,249.306490971314,163.988815307617,0.818174058936706,8825.279296875,8802.279296875,249.278637617352,-3.7265625,0.0730890929300818,NaN,1.73846168918202,1.39366957773325,5000,0.117803625762463,0.117803625762463,0.117803625762463,3107.68632202148,8654.64252166992,11762.3288436914,,,49.4500000476837,23,31473.4690291239,31548.1555073476
2011-06-01T05:00:32Z,1306904432,204,55.7579097,25.5587567,8813.1,2.7,-3.9,93.8,-49016.38,-67529.02,94.4,Weapon+Missile,Blue,Enemies,R-27ET,,cn,,243.611072132374,159.991424560547,0.799346036639197,8813.1015625,8790.85183525085,243.306508854524,-12.177734375,0.071251951061514,NaN,1.47692382074359,2.00770934708951,5000,0.151355803012848,0.151355803012848,0.151355803012848,2967.31772327423,8642.70024378906,11610.0179670633,,,50.4500000476837,22.2497272491455,31716.6773440775,31792.0043776926
2011-06-01T05:00:33Z,1306904433,204,55.7602559,25.5586145,8793.09,3.9,-5.9,93.8,-48780.81,-67546.98,94.4,Weapon+Missile,Blue,Enemies,R-27ET,,cn,,237.096339261784,155.49365234375,0.77775098476377,8793.087890625,8770.32127189636,236.250136570159,-20.013671875,0.0524124926549503,NaN,1.16923020193686,1.97699355950514,5000,0.188515305519104,0.188515305519104,0.188515305519104,2810.73370456696,8623.07353625977,11433.8072408267,,,51.4500000476837,22.7666187286377,31952.830371713,32029.3287301481
2011-06-01T05:00:34Z,1306904434,204,55.7625473,25.5584756,8765.69,4.8,-7.7,93.8,-48550.75,-67564.51,94.4,Weapon+Missile,Blue,Enemies,R-27ET,,cn,,232.345736497033,152.334548950195,0.761874485371018,8765.6923828125,8742.6445941925,230.725003890007,-27.3955078125,0.049037723106139,NaN,0.969231163981489,1.9077076936777,5000,0.212842926383018,0.212842926383018,0.212842926383018,2699.22706341743,8596.20772059082,11295.4347840083,,,52.4500000476837,23.0477886199951,32183.4664878992,32261.9014524863
2011-06-01T05:00:35Z,1306904435,204,55.7647922,25.5583397,8731.23,5.7,-9.6,93.8,-48325.36,-67581.66,94.3,Weapon+Missile,Blue,Enemies,R-27ET,,cn,,228.658086538141,149.996505737305,0.749420219046394,8731.232421875,8707.232421875,226.046525369159,-34.4599609375,0.0553702010846411,NaN,0.769231272252469,1.88916735861912,5000,0.231220558285713,0.231220558285713,0.231220558285713,2614.22602696419,8562.41404299805,11176.6400699622,,,53.4500000476837,24,32409.4174414813,32490.7714431284
2011-06-01T05:00:36Z,1306904436,204,55.7669833,25.5582073,8690.19,6.4,-11.5,93.8,-48105.37,-67598.38,94.3,Weapon+Missile,Blue,Enemies,R-27ET,,cn,,224.403980478981,147.31086730957,0.735054716746024,8690.1865234375,8666.03509521484,220.618178480989,-41.0458984375,0.0433906202939892,NaN,0.569230526749801,1.85833951324367,5000,0.24930365383625,0.24930365383625,0.24930365383625,2517.85732274055,8522.16176700684,11040.0190897474,,,54.4500000476837,24.1514282226562,32629.9550926219,32715.3923684904
2011-06-01T05:00:37Z,1306904437,204,55.7691181,25.5580786,8642.98,7,-13.3,93.8,-47891.03,-67614.62,94.3,Weapon+Missile,Blue,Enemies,R-27ET,,cn,,220.08142182058,144.626907348633,0.720419764231231,8642.9765625,8618.9765625,214.958255991361,-47.2099609375,0.0361096878085918,NaN,0.507693083648925,1.8077337879094,5000,0.268718391656876,0.268718391656876,0.268718391656876,2421.7916115284,8475.86461066406,10897.6562221925,,,55.4500000476837,24,32844.8307797565,32935.6783234801
2011-06-01T05:00:38Z,1306904438,204,55.7712018,25.5579534,8589.89,7.5,-15.1,93.8,-47681.82,-67630.42,94.3,Weapon+Missile,Blue,Enemies,R-27ET,,cn,,216.416038178344,142.453170776367,0.707896106435815,8589.88671875,8565.88671875,209.803169831657,-53.08984375,0.0586882068481294,NaN,0.523076377207087,1.80388454942528,5000,0.281815737485886,0.281815737485886,0.281815737485886,2341.79507904053,8423.80125904297,10765.5963380835,,,56.4500000476837,24,33054.5524127656,33152.2899844947
2011-06-01T05:00:39Z,1306904439,204,55.773239,25.5578313,8531.12,7.9,-16.9,93.8,-47477.29,-67645.83,94.3,Weapon+Missile,Blue,Enemies,R-27ET,,cn,,213.366507651171,140.755661010742,0.697349183470238,8531.1220703125,8508.009765625,205.114559895865,-58.7646484375,0,NaN,0.384616489899881,1.76928046321247,5000,0.284756541252136,0.284756541252136,0.284756541252136,2276.26332936287,8366.17282508301,10642.4361544459,,,57.4500000476837,23.1123046875,33259.5931749196,33365.8501107236
2011-06-01T05:00:40Z,1306904440,204,55.7752461,25.5577116,8466.39,8.2,-18.7,93.7,-47275.77,-67660.95,94.3,Weapon+Missile,Blue,Enemies,R-27ET,,cn,,212.200825021418,140.433868408203,0.692914403096513,8466.3876953125,8443.3876953125,202.085751187781,-64.734375,0.0481879807097003,NaN,0.399999783458042,1.76157259473411,5000,0.290425390005112,0.290425390005112,0.290425390005112,2251.45950698853,8302.69008922363,10554.1495962122,,,58.4500000476837,23,33461.5955707581,33578.2278955259
2011-06-01T05:00:41Z,1306904441,204,55.7772096,25.5575952,8396.34,8.5,-20.5,93.7,-47078.63,-67675.66,94.3,Weapon+Missile,Blue,Enemies,R-27ET,,cn,,209.724617662398,139.218292236328,0.684162196216392,8396.341796875,8374.341796875,197.681530158289,-70.0458984375,0.0947159884817147,NaN,0.399999783458042,1.7391167470121,5000,0.296036690473557,0.296036690473557,0.296036690473557,2199.22076268196,8233.99852823242,10433.2192909144,,,59.4500000476837,22,33659.2066865876,33788.1323769232
2011-06-01T05:00:42Z,1306904442,204,55.779137,25.5574815,8320.94,8.7,-22.1,93.7,-46885.11,-67690.05,94.2,Weapon+Missile,Blue,Enemies,R-27ET,,cn,,208.191497425375,138.707443237305,0.678450824130383,8320.939453125,8297.939453125,194.057172393155,-75.40234375,0.0248892075689933,NaN,0.199999891729021,1.71605386622762,5000,0.297226577997208,0.297226577997208,0.297226577997208,2167.18498001099,8160.05408879883,10327.2390688098,,,60.4500000476837,23,33853.1878230171,33996.4899667004
2011-06-01T05:00:43Z,1306904443,204,55.7810293,25.5573706,8240.31,8.8,-23.8,93.7,-46695.11,-67704.08,94.2,Weapon+Missile,Blue,Enemies,R-27ET,,cn,,206.880112359532,138.38932800293,0.67342527615725,8240.310546875,8216.27383232117,190.521285862817,-80.62890625,0.0357019664067515,NaN,0.0307700022109074,1.6884791118878,5000,0.300417393445969,0.300417393445969,0.300417393445969,2139.96904449463,8080.98414245117,10220.9531869458,,,61.4500000476837,24.036714553833,34043.6317248953,34203.5265237041
2011-06-01T05:00:44Z,1306904444,204,55.7828871,25.5572624,8154.63,8.9,-25.5,93.6,-46508.57,-67717.77,94.2,Weapon+Missile,Blue,Enemies,R-27ET,,cn,,205.722942450388,138.21516418457,0.668866603543263,8154.6328125,8129.01487541199,187.032764196043,-85.677734375,0.0458110891505086,NaN,0.0769232979799761,1.65003848707386,5000,0.304018437862396,0.304018437862396,0.304018437862396,2116.09645252228,7996.96298707031,10113.0594395926,,,62.4500000476837,25.6179370880127,34230.587805715,34409.3982151491
2011-06-01T05:00:45Z,1306904445,204,55.7847087,25.5571572,8064.19,9,-27.1,93.6,-46325.69,-67731.09,94.2,Weapon+Missile,Blue,Enemies,R-27ET,,cn,,204.461236358304,137.997253417969,0.66393664787917,8064.19384765625,8036.54260253906,183.371728494763,-90.43896484375,0.0633598887319907,NaN,0,1.63911616081736,5000,0.304269850254059,0.304269850254059,0.304269850254059,2090.21985865831,7908.27265961182,9998.49251827013,,,63.4500000476837,27.6512451171875,34413.8983857824,34614.013652494
2011-06-01T05:00:46Z,1306904446,204,55.7864951,25.5570548,7969.11,9.1,-28.7,93.6,-46146.31,-67744.07,94.1,Weapon+Missile,Blue,Enemies,R-27ET,,cn,,203.434465129031,137.978256225586,0.659739817203909,7969.10546875,7940.57110595703,179.843770532416,-95.08837890625,0.0484651422547957,NaN,0.199999891729021,1.61989302028518,5000,0.3044413626194,0.3044413626194,0.3044413626194,2069.27908011675,7815.02281451172,9884.30189462847,,,64.4500000476837,28.5343627929688,34593.6705050515,34817.5845404854
2011-06-01T05:00:47Z,1306904447,204,55.7882589,25.5569547,7868.87,9.1,-30.3,93.6,-45969.21,-67756.78,94.1,Weapon+Missile,Blue,Enemies,R-27ET,,cn,,203.898592343413,139.073684692383,0.660337182390856,7868.865234375,7839.865234375,177.5571214344,-100.240234375,0.0473718336561793,NaN,0,1.58080832997684,5000,0.302892595529556,0.302892595529556,0.302892595529556,2078.73179798126,7716.72072506836,9795.45252304962,,,65.4500000476837,29,34771.1557881888,35021.6124825438
2011-06-01T05:00:48Z,1306904448,204,55.7899892,25.5568574,7764.23,9.1,-31.8,93.5,-45795.48,-67769.15,94.1,Weapon+Missile,Blue,Enemies,R-27ET,,cn,,203.186890272354,139.351333618164,0.657091968196738,7764.23095703125,7736.45687866211,174.173994566642,-104.63427734375,0.0605814911872808,NaN,0,1.49298223581253,5000,0.296373575925827,0.296373575925827,0.296373575925827,2064.24561892748,7614.10955147705,9678.35517040453,,,66.4500000476837,27.7740783691406,34945.2553960247,35224.9185172999
2011-06-01T05:00:49Z,1306904449,204,55.7917038,25.556762,7654.19,9,-33.3,93.5,-45623.32,-67781.28,94,Weapon+Missile,Blue,Enemies,R-27ET,,cn,,204.677887264238,141.279647827148,0.660921981428369,7654.1943359375,7627.23974609375,172.583253976806,-110.03662109375,0.066120029029739,NaN,0.199987938897973,1.48907632810263,5000,0.297207862138748,0.297207862138748,0.297207862138748,2094.65187674761,7506.20048845215,9600.85236519976,,,67.4500000476837,26.95458984375,35117.7794772021,35429.7223563904
2011-06-01T05:00:50Z,1306904450,204,55.7933734,25.55667,7540.82,9,-34.7,93.4,-45455.68,-67792.99,94,Weapon+Missile,Blue,Enemies,R-27ET,,cn,,202.722445366528,140.710296630859,0.653600183025979,7540.81640625,7514.81640625,168.053071721885,-113.3779296875,0.0316920637546385,NaN,0,1.48469871045318,5000,0.301685810089111,0.301685810089111,0.301685810089111,2054.81949276924,7395.01472103516,9449.8342138044,,,68.4500000476837,26,35285.7677224486,35632.5569584831
2011-06-01T05:00:51Z,1306904451,204,55.7950171,25.5565805,7423.05,8.9,-36.2,93.4,-45290.64,-67804.41,93.9,Weapon+Missile,Blue,Enemies,R-27ET,,cn,,203.071010891455,141.866149902344,0.653680578549261,7423.046875,7398.04466056824,165.43328858979,-117.76953125,0.0681297591465611,NaN,0,1.43907016531144,5000,0.293973535299301,0.293973535299301,0.293973535299301,2061.89177322388,7279.52226367187,9341.41403689575,,,69.4500000476837,25.0022144317627,35451.1384491011,35835.7350522034
2011-06-01T05:00:52Z,1306904452,204,55.796641,25.5564931,7300.5,8.8,-37.6,93.4,-45127.58,-67815.56,93.9,Weapon+Missile,Blue,Enemies,R-27ET,,cn,,204.27967056859,143.704544067383,0.656484330807875,7300.50048828125,7275.2919921875,163.439795979407,-122.54638671875,0.00707914114899329,NaN,0.199987938897973,1.38913251785536,5000,0.290027946233749,0.290027946233749,0.290027946233749,2086.50919038057,7159.34531134033,9245.85450172091,,,70.4500000476837,25.20849609375,35614.5188851078,36040.1181212279
2011-06-01T05:00:53Z,1306904453,204,55.79824,25.556408,7173.67,8.7,-39,93.3,-44967.02,-67826.43,93.8,Weapon+Missile,Blue,Enemies,R-27ET,,cn,,204.900018017509,145.149032592773,0.657355249661132,7173.66650390625,7147.66650390625,160.925938838764,-126.833984375,0.0318286495013095,NaN,0.199987938897973,1.33905175659183,5000,0.286816030740738,0.286816030740738,0.286816030740738,2099.20086917877,7034.96366205322,9134.16453123199,,,71.4500000476837,26,35775.3758262871,36245.1073100232
2011-06-01T05:00:54Z,1306904454,204,55.7998093,25.5563257,7043.05,8.6,-40.2,93.3,-44809.43,-67836.98,93.8,Weapon+Missile,Blue,Enemies,R-27ET,,cn,,204.948800569702,146.200424194336,0.656361356330267,7043.0546875,7016.64538574219,157.938482549439,-130.61181640625,0.0120447896237816,NaN,0.12310732960031,1.33905175659183,5000,0.286569088697433,0.286569088697433,0.286569088697433,2100.20054274797,6906.87722511719,9007.07776786516,,,72.4500000476837,26.4093017578125,35933.251718566,36450.1434817249
2011-06-01T05:00:55Z,1306904455,204,55.8013483,25.556246,6908.92,8.5,-41.6,93.2,-44654.91,-67847.2,93.8,Weapon+Missile,Blue,Enemies,R-27ET,,cn,,204.876405810618,147.190399169922,0.654954755209798,6908.91943359375,6880.79559326172,154.861471378077,-134.13525390625,0.0410700774456471,NaN,0,1.30067836645252,5000,0.278184562921524,0.278184562921524,0.278184562921524,2098.71708289385,6775.33547634521,8874.05255923906,,,73.4500000476837,28.1238403320312,36088.0593457421,36655.10718583
2011-06-01T05:00:56Z,1306904456,204,55.8028756,25.5561679,6769.67,8.3,-42.8,93.2,-44501.55,-67857.24,93.7,Weapon+Missile,Blue,Enemies,R-27ET,,cn,,207.388343474295,150.198379516602,0.66175720060641,6769.6669921875,6739.79784011841,153.683709518645,-139.25244140625,0.0270358105148242,NaN,0.12305268808695,1.26594098482919,5000,0.275582402944565,0.275582402944565,0.275582402944565,2150.49625045061,6638.77548089355,8789.27173134416,,,74.4500000476837,29.8691520690918,36241.6895964246,36862.5780055061
2011-06-01T05:00:57Z,1306904457,204,55.8043675,25.5560926,6627.59,8.2,-44.1,93.2,-44351.74,-67866.92,93.7,Weapon+Missile,Blue,Enemies,R-27ET,,cn,,206.698739368842,150.793670654297,0.658315159073917,6627.58642578125,6596.48903274536,150.124886365811,-142.08056640625,0.0398474653320937,NaN,0.199987938897973,1.22707742189523,5000,0.273336440324783,0.273336440324783,0.273336440324783,2136.21844283342,6499.44204223877,8635.66048507219,,,75.4500000476837,31.0973930358887,36391.7508605003,37069.3450119243
2011-06-01T05:00:58Z,1306904458,204,55.8058346,25.5560198,6481.85,8.1,-45.3,93.1,-44204.42,-67876.32,93.6,Weapon+Missile,Blue,Enemies,R-27ET,,cn,,207.438382267836,152.521789550781,0.659400050369426,6481.85009765625,6447.29248046875,147.61979915492,-145.736328125,0.0761383553363127,NaN,0,1.21211205053691,5000,0.266016185283661,0.266016185283661,0.266016185283661,2151.53412189484,6356.52352601807,8508.0576479129,,,76.4500000476837,34.5576171875,36539.3154373724,37276.8520262678
2011-06-01T05:00:59Z,1306904459,204,55.807275,25.5559493,6332.74,7.9,-46.4,93.1,-44059.79,-67885.42,93.6,Weapon+Missile,Blue,Enemies,R-27ET,,cn,,207.930504266431,154.095077514648,0.659668678057715,6332.74072265625,6294.45543670654,144.918904534921,-149.109375,0.0486664242630684,NaN,0.199987938897973,1.1888789486317,5000,0.265792846679688,0.265792846679688,0.265792846679688,2161.75473022461,6210.29718078369,8372.0519110083,,,77.4500000476837,38.285285949707,36684.1838243722,37484.8487618857
2011-06-01T05:01:00Z,1306904460,204,55.8086938,25.5558809,6179.87,7.8,-47.5,93,-43917.3,-67894.28,93.5,Weapon+Missile,Blue,Enemies,R-27ET,,cn,,209.161096026291,156.28840637207,0.662244485116914,6179.87451171875,6140.41644668579,142.759537840844,-152.8662109375,0.0247675111540492,NaN,0.0769352508110236,1.08903812483051,5000,0.258699327707291,0.258699327707291,0.258699327707291,2187.41820454597,6060.38663803467,8247.80484258064,,,78.4500000476837,39.458065032959,36826.8729267986,37694.0573194105
2011-06-01T05:01:01Z,1306904461,204,55.8100791,25.555815,6024.67,7.6,-48.6,93,-43778.2,-67902.81,93.5,Weapon+Missile,Blue,Enemies,R-27ET,,cn,,208.593866246223,157.094772338867,0.659111645484362,6024.6669921875,5981.49755859375,139.362932361887,-155.20751953125,0.00713353208539703,NaN,0.199987938897973,1.09285033088273,5000,0.256611883640289,0.256611883640289,0.256611883640289,2175.57005177736,5908.18005589355,8083.75010767092,,,79.4500000476837,43.16943359375,36966.1918126721,37902.7108224543
2011-06-01T05:01:02Z,1306904462,204,55.8114449,25.5557512,5865.69,7.4,-49.7,92.9,-43641.06,-67911.11,93.4,Weapon+Missile,Blue,Enemies,R-27ET,,cn,,210.122890273469,159.601150512695,0.662572075646869,5865.6884765625,5819.31768798828,137.395271339839,-158.978515625,0.0296169890179615,NaN,0.153815860108687,1.10814504542509,5000,0.252267897129059,0.252267897129059,0.252267897129059,2207.58145084381,5752.27538986816,7959.85684071197,,,80.4500000476837,46.3707885742188,37103.5411139172,38112.8873765109
2011-06-01T05:01:03Z,1306904463,204,55.8127822,25.5556897,5704.09,7.3,-50.7,92.9,-43506.76,-67919.13,93.4,Weapon+Missile,Blue,Enemies,R-27ET,,cn,,210.270470774197,161.04084777832,0.66165159174808,5704.09130859375,5657.54475784302,134.536337783076,-161.59716796875,0.0104490002320715,NaN,0.0769352508110236,1.0197563144279,5000,0.24711973965168,0.24711973965168,0.24711973965168,2210.68354398012,5593.80270314209,7804.48624712221,,,81.4500000476837,46.5465507507324,37238.0157243424,38323.1963950699
2011-06-01T05:01:04Z,1306904464,204,55.8141005,25.5556301,5538.86,7.1,-51.8,92.8,-43374.37,-67926.93,93.3,Weapon+Missile,Blue,Enemies,R-27ET,,cn,,211.872564166198,163.693908691406,0.665274044914763,5538.8583984375,5493.77984619141,132.620016768421,-165.23291015625,0.063806628928586,NaN,0.199987938897973,1.01966026489269,5000,0.237321496009827,0.237321496009827,0.237321496009827,2244.49917231798,5431.76457130371,7676.26374362169,,,82.4500000476837,45.0785522460938,37370.5794932371,38535.1068899459
2011-06-01T05:01:05Z,1306904465,204,55.8153983,25.5555723,5370.23,7,-52.8,92.8,-43244.05,-67934.48,93.3,Weapon+Missile,Blue,Enemies,R-27ET,,cn,,213.249412053383,166.215637207031,0.668149290352527,5370.22900390625,5327.39434814453,130.535202306266,-168.62939453125,0.0331720795531329,NaN,0,1.0196123468468,5000,0.236479625105858,0.236479625105858,0.236479625105858,2273.76558705568,5266.39562611572,7540.16121317141,,,83.4500000476837,42.8346557617188,37501.0722498533,38748.3986379769
2011-06-01T05:01:06Z,1306904466,204,55.8166649,25.5555168,5199.75,6.8,-53.8,92.7,-43116.86,-67941.76,93.2,Weapon+Missile,Blue,Enemies,R-27ET,,cn,,212.820695887303,167.289566040039,0.665354599189817,5199.7529296875,5158.75115966797,127.399202183212,-170.47607421875,0.0518062943728365,NaN,0.199987938897973,0.938921986096146,5000,0.233800023794174,0.233800023794174,0.233800023794174,2264.63242989779,5099.21570679199,7363.84813668978,,,84.4500000476837,41.0017700195312,37628.4251860528,38961.2548134972
2011-06-01T05:01:07Z,1306904467,204,55.8179087,25.5554633,5026.47,6.7,-54.6,92.7,-42991.95,-67948.8,93.2,Weapon+Missile,Blue,Enemies,R-27ET,,cn,,213.727893620919,169.4931640625,0.666718897452736,5026.46875,4987.67727661133,125.108774998659,-173.2841796875,0.00958695361208424,NaN,0.0461720787892862,0.919705569031433,5000,0.227834567427635,0.227834567427635,0.227834567427635,2283.98062558174,4929.28197671875,7213.26260230049,,,85.4500000476837,38.7914733886719,37753.4846494683,39175.0125318387
2011-06-01T05:01:08Z,1306904468,204,55.8191386,25.5554113,4849.22,6.5,-55.6,92.6,-42868.45,-67955.66,93.2,Weapon+Missile,Blue,Enemies,R-27ET,,cn,,216.138021073561,173.001800537109,0.672724816610276,4849.224609375,4812.19177246094,123.693810547255,-177.244140625,0.055114898907645,NaN,0.184633673643785,0.900568232750703,5000,0.221819847822189,0.221819847822189,0.221819847822189,2335.78220767975,4755.46485155273,7091.24705923248,,,86.4500000476837,37.0328369140625,37877.1345015085,39391.1801840753
2011-06-01T05:01:09Z,1306904469,204,55.8203388,25.5553614,4670.37,6.3,-56.5,92.6,-42747.91,-67962.26,93.1,Weapon+Missile,Blue,Enemies,R-27ET,,cn,,215.781736681346,174.2314453125,0.670102491094863,4670.36865234375,4634.111743927,120.715800621349,-178.85595703125,0.0413219222973644,NaN,0.12305268808695,0.869725499697306,5000,0.218960508704185,0.218960508704185,0.218960508704185,2328.08789426088,4580.06707445068,6908.15496871157,,,87.4500000476837,36.256908416748,37997.7988517639,39606.9835159167
2011-06-01T05:01:10Z,1306904470,204,55.8215191,25.5553132,4488.62,6.2,-57.3,92.5,-42629.38,-67968.65,93.1,Weapon+Missile,Blue,Enemies,R-27ET,,cn,,217.082158054446,176.891738891602,0.672604240354027,4488.6181640625,4453.13251876831,118.707301187006,-181.75048828125,0.056016191405954,NaN,0.107698422832761,0.869725499697306,5000,0.212928876280785,0.212928876280785,0.212928876280785,2356.23316727877,4401.83073186035,6758.06389913912,,,88.4500000476837,35.4856452941895,38116.4628292855,39824.0885763939
2011-06-01T05:01:11Z,1306904471,204,55.8226846,25.5552665,4303.27,6,-58.1,92.5,-42512.34,-67974.87,93,Weapon+Missile,Blue,Enemies,R-27ET,,cn,,219.296032074496,180.386581420898,0.67789149602689,4303.27001953125,4268.11869812012,117.204159492918,-185.34814453125,0.0072080456378805,NaN,0.199987938897973,0.861984334046743,5000,0.208176732063293,0.208176732063293,0.208176732063293,2404.53748418093,4220.06629370361,6624.60377788454,,,89.4500000476837,35.1513214111328,38233.624367751,40043.4049891855
2011-06-01T05:01:12Z,1306904472,204,55.8238192,25.5552218,4116.95,5.9,-58.9,92.5,-42398.39,-67980.82,93,Weapon+Missile,Blue,Enemies,R-27ET,,cn,,218.480775673216,181.313613891602,0.673807747835261,4116.953125,4081.06379699707,114.104619323676,-186.31689453125,0.0239702475104917,NaN,0.199987938897973,0.819444421792022,5000,0.206028252840042,0.206028252840042,0.206028252840042,2386.6924669385,4037.35183632813,6424.04430326662,,,90.4500000476837,35.8893280029297,38347.6806448157,40261.899838233
2011-06-01T05:01:13Z,1306904473,204,55.8249341,25.5551787,3928.04,5.7,-59.7,92.4,-42286.42,-67986.59,92.9,Weapon+Missile,Blue,Enemies,R-27ET,,cn,,219.684125507126,184.011047363281,0.675935874997745,3928.03540039062,3891.31106948853,112.121399956686,-188.917724609375,0.0402299974245817,NaN,0.199987938897973,0.777283585036238,5000,0.200731918215752,0.200731918215752,0.200731918215752,2413.05574999154,3852.08683592407,6265.14258591561,,,91.4500000476837,36.7243309020996,38459.7550114288,40481.5960342905
2011-06-01T05:01:14Z,1306904474,204,55.8260279,25.5551371,3736.87,5.6,-60.5,92.4,-42176.57,-67992.16,92.9,Weapon+Missile,Blue,Enemies,R-27ET,,cn,,220.550753563192,186.455123901367,0.677005400559942,3736.86767578125,3700.03204345703,109.988799270498,-191.167724609375,0.0457737818509631,NaN,0.199987938897973,0.769502772271976,5000,0.193952649831772,0.193952649831772,0.193952649831772,2432.13174486458,3664.61533927002,6096.7470841346,,,92.4500000476837,36.8356323242188,38569.701803536,40702.1587860318
2011-06-01T05:01:15Z,1306904475,204,55.8270996,25.5550971,3543.7,5.5,-61.3,92.3,-42068.95,-67997.55,92.8,Weapon+Missile,Blue,Enemies,R-27ET,,cn,,221.196015405055,188.738891601562,0.677379106750324,3543.6953125,3506.81170654297,107.759525311734,-193.17236328125,0.0444535267663875,NaN,0,0.719699274000065,5000,0.193119719624519,0.193119719624519,0.193119719624519,2446.38386155367,3475.17796363281,5921.56182518648,,,93.4500000476837,36.8836059570312,38677.422183046,40923.3656831436
2011-06-01T05:01:16Z,1306904476,204,55.8281467,25.5550588,3349.16,5.3,-61.9,92.3,-41963.79,-68002.72,92.8,Weapon+Missile,Blue,Enemies,R-27ET,,cn,,221.194682164066,190.474212646484,0.675768205437543,3349.16381835938,3312.23425292969,105.283356733522,-194.531494140625,0,NaN,0.199987938897973,0.719835237453231,5000,0.188422679901123,0.188422679901123,0.188422679901123,2446.35437088311,3284.4077359314,5730.7621068145,,,94.4500000476837,36.9295654296875,38782.6640829477,41144.5677008312
2011-06-01T05:01:17Z,1306904477,204,55.8291714,25.555022,3152.97,5.2,-62.6,92.2,-41860.88,-68007.7,92.8,Weapon+Missile,Blue,Enemies,R-27ET,,cn,,221.602817897109,192.596603393555,0.675403108511811,3152.970703125,3115.99041748047,103.034316781208,-196.193115234375,0.0300490818331628,NaN,0.138461594854498,0.719631292273482,5000,0.183387249708176,0.183387249708176,0.183387249708176,2455.39044499695,3092.00801458008,5547.39845957703,,,95.4500000476837,36.9802856445312,38885.6564122259,41366.1754054534
2011-06-01T05:01:18Z,1306904478,204,55.8301786,25.5549865,2954.3,5.1,-63.4,92.2,-41759.73,-68012.52,92.7,Weapon+Missile,Blue,Enemies,R-27ET,,cn,,222.992392653985,195.638336181641,0.678007414264736,2954.296875,2916.28051757812,101.263602541619,-198.673828125,0.0474245505735053,NaN,0,0.669626303421055,5000,0.178266510367393,0.178266510367393,0.178266510367393,2486.28035907745,2897.17554492187,5383.45590399933,,,96.4500000476837,38.016357421875,38986.8866585467,41589.1746598544
2011-06-01T05:01:19Z,1306904479,204,55.8311597,25.5549526,2754.95,4.9,-64.1,92.1,-41661.2,-68017.14,92.7,Weapon+Missile,Blue,Enemies,R-27ET,,cn,,222.41544387733,196.922607421875,0.674632778471795,2754.95068359375,2716.89367675781,98.6393716878441,-199.34619140625,0.0488230296787524,NaN,0.199987938897973,0.669699354428663,5000,0.17413541674614,0.17413541674614,0.17413541674614,2473.4314837575,2701.68371212646,5175.11519588396,,,97.4500000476837,38.0570068359375,39085.4869080994,41811.5923246785
2011-06-01T05:01:20Z,1306904480,204,55.8321201,25.5549201,2553.98,4.8,-64.7,92.1,-41564.74,-68021.6,92.6,Weapon+Missile,Blue,Enemies,R-27ET,,cn,,222.962617494955,199.24919128418,0.674666584929989,2553.97998046875,2515.88385009766,96.5562286216924,-200.970703125,0.035975405945109,NaN,0.199987938897973,0.669626303421055,5000,0.171061381697655,0.171061381697655,0.171061381697655,2485.61644001007,2504.59877754639,4990.21521755646,,,98.4500000476837,38.0961303710938,39182.0066164723,42034.5565226492
2011-06-01T05:01:21Z,1306904481,204,55.8330557,25.554889,2352.39,4.7,-65.3,92.1,-41470.77,-68025.87,92.6,Weapon+Missile,Blue,Enemies,R-27ET,,cn,,222.454266644433,200.620788574219,0.671512895341477,2352.39233398438,2313.68029785156,94.0655172377377,-201.587646484375,0.00991196472031277,NaN,0.184633673643785,0.63095777440441,5000,0.167053490877151,0.167053490877151,0.167053490877151,2474.29503741562,2306.90882820679,4781.20386562241,,,99.4500000476837,38.7120361328125,39276.0365672542,42257.0110428932
2011-06-01T05:01:22Z,1306904482,204,55.8339694,25.5548592,2149.71,4.6,-66,92,-41379.01,-68029.97,92.5,Weapon+Missile,Blue,Enemies,R-27ET,,cn,,222.522613794001,202.536926269531,0.670106182618649,2149.7138671875,2109.185546875,91.8572411222002,-202.678466796875,0.0357955464282636,NaN,0.0461720787892862,0.619613203718989,5000,0.162538141012192,0.162538141012192,0.162538141012192,2475.8156824857,2108.14914956543,4583.96483205113,,,100.450000047684,40.5283203125,39367.8611286113,42479.5335444521
2011-06-01T05:01:23Z,1306904483,204,55.8348664,25.5548305,1944.91,4.5,-66.5,92,-41288.92,-68033.95,92.5,Weapon+Missile,Blue,Enemies,R-27ET,,cn,,223.782267099038,205.594604492188,0.672272117276741,1944.90539550781,1902.22436523438,90.1775637074756,-204.808471679688,0.0106861705728489,NaN,0,0.608057003891003,5000,0.159366652369499,0.159366652369499,0.159366652369499,2503.92515339926,1907.30064968567,4411.22580308493,,,101.450000047684,42.6810302734375,39457.9983462223,42703.3112126646
2011-06-01T05:01:24Z,1306904484,204,55.8357318,25.5548034,1741.53,4.4,-67.2,91.9,-41202,-68037.7,92.5,Weapon+Missile,Blue,Enemies,R-27ET,,cn,,221.202268704568,205.041427612305,0.662935554134527,1741.52990722656,1696.77185058594,86.9991634810998,-203.37548828125,0.0632344469066146,NaN,0,0.619534229656711,5000,0.154447257518768,0.154447257518768,0.154447257518768,2446.5221840024,1707.85742647034,4154.37961047274,,,102.450000047684,44.758056640625,39544.9638368105,42924.5101224194
2011-06-01T05:01:25Z,1306904485,204,55.8365799,25.5547774,1536.38,4.3,-67.8,91.9,-41116.81,-68041.34,92.4,Weapon+Missile,Blue,Enemies,R-27ET,,cn,,222.163543363894,207.838088989258,0.664221269687273,1536.3798828125,1490.24335098267,85.2649252794498,-205.150024414062,0.0474726398311455,NaN,0,0.619534229656711,5000,0.149268731474876,0.149268731474876,0.149268731474876,2467.83200000003,1506.67397777832,3974.50597777835,,,103.450000047684,46.136531829834,39630.1911417046,43146.6676330218
2011-06-01T05:01:26Z,1306904486,204,55.8374066,25.5547525,1330.59,4.2,-68.3,91.9,-41033.79,-68044.82,92.4,Weapon+Missile,Blue,Enemies,R-27ET,,cn,,221.929296887152,209.515731811523,0.661933930902632,1330.59460449219,1282.78386306763,83.096522451045,-205.785278320312,0.0449959217450315,NaN,0,0.557698926274999,5000,0.148565873503685,0.148565873503685,0.148565873503685,2462.63064084128,1304.86755781433,3767.49819865561,,,104.450000047684,47.8107414245605,39713.2625081708,43368.5945015654
2011-06-01T05:01:27Z,1306904487,204,55.8382092,25.5547288,1125.04,4.1,-68.8,91.8,-40953.18,-68048.14,92.3,Weapon+Missile,Blue,Enemies,R-27ET,,cn,,220.823868936936,210.354965209961,0.657070754584481,1125.0361328125,1075.60978317261,80.6777281099826,-205.558471679688,0.0482747874151063,NaN,0,0.523492271694517,5000,0.142218187451363,0.142218187451363,0.142218187451363,2438.15905461386,1103.28355918457,3541.44261379843,,,105.450000047684,49.4263496398926,39793.9018682289,43589.4100252509
2011-06-01T05:01:28Z,1306904488,204,55.8389918,25.5547062,918.73,4,-69.4,91.8,-40874.59,-68051.33,92.3,Weapon+Missile,Blue,Enemies,R-27ET,,cn,,220.788252039413,212.228744506836,0.655404455430125,918.734619140625,867.505432128906,78.6583606192787,-206.301513671875,0.00596435135915538,NaN,0,0.531099928491147,5000,0.140676736831665,0.140676736831665,0.140676736831665,2437.37261193097,900.970885279541,3338.34349721051,,,106.450000047684,51.2291870117188,39872.5381031176,43810.1948834059
2011-06-01T05:01:29Z,1306904489,204,55.8397531,25.5546847,712.2,3.9,-69.9,91.8,-40798.11,-68054.39,92.3,Weapon+Missile,Blue,Enemies,R-27ET,,cn,,220.261090465489,213.629760742188,0.652292276379507,712.197692871094,659.87158203125,76.533953642685,-206.536926269531,0.00971033582783541,NaN,0,0.550370133295575,5000,0.135656654834747,0.135656654834747,0.135656654834747,2425.74739865232,698.427350479431,3124.17474913175,,,107.450000047684,52.3261108398438,39949.0403644854,44030.4483613565
2011-06-01T05:01:30Z,1306904490,204,55.8404899,25.5546643,506.54,3.8,-70.5,91.7,-40724.12,-68057.29,92.2,Weapon+Missile,Blue,Enemies,R-27ET,,cn,,218.585442493591,213.891616821289,0.645811681916967,506.536926269531,453.351257324219,74.0489348402566,-205.660766601562,0.043155677484852,NaN,0.138461594854498,0.519646715109241,5000,0.13533428311348,0.13533428311348,0.13533428311348,2388.97978350595,496.74303480011,2885.72281830606,,,108.450000047684,53.1856689453125,40023.0639759748,44249.0276216906
