ISOTime,UnixTime,Id,Longitude,Latitude,Altitude,Roll,Pitch,Yaw,U,V,Heading,Type,Color,Coalition,Name,Group,Country,Pilot,TAS,CAS,M,ASL,AGL,GS,VS,AOA,AOS,RRT,TRT,TRD,G,LatG,LonG,Ek,Ep,Em,FFW,FFV,RelativeTime,Elev,GroundDistance,AirDistance
2011-06-01T05:08:11Z,1306904891,27B0E,55.6210002,25.5744925,1989.69,-104.3,-10,86.1,-62752.9,-65650.41,86.7,Weapon+Missile,Blue,Enemies,AIM-120B,,us,,324.603230129815,300.518707275391,0.975666554845842,1989.68530273438,1989.68530273438,NaN,NaN,5.38671857594485,NaN,23.5538800320323,6.81608495066426,NaN,NaN,NaN,NaN,NaN,1951.21473740601,NaN,,,0.670000076293945,0,NaN,NaN
2011-06-01T05:08:12Z,1306904892,27B0E,55.6245938,25.5744765,1907.29,-86.4,-13.3,82,-62391.94,-65655.94,82.6,Weapon+Missile,Blue,Enemies,AIM-120B,,us,,370.286952310234,345.070373535156,1.11189949599928,1907.28918457031,1907.28918457031,361.003194948044,-82.3961181640625,3.86855288110973,NaN,15.5538433817364,4.63043838223776,2258.31441387354,6.62233829498291,6.62233829498291,6.62233829498291,6855.62135256007,1870.41174818665,8726.03310074672,,,1.67000007629395,0,360.83912924725,370.234470894044
2011-06-01T05:08:13Z,1306904893,27B0E,55.6292391,25.5751686,1803.69,-76,-9.9,77.1,-61924.5,-65584.1,77.7,Weapon+Missile,Blue,Enemies,AIM-120B,,us,,484.140274711311,449.785522460938,1.45200985714818,1803.68615722656,1803.68615722656,472.925172012184,-103.60302734375,0.32236660025638,NaN,8.76925255462269,4.94426551091916,4919.19397944984,5.97594738006592,5.97594738006592,5.97594738006592,11719.5902798772,1768.81188537659,13488.4021652538,,,2.67000007629395,0,833.612787427954,854.361091907809
2011-06-01T05:08:14Z,1306904894,27B0E,55.6348611,25.5763306,1723.31,-67.3,-7.5,78.2,-61358.43,-65461.23,78.8,Weapon+Missile,Blue,Enemies,AIM-120B,,us,,584.798502217731,540.466552734375,1.75224681165116,1723.31298828125,1723.31298828125,579.24903272236,-80.3731689453125,0.210039727275949,NaN,10.5077132833094,1.8918862007956,5000,2.82427763938904,2.82427763938904,2.82427763938904,17099.4644098051,1689.99273165283,18789.4571414579,,,3.67000007629395,0,1412.75315792933,1439.21057084676
2011-06-01T05:08:15Z,1306904895,27B0E,55.6416601,25.5774599,1619,-56.8,-9.5,81,-60674.19,-65343.15,81.6,Weapon+Missile,Blue,Enemies,AIM-120B,,us,,702.150924907762,647.349853515625,2.10130642588688,1618.99768066406,1618.99768066406,694.35886827026,-104.315307617188,0.0952573878471958,NaN,10.1846316751894,3.19291557493844,5000,4.14449501037598,4.14449501037598,4.14449501037598,24650.7960674413,1587.69436050842,26238.4904279497,,,4.67000007629395,0,2106.92697512099,2141.35836243622
2011-06-01T05:08:16Z,1306904896,27B0E,55.6493391,25.5783845,1472.18,-47.6,-11.8,84,-59901.77,-65248.63,84.6,Weapon+Missile,Blue,Enemies,AIM-120B,,us,,791.904760461191,732.378234863281,2.36585412984096,1472.18151855469,1467.49905729294,778.176178114295,-146.816162109375,0.0598795205004288,NaN,8.9384841516881,3.66990631793793,5000,4.909752368927,4.909752368927,4.909752368927,31355.6574820548,1443.71688889343,32799.3743709483,,,5.67000007629395,4.68246126174927,2884.82059298544,2933.17069735435
2011-06-01T05:08:17Z,1306904897,27B0E,55.657396,25.5789478,1287.82,-40.4,-13.5,87.1,-59091.82,-65194.46,87.7,Weapon+Missile,Blue,Enemies,AIM-120B,,us,,832.430224110994,775.381225585938,2.48160308130055,1287.82385253906,1283.56097412109,811.758787445354,-184.357666015625,0.0889125457691545,NaN,6.69230131104853,3.37223877650254,5000,5.0035982131958,5.0035982131958,5.0035982131958,34647.003900674,1262.92377835022,35909.9276790242,,,6.67000007629395,4.26287841796875,3696.23343942921,3765.43477319041
2011-06-01T05:08:18Z,1306904898,27B0E,55.6655368,25.5790904,1077.4,-34.5,-14.8,90.1,-58273.94,-65186.91,90.7,Weapon+Missile,Blue,Enemies,AIM-120B,,us,,844.551619350739,793.900512695312,2.51161709792819,1077.40002441406,1070.4325671196,817.917630513719,-210.423828125,0.0679851657048669,NaN,5.66155746340191,2.19871729477621,5000,2.2311635017395,2.2311635017395,2.2311635017395,35663.3718873978,1056.56849494202,36719.9403823398,,,7.67000007629395,6.96745729446411,4513.79763539167,4609.79091470684
2011-06-01T05:08:19Z,1306904899,27B0E,55.6738323,25.5790897,868.71,-30.8,-13.4,89.9,-57440.66,-65195.35,90.5,Weapon+Missile,Blue,Enemies,AIM-120B,,us,,859.057649071992,814.890563964844,2.54862575875623,868.710754394531,859.074017524719,833.323966418711,-208.689270019531,0.0575143038524855,NaN,3.70767939848221,0.800049886200359,5000,2.93749475479126,2.93749475479126,2.93749475479126,36899.0022214549,851.914231958313,37750.9164534132,,,8.67000007629395,9.63673686981201,5346.7458356592,5468.60732481746
2011-06-01T05:08:20Z,1306904900,27B0E,55.6820969,25.579142,679.94,-27.3,-12.2,89.1,-56610.43,-65197.82,89.7,Weapon+Missile,Blue,Enemies,AIM-120B,,us,,851.420725211852,814.568359375,2.52050980429693,679.9384765625,665.9384765625,830.230256279776,-188.772277832031,0.0287189201212881,NaN,3.36923669491891,1.50193704070124,5000,3.46830916404724,3.46830916404724,3.46830916404724,36245.8625660138,666.791866118164,36912.654432132,,,9.67000007629395,14,6176.60623460166,6319.76563989433
2011-06-01T05:08:21Z,1306904901,27B0E,55.6896673,25.5793282,527.18,-25,-10.1,87.7,-55849.8,-65184.72,88.2,Weapon+Missile,Blue,Enemies,AIM-120B,,us,,775.92788929329,748.315490722656,2.29302163767375,527.176879882812,514.09972858429,760.741732760214,-152.761596679688,0.105206281661548,NaN,1.87692232354116,2.68124838840963,5000,5.56803321838379,5.56803321838379,5.56803321838379,30103.204469157,516.983914910278,30620.1883840673,,,10.6700000762939,13.0771512985229,6937.02176932826,7095.44426608785
2011-06-01T05:08:22Z,1306904902,27B0E,55.6966209,25.5796374,428.45,-25.3,-5.4,87.1,-55151,-65157.36,87.6,Weapon+Missile,Blue,Enemies,AIM-120B,,us,,706.278735505759,685.111206054688,2.08485007651879,428.447692871094,417.501770019531,699.344121201872,-98.7291870117188,0.0978702233266406,NaN,0.907704819938015,4.61844371628157,5000,7.74795913696289,7.74795913696289,7.74795913696289,24941.4826113807,420.163656729431,25361.6462681101,,,11.6700000762939,10.9459228515625,7636.06685956079,7801.47876163035
2011-06-01T05:08:23Z,1306904903,27B0E,55.7028994,25.5798777,402.61,-27,1,88.3,-54520.07,-65136.93,88.9,Weapon+Missile,Blue,Enemies,AIM-120B,,us,,631.7850741386,614.900268554688,1.86440609600274,402.611541748047,393.611541748047,631.256582697926,-25.8361511230469,0.269228251443783,NaN,1.73847438906501,5.87355244797394,5000,7.3200249671936,7.3200249671936,7.3200249671936,19957.6189952158,394.827047588348,20352.4460428041,,,12.6700000762939,9,8267.0513416458,8433.03303649642
2011-06-01T05:08:24Z,1306904904,27B0E,55.7084707,25.5799531,435.7,-27.2,6,90.3,-53960.38,-65134.05,90.8,Weapon+Missile,Blue,Enemies,AIM-120B,,us,,560.679787696869,546.58447265625,1.65519590870989,435.697692871094,426.475463867188,559.702716569849,33.0861511230469,0.195085031680915,NaN,0.199987938897973,6.10304210833132,5000,6.52096128463745,6.52096128463745,6.52096128463745,15718.0912165903,427.273477979431,16145.3646945697,,,13.6700000762939,9.22222900390625,8826.52020787563,8993.51608426301
2011-06-01T05:08:25Z,1306904905,27B0E,55.7134081,25.5797623,509.24,-25.8,9.8,94.3,-53464.62,-65160,94.8,Weapon+Missile,Blue,Enemies,AIM-120B,,us,,501.850343247206,489.3828125,1.48276477206946,509.239990234375,498.239990234375,496.432570965956,73.5422973632812,0.441520977368038,NaN,2.98459117671506,3.59556440457739,5000,2.02138257026672,2.02138257026672,2.02138257026672,12592.6883508669,499.393835023193,13092.0821858901,,,14.6700000762939,11,9322.73469328492,9495.1870579279
2011-06-01T05:08:26Z,1306904906,27B0E,55.7178462,25.5794967,580.48,-20.8,7.8,93.3,-53019.12,-65193.72,93.9,Weapon+Missile,Blue,Enemies,AIM-120B,,us,,452.421731729144,441.333984375,1.33780926453421,580.475341796875,571.079528808594,446.77841043247,71.2353515625,0.0860709967223705,NaN,5.39998512385252,1.51051490452513,5000,1.37033319473267,1.37033319473267,1.37033319473267,10234.2711670399,569.251851063232,10803.5230181031,,,15.6700000762939,9.39581298828125,9769.33564327921,9947.47121868711
2011-06-01T05:08:27Z,1306904907,27B0E,55.7219722,25.5792711,624.26,-14.8,4.1,93.7,-52604.92,-65222.7,94.3,Weapon+Missile,Blue,Enemies,AIM-120B,,us,,417.513423210604,407.447723388672,1.23520273436869,624.256896972656,612.256896972656,415.211553292327,43.7815551757812,0.162759742185628,NaN,5.83076856989981,3.06592250803063,5000,1.2937319278717,1.2937319278717,1.2937319278717,8715.87292805184,612.18688986969,9328.05981792153,,,16.6700000762939,12,10184.379423738,10364.8567758524
2011-06-01T05:08:28Z,1306904908,27B0E,55.7258125,25.5790131,644.73,-11.4,2.3,94.7,-52219.44,-65254.98,95.3,Weapon+Missile,Blue,Enemies,AIM-120B,,us,,387.367765816041,378.221527099609,1.14628561187689,644.726928710938,627.382141113281,386.826529330584,20.4700317382812,0.145878368427205,NaN,2.89234434933216,2.05096621576367,5000,0.827002346515656,0.827002346515656,0.827002346515656,7502.68929966558,632.261133544312,8134.95043320989,,,17.6700000762939,17.3447875976562,10571.0540339856,10752.1112472267
2011-06-01T05:08:29Z,1306904909,27B0E,55.729317,25.5787214,658.9,-10,2.6,96,-51867.73,-65290.68,96.6,Weapon+Missile,Blue,Enemies,AIM-120B,,us,,353.797320470562,345.348236083984,1.04711466196704,658.8984375,639.023078918457,353.513383496001,14.1715087890625,0.129725070800727,NaN,1.09230946527783,1.79357053689174,5000,2.34622240066528,2.34622240066528,2.34622240066528,6258.62719860748,646.158636210938,6904.78583481841,,,18.6700000762939,19.875358581543,10924.4285712758,11105.8059170167
2011-06-01T05:08:30Z,1306904910,27B0E,55.7325087,25.5783116,678.16,-9.8,4.5,101.3,-51547.57,-65339.12,101.9,Weapon+Missile,Blue,Enemies,AIM-120B,,us,,324.385052043885,316.158782958984,0.960276270285701,678.164611816406,662.190795898438,323.812409454492,19.2661743164062,0.361494185108702,NaN,0.107686470001714,3.75419170606953,5000,2.55415439605713,2.55415439605713,2.55415439605713,5261.28309947569,665.052299046936,5926.33539852263,,,19.6700000762939,15.9738159179688,11248.1426467254,11430.1266792222
2011-06-01T05:08:31Z,1306904911,27B0E,55.73532,25.5777936,700.94,-8.1,3.8,97.7,-51265.73,-65399.19,98.2,Weapon+Missile,Blue,Enemies,AIM-120B,,us,,289.065142361498,281.138519287109,0.855941786915682,700.940002441406,686.940002441406,288.166511084046,22.775390625,0.131450610272021,NaN,2.30770918468304,2.36184270272362,2283.30930007465,3.5424530506134,3.5424530506134,3.5424530506134,4177.93282642365,687.387327494202,4865.32015391785,,,20.6700000762939,14,11536.2516638264,11719.1655575144
2011-06-01T05:08:32Z,1306904912,27B0E,55.737941,25.5776135,715.84,-6.6,3.2,94.4,-51002.65,-65421.64,95,Weapon+Missile,Blue,Enemies,AIM-120B,,us,,264.458140077919,256.831176757812,0.783212283855236,715.839172363281,700.839172363281,264.038108213779,14.899169921875,0.267318243936651,NaN,0.999994336003227,2.22188999219594,4185.63408685659,1.90351116657257,1.90351116657257,1.90351116657257,3496.90539267361,701.998421965637,4198.90381463925,,,21.6700000762939,15,11800.1888292621,11983.5521828666
2011-06-01T05:08:33Z,1306904913,27B0E,55.74035,25.5773082,730.28,-5.7,3.5,102,-50760.99,-65457.76,102.5,Weapon+Missile,Blue,Enemies,AIM-120B,,us,,244.770727110025,237.407958984375,0.725026427219735,730.283081054688,714.186117172241,244.344188291198,14.4439086914062,0.141468206885691,NaN,1.0615206800467,6.34368802892426,1817.36865908564,3.42109870910645,3.42109870910645,3.42109870910645,2995.63544249851,716.163057682495,3711.79850018101,,,22.6700000762939,16.0969638824463,12044.4501289285,12228.2678083826
2011-06-01T05:08:34Z,1306904914,27B0E,55.7425206,25.5767554,744.61,-4.6,3.7,109.6,-50543.53,-65521.05,110.1,Weapon+Missile,Blue,Enemies,AIM-120B,,us,,226.937062276339,219.843795776367,0.672312245694265,744.606872558594,726.606872558594,226.484567314348,14.3237915039062,0.137016300626355,NaN,1.12306324578946,7.52925134760074,1760.38428163438,3.03486514091492,3.03486514091492,3.03486514091492,2575.02151173074,730.209898677673,3305.23141040841,,,23.6700000762939,18,12270.925981822,12455.222306712
2011-06-01T05:08:35Z,1306904915,27B0E,55.7444176,25.576022,757.88,-3.6,3.6,116.7,-50353.75,-65604.08,117.3,Weapon+Missile,Blue,Enemies,AIM-120B,,us,,207.573162139879,200.841033935547,0.615039233624554,757.879211425781,739.339097976685,207.148407335763,13.2723388671875,0.147226145581681,NaN,0.969226895113258,7.15532965328063,1719.54869723054,2.65632033348083,2.65632033348083,2.65632033348083,2154.33088203743,743.225616872864,2897.55649891029,,,24.6700000762939,18.5401134490967,12478.1694373477,12662.9146827179
2011-06-01T05:08:36Z,1306904916,27B0E,55.7460926,25.5751444,769.93,-2.8,3.4,123.5,-50186.41,-65702.88,124,Weapon+Missile,Blue,Enemies,AIM-120B,,us,,194.698362879549,188.206024169922,0.576970893178753,769.933837890625,751.10693359375,194.324827257789,12.0546264648438,0.134295206424527,NaN,0.769239383102108,6.52543338632278,1996.61101792887,2.09593558311462,2.09593558311462,2.09593558311462,1895.37262539882,755.04716713501,2650.41979253383,,,25.6700000762939,18.826904296875,12672.6705507419,12857.8122445299
2011-06-01T05:08:37Z,1306904917,27B0E,55.7475637,25.5741888,780.46,-2.1,3.2,126.3,-50039.64,-65810.1,126.9,Weapon+Missile,Blue,Enemies,AIM-120B,,us,,182.073639877261,175.850555419922,0.539623780543513,780.461547851562,761.461547851562,181.76902283154,10.5277099609375,0.0732806934181856,NaN,0.430751429535555,3.00340664033115,5000,0.976069271564484,0.976069271564484,0.976069271564484,1657.54051690772,765.371323823853,2422.91184073157,,,26.6700000762939,19,12854.7014499003,13040.1694103334
2011-06-01T05:08:38Z,1306904918,27B0E,55.7489748,25.5732537,790.26,-1.7,3.1,125.9,-49898.88,-65915.01,126.4,Weapon+Missile,Blue,Enemies,AIM-120B,,us,,175.827211091869,169.71028137207,0.521169365667502,790.260803222656,771.187051773071,175.553931185025,9.79925537109375,0.0441660851259715,NaN,0.369208436905978,0.348727287586475,5000,0.991599082946777,0.991599082946777,0.991599082946777,1545.76040801723,774.981110592346,2320.74151860957,,,27.6700000762939,19.073751449585,13030.5231190024,13216.2855598051
2011-06-01T05:08:39Z,1306904919,27B0E,55.7503486,25.5723633,799.49,-1.4,3.1,125.1,-49761.8,-66014.91,125.6,Weapon+Missile,Blue,Enemies,AIM-120B,,us,,169.873246942168,163.865447998047,0.50357453220962,799.493835449219,779.425010681152,169.622142253239,9.2330322265625,0.0237695302302898,NaN,0.307728410082812,0.769502772271976,5000,1.02051174640656,1.02051174640656,1.02051174640656,1442.84600133374,784.035622140808,2226.88162347455,,,28.6700000762939,20.0688247680664,13200.3901157304,13386.4244383305
2011-06-01T05:08:40Z,1306904920,27B0E,55.7516802,25.571529,808.21,-1.2,3.1,124.1,-49628.91,-66108.58,124.7,Weapon+Missile,Blue,Enemies,AIM-120B,,us,,162.815294512045,156.962020874023,0.482700083999904,808.20849609375,787.043090820312,162.581901873777,8.71466064453125,0.0412964983083984,NaN,0.199987938897973,1.022822429035,5000,1.04025077819824,1.04025077819824,1.04025077819824,1325.44100635219,792.581784821777,2118.02279117397,,,29.6700000762939,21.1654052734375,13363.1972604353,13549.4851428648
2011-06-01T05:08:41Z,1306904921,27B0E,55.7529765,25.5707494,816.53,-1,3,122.9,-49499.5,-66196.15,123.5,Weapon+Missile,Blue,Enemies,AIM-120B,,us,,156.472868819687,150.762329101562,0.463940907564638,816.528442382812,794.528442382812,156.25151893793,8.3199462890625,0.0538677260821152,NaN,0.184604218452989,1.11869203144235,5000,1.04769289493561,1.04769289493561,1.04769289493561,1224.18793383315,800.740864949341,2024.92879878249,,,30.6700000762939,22,13519.639687964,13706.1685481337
2011-06-01T05:08:42Z,1306904922,27B0E,55.754241,25.5700222,824.53,-0.9,3.1,121.8,-49373.23,-66277.88,122.3,Weapon+Missile,Blue,Enemies,AIM-120B,,us,,150.62731672935,145.052688598633,0.446649909127777,824.533813476562,802.533813476562,150.414436071593,8.00537109375,0.0529215924440094,NaN,0.199987938897973,1.18784951105773,5000,1.05015850067139,1.05015850067139,1.05015850067139,1134.4294272542,808.591452192993,1943.02087944719,,,31.6700000762939,22,13670.2251821363,13856.9860266101
2011-06-01T05:08:43Z,1306904923,27B0E,55.7554647,25.5693498,832.24,-0.8,3.1,120.6,-49251.01,-66353.5,121.1,Weapon+Missile,Blue,Enemies,AIM-120B,,us,,143.92932444469,138.527420043945,0.426826306163243,832.2353515625,810.793884277344,143.723125300753,7.7015380859375,0.0422916553278062,NaN,0.199987938897973,1.16866329623575,5000,1.04796636104584,1.04796636104584,1.04796636104584,1035.78252175525,816.144081040039,1851.92660279529,,,32.6700000762939,21.4414672851562,13814.1072763045,14001.092752948
2011-06-01T05:08:44Z,1306904924,27B0E,55.7566475,25.5687289,839.68,-0.8,3.1,119.5,-49132.83,-66423.38,120,Weapon+Missile,Blue,Enemies,AIM-120B,,us,,137.497158886333,132.267837524414,0.407786385703239,839.679992675781,818.679992675781,137.295469774162,7.44464111328125,0.0474551135103815,NaN,0,1.13786042373946,5000,1.04628610610962,1.04628610610962,1.04628610610962,945.273435090668,823.444780017395,1768.71821510806,,,33.6700000762939,21,13951.5298653562,14138.7348298951
2011-06-01T05:08:45Z,1306904925,27B0E,55.7577955,25.5681534,846.94,-0.7,3.2,118.4,-49018.1,-66488.2,118.9,Weapon+Missile,Blue,Enemies,AIM-120B,,us,,131.972044936954,126.891616821289,0.391432747496075,846.94384765625,826.222537994385,131.771988888626,7.26385498046875,0.340797530912228,NaN,0,1.18772592732244,4378.28563929338,0.661513209342957,0.661513209342957,0.661513209342957,870.831032242067,830.568188361816,1701.39922060388,,,34.6700000762939,20.7213096618652,14083.4211522842,14270.8434043623
2011-06-01T05:08:46Z,1306904926,27B0E,55.7588942,25.5676176,850.36,2,-0.5,118.3,-48908.29,-66548.58,118.8,Weapon+Missile,Blue,Enemies,AIM-120B,,us,,125.361817772026,120.496215820312,0.371841206479172,850.358459472656,829.499389648438,125.31530545488,3.41461181640625,0.0324887756831477,NaN,2.87692306284674,2.93624709776971,1725.08713585606,0.0871354341506958,0.0871354341506958,0.0871354341506958,785.779267755337,833.916778658752,1619.69604641409,,,35.6700000762939,20.8590698242188,14208.8371123221,14396.3225206016
2011-06-01T05:08:47Z,1306904927,27B0E,55.7599544,25.5671007,844.86,4.5,-4.7,118.2,-48802.32,-66606.82,118.8,Weapon+Missile,Blue,Enemies,AIM-120B,,us,,121.044391944959,116.364631652832,0.359012443415623,844.861511230469,823.861511230469,120.919511995987,-5.4969482421875,0.0526430671016062,NaN,2.4769232793887,4.19619501848903,1652.47044750708,0.109989501535892,0.109989501535892,0.109989501535892,732.587241066247,828.526113910828,1561.11335497707,,,36.6700000762939,21,14329.853886512,14517.4801402009
2011-06-01T05:08:48Z,1306904928,27B0E,55.7609675,25.5666073,831.09,6.7,-8.9,118.2,-48701.06,-66662.41,118.7,Weapon+Missile,Blue,Enemies,AIM-120B,,us,,116.333689445556,111.896263122559,0.344986160317928,831.087707519531,810.087707519531,115.515408631696,-13.7738037109375,0.0550329923865866,NaN,2.10769307125474,4.18498368985328,1612.83644532289,0.141544252634048,0.141544252634048,0.141544252634048,676.676365000755,815.018626694641,1491.6949916954,,,37.6700000762939,21,14445.4661836206,14633.9251199478
2011-06-01T05:08:49Z,1306904929,27B0E,55.7619499,25.5661301,809.46,8.6,-13,118.1,-48602.86,-66716.2,118.7,Weapon+Missile,Blue,Enemies,AIM-120B,,us,,114.031436535058,109.788383483887,0.338074968451309,809.462280273438,788.462280273438,111.962089185013,-21.6254272460938,0.0755418508153297,NaN,1.81538573421393,4.09733699487639,1612.92429869746,0.163464546203613,0.163464546203613,0.163464546203613,650.158425912447,793.811327084351,1443.9697529968,,,38.6700000762939,21,14557.5100765206,14748.0510253195
2011-06-01T05:08:50Z,1306904930,27B0E,55.7628938,25.5656735,780.7,10,-17.1,118,-48508.51,-66767.65,118.5,Weapon+Missile,Blue,Enemies,AIM-120B,,us,,111.254288533147,107.254112243652,0.329732659126099,780.702270507812,759.127696990967,107.47268748523,-28.760009765625,0.115183764364491,NaN,1.33846094522862,3.94735543221301,1618.82449673663,0.182422637939453,0.182422637939453,0.182422637939453,618.875835850835,765.607392107544,1384.48322795838,,,39.6700000762939,21.5745735168457,14665.0722051642,14859.4046706844
2011-06-01T05:08:51Z,1306904931,27B0E,55.7638117,25.5652323,744.94,11.3,-20.9,117.8,-48416.75,-66817.37,118.4,Weapon+Missile,Blue,Enemies,AIM-120B,,us,,110.320242786206,106.532203674316,0.32683040152849,744.937683105469,722.937683105469,104.362111210667,-35.7645874023438,0.0999705317395734,NaN,1.1384610534996,3.85010421060261,1665.02927338124,0.196076557040215,0.196076557040215,0.196076557040215,608.527798420377,730.534313002624,1339.062111423,,,40.6700000762939,22,14769.5146029775,14969.8126846875
2011-06-01T05:08:52Z,1306904932,27B0E,55.7647004,25.5648088,702.73,12.2,-24.6,117.6,-48327.92,-66865.11,118.1,Weapon+Missile,Blue,Enemies,AIM-120B,,us,,109.323121302435,105.778610229492,0.323719935458338,702.734619140625,680.587408065796,100.848630349084,-42.2030639648438,0.0254980840175789,NaN,0.769231272252469,3.75325084751136,1730.18274874787,0.210720106959343,0.210720106959343,0.210720106959343,597.577242565341,689.147245279541,1286.72448784488,,,41.6700000762939,22.1472110748291,14870.4390739691,15079.2163385838
2011-06-01T05:08:53Z,1306904933,27B0E,55.7655688,25.5643994,654.1,12.9,-28.1,117.3,-48241.1,-66911.26,117.9,Weapon+Missile,Blue,Enemies,AIM-120B,,us,,109.691908999502,106.380477905273,0.324631355808606,654.097717285156,631.186098098755,98.3197166282351,-48.6369018554688,0.0502504405311533,NaN,0.769229564705176,3.55051482468951,1828.52729000122,0.217501506209373,0.217501506209373,0.217501506209373,601.615744997747,641.450737921448,1243.0664829192,,,42.6700000762939,22.9116191864014,14968.8356149762,15188.9864950796
2011-06-01T05:08:54Z,1306904934,27B0E,55.7664171,25.5640046,599.36,13.4,-31.5,117,-48156.29,-66955.77,117.5,Weapon+Missile,Blue,Enemies,AIM-120B,,us,,110.32765191833,107.275344848633,0.326308730305996,599.355346679688,576.355346679688,95.7886404450218,-54.7423706054688,0.0566895403508693,NaN,0.384614782352588,3.33222219225932,1942.69437168833,0.223475277423859,0.223475277423859,0.223475277423859,608.609538890608,587.766811051636,1196.37634994224,,,43.6700000762939,23,15064.701187723,15299.3891280048
2011-06-01T05:08:55Z,1306904935,27B0E,55.7672442,25.5636256,538.94,13.8,-34.6,116.6,-48073.59,-66998.52,117.1,Weapon+Missile,Blue,Enemies,AIM-120B,,us,,110.974490738869,108.213218688965,0.327995704136323,538.935363769531,515.935363769531,93.0847101294713,-60.4199829101562,0.0570653196776944,NaN,0.399999783458042,3.1422513661094,2159.12613764653,0.251226097345352,0.251226097345352,0.251226097345352,615.766879737563,528.515048511047,1144.28192824861,,,44.6700000762939,23,15157.851923737,15410.4259804351
2011-06-01T05:08:56Z,1306904936,27B0E,55.7680533,25.5632611,473.2,13.4,-36.7,116.2,-47992.68,-67039.63,116.8,Weapon+Missile,Blue,Enemies,AIM-120B,,us,,112.065357970986,109.61661529541,0.330971956639689,473.201538085938,450.114685058594,90.7618235722711,-65.7338256835938,0.15691130838707,NaN,0.984640070749038,1.65394941070392,5000,0.735938370227814,0.735938370227814,0.735938370227814,627.932222858258,464.052186347046,1091.9844092053,,,45.6700000762939,23.0868530273438,15248.6748468212,15522.5466664752
2011-06-01T05:08:57Z,1306904937,27B0E,55.7688731,25.5628976,405.95,11,-35.9,115.9,-47910.7,-67080.67,116.4,Weapon+Missile,Blue,Enemies,AIM-120B,,us,,113.700368271603,111.569793701172,0.335544018132614,405.949981689453,382.766153335571,91.6787974798352,-67.2515563964844,0.0435653155017811,NaN,2.30772967525055,0.389167450279945,5000,0.960517883300781,0.960517883300781,0.960517883300781,646.388687254908,398.100938793488,1044.4896260484,,,46.6700000762939,23.1838283538818,15340.4100842384,15636.2976472161
2011-06-01T05:08:58Z,1306904938,27B0E,55.7697099,25.5625308,339.28,9,-35.2,115.7,-47827.01,-67122.06,116.2,Weapon+Missile,Blue,Enemies,AIM-120B,,us,,114.724485221475,112.927825927734,0.33831009587837,339.284606933594,316.284606933594,93.367206866186,-66.6653747558594,0.0284356266647467,NaN,1.90769915594124,0.699428766647348,5000,0.94651597738266,0.94651597738266,0.94651597738266,658.085375466617,332.724539058533,990.809914525149,,,47.6700000762939,23,15433.8409287091,15751.0783723899
