ISOTime,UnixTime,Id,Longitude,Latitude,Altitude,Roll,Pitch,Yaw,U,V,Heading,Type,Color,Coalition,Name,Group,Country,Pilot,TAS,CAS,M,ASL,AGL,GS,VS,AOA,AOS,RRT,TRT,TRD,G,LatG,LonG,Ek,Ep,Em,FFW,FFV,RelativeTime,Elev,GroundDistance,AirDistance
2011-06-01T05:06:43Z,1306904803,290A,55.6185328,25.4351839,802.92,-80.9,5.6,33.3,-63160.98,-81077.17,33.9,Weapon+Missile,Blue,Enemies,R-27ER,,ru,,299.458471577062,290.175476074219,0.88775359013589,802.919982910156,779.140502929688,NaN,NaN,NaN,NaN,NaN,NaN,NaN,NaN,NaN,NaN,NaN,787.395525040588,NaN,,,0.389999866485596,23.7794799804688,NaN,NaN
2011-06-01T05:06:44Z,1306904804,290A,55.6206256,25.437521,813.88,-65.4,2.5,33.6,-62947.84,-80820.51,34.2,Weapon+Missile,Blue,Enemies,R-27ER,,ru,,333.806935203471,323.775604248047,0.989704999903143,813.876159667969,790.876159667969,333.627085502341,10.9561767578125,4.9258815607763,NaN,14.8615490678423,10.5471485588898,2952.34279842832,4.06144285202026,4.06144285202026,4.06144285202026,5571.35349949673,798.139864120789,6369.49336361752,,,1.3899998664856,23,334.581897695313,334.803618351058
2011-06-01T05:06:45Z,1306904805,290A,55.6235556,25.4416013,808.78,-52.5,-0.8,27.3,-62648.5,-80371.64,27.9,Weapon+Missile,Blue,Enemies,R-27ER,,ru,,539.548019398907,518.875732421875,1.59961373506097,808.779968261719,786.779968261719,539.523951340841,-5.09619140625,0.233936085934008,NaN,12.6461567199811,6.19282152987655,2890.79792235086,12.13796043396,12.13796043396,12.13796043396,14555.6032618642,793.142207575379,15348.7454694396,,,2.3899998664856,22,875.941258796633,876.255826239176
2011-06-01T05:06:46Z,1306904806,290A,55.6264645,25.447986,786.33,-42.2,-1.8,19.1,-62348.69,-79667.51,19.7,Weapon+Missile,Blue,Enemies,R-27ER,,ru,,765.630419881915,730.26220703125,2.2693025117083,786.328430175781,752.846157073975,765.301161822019,-22.4515380859375,0.876967648988306,NaN,9.52312102388451,5.55882672252986,5000,2.79950737953186,2.79950737953186,2.79950737953186,29309.4969924279,771.124769978333,30080.6217624062,,,3.3899998664856,33.4822731018066,1644.48824022048,1645.22673774276
2011-06-01T05:06:47Z,1306904807,290A,55.6297908,25.4561047,762.54,-34.6,-1.2,21.5,-62004.96,-78771.76,22.1,Weapon+Missile,Blue,Enemies,R-27ER,,ru,,959.733032789548,913.608093261719,2.84384046634747,762.535339355469,734.86083984375,959.438055872624,-23.7930908203125,0.0299159765723681,NaN,7.32305562052087,0.382830768957892,5000,3.79934763908386,3.79934763908386,3.79934763908386,46054.3747113712,747.791718569031,46802.1664299402,,,4.3899998664856,27.6744995117188,2608.11730052871,2609.26646041499
2011-06-01T05:06:48Z,1306904808,290A,55.6334497,25.4641558,744.46,-28.4,-0.9,23.5,-61627.9,-77883.83,24.1,Weapon+Missile,Blue,Enemies,R-27ER,,ru,,964.841526568866,919.184020996094,2.85838569933978,744.456115722656,718.456115722656,964.672127235246,-18.0792236328125,0.0352976622490715,NaN,5.89232906488913,2.09968296690561,5000,4.03342294692993,4.03342294692993,4.03342294692993,46545.958569587,730.062056725159,47276.0206263122,,,5.3899998664856,26,3576.87414740659,3578.30641885756
2011-06-01T05:06:49Z,1306904809,290A,55.6373998,25.4720093,734.06,-23.4,-0.4,25.6,-61221.83,-77018.09,26.2,Weapon+Missile,Blue,Enemies,R-27ER,,ru,,956.291828807437,911.540405273438,2.8327195063618,734.057678222656,709.057678222656,956.235292353002,-10.3984375,0.0510467609479428,NaN,4.75382532270721,2.2147601284761,5000,4.18066596984863,4.18066596984863,4.18066596984863,45724.7030921936,719.864673014221,46444.5677652078,,,6.3899998664856,25,4537.03558148202,4538.63543904509
2011-06-01T05:06:50Z,1306904810,290A,55.6416217,25.4796153,732.74,-19.4,0.2,27.9,-60788.78,-76180.02,28.5,Weapon+Missile,Blue,Enemies,R-27ER,,ru,,943.350229250754,899.369201660156,2.79434189919137,732.741516113281,707.256469726562,943.34931109571,-1.316162109375,0.0735456379075563,NaN,3.87690758045303,2.17446521402419,5000,3.74991774559021,3.74991774559021,3.74991774559021,44495.4827513725,718.573958899231,45214.0567102717,,,7.3899998664856,25.4850463867188,5484.09130308823,5485.80097372297
2011-06-01T05:06:51Z,1306904811,290A,55.6460604,25.4869718,739.44,-16,0.5,29.3,-60334.26,-75369.78,29.9,Weapon+Missile,Blue,Enemies,R-27ER,,ru,,929.038521669654,885.586120605469,2.75215951104815,739.436889648438,716.436889648438,929.014395324077,6.69537353515625,0.0934746544538031,NaN,3.27693693356994,1.37301017648466,5000,1.50236415863037,1.50236415863037,1.50236415863037,43155.6287373068,725.139877387085,43880.7686146939,,,8.3899998664856,23,6416.6092878298,6418.4506115994
2011-06-01T05:06:52Z,1306904812,290A,55.6505876,25.4942644,745.91,-13,0.3,29.5,-59870.97,-74566.71,30.1,Weapon+Missile,Blue,Enemies,R-27ER,,ru,,927.146494669965,883.541809082031,2.74675833239126,745.913024902344,723.913024902344,927.123876432366,6.47613525390625,0.0386611025620615,NaN,2.83075482603886,0.371679044394819,5000,0.706386744976044,0.706386744976044,0.706386744976044,42980.0311289402,731.490796565857,43711.521925506,,,9.3899998664856,22,7347.18566267529,7349.15787514237
2011-06-01T05:06:53Z,1306904813,290A,55.6551429,25.501563,749.2,-10.6,0.1,29.5,-59404.91,-73762.99,30.1,Weapon+Missile,Blue,Enemies,R-27ER,,ru,,929.079599466303,885.233825683594,2.75258903580574,749.202270507812,725.202270507812,929.073776945519,3.28924560546875,0.035158162618644,NaN,2.30770918468304,0.158258924844207,5000,0.784725308418274,0.784725308418274,0.784725308418274,43159.4451072233,734.716444607544,43894.1615518308,,,10.3899998664856,24,8279.70865397909,8281.79596429295
2011-06-01T05:06:54Z,1306904814,290A,55.6595826,25.50867,750.33,-8.7,0,29.5,-58950.72,-72980.36,30.1,Weapon+Missile,Blue,Enemies,R-27ER,,ru,,904.876611074098,862.366882324219,2.68091741429263,750.332275390625,727.332275390625,904.875905501915,1.1300048828125,0.0248410254987429,NaN,1.93846745060486,0.158875923045969,5000,0.864390194416046,0.864390194416046,0.864390194416046,40940.0840634473,735.824600845947,41675.9086642932,,,11.3899998664856,23,9187.94252841756,9190.13730696285
2011-06-01T05:06:55Z,1306904815,290A,55.6636629,25.5152297,749.98,-7.2,0.1,29.4,-58533.32,-72257.96,30,Weapon+Missile,Blue,Enemies,R-27ER,,ru,,834.314739750941,795.940856933594,2.47185059597305,749.976135253906,725.538770675659,834.314663738977,-0.35614013671875,0.0765354217752782,NaN,1.36920362668285,0.371679044394819,5000,2.03876948356628,2.03876948356628,2.03876948356628,34804.054248284,735.475346678772,35539.5295949628,,,12.3899998664856,24.4373645782471,10025.3616276499,10027.6549736013
2011-06-01T05:06:56Z,1306904816,290A,55.6674351,25.5213152,759.63,-6.3,1.3,29.3,-58147.45,-71587.77,29.9,Weapon+Missile,Blue,Enemies,R-27ER,,ru,,773.397697164959,738.396545410156,2.29162317155647,759.630004882812,736.662504196167,773.337443022934,9.65386962890625,0.0374972999694859,NaN,0.969226895113258,0.936103892733281,5000,2.36680555343628,2.36680555343628,2.36680555343628,29907.1998990031,744.942558738403,30652.1424577415,,,13.3899998664856,22.9675006866455,10801.5868602532,10804.0320893365
2011-06-01T05:06:57Z,1306904817,290A,55.6709079,25.526935,781.32,-5.5,2.2,29.2,-57792.22,-70968.83,29.8,Weapon+Missile,Blue,Enemies,R-27ER,,ru,,713.96743622279,682.076538085938,2.11605360082901,781.316162109375,757.316162109375,713.638010878967,21.6861572265625,0.0741463376700485,NaN,0.769238956215285,0.796310944599159,5000,1.82727086544037,1.82727086544037,1.82727086544037,25487.4749993272,766.20941411499,26253.6844134422,,,14.3899998664856,24,11517.8812495709,11520.7411709627
2011-06-01T05:06:58Z,1306904818,290A,55.6741413,25.5321873,809.24,-4.6,2.4,29.2,-57461.49,-70390.36,29.7,Weapon+Missile,Blue,Enemies,R-27ER,,ru,,666.926739958281,637.387634277344,1.9772676596237,809.243835449219,786.879440307617,666.341745302816,27.9276733398438,0.0495170390323346,NaN,0.938460307996936,0.270520447651065,5000,0.900253236293793,0.900253236293793,0.900253236293793,22239.563823569,793.597105890808,23033.1609294598,,,15.3899998664856,22.3643951416016,12186.7124508327,12190.2385142956
2011-06-01T05:06:59Z,1306904819,290A,55.6771568,25.5370847,834.32,-3.7,2.2,29.2,-57153.06,-69850.96,29.8,Weapon+Missile,Blue,Enemies,R-27ER,,ru,,621.856670539337,594.802368164062,1.84417680451457,834.315368652344,814.315368652344,621.351057709822,25.071533203125,0.0209625443766818,NaN,0.969226895113258,0.153233533121091,5000,0.760049760341644,0.760049760341644,0.760049760341644,19335.2859347135,818.183880999451,20153.4698157129,,,16.3899998664856,20,12810.3873449776,12814.4974302889
2011-06-01T05:07:00Z,1306904820,290A,55.6799622,25.5416289,855.3,-2.9,1.9,29.3,-56866.17,-69350.48,29.9,Weapon+Missile,Blue,Enemies,R-27ER,,ru,,577.261891968152,552.909484863281,1.71233910411683,855.302307128906,834.390249252319,576.880265160832,20.9869384765625,0.0348078835927664,NaN,0.769230845365645,0.255645042690718,5000,0.719023168087006,0.719023168087006,0.719023168087006,16661.5645959325,838.765037020569,17500.3296329531,,,17.3899998664856,20.9120578765869,13389.430314858,13393.9972487048
2011-06-01T05:07:01Z,1306904821,290A,55.6826106,25.5459096,872.41,-2.3,1.7,29.3,-56595.36,-68879,29.9,Weapon+Missile,Blue,Enemies,R-27ER,,ru,,543.985279324408,521.689147949219,1.61394726527165,872.406127929688,850.539733886719,543.716326254481,17.1038208007812,0.0318812988009362,NaN,0.676937060432202,0.289391940162693,5000,0.811246454715729,0.811246454715729,0.811246454715729,14795.9992060827,855.538155446167,15651.5373615289,,,18.3899998664856,21.8663940429688,13935.1706925578,13940.0794612179
2011-06-01T05:07:02Z,1306904822,290A,55.6850876,25.5499039,886.6,-1.9,1.7,29.4,-56342.11,-68439.08,30,Weapon+Missile,Blue,Enemies,R-27ER,,ru,,507.811312774536,487.869659423828,1.50686865261066,886.603088378906,864.393888473511,507.612820657438,14.1969604492188,0.0592731591868482,NaN,0.338478988943268,0.158875923045969,5000,1.5306396484375,1.5306396484375,1.5306396484375,12893.6164690899,869.4606176651,13763.077086755,,,19.3899998664856,22.2091999053955,14444.680067944,14449.8568210121
2011-06-01T05:07:03Z,1306904823,290A,55.6874329,25.553668,905.12,-2.1,3.1,29.5,-56102.34,-68024.51,30.1,Weapon+Missile,Blue,Enemies,R-27ER,,ru,,479.267193590898,461.031677246094,1.42247008968058,905.118408203125,883.519836425781,478.909412920963,18.5153198242188,0.083357171732301,NaN,0.369267347287569,1.11404611542457,5000,2.22091221809387,2.22091221809387,2.22091221809387,11484.8521426247,887.617943780518,12372.4700864053,,,20.3899998664856,21.5985717773438,14925.3648630119,14930.9655423173
2011-06-01T05:07:04Z,1306904824,290A,55.6896221,25.5571645,933.83,-2.1,4.3,29.6,-55878.58,-67639.43,30.2,Weapon+Missile,Blue,Enemies,R-27ER,,ru,,446.296359599389,429.842346191406,1.32504967065281,933.827697753906,917.424987792969,445.371998766375,28.7092895507812,0.0732586010333317,NaN,0.199987938897973,1.20421421742226,5000,1.58363604545593,1.58363604545593,1.58363604545593,9959.02202958334,915.772139217834,10874.7941688012,,,21.3899998664856,16.4027099609375,15372.4001846735,15378.9861047463
2011-06-01T05:07:05Z,1306904825,290A,55.6916768,25.5604401,966.22,-1.8,4.4,29.6,-55668.57,-67278.67,30.2,Weapon+Missile,Blue,Enemies,R-27ER,,ru,,418.689000923873,403.476837158203,1.24354714022379,966.221496582031,953.749450683594,417.433972374212,32.393798828125,0.0310101389848426,NaN,0.523078938528025,0.277306880921708,5000,0.866953313350677,0.866953313350677,0.866953313350677,8765.02397473156,947.539603945618,9712.56357867718,,,22.3899998664856,12.4720458984375,15791.3695664686,15799.2681493498
2011-06-01T05:07:06Z,1306904826,290A,55.6936127,25.5635292,995.5,-1.4,4.1,29.6,-55470.71,-66938.45,30.2,Weapon+Missile,Blue,Enemies,R-27ER,,ru,,394.659916344012,380.351043701172,1.17257365199796,995.497680664062,984.497680664062,393.572553176994,29.2761840820312,0.0543345131892002,NaN,0.384642743439503,0.30438601965987,5000,0.737006962299347,0.737006962299347,0.737006962299347,7787.82247843314,976.249733008423,8764.07221144156,,,23.3899998664856,11,16186.3968440003,16195.4393797126
2011-06-01T05:07:07Z,1306904827,290A,55.6954152,25.5664102,1020.3,-1,3.7,29.5,-55286.5,-66621.16,30.1,Weapon+Missile,Blue,Enemies,R-27ER,,ru,,367.724053283041,354.24267578125,1.09285676449793,1020.29608154297,1009.29608154297,366.886929007777,24.7984008789062,0.0262624522637748,NaN,0.246151693394209,0.300666928295945,5000,0.864188611507416,0.864188611507416,0.864188611507416,6761.04896814544,1000.56865680634,7761.61762495177,,,24.3899998664856,11,16554.6589340187,16564.5935377687
2011-06-01T05:07:08Z,1306904828,290A,55.697104,25.5691133,1042.31,-0.8,3.6,29.5,-55113.9,-66323.43,30.1,Weapon+Missile,Blue,Enemies,R-27ER,,ru,,344.843223236536,331.728515625,1.02511621415628,1042.30615234375,1031.27242660522,344.140095594088,22.0100708007812,0.313012438916553,NaN,0.199987938897973,0.79119513291082,5000,0.824377059936523,0.824377059936523,0.824377059936523,5945.84243060816,1022.15316288818,6967.99559349635,,,25.3899998664856,11.0337257385254,16900.0729982763,16910.7638796926
2011-06-01T05:07:09Z,1306904829,290A,55.698733,25.5716252,1059.36,-0.2,2.7,30.9,-54947.54,-66046.84,31.4,Weapon+Missile,Blue,Enemies,R-27ER,,ru,,323.214101473433,310.397827148438,0.961008284220479,1059.35998535156,1049.31005859375,322.763879904522,17.0538330078125,0.0690286588085073,NaN,0.200042580411333,0.789771625438254,5000,0.880039751529694,0.880039751529694,0.880039751529694,5223.36776956394,1038.87726003479,6262.24502959873,,,26.3899998664856,10.0499267578125,17224.023141144,17235.2158965324
2011-06-01T05:07:10Z,1306904830,290A,55.7002769,25.5739718,1074.06,-0.2,2.8,30.7,-54789.9,-65788.46,31.3,Weapon+Missile,Blue,Enemies,R-27ER,,ru,,303.031681912983,290.530853271484,0.901152942527219,1074.05541992188,1065.56623649597,302.675146726322,14.6954345703125,0.0483916455995973,NaN,0,0.0383083399245797,5000,1.05938839912415,1.05938839912415,1.05938839912415,4591.41001215056,1053.28855837769,5644.69857052824,,,27.3899998664856,8.48918342590332,17527.7824272605,17539.3811895277
2011-06-01T05:07:11Z,1306904831,290A,55.7017281,25.5761891,1088.49,-0.2,3,30.6,-54641.73,-65544.3,31.2,Weapon+Missile,Blue,Enemies,R-27ER,,ru,,285.964067118357,273.755767822266,0.850539080971616,1088.48693847656,1080.44418334961,285.599683044429,14.4315185546875,0.0575010630506937,NaN,0,0.180497220368975,5000,1.06388354301453,1.06388354301453,1.06388354301453,4088.77238414362,1067.44104352112,5156.21342766474,,,28.3899998664856,8.04275512695312,17814.4188622702,17826.4292236861
2011-06-01T05:07:12Z,1306904832,290A,55.7031115,25.5783139,1102.9,-0.3,3.1,30.5,-54500.46,-65310.33,31.1,Weapon+Missile,Blue,Enemies,R-27ER,,ru,,273.69441548052,261.681976318359,0.814181061408002,1102.89611816406,1094.63709259033,273.314852516209,14.4091796875,0.0391290270753361,NaN,0.200042580411333,0.158567724099886,5000,1.06164598464966,1.06164598464966,1.06164598464966,3745.43165326118,1081.57162171936,4827.00327498055,,,29.3899998664856,8.25902557373047,18088.7251834152,18101.1607956163
2011-06-01T05:07:13Z,1306904833,290A,55.7044115,25.5803201,1117.07,-0.3,3.2,30.4,-54367.71,-65089.41,30.9,Weapon+Missile,Blue,Enemies,R-27ER,,ru,,258.127581355353,246.446990966797,0.767998818256254,1117.06689453125,1108.06689453125,257.738311768964,14.1707763671875,0.0371378125668897,NaN,0,0.180768040037609,5000,1.0599879026413,1.0599879026413,1.0599879026413,3331.49241281822,1095.46840612549,4426.96081894371,,,30.3899998664856,9,18347.402433306,18360.2708542402
2011-06-01T05:07:14Z,1306904834,290A,55.7056494,25.5822391,1131.19,-0.3,3.3,30.3,-54241.29,-64878.09,30.8,Weapon+Missile,Blue,Enemies,R-27ER,,ru,,246.64523191288,235.20002746582,0.733955476948253,1131.18762207031,1122.18762207031,246.240686075892,14.1207275390625,0.0518538802699507,NaN,0,0.180768040037609,5000,1.05600523948669,1.05600523948669,1.05600523948669,3041.69352126792,1109.31610939758,4151.0096306655,,,31.3899998664856,9,18594.5506018751,18607.8655738544
2011-06-01T05:07:15Z,1306904835,290A,55.7068309,25.5840778,1145.25,-0.3,3.5,30.2,-54120.64,-64675.6,30.7,Weapon+Missile,Blue,Enemies,R-27ER,,ru,,236.132987393456,224.915176391602,0.702787840215105,1145.25073242188,1137.14385986328,235.713844868301,14.0631103515625,0.0528549017391843,NaN,0,0.141274312111435,5000,1.05029678344727,1.05029678344727,1.05029678344727,2787.93938676789,1123.1073095105,3911.04669627839,,,32.3899998664856,8.10687255859375,18831.1207378825,18844.8954809977
2011-06-01T05:07:16Z,1306904836,290A,55.7079611,25.5858433,1159.23,-0.3,3.6,30.1,-54005.21,-64481.17,30.6,Weapon+Missile,Blue,Enemies,R-27ER,,ru,,226.547830184639,215.546798706055,0.674369132216223,1159.23229980469,1151.23229980469,226.115977177394,13.9815673828125,0.0496150040684926,NaN,0,0.18157805778449,5000,1.04880702495575,1.04880702495575,1.04880702495575,2566.19596806839,1136.81854328796,3703.01451135635,,,33.3899998664856,8,19058.0693165652,19072.3152531575
2011-06-01T05:07:17Z,1306904837,290A,55.709032,25.587522,1173,-0.3,3.8,30,-53895.83,-64296.29,30.6,Weapon+Missile,Blue,Enemies,R-27ER,,ru,,215.255293812081,204.560165405273,0.640856428366072,1172.99609375,1165.81341218948,214.814802772892,13.7637939453125,0.0274667519313719,NaN,0,0.176938918595023,5000,1.06545829772949,1.06545829772949,1.06545829772949,2316.74207570627,1150.31621427734,3467.05828998362,,,34.3899998664856,7.18268156051636,19273.664355021,19288.38852892
2011-06-01T05:07:18Z,1306904838,290A,55.7100585,25.5891318,1186.84,-0.3,4,30.1,-53790.99,-64119,30.7,Weapon+Missile,Blue,Enemies,R-27ER,,ru,,206.432948201762,195.968307495117,0.614689069434353,1186.84375,1178.95386219025,205.967969644926,13.84765625,0.0448832318386045,NaN,0,0.252564840818454,5000,1.09581553936005,1.09581553936005,1.09581553936005,2130.72810516357,1163.89612609375,3294.62423125732,,,35.3899998664856,7.88988780975342,19480.392917001,19495.6185206877
2011-06-01T05:07:19Z,1306904839,290A,55.7110463,25.5906621,1200.94,-0.3,4.3,30.7,-53690.14,-63950.47,31.2,Weapon+Missile,Blue,Enemies,R-27ER,,ru,,196.898489946177,186.710556030273,0.586394230120607,1200.93688964844,1192.98962974548,196.393479418067,14.0931396484375,0.0708330962589166,NaN,0,0.606203674748403,5000,1.13452875614166,1.13452875614166,1.13452875614166,1938.45076715425,1177.71677488708,3116.16754204133,,,36.3899998664856,7.9472599029541,19677.5066525386,19693.2722289129
2011-06-01T05:07:20Z,1306904840,290A,55.7120199,25.592122,1215.47,-0.2,4.6,31.7,-53590.77,-63789.73,32.3,Weapon+Missile,Blue,Enemies,R-27ER,,ru,,189.53082115584,179.541427612305,0.564547157672472,1215.47302246094,1207.15878009796,188.972572112633,14.5361328125,0.0443539976587349,NaN,0.123103114092931,1.08178030178543,5000,1.16827785968781,1.16827785968781,1.16827785968781,1796.09660840034,1191.97185157166,2988.068459972,,,37.3899998664856,8.31424236297607,19867.1591536952,19883.5168042464
2011-06-01T05:07:21Z,1306904841,290A,55.712983,25.5934972,1230.28,-0.1,4.8,33.2,-53492.57,-63638.36,33.7,Weapon+Missile,Blue,Enemies,R-27ER,,ru,,181.045801443491,171.318313598633,0.539365693021463,1230.28308105469,1221.28308105469,180.43903232052,14.81005859375,0.0473840581865449,NaN,0.199987938897973,1.39637070410658,5000,1.16194117069244,1.16194117069244,1.16194117069244,1638.8791110158,1206.4955576825,2845.37466869829,,,38.3899998664856,9,20048.2228926059,20065.2198255454
2011-06-01T05:07:22Z,1306904842,290A,55.713935,25.594785,1245.11,0.1,4.7,34.4,-53395.57,-63496.66,35,Weapon+Missile,Blue,Enemies,R-27ER,,ru,,172.358654222493,162.920455932617,0.513573429452133,1245.10998535156,1236.10998535156,171.719738511216,14.826904296875,0.28105032353337,NaN,0.3999879373487,1.28907664981702,5000,0.490789473056793,0.490789473056793,0.490789473056793,1485.37528426945,1221.03578378479,2706.41106805424,,,39.3899998664856,9,20220.5190025474,20238.1860332396
2011-06-01T05:07:23Z,1306904843,290A,55.7148697,25.5960226,1254.19,1.5,1.5,34.4,-53300.37,-63360.5,35,Weapon+Missile,Blue,Enemies,R-27ER,,ru,,166.390030237563,157.169448852539,0.495841003017521,1254.1884765625,1245.41540527344,166.142177546191,9.0784912109375,0.0533660646337271,NaN,1.33846179900227,2.58108473144845,2882.08491883987,0.0394937060773373,0.0394937060773373,0.0394937060773373,1384.28210812286,1229.93874236816,2614.22085049102,,,40.3899998664856,8.7730712890625,20387.2092992781,20405.1559796772
2011-06-01T05:07:24Z,1306904844,290A,55.7157685,25.5972128,1253.69,2.7,-2,34.4,-53208.82,-63229.55,35,Weapon+Missile,Blue,Enemies,R-27ER,,ru,,159.776320955025,150.881088256836,0.476129428981889,1253.68615722656,1246.2909245491,159.775531334457,-0.5023193359375,0.104366229991768,NaN,1.13846148038643,3.33463431625339,2718.15324331101,0.0581520088016987,0.0581520088016987,0.0581520088016987,1276.42363689616,1229.44613537659,2505.86977227275,,,41.3899998664856,7.39523267745972,20547.5127333761,20565.4917161847
2011-06-01T05:07:25Z,1306904845,290A,55.7166337,25.598358,1244.15,3.6,-5.2,34.4,-53120.69,-63103.55,35,Weapon+Missile,Blue,Enemies,R-27ER,,ru,,154.058092751633,145.509735107422,0.45903854059086,1244.15222167969,1237.15222167969,153.762804394492,-9.533935546875,0.0260183286767298,NaN,0.784615419584276,3.37694627094456,2574.56428512933,0.0676213875412941,0.0676213875412941,0.0676213875412941,1186.69479711354,1220.09653847351,2406.79133558705,,,42.3899998664856,7,20701.779342465,20720.08280094
2011-06-01T05:07:26Z,1306904846,290A,55.7174748,25.59947,1225.88,4.5,-8.7,34.5,-53035.04,-62981.22,35,Weapon+Missile,Blue,Enemies,R-27ER,,ru,,150.450595750515,142.201965332031,0.448194599606408,1225.87841796875,1218.87841796875,149.336699640842,-18.2738037109375,0.0232047436653723,NaN,0.769230418478822,3.45806885460363,2489.51079493886,0.0726319551467896,0.0726319551467896,0.0726319551467896,1131.76908808425,1202.17605875732,2333.94514684158,,,43.3899998664856,7,20851.6115855,20871.0540822658
2011-06-01T05:07:27Z,1306904847,290A,55.7182926,25.6005489,1199.16,5.2,-12.2,34.5,-52951.74,-62862.52,35.1,Weapon+Missile,Blue,Enemies,R-27ER,,ru,,147.452479308626,139.525817871094,0.439127329215772,1199.1630859375,1192.1630859375,145.012153589693,-26.71533203125,0,NaN,0.676922973167039,3.49290559413504,2440.22358090968,0.0834484621882439,0.0834484621882439,0.0834484621882439,1087.11168271303,1175.9772676709,2263.08895038393,,,44.3899998664856,7,20997.0993048242,21019.0014851493
2011-06-01T05:07:28Z,1306904848,290A,55.7190827,25.6015873,1164.58,5.7,-15.7,34.6,-52871.29,-62748.27,35.2,Weapon+Missile,Blue,Enemies,R-27ER,,ru,,143.946334839843,136.410339355469,0.428514247860688,1164.58459472656,1157.58459472656,139.731439767146,-34.5784912109375,0.0485797069820747,NaN,0.369230635020781,3.44754545408334,2389.3913315812,0.0885988771915436,0.0885988771915436,0.0885988771915436,1036.02736569121,1142.06735158752,2178.09471727874,,,45.3899998664856,7,21137.2941566246,21163.4229282425
2011-06-01T05:07:29Z,1306904849,290A,55.7198567,25.6025996,1121.96,6.2,-19.1,34.8,-52792.46,-62636.9,35.4,Weapon+Missile,Blue,Enemies,R-27ER,,ru,,142.943902120478,135.726516723633,0.425320509495819,1121.96069335938,1114.23073530197,136.441057551123,-42.6239013671875,0.0747262603850923,NaN,0.369231488794427,3.41537910507399,2408.77522052292,0.095823273062706,0.095823273062706,0.095823273062706,1021.64795767143,1100.26758335327,2121.9155410247,,,46.3899998664856,7.72995805740356,21274.1773212991,21306.8123124596
2011-06-01T05:07:30Z,1306904850,290A,55.7206064,25.6035739,1072.12,6.5,-22.5,35,-52716.14,-62529.72,35.6,Weapon+Missile,Blue,Enemies,R-27ER,,ru,,140.704108521891,133.901809692383,0.418415299239511,1072.12158203125,1065.12158203125,131.581568378565,-49.839111328125,0.0511345083569002,NaN,0.261538188603543,3.38211117461756,2425.54682875555,0.105966076254845,0.105966076254845,0.105966076254845,989.882307747007,1051.39211124268,2041.27441898968,,,47.3899998664856,7,21406.1871480128,21447.938237219
2011-06-01T05:07:31Z,1306904851,290A,55.7213408,25.604521,1014.86,6.7,-25.7,35.2,-52641.38,-62425.54,35.8,Weapon+Missile,Blue,Enemies,R-27ER,,ru,,140.429814610112,133.998687744141,0.417323971133895,1014.8623046875,1007.8623046875,128.226003562078,-57.25927734375,0.0211626942931763,NaN,0.199999891729021,3.28307193754849,2480.99515890555,0.108577162027359,0.108577162027359,0.108577162027359,986.026641571522,995.239942026367,1981.26658359789,,,48.3899998664856,7,21534.8359923103,21588.7734810487
2011-06-01T05:07:32Z,1306904852,290A,55.7220608,25.6054408,950.38,6.8,-29,35.5,-52568.09,-62324.37,36.1,Weapon+Missile,Blue,Enemies,R-27ER,,ru,,140.590777666581,134.55793762207,0.417492208728041,950.384643554688,943.384643554688,124.933574269435,-64.4776611328125,0.0914524668400353,NaN,0,3.14633560578966,2560.49418841025,0.110898174345493,0.110898174345493,0.110898174345493,988.288338244706,932.008956471558,1920.29729471626,,,49.3899998664856,7,21660.1658634394,21729.7337081035
2011-06-01T05:07:33Z,1306904853,290A,55.7227628,25.6063281,879.32,6.9,-32,35.8,-52496.63,-62226.77,36.4,Weapon+Missile,Blue,Enemies,R-27ER,,ru,,140.291455546031,134.716873168945,0.416263096563625,879.320739746094,872.320739746094,120.961208966788,-71.0639038085938,0.0657422702397662,NaN,0,3.08925315357492,2669.34209012138,0.119615502655506,0.119615502655506,0.119615502655506,984.084624961205,862.319073243103,1846.40369820431,,,50.3899998664856,7,21781.5082561903,21870.3689771293
2011-06-01T05:07:34Z,1306904854,290A,55.7234506,25.6071872,801.7,6.8,-34.9,36.1,-52426.65,-62132.3,36.7,Weapon+Missile,Blue,Enemies,R-27ER,,ru,,140.87817809862,135.772537231445,0.417631741570236,801.703063964844,794.703063964844,117.567671877532,-77.61767578125,0.0372317803746784,NaN,0.107698422832761,2.9797186905159,2806.21407493283,0.123590499162674,0.123590499162674,0.123590499162674,992.333053219318,786.202135223083,1778.5351884424,,,51.3899998664856,7,21899.4615024441,22011.5820751156
2011-06-01T05:07:35Z,1306904855,290A,55.7241256,25.6080193,717.68,6.7,-37.7,36.5,-52357.98,-62040.79,37.1,Weapon+Missile,Blue,Enemies,R-27ER,,ru,,141.946631483924,137.341217041016,0.420394274106388,717.679992675781,710.679992675781,114.407035101807,-84.0230712890625,0.0284867068772069,NaN,0.169224766876236,2.80050840051652,2926.83774342985,0.117858178913593,0.117858178913593,0.117858178913593,1007.44230948165,703.803650017395,1711.24595949905,,,52.3899998664856,7,22014.2269801576,22153.828794439
2011-06-01T05:07:36Z,1306904856,290A,55.7247921,25.6088294,626.84,6.5,-40.4,36.9,-52290.18,-61951.7,37.5,Weapon+Missile,Blue,Enemies,R-27ER,,ru,,144.166797413335,140.084457397461,0.426526364628207,626.843078613281,619.843078613281,111.949633853888,-90.8369140625,0.439288577348099,NaN,0.199987938897973,1.80214690661175,5000,0.598281145095825,0.598281145095825,0.598281145095825,1039.20327382088,614.723067688293,1653.92634150917,,,53.3899998664856,7,22126.5196196639,22298.2713093644
2011-06-01T05:07:37Z,1306904857,290A,55.7254634,25.609621,534.75,3.6,-38.9,38.2,-52221.93,-61864.67,38.8,Weapon+Missile,Blue,Enemies,R-27ER,,ru,,143.925464747756,140.445175170898,0.425365182758768,534.754577636719,527.501191616058,110.608532178793,-92.0885009765625,0.0468894262104484,NaN,2.99998300800968,0.96259392765553,4120.98933265162,1.25014293193817,1.25014293193817,1.25014293193817,1035.72697014287,524.415097878113,1560.14206802098,,,54.3899998664856,7.2533860206604,22237.4529491759,22442.4543074532
2011-06-01T05:07:38Z,1306904858,290A,55.7261844,25.6104318,444.42,1.1,-37.3,39.5,-52148.66,-61775.57,40.1,Weapon+Missile,Blue,Enemies,R-27ER,,ru,,146.515306997948,143.574081420898,0.432574166403093,444.41845703125,437.214968681335,115.352158621576,-90.3361206054688,0.0412068942476294,NaN,2.46154553535924,1.94236919616823,4703.78355396928,1.21117758750916,1.21117758750916,1.21117758750916,1073.33675923515,435.825626164551,1509.1623853997,,,55.3899998664856,7.20348834991455,22353.143923401,22589.2435136561
2011-06-01T05:07:39Z,1306904859,290A,55.7269366,25.6112413,357.44,-0.7,-35.9,40.8,-52072.27,-61686.66,41.3,Weapon+Missile,Blue,Enemies,R-27ER,,ru,,145.969824368253,143.610366821289,0.430537929311124,357.439971923828,350.27413892746,117.225990098257,-86.9784851074219,0.0550559186892175,NaN,1.70765657552991,1.67324971102938,5000,1.16209483146667,1.16209483146667,1.16209483146667,1065.35948130493,350.528870066681,1415.88835137161,,,56.3899998664856,7.16583299636841,22470.7049042787,22735.4884406533
2011-06-01T05:07:40Z,1306904860,290A,55.7277288,25.6120563,272.09,-2.5,-34.8,42.3,-51991.84,-61597.14,42.9,Weapon+Missile,Blue,Enemies,R-27ER,,ru,,147.534734537643,145.720687866211,0.434732600331607,272.0869140625,265.0869140625,120.338495124434,-85.3530578613281,0.0759652592695476,NaN,2.23079442443952,1.70299785290743,4391.28217158458,1.16824531555176,1.16824531555176,1.16824531555176,1088.32489475464,266.826113579102,1355.15100833374,,,57.3899998664856,7,22591.3549486579,22883.282264814
2011-06-01T05:07:41Z,1306904861,290A,55.7285596,25.6128533,189.12,-4.2,-33.9,44.4,-51907.57,-61509.68,45,Weapon+Missile,Blue,Enemies,R-27ER,,ru,,147.092249050718,145.834548950195,0.433021869973965,189.116928100586,182.116928100586,121.45826921325,-82.9699859619141,0.0563954257560937,NaN,1.64613023148643,1.89165333403359,4506.39582373716,1.13676881790161,1.13676881790161,1.13676881790161,1081.80648653993,185.460352295761,1267.26683883569,,,58.3899998664856,7,22713.1173301852,23030.6293659739
2011-06-01T05:07:42Z,1306904862,290A,55.7294378,25.6136383,107.11,-5.5,-33.1,46.4,-51818.54,-61423.58,47,Weapon+Missile,Blue,Enemies,R-27ER,,ru,,148.536156744374,147.817901611328,0.436867591784374,107.110763549805,100.110763549805,123.846593962287,-82.0061645507812,0.0625440976994567,NaN,1.3384438697557,1.82345197418031,5000,1.00805521011353,1.00805521011353,1.00805521011353,1103.14949301947,105.039776936569,1208.18926995604,,,59.3899998664856,7,22837.2405099712,23179.3986179654
2011-06-01T05:07:43Z,1306904863,290A,55.7303368,25.6143949,26.66,-4.8,-34.1,47.4,-51727.46,-61340.64,48,Weapon+Missile,Blue,Enemies,R-27ER,,ru,,147.123882431103,146.948211669922,0.432321469931197,26.6646137237549,19.6646137237549,123.182197414097,-80.4461498260498,0.0620895953933586,NaN,2.30769125543647,1.18273049771822,5000,0.928376019001007,0.928376019001007,0.928376019001007,1082.27183908004,26.1490534174061,1108.42089249745,,,60.3899998664856,7,22960.6839137585,23326.7423540726
