ISOTime,UnixTime,Id,Longitude,Latitude,Altitude,Roll,Pitch,Yaw,U,V,Heading,Type,Color,Coalition,Name,Group,Country,Pilot,TAS,CAS,M,ASL,AGL,GS,VS,AOA,AOS,RRT,TRT,TRD,G,LatG,LonG,Ek,Ep,Em,FFW,FFV,RelativeTime,Elev,GroundDistance,AirDistance
2011-06-01T05:09:06Z,1306904946,2BB04,55.5543018,25.5455713,226.01,19.2,3.7,95.2,-69487.95,-68782.38,95.9,Weapon+Missile,Blue,Enemies,R-77,,cn,,229.695395370497,227.517822265625,0.676477854124359,226.005386352539,224.005386352539,NaN,NaN,5.34397890048758,NaN,4.29230944048945,3.20851780574331,NaN,NaN,NaN,NaN,NaN,221.635572207413,NaN,,,0.730000019073486,2,NaN,NaN
2011-06-01T05:09:07Z,1306904947,2BB04,55.5571381,25.5454962,221.72,17.6,2.2,91.1,-69203.06,-68793.8,91.7,Weapon+Missile,Blue,Enemies,R-77,,cn,,285.1517347852,282.665161132812,0.839762036004479,221.717681884766,219.717681884766,285.11949677531,-4.28770446777344,2.74153236812125,NaN,0.800002982010668,2.88154987567919,5000,2.21140027046204,2.21140027046204,2.21140027046204,4065.57559255046,217.430770505524,4283.00636305598,,,1.73000001907349,2,284.991379058448,285.033633129875
2011-06-01T05:09:08Z,1306904948,2BB04,55.5611183,25.5455472,226.44,16,1.1,87.9,-68803.06,-68792.5,88.5,Weapon+Missile,Blue,Enemies,R-77,,cn,,400.030002025988,396.368896484375,1.1781375422055,226.440002441406,226.440002441406,400.002127756182,4.72232055664062,0.115803107867747,NaN,1.73841974755165,4.27772570595101,5000,2.94344115257263,2.94344115257263,2.94344115257263,8001.20012604562,222.061784994202,8223.26191103982,,,2.73000001907349,0,684.795066342972,684.879253575688
2011-06-01T05:09:09Z,1306904949,2BB04,55.5662527,25.5458849,232.48,14.3,0.3,84,-68286.76,-68760.67,84.7,Weapon+Missile,Blue,Enemies,R-77,,cn,,517.320003059028,509.432769775391,1.5236751056293,232.475372314453,232.475372314453,517.28479571266,6.03536987304688,0.0309539134237011,NaN,1.67694804502153,3.68963489246868,5000,3.59202790260315,3.59202790260315,3.59202790260315,13380.9992782496,227.980460990753,13608.9797392404,,,3.73000001907349,0,1201.843492703,1201.98150326734
2011-06-01T05:09:10Z,1306904950,2BB04,55.5725377,25.5466494,233.13,12.7,-0.2,80.7,-67654.34,-68682.8,81.3,Weapon+Missile,Blue,Enemies,R-77,,cn,,637.198845040777,624.401977539062,1.87677099815066,233.126922607422,233.126922607422,637.198511928202,0.65155029296875,0.0523442640875396,NaN,1.53848645016703,3.37305284967424,5000,3.87036967277527,3.87036967277527,3.87036967277527,20301.118406065,228.619413558807,20529.7378196238,,,4.73000001907349,0,1838.8064276437,1838.96802049404
2011-06-01T05:09:11Z,1306904951,2BB04,55.5797845,25.5479008,227.99,11.3,-0.6,77.9,-66924.71,-68551.99,78.5,Weapon+Missile,Blue,Enemies,R-77,,cn,,741.275176285217,724.677856445312,2.18318485938435,227.990768432617,224.376194953918,741.2573823558,-5.13615417480469,0.0708790001737069,NaN,1.38461594854498,2.8491613320784,5000,3.48109364509583,3.48109364509583,3.48109364509583,27474.444348834,223.582566924973,27698.026915759,,,5.73000001907349,3.61457347869873,2579.85553646067,2580.06171526772
2011-06-01T05:09:12Z,1306904952,2BB04,55.588065,25.5496625,218.66,9.8,-0.7,75.9,-66090.63,-68365.75,76.5,Weapon+Missile,Blue,Enemies,R-77,,cn,,854.669279418897,834.532287597656,2.51688442533675,218.657699584961,215.253901958466,854.618318905171,-9.33306884765625,0.0668708991606176,NaN,1.49236901289111,2.03673722417524,5000,2.79183864593506,2.79183864593506,2.79183864593506,36522.9788591208,214.429952963486,36737.4088120843,,,6.73000001907349,3.40379762649536,3434.31106576493,3434.59813093441
2011-06-01T05:09:13Z,1306904953,2BB04,55.5965432,25.5517144,206.37,8.8,-1,73.6,-65236.38,-68147.52,74.3,Weapon+Missile,Blue,Enemies,R-77,,cn,,881.771175677892,861.245788574219,2.59633466770845,206.365371704102,206.365371704102,881.6854909386,-12.2923278808594,0.0550229181740779,NaN,0.84617847589454,2.19414725789123,5000,3.80817914009094,3.80817914009094,3.80817914009094,38876.0203128186,202.375297242203,39078.3956100608,,,7.73000001907349,0,4315.90323405966,4316.30536372917
2011-06-01T05:09:14Z,1306904954,2BB04,55.6040839,25.5538682,187.49,8.1,-1.7,71.6,-64476.24,-67916.95,72.2,Weapon+Missile,Blue,Enemies,R-77,,cn,,794.565862390369,777.462890625,2.33906329138016,187.493835449219,187.493835449219,794.341724194022,-18.8715362548828,0.15883570256235,NaN,0.569255286185543,1.93858505792463,5000,1.35235071182251,1.35235071182251,1.35235071182251,31566.7454838076,183.868642140808,31750.6141259484,,,8.73000001907349,0,5110.26827299027,5110.91905395662
2011-06-01T05:09:15Z,1306904955,2BB04,55.6109574,25.5559459,161.7,7.3,-2.3,71.9,-63783.24,-67694.07,72.5,Weapon+Missile,Blue,Enemies,R-77,,cn,,728.416824498532,714.304016113281,2.14370684964891,161.699996948242,161.699996948242,727.959990732946,-25.7938385009766,0.216103746504411,NaN,0.769243225083516,0.878512911590497,5000,0.452490508556366,0.452490508556366,0.452490508556366,26529.5535106262,158.573527507248,26688.1270381335,,,9.73000001907349,0,5838.28791076537,5839.41540460878
2011-06-01T05:09:16Z,1306904956,2BB04,55.6171243,25.5578515,131,6.9,-3,70.2,-63161.46,-67489.48,70.8,Weapon+Missile,Blue,Enemies,R-77,,cn,,655.293652985471,644.509399414062,1.92783897665813,131.000762939453,131.000762939453,654.57415826957,-30.6992340087891,0.110171071036669,NaN,0.47691112860697,1.23474985876727,5000,2.58824777603149,2.58824777603149,2.58824777603149,21470.4885821521,128.467863188019,21598.9564453402,,,10.7300000190735,0,6492.9357047455,6494.79761728073
2011-06-01T05:09:17Z,1306904957,2BB04,55.6226554,25.5597697,104.39,5,-1.6,67.7,-62603.55,-67282.8,68.3,Weapon+Missile,Blue,Enemies,R-77,,cn,,595.550079173789,587.474243164062,1.75155013278591,104.385383605957,104.385383605957,594.955055770468,-26.6153793334961,0.114625119390637,NaN,2.23079442443952,2.81525328483069,5000,4.47351408004761,4.47351408004761,4.47351408004761,17733.9948401953,102.367092213936,17836.3619324093,,,11.7300000190735,0,7088.03346922056,7090.50123273133
2011-06-01T05:09:18Z,1306904958,2BB04,55.6275855,25.5617162,104.99,1.9,1.6,65.5,-62106.01,-67072.34,66.1,Weapon+Missile,Blue,Enemies,R-77,,cn,,540.228165409816,534.054504394531,1.58885582709241,104.993843078613,104.993843078613,540.22782275548,0.60845947265625,0.180091538383262,NaN,2.50766297263516,3.05594723019124,5000,3.12995481491089,3.12995481491089,3.12995481491089,14592.3235351028,102.963787122688,14695.2873222255,,,12.7300000190735,0,7628.48046415038,7630.95744097248
2011-06-01T05:09:19Z,1306904959,2BB04,55.6320087,25.5635609,123.1,1,2.5,65.1,-61659.53,-66872.61,65.7,Weapon+Missile,Blue,Enemies,R-77,,cn,,489.452225314579,484.690032958984,1.43981393121341,123.103843688965,123.103843688965,489.11707059076,18.1100006103516,0.044977110901529,NaN,0.569255286185543,1.40496564340339,5000,1.61971008777618,1.61971008777618,1.61971008777618,11978.1740432697,120.723630871239,12098.8976741409,,,13.7300000190735,0,8117.84260397057,8120.6633121918
2011-06-01T05:09:20Z,1306904960,2BB04,55.6360192,25.5652568,145.19,-0.1,3.7,64.8,-61254.7,-66688.92,65.4,Weapon+Missile,Blue,Enemies,R-77,,cn,,445.100935005018,441.415893554688,1.30967315654796,145.193069458008,145.193069458008,444.552481094489,22.089225769043,0.271908311653777,NaN,1.76923756108674,0.715472347399179,5000,1.55947136878967,1.55947136878967,1.55947136878967,9905.74211711707,142.385761460037,10048.1278785771,,,14.7300000190735,0,8562.63012278504,8566.00833895411
2011-06-01T05:09:21Z,1306904961,2BB04,55.6396499,25.566815,169.93,0.3,3.2,64.5,-60888.19,-66520.09,65.1,Weapon+Missile,Blue,Enemies,R-77,,cn,,404.284171273594,401.335479736328,1.18990575580384,169.929992675781,167.647322893143,403.526672937607,24.7369232177734,0.0737673985237721,NaN,0.538461698477658,0.392546739732662,5000,0.546671330928802,0.546671330928802,0.546671330928802,8172.28455711884,166.644396267395,8338.92895338623,,,15.7300000190735,2.28266978263855,8966.38607696749,8970.53131758481
2011-06-01T05:09:22Z,1306904962,2BB04,55.6429318,25.5682496,187.37,1,2.2,64,-60556.86,-66364.57,64.6,Weapon+Missile,Blue,Enemies,R-77,,cn,,366.428956916164,363.886535644531,1.07870147324306,187.374603271484,187.374603271484,366.013477931936,17.4446105957031,0.0630600522745116,NaN,0.769230845365645,0.948977305214874,5000,0.584268152713776,0.584268152713776,0.584268152713776,6713.50902333339,183.75171531723,6897.26073865062,,,16.7300000190735,0,9332.60796867914,9337.17869840006
2011-06-01T05:09:23Z,1306904963,2BB04,55.6458925,25.5695754,198.39,1,1.8,63.5,-60257.95,-66220.77,64.1,Weapon+Missile,Blue,Enemies,R-77,,cn,,331.893301933247,329.457122802734,0.977156439879725,198.393844604492,198.393844604492,331.71032571899,11.0192413330078,0.036795794328476,NaN,0.199987938897973,0.657461096179028,5000,1.00518476963043,1.00518476963043,1.00518476963043,5507.65819340769,194.557899619064,5702.21609302675,,,17.7300000190735,0,9664.52495767048,9669.28858187056
2011-06-01T05:09:24Z,1306904964,2BB04,55.6485907,25.5707874,208.52,1,1.8,66.7,-59985.52,-66089.29,67.3,Weapon+Missile,Blue,Enemies,R-77,,cn,,302.66218853351,300.234710693359,0.891196601204554,208.518447875977,208.518447875977,302.492797891932,10.1246032714844,0.0495539223614675,NaN,0.41538467784179,4.5396745596784,1975.42170298043,4.4379243850708,4.4379243850708,4.4379243850708,4580.22001839471,204.486743686295,4784.706762081,,,18.7300000190735,0,9967.20452061981,9972.14708077541
2011-06-01T05:09:25Z,1306904965,2BB04,55.6511331,25.5715178,215.49,1.8,1.1,78.1,-59729.3,-66011,78.7,Weapon+Missile,Blue,Enemies,R-77,,cn,,268.007104010232,265.687622070312,0.789216052221214,215.48844909668,213.74966275692,267.916455043237,6.97000122070312,1.15820561050011,NaN,0.769230845365645,7.67751938655608,2608.23521177711,2.91036343574524,2.91036343574524,2.91036343574524,3591.39038999756,211.321979933395,3802.71236993095,,,19.7300000190735,1.73878633975983,10235.1419189748,10240.1840239966
2011-06-01T05:09:26Z,1306904966,2BB04,55.6535317,25.571968,220.3,1.5,1.2,77.3,-59487.84,-65963.57,77.9,Weapon+Missile,Blue,Enemies,R-77,,cn,,246.114405805968,243.880889892578,0.724786786555114,220.296142578125,216.782148122787,246.067443658468,4.80769348144531,0.0517590604425361,NaN,0.369212705774209,1.5530724258613,5000,1.46421563625336,1.46421563625336,1.46421563625336,3028.61503726124,216.036716661377,3244.65175392262,,,20.7300000190735,3.51399445533752,10481.1529009897,10486.25038165
2011-06-01T05:09:27Z,1306904967,2BB04,55.6557632,25.5724743,225.53,1,1.4,74.5,-59263.11,-65909.77,75.1,Weapon+Missile,Blue,Enemies,R-77,,cn,,231.148490286139,228.96533203125,0.680753707367131,225.529220581055,221.529220581055,231.08924565236,5.23307800292969,0.0308739779277687,NaN,0.399975877795947,2.66455177754012,4861.19690254297,1.52669680118561,1.52669680118561,1.52669680118561,2671.48122807808,221.16861310112,2892.6498411792,,,21.7300000190735,4,10712.2102443359,10717.3750510759
2011-06-01T05:09:28Z,1306904968,2BB04,55.6578697,25.5730499,231.14,0.7,1.5,71.8,-59050.86,-65848.16,72.4,Weapon+Missile,Blue,Enemies,R-77,,cn,,221.079957420804,218.916915893555,0.651142331774178,231.144607543945,226.144607543945,221.008631058702,5.61538696289062,0.0748160767038235,NaN,0.199987938897973,2.63039442838771,4948.30352132363,1.42838943004608,1.42838943004608,1.42838943004608,2443.81737865922,226.675426557083,2670.4928052163,,,22.7300000190735,5,10933.2197878741,10938.4638302572
2011-06-01T05:09:29Z,1306904969,2BB04,55.6598311,25.5736737,236.82,0.4,1.6,69.4,-58853.12,-65781.07,70,Weapon+Missile,Blue,Enemies,R-77,,cn,,208.880739206743,206.760787963867,0.615251775315995,236.823837280273,231.823837280273,208.80351903442,5.67922973632812,0.0397056687676633,NaN,0.169224766876236,2.45737036878565,5000,1.32767057418823,1.32767057418823,1.32767057418823,2181.55816057776,232.244848386459,2413.80300896422,,,23.7300000190735,5,11142.0579122722,11147.3868205064
2011-06-01T05:09:30Z,1306904970,2BB04,55.6616527,25.5743299,242.41,0.3,1.6,67.2,-58669.4,-65710.24,67.8,Weapon+Missile,Blue,Enemies,R-77,,cn,,196.981724659482,194.91162109375,0.580240266580976,242.406143188477,237.406143188477,196.902609709905,5.58230590820312,0.0492499039145562,NaN,0.12310732960031,2.26892971845323,5000,1.25047552585602,1.25047552585602,1.25047552585602,1940.0899924912,237.719220409927,2177.80921290113,,,24.7300000190735,5,11339.0197969837,11344.435192897
2011-06-01T05:09:31Z,1306904971,2BB04,55.6633749,25.5750192,247.86,0.1,1.7,65.1,-58495.64,-65635.64,65.7,Weapon+Missile,Blue,Enemies,R-77,,cn,,189.181385206842,187.133911132812,0.557297551189025,247.856918334961,241.878645420074,189.102843868309,5.45077514648438,0.0569472960625918,NaN,0.184579032130425,2.05752020915912,5000,1.1931825876236,1.1931825876236,1.1931825876236,1789.47982543898,243.064604818954,2032.54443025793,,,25.7300000190735,5.97827291488647,11528.2058709489,11533.7070416514
2011-06-01T05:09:32Z,1306904972,2BB04,55.6649815,25.5757227,253.06,0,1.7,63.3,-58333.47,-65559.34,63.9,Weapon+Missile,Blue,Enemies,R-77,,cn,,179.295218244588,177.296295166016,0.528205659246696,253.063842773438,247.063842773438,179.219594975735,5.20692443847656,0.0420371620001134,NaN,0.12305268808695,1.83773155185728,5000,1.14633548259735,1.14633548259735,1.14633548259735,1607.33876426873,248.170853373413,1855.50961764214,,,26.7300000190735,6,11707.5373244585,11713.1211104045
2011-06-01T05:09:33Z,1306904973,2BB04,55.6664901,25.576436,258.09,-0,1.7,61.6,-58181.13,-65481.87,62.2,Weapon+Missile,Blue,Enemies,R-77,,cn,,170.978105440691,169.020309448242,0.503732029582482,258.089996337891,251.871477603912,170.904213875593,5.02615356445312,0.0217988761360954,NaN,0.0615263440434749,1.64926710258447,5000,1.11642301082611,1.11642301082611,1.11642301082611,1461.6756270044,253.099826258697,1714.7754532631,,,27.7300000190735,6.21851873397827,11878.5611522468,11884.225628201
2011-06-01T05:09:34Z,1306904974,2BB04,55.6679166,25.5771558,263.06,-0.1,1.8,60.2,-58037.04,-65403.58,60.7,Weapon+Missile,Blue,Enemies,R-77,,cn,,164.065531592973,162.139694213867,0.483393565513827,263.059997558594,256.059997558594,163.990236736066,4.97000122070312,0.0765723936806337,NaN,0,1.48864901439268,5000,1.09650886058807,1.09650886058807,1.09650886058807,1345.87493284424,257.973732505798,1603.84866535004,,,28.7300000190735,7,12042.6908669222,12048.4372761266
2011-06-01T05:09:35Z,1306904975,2BB04,55.6692488,25.577867,267.98,-0.2,1.9,58.9,-57902.44,-65326.15,59.5,Weapon+Missile,Blue,Enemies,R-77,,cn,,155.359384851545,153.488754272461,0.457767772275502,267.97998046875,260.880554199219,155.281461319806,4.91998291015625,0.0448027716810507,NaN,0,1.31478548185295,5000,1.0818966627121,1.0818966627121,1.0818966627121,1206.82692307252,262.798587546387,1469.62551061891,,,29.7300000190735,7.09942626953125,12198.1292099085,12203.9599316517
2011-06-01T05:09:36Z,1306904976,2BB04,55.6705094,25.5785738,272.97,-0.3,2,57.7,-57775.02,-65249.14,58.3,Weapon+Missile,Blue,Enemies,R-77,,cn,,148.966663183582,147.131057739258,0.438956390260626,272.972290039062,265.084109306335,148.882986218053,4.9923095703125,0.0256504908125795,NaN,0,1.18578807458886,5000,1.07616376876831,1.07616376876831,1.07616376876831,1109.55333700255,267.694370811157,1377.2477078137,,,30.7300000190735,7.88818073272705,12347.1667143872,12353.0873430453
2011-06-01T05:09:37Z,1306904977,2BB04,55.6716985,25.57927,278.09,-0.4,2.1,56.6,-57654.8,-65173.23,57.2,Weapon+Missile,Blue,Enemies,R-77,,cn,,142.267914581915,140.473419189453,0.419241667851344,278.090789794922,270.056562423706,142.175808349157,5.11849975585938,0.0281713793364163,NaN,0,1.07915377388444,5000,1.0651148557663,1.0651148557663,1.0651148557663,1012.00797597435,272.713904374237,1284.72188034859,,,31.7300000190735,8.03422737121582,12489.5114725311,12495.5302434047
2011-06-01T05:09:38Z,1306904978,2BB04,55.6728158,25.5799498,283.31,-0.5,2.3,55.6,-57541.81,-65099.06,56.2,Weapon+Missile,Blue,Enemies,R-77,,cn,,135.260171793556,133.513595581055,0.398614482693324,283.305389404297,274.888035774231,135.159616840742,5.214599609375,0.0429980246082916,NaN,0,0.924110507437562,5000,1.05003094673157,1.05003094673157,1.05003094673157,914.765703681111,277.827679700165,1192.59338338128,,,32.7300000190735,8.41735363006592,12624.8372059124,12630.9623595865
2011-06-01T05:09:39Z,1306904979,2BB04,55.6738732,25.5806154,288.56,-0.5,2.4,54.8,-57434.87,-65026.4,55.4,Weapon+Missile,Blue,Enemies,R-77,,cn,,129.399310977945,127.690612792969,0.381365134599383,288.563842773438,279.823236465454,129.292421857321,5.25845336914062,0.0508422803675459,NaN,0,0.874382087885668,5000,1.0346771478653,1.0346771478653,1.0346771478653,837.209084078344,282.984460873413,1120.19354495176,,,33.7300000190735,8.7406063079834,12754.3028075589,12760.5405067081
2011-06-01T05:09:40Z,1306904980,2BB04,55.6748613,25.5812568,293.71,-0.5,2.4,54,-57334.9,-64956.36,54.6,Weapon+Missile,Blue,Enemies,R-77,,cn,,122.16842971727,120.519119262695,0.360075301071691,293.706909179688,284.706909179688,122.060124887387,5.14306640625,0.0468996894390157,NaN,0,0.824800303957517,5000,1.02816951274872,1.02816951274872,1.02816951274872,746.256260979176,288.028086090698,1034.28434706987,,,34.7300000190735,9,12876.5396216622,12882.8910438973
2011-06-01T05:09:41Z,1306904981,2BB04,55.6757902,25.581878,298.73,-0.4,2.3,53.1,-57240.92,-64888.48,53.7,Weapon+Missile,Blue,Enemies,R-77,,cn,,116.044758004957,114.445343017578,0.342046070985395,298.731536865234,289.744421005249,115.935926170669,5.02462768554688,0.477860290523611,NaN,0.138453163839742,1.36432174897358,2654.27245586307,0.52032995223999,0.52032995223999,0.52032995223999,673.319293021457,292.955562599945,966.274855621402,,,35.7300000190735,8.98711585998535,12992.6491716349,12999.1146505393
2011-06-01T05:09:42Z,1306904982,2BB04,55.6766735,25.5824788,298.77,2.7,-2.5,53.1,-57151.53,-64822.82,53.7,Weapon+Missile,Blue,Enemies,R-77,,cn,,110.911804194773,109.378349304199,0.326916640240329,298.767700195312,289.733324050903,110.911798299158,0.036163330078125,0.112725814559646,NaN,3.03076944536328,3.67396729228632,1321.20349182129,0.0737108737230301,0.0737108737230301,0.0737108737230301,615.071415486978,292.991026712036,908.062442199015,,,36.7300000190735,9.03437614440918,13103.7272970683,13110.1979847175
2011-06-01T05:09:43Z,1306904983,2BB04,55.6775081,25.5830463,289.98,5.3,-7.3,53.1,-57067.06,-64760.8,53.7,Weapon+Missile,Blue,Enemies,R-77,,cn,,105.156429185261,103.74072265625,0.309921600785096,289.984619140625,280.633033752441,104.78898838228,-8.7830810546875,0.158716441787506,NaN,2.63076944846182,4.81951210572887,1250.8731770324,0.103783711791039,0.103783711791039,0.103783711791039,552.893729949743,284.377766529541,837.271496479284,,,37.7300000190735,9.35158538818359,13208.6690196987,13215.5114418347
2011-06-01T05:09:44Z,1306904984,2BB04,55.67831,25.5835905,272.96,7.4,-12.1,53.2,-56985.92,-64701.34,53.8,Weapon+Missile,Blue,Enemies,R-77,,cn,,102.029441483723,100.73405456543,0.300647582382633,272.956146240234,263.283298492432,100.598399789267,-17.0284729003906,0.136894796105293,NaN,2.10769221748109,4.81644150881013,1224.21316395011,0.122319780290127,0.122319780290127,0.122319780290127,520.500346474024,267.678539152679,788.178885626703,,,38.7300000190735,9.67284774780273,13309.4319159076,13317.7074607868
2011-06-01T05:09:45Z,1306904985,2BB04,55.6790793,25.5841105,248.24,9.1,-16.8,53.4,-56908.07,-64644.51,54,Weapon+Missile,Blue,Enemies,R-77,,cn,,99.5067646651189,98.3564453125,0.293131997393921,248.240753173828,238.337673187256,96.3885136294381,-24.7153930664062,0.0327138124350463,NaN,1.58461413272671,4.73612232615219,1223.47562050923,0.141290500760078,0.141290500760078,0.141290500760078,495.079810705967,243.441018211212,738.520828917179,,,39.7300000190735,9.90307998657227,13405.9606123036,13417.3538421158
2011-06-01T05:09:46Z,1306904986,2BB04,55.679822,25.5846094,216.21,10.5,-21.4,53.6,-56832.92,-64590,54.1,Weapon+Missile,Blue,Enemies,R-77,,cn,,98.2039624542067,97.2143630981445,0.289189248510352,216.206146240234,206.737213134766,92.8321183659911,-32.0346069335938,0.0791248894712381,NaN,1.1384610534996,4.56933593680965,1254.38427662374,0.156899243593216,0.156899243593216,0.156899243593216,482.200912085362,212.025800402679,694.226712488041,,,40.7300000190735,9.46893310546875,13498.9357490826,13515.696211332
2011-06-01T05:09:47Z,1306904987,2BB04,55.680538,25.585086,177.38,11.5,-25.7,53.9,-56760.48,-64537.93,54.4,Weapon+Missile,Blue,Enemies,R-77,,cn,,97.2982632706614,96.4935150146484,0.286396359566964,177.379989624023,167.800110816956,89.2159268174713,-38.8261566162109,0.0312342438374087,NaN,0.938461161770582,4.35740413148744,1296.87294010534,0.165416330099106,0.165416330099106,0.165416330099106,473.347601774347,173.950347524643,647.29794929899,,,41.7300000190735,9.57987880706787,13588.2829470283,13613.1173837793
2011-06-01T05:09:48Z,1306904988,2BB04,55.681233,25.5855432,131.9,12.2,-29.9,54.2,-56690.18,-64487.98,54.8,Weapon+Missile,Blue,Enemies,R-77,,cn,,97.498685682505,96.8989639282227,0.286838836328633,131.896911621094,122.23548412323,86.2396853263932,-45.4830780029297,0.0610379354642167,NaN,0.56923308807074,4.15003446564397,1383.69126688773,0.177256226539612,0.177256226539612,0.177256226539612,475.299685490795,129.3466848349,604.646370325695,,,42.7300000190735,9.66142749786377,13674.6465806601,13710.727574208
2011-06-01T05:09:49Z,1306904989,2BB04,55.6819071,25.5859804,80.22,12.5,-33.8,54.6,-56621.98,-64440.23,55.2,Weapon+Missile,Blue,Enemies,R-77,,cn,,97.9863536434893,97.6203384399414,0.288105431951364,80.2184600830078,70.3947906494141,83.2506044841277,-51.6784515380859,0.0518199880196431,NaN,0.199999891729021,3.95011440175088,1487.01060588943,0.184957802295685,0.184957802295685,0.184957802295685,480.066275017348,78.6674361573029,558.733711174651,,,43.7300000190735,9.82366943359375,13758.018574865,13808.8182615136
2011-06-01T05:09:50Z,1306904990,2BB04,55.6825632,25.5863988,22.57,12.6,-37.4,55.1,-56555.62,-64394.55,55.7,Weapon+Missile,Blue,Enemies,R-77,,cn,,99.0660366846525,98.9629974365234,0.291090727948731,22.5684623718262,13.1948204040527,80.5639956078748,-57.6499977111816,0.278150986110836,NaN,0.0307631720217374,3.11981825011073,1576.31825453959,0.206568643450737,0.206568643450737,0.206568643450737,490.703981220246,22.1321011518669,512.836082372113,,,44.7300000190735,9.37364196777344,13838.6969783801,13907.9778900222
