ISOTime,UnixTime,Id,Longitude,Latitude,Altitude,Roll,Pitch,Yaw,U,V,Heading,Type,Color,Coalition,Name,Group,Country,Pilot,TAS,CAS,M,ASL,AGL,GS,VS,AOA,AOS,RRT,TRT,TRD,G,LatG,LonG,Ek,Ep,Em,FFW,FFV,RelativeTime,Elev,GroundDistance,AirDistance
2011-06-01T05:01:28Z,1306904488,360B,55.3346831,25.6804941,7498.58,6.8,-3.2,36,-91368.07,-53578.94,36.7,Weapon+Missile,Blue,Enemies,R-27ER,,cn,,359.301166470872,263.559051513672,1.15776471326333,7498.58447265625,7498.58447265625,NaN,NaN,NaN,NaN,NaN,NaN,NaN,NaN,NaN,NaN,NaN,7353.59934187744,NaN,,,0.339999914169312,0,NaN,NaN
2011-06-01T05:01:29Z,1306904489,360B,55.3369341,25.6833289,7454.21,5.5,-2.9,36,-91138.17,-53267.78,36.8,Weapon+Missile,Blue,Enemies,R-27ER,,cn,,389.414147642166,287.838989257812,1.25404300171777,7454.2060546875,7454.2060546875,386.877156733847,-44.37841796875,3.22003271676417,NaN,1.13845593085773,2.02367368454592,5000,1.28308725357056,1.28308725357056,1.28308725357056,7582.16891919374,7310.07898062012,14892.2478998139,,,1.33999991416931,0,388.052064588487,391.033352938133
2011-06-01T05:01:30Z,1306904490,360B,55.3404229,25.6878059,7399.5,5.1,-3.9,34.9,-90781.78,-52776.27,35.6,Weapon+Missile,Blue,Enemies,R-27ER,,cn,,609.582479797395,440.196136474609,1.96160652704823,7399.5,7399.5,607.122761273591,-54.7060546875,0.312400046305452,NaN,0.800006397105253,0.715882478914497,5000,2.36411070823669,2.36411070823669,2.36411070823669,18579.5399837971,7256.4306675,25835.9706512971,,,2.33999991416931,0,997.044040529489,1003.18381191289
2011-06-01T05:01:31Z,1306904491,360B,55.3453587,25.6942109,7340.42,4.3,-4.1,34.8,-90277.5,-52073.01,35.5,Weapon+Missile,Blue,Enemies,R-27ER,,cn,,867.387694454494,606.420837402344,2.78898545939121,7340.42138671875,7340.42138671875,865.373404920585,-59.07861328125,0.146965649233137,NaN,0.630781630229018,0.809110132134381,5000,1.60086500644684,1.60086500644684,1.60086500644684,37618.0706245542,7198.49433920654,44816.5649637607,,,3.33999991416931,0,1865.10642406143,1874.25499672957
2011-06-01T05:01:32Z,1306904492,360B,55.351525,25.7023905,7243.16,4.5,-6.1,33.9,-89647.33,-51174.71,34.6,Weapon+Missile,Blue,Enemies,R-27ER,,cn,,1101.59895273407,761.649475097656,3.53742625761108,7243.162109375,7243.162109375,1097.29708175834,-97.25927734375,0.0309167458389747,NaN,0.276923189708997,1.86493961041602,5000,3.75740194320679,3.75740194320679,3.75740194320679,60676.0126332402,7103.11556999023,67779.1282032305,,,4.33999991416931,0,2965.87207398535,2980.56258479405
2011-06-01T05:01:33Z,1306904493,360B,55.3577101,25.7108833,7100.53,4.9,-8.4,33,-89014.93,-50241.72,33.7,Weapon+Missile,Blue,Enemies,R-27ER,,cn,,1136.10955986446,790.131530761719,3.64126423935441,7100.5341796875,7100.5341796875,1127.12120274994,-142.6279296875,0.0319113451279025,NaN,0.353845633915327,2.41667418072001,5000,4.11850690841675,4.11850690841675,4.11850690841675,64537.246600771,6963.24535132324,71500.4919520942,,,5.33999991416931,0,4096.65784618679,4121.56933400751
2011-06-01T05:01:34Z,1306904494,360B,55.3638053,25.7195321,6909.68,5.2,-10.6,32,-88391.42,-49291.3,32.8,Weapon+Missile,Blue,Enemies,R-27ER,,cn,,1152.59830949736,809.082214355469,3.68469646375679,6909.6767578125,6909.6767578125,1136.6865476337,-190.857421875,0.068599997434402,NaN,0.16923074329176,2.29327379331563,5000,3.63466143608093,3.63466143608093,3.63466143608093,66424.1431528091,6776.0781577002,73200.2213105093,,,6.33999991416931,0,5237.11693597838,5279.12367816777
2011-06-01T05:01:35Z,1306904495,360B,55.3697858,25.7283364,6676.74,5.3,-12.3,31.1,-87779.3,-48323.51,31.8,Weapon+Missile,Blue,Enemies,R-27ER,,cn,,1168.58116737036,829.830200195312,3.72423976243403,6676.7353515625,6676.7353515625,1145.12892112065,-232.94140625,0.066541548965451,NaN,0.199999891729021,1.99395804185616,5000,3.12401938438416,3.12401938438416,3.12401938438416,68279.0972366333,6547.64067354004,74826.7379101733,,,7.33999991416931,0,6386.1535749584,6452.7338366676
2011-06-01T05:01:36Z,1306904496,360B,55.3755472,25.7372499,6416.32,5.2,-13,29.4,-87189.09,-47343.3,30.2,Weapon+Missile,Blue,Enemies,R-27ER,,cn,,1173.44179775299,844.505859375,3.72688894395982,6416.3154296875,6416.3154296875,1144.17966989647,-260.419921875,0.00743547292803958,NaN,0.169224766876236,1.72592306269146,5000,4.07013940811157,4.07013940811157,4.07013940811157,68848.2826356888,6292.25597085449,75140.5386065433,,,8.33999991416931,0,7534.35602614671,7631.24779199192
2011-06-01T05:01:37Z,1306904497,360B,55.3810207,25.7464119,6153.58,4.7,-12.4,27.3,-86627.5,-46335.2,28,Weapon+Missile,Blue,Enemies,R-27ER,,cn,,1183.5090431751,863.146179199219,3.74593021357718,6153.5791015625,6153.5791015625,1153.97715625598,-262.736328125,0.0708633872413643,NaN,0.569200644672183,2.08714700845769,5000,5.45779943466187,5.45779943466187,5.45779943466187,70034.6827638626,6034.59964963379,76069.2824134964,,,9.33999991416931,0,8692.56152612334,8819.993072179
2011-06-01T05:01:38Z,1306904498,360B,55.386179,25.7558021,5915.97,3.7,-10.5,25.7,-86097.3,-45301.41,26.4,Weapon+Missile,Blue,Enemies,R-27ER,,cn,,1185.86832905654,875.480346679688,3.74179309801827,5915.97314453125,5915.97314453125,1161.82059847577,-237.60595703125,0.0634273071607964,NaN,1.03075750802496,2.30779114695308,5000,5.73208427429199,5.73208427429199,5.73208427429199,70314.1846929669,5801.58780378174,76115.7724967487,,,10.3399999141693,0,9858.82492002991,10011.2957229194
2011-06-01T05:01:39Z,1306904499,360B,55.39107,25.7652946,5717.71,2.9,-8.8,24.1,-85593.86,-44255.95,24.8,Weapon+Missile,Blue,Enemies,R-27ER,,cn,,1177.18149920899,878.193603515625,3.70485238364583,5717.705078125,5717.705078125,1160.36462197167,-198.26806640625,0.0444026954546953,NaN,0.72307114629423,2.42626120499377,5000,5.81822443008423,5.81822443008423,5.81822443008423,69287.8141039968,5607.15325043945,74894.9673544362,,,11.3399999141693,0,11023.7544654713,11194.0245464803
2011-06-01T05:01:40Z,1306904500,360B,55.3953938,25.774412,5564.75,2.2,-6.9,22.3,-85147.88,-43251.33,23,Weapon+Missile,Blue,Enemies,R-27ER,,cn,,1109.7474442702,836.130493164062,3.48573773803984,5564.74609375,5564.74609375,1099.15555730898,-152.958984375,0.908080790258268,NaN,0.769243225083516,2.23608163118735,5000,6.21251440048218,6.21251440048218,6.21251440048218,61576.969503212,5457.15172802734,67034.1212312393,,,12.3399999141693,0,12127.376476477,12309.1628633222
2011-06-01T05:01:41Z,1306904501,360B,55.3996581,25.7826713,5466.03,0.5,-4.8,26.9,-84709.08,-42341.67,27.6,Weapon+Missile,Blue,Enemies,R-27ER,,cn,,1014.78199390387,771.189880371094,3.18340633185649,5466.033203125,5466.033203125,1009.96943536722,-98.712890625,0.165075221462933,NaN,0.738425411548419,2.4439402958867,5000,4.21402597427368,4.21402597427368,4.21402597427368,51489.124757576,5360.34745114258,56849.4722087186,,,13.3399999141693,0,13141.315750683,13328.7686075262
2011-06-01T05:01:42Z,1306904502,360B,55.4039888,25.7903686,5385.53,0.4,-4.8,27,-84264.45,-41494.34,27.7,Weapon+Missile,Blue,Enemies,R-27ER,,cn,,960.287112475625,734.562927246094,3.00934437446155,5385.52587890625,5385.52587890625,956.906426529737,-80.50732421875,0.025918998308454,NaN,0,0.671012991905127,5000,1.02125120162964,1.02125120162964,1.02125120162964,46107.5669193387,5281.3967360376,51388.9636553763,,,14.3399999141693,0,14101.8495888578,14293.4846675033
2011-06-01T05:01:43Z,1306904503,360B,55.4080531,25.7975802,5310.29,0.3,-4.8,27,-83847.23,-40700.46,27.7,Weapon+Missile,Blue,Enemies,R-27ER,,cn,,899.983017936204,693.257202148438,2.81764823857421,5310.2900390625,5310.2900390625,896.832760873822,-75.23583984375,0.0292761102361481,NaN,0,0.0197823405926261,5000,0.996252000331879,0.996252000331879,0.996252000331879,40498.4716286778,5207.61558115723,45706.0872098351,,,15.3399999141693,0,15002.080122904,15197.6058104335
2011-06-01T05:01:44Z,1306904504,360B,55.4119546,25.8045022,5238.08,0.2,-4.8,27,-83446.75,-39938.46,27.7,Weapon+Missile,Blue,Enemies,R-27ER,,cn,,863.852105843155,669.258422851562,2.70203568363921,5238.0751953125,5238.0751953125,860.828366814092,-72.21484375,0.0293186298591966,NaN,0.199987938897973,0.0197823405926261,5000,0.994954586029053,0.994954586029053,0.994954586029053,37312.0230384827,5136.79701141113,42448.8200498938,,,16.3399999141693,0,15866.1642565096,16065.4143741942
2011-06-01T05:01:45Z,1306904505,360B,55.4156618,25.8110783,5169.45,0.2,-4.8,27,-83066.27,-39214.51,27.7,Weapon+Missile,Blue,Enemies,R-27ER,,cn,,820.718788199697,639.85009765625,2.56487329243695,5169.45458984375,5169.45458984375,817.845059781547,-68.62060546875,0.029103349055241,NaN,0,0.0197823405926261,5000,0.995401442050934,0.995401442050934,0.995401442050934,33678.966465199,5069.50318534912,38748.4696505481,,,17.3399999141693,0,16687.0965908705,16889.8771200406
2011-06-01T05:01:46Z,1306904506,360B,55.4191812,25.8173208,5104.31,0.2,-4.8,27,-82705.11,-38527.3,27.7,Weapon+Missile,Blue,Enemies,R-27ER,,cn,,779.061564338205,611.240661621094,2.43266910947901,5104.30908203125,5104.30908203125,776.333036680098,-65.1455078125,0.0294002739172013,NaN,0,0.0197823405926261,5000,0.995909750461578,0.995909750461578,0.995909750461578,30346.8460514545,5005.61726593018,35352.4633173847,,,18.3399999141693,0,17466.379942235,17672.5041514195
2011-06-01T05:01:47Z,1306904507,360B,55.4225493,25.8232941,5041.97,0.1,-4.8,27,-82359.52,-37869.71,27.7,Weapon+Missile,Blue,Enemies,R-27ER,,cn,,745.48714255561,588.322204589844,2.32598658571007,5041.96728515625,5041.96728515625,742.875884706271,-62.341796875,0.0286543013125487,NaN,0.0154089067675488,0.0197823405926261,5000,0.995855689048767,0.995855689048767,0.995855689048767,27787.5539857864,4944.48084769775,32732.0348334842,,,19.3399999141693,0,18212.0737378675,18421.3904323192
2011-06-01T05:01:48Z,1306904508,360B,55.4257545,25.8289782,4982.64,0.1,-4.8,27,-82030.64,-37243.94,27.7,Weapon+Missile,Blue,Enemies,R-27ER,,cn,,709.40913819097,563.335998535156,2.21175365331619,4982.63818359375,4982.63818359375,706.923887739437,-59.3291015625,0.029236098963172,NaN,0,0.0197823405926261,5000,0.996012032032013,0.996012032032013,0.996012032032013,25163.0662674427,4886.29887431396,30049.3651417567,,,20.3399999141693,0,18921.674197195,19134.022507487
2011-06-01T05:01:49Z,1306904509,360B,55.4288189,25.834412,4925.92,0.1,-4.8,27,-81716.24,-36645.74,27.7,Weapon+Missile,Blue,Enemies,R-27ER,,cn,,678.16351627521,541.699829101562,2.11281840373995,4925.9189453125,4925.9189453125,675.787453875515,-56.71923828125,0.0283624638515462,NaN,0,0.0197823405926261,5000,0.995417535305023,0.995417535305023,0.995417535305023,22995.2877403379,4830.67630250488,27825.9640428427,,,21.3399999141693,0,19600.0180080023,19815.2585367447
2011-06-01T05:01:50Z,1306904510,360B,55.4317785,25.8396594,4871.13,0.1,-4.8,27,-81412.63,-36068.04,27.7,Weapon+Missile,Blue,Enemies,R-27ER,,cn,,654.924026043415,525.808959960938,2.03900137549558,4871.1337890625,4871.1337890625,652.628582383257,-54.78515625,0.0292885221912624,NaN,0,0.0197823405926261,5000,0.996998429298401,0.996998429298401,0.996998429298401,21446.2739944458,4776.95041725098,26223.2244116968,,,22.3399999141693,0,20255.1153165779,20473.1440466602
2011-06-01T05:01:51Z,1306904511,360B,55.4345793,25.8446247,4819.3,0.1,-4.8,27,-81125.36,-35521.4,27.7,Weapon+Missile,Blue,Enemies,R-27ER,,cn,,619.696974544648,500.829925537109,1.92806394320846,4819.30126953125,4819.30126953125,617.525489497262,-51.83251953125,0.0285552087394276,NaN,0,0.0197823405926261,5000,0.995885789394379,0.995885789394379,0.995885789394379,19201.2170129895,4726.12007948486,23927.3370924744,,,23.3399999141693,0,20874.9909983117,21095.6522677156
2011-06-01T05:01:52Z,1306904512,360B,55.4372911,25.8494318,4769.11,0.1,-4.8,27,-80847.21,-34992.16,27.7,Weapon+Missile,Blue,Enemies,R-27ER,,cn,,599.978716410004,487.210144042969,1.86553217096774,4769.11279296875,4769.11279296875,597.875887593179,-50.1884765625,0.0292516338387389,NaN,0.0461720787892862,0.0197823405926261,5000,0.996144115924835,0.996144115924835,0.996144115924835,17998.7230072498,4676.9019971167,22675.6250043665,,,24.3399999141693,0,21475.1320018657,21698.3377265452
2011-06-01T05:01:53Z,1306904513,360B,55.4398761,25.8540139,4721.27,0,-4.8,27,-80582.09,-34487.7,27.7,Weapon+Missile,Blue,Enemies,R-27ER,,cn,,571.899352684137,467.167572021484,1.7771518241866,4721.2705078125,4721.2705078125,569.89471426884,-47.84228515625,0.0282159866682464,NaN,0,0.0197823405926261,5000,0.996733129024506,0.996733129024506,0.996733129024506,16353.4434800267,4629.98474254395,20983.4282225707,,,25.3399999141693,0,22047.1802034806,22272.8071579262
2011-06-01T05:01:54Z,1306904514,360B,55.442355,25.8584076,4675.4,0,-4.8,27,-80327.88,-34003.96,27.7,Weapon+Missile,Blue,Enemies,R-27ER,,cn,,548.381814046088,450.349182128906,1.7030879800049,4675.3984375,4675.3984375,546.459849523937,-45.8720703125,0.0290397922465991,NaN,0,0.0197823405926261,5000,0.995880246162415,0.995880246162415,0.995880246162415,15036.1306988239,4584.99960871094,19621.1303075349,,,26.3399999141693,0,22595.7206805593,22823.6650023874
2011-06-01T05:01:55Z,1306904515,360B,55.4447398,25.8626339,4631.27,0,-4.8,27,-80083.33,-33538.67,27.7,Weapon+Missile,Blue,Enemies,R-27ER,,cn,,527.495825206137,435.334808349609,1.63731401416596,4631.26806640625,4631.26806640625,525.64660748171,-44.13037109375,0.0273820636619284,NaN,0,0.0197823405926261,5000,0.9967160820961,0.9967160820961,0.9967160820961,13912.5922804952,4541.72249834228,18454.3147788375,,,27.3399999141693,0,23123.3585766114,23353.5287749227
2011-06-01T05:01:56Z,1306904516,360B,55.4470192,25.8666735,4589.09,0,-4.8,27,-79849.59,-33093.92,27.7,Weapon+Missile,Blue,Enemies,R-27ER,,cn,,504.192273273763,418.269958496094,1.56415203866285,4589.08984375,4589.08984375,502.424965504825,-42.17822265625,0.0301747307158721,NaN,0,0.0197823405926261,5000,0.997084319591522,0.997084319591522,0.997084319591522,12710.4924214482,4500.35979162109,17210.8522130693,,,28.3399999141693,0,23627.6935661384,23859.9876733014
2011-06-01T05:01:57Z,1306904517,360B,55.4492198,25.870573,4548.38,0,-4.8,27,-79623.96,-32664.59,27.7,Weapon+Missile,Blue,Enemies,R-27ER,,cn,,486.720509102767,405.475860595703,1.50917809787525,4548.37939453125,4548.37939453125,485.014961940005,-40.71044921875,0.0285631098170896,NaN,0,0.0197823405926261,5000,0.994911372661591,0.994911372661591,0.994911372661591,11844.8426990628,4460.43647893799,16305.2791780008,,,29.3399999141693,0,24114.5441477754,24348.8849187031
2011-06-01T05:01:58Z,1306904518,360B,55.4513402,25.8743299,4509.14,0,-4.8,27,-79406.59,-32250.95,27.7,Weapon+Missile,Blue,Enemies,R-27ER,,cn,,468.919075537967,392.233276367188,1.45326584188562,4509.14306640625,4509.14306640625,467.274662226242,-39.236328125,0.0284811323833438,NaN,0,0.0197823405926261,5000,0.997528493404388,0.997528493404388,0.997528493404388,10994.2549701691,4421.95878521729,15416.2137553864,,,30.3399999141693,0,24583.596520142,24819.9073835159
2011-06-01T05:01:59Z,1306904519,360B,55.4533739,25.8779332,4471.52,0,-4.8,27,-79198.09,-31854.22,27.7,Weapon+Missile,Blue,Enemies,R-27ER,,cn,,449.760334203631,377.683013916016,1.39323256988359,4471.52001953125,4471.52001953125,448.18396286213,-37.623046875,0.0287485511840287,NaN,0,0.0197823405926261,5000,0.995811879634857,0.995811879634857,0.995811879634857,10114.2179111481,4385.06317995361,14499.2810911017,,,31.3399999141693,0,25033.4732560534,25271.670200838
2011-06-01T05:02:00Z,1306904520,360B,55.4553149,25.881372,4435.61,0,-4.8,27,-78999.11,-31475.62,27.7,Weapon+Missile,Blue,Enemies,R-27ER,,cn,,429.210710245941,361.696990966797,1.32897808396677,4435.60986328125,4435.60986328125,427.705850401799,-35.91015625,0.0278139844744913,NaN,0,0.0197823405926261,5000,0.996664762496948,0.996664762496948,0.996664762496948,9211.09168949127,4349.84734657471,13560.939036066,,,32.3399999141693,0,25462.807253239,25702.8021130373
2011-06-01T05:02:01Z,1306904521,360B,55.4571873,25.8846889,4400.97,0,-4.8,27,-78807.17,-31110.41,27.7,Weapon+Missile,Blue,Enemies,R-27ER,,cn,,414.024092918818,349.743988037109,1.2814001392793,4400.97216796875,4400.97216796875,412.572635520933,-34.6376953125,0.0292150713215975,NaN,0,0.0197823405926261,5000,0.996738195419312,0.996738195419312,0.996738195419312,8570.7974758625,4315.87937110107,12886.6768469636,,,33.3399999141693,0,25876.9378306339,26118.6645873725
2011-06-01T05:02:02Z,1306904522,360B,55.458992,25.8878861,4367.59,0,-4.8,27,-78622.16,-30758.4,27.7,Weapon+Missile,Blue,Enemies,R-27ER,,cn,,399.061975752412,337.696624755859,1.23457748231087,4367.5888671875,4367.5888671875,397.663193821565,-33.38330078125,0.0282650567437535,NaN,0,0.0197823405926261,5000,0.995698392391205,0.995698392391205,0.995698392391205,7962.52302457094,4283.14153644043,12245.6645610114,,,34.3399999141693,0,26276.1063740405,26519.5000873505
2011-06-01T05:02:03Z,1306904523,360B,55.4607124,25.8909334,4335.76,0,-4.8,27,-78445.84,-30422.88,27.7,Weapon+Missile,Blue,Enemies,R-27ER,,cn,,380.360096549546,322.097961425781,1.17625204856229,4335.7626953125,4335.7626953125,379.026249527606,-31.826171875,0.0287022199703635,NaN,0,0.0197823405926261,5000,0.997162103652954,0.997162103652954,0.997162103652954,7233.69015235901,4251.93072359863,11485.6208759576,,,35.3399999141693,0,26656.5765559123,26901.5577561534
2011-06-01T05:02:04Z,1306904524,360B,55.4623735,25.8938755,4305.04,0,-4.8,27,-78275.59,-30098.95,27.7,Weapon+Missile,Blue,Enemies,R-27ER,,cn,,367.238870504024,311.014404296875,1.13523989800669,4305.041015625,4305.041015625,365.951590249653,-30.7216796875,0.0283379929479468,NaN,0,0.0197823405926261,5000,0.996165633201599,0.996165633201599,0.996165633201599,6743.21940045357,4221.80304758789,10965.0224480415,,,36.3399999141693,0,27023.9164583349,27270.4280531149
2011-06-01T05:02:05Z,1306904525,360B,55.4639618,25.8966888,4275.66,0,-4.8,27,-78112.8,-29789.18,27.7,Weapon+Missile,Blue,Enemies,R-27ER,,cn,,351.165187336655,297.088073730469,1.08515407741693,4275.6611328125,4275.6611328125,349.93400989774,-29.3798828125,0.0295615466475711,NaN,0,0.0197823405926261,5000,0.996714353561401,0.996714353561401,0.996714353561401,6165.84943985939,4192.99122480957,10358.840664669,,,37.3399999141693,0,27375.1681172862,27623.1417402242
2011-06-01T05:02:06Z,1306904526,360B,55.4654861,25.8993885,4247.47,0,-4.8,27,-77956.59,-29491.94,27.7,Weapon+Missile,Blue,Enemies,R-27ER,,cn,,336.976375007838,284.663513183594,1.04094288620869,4247.470703125,4247.470703125,335.795141399421,-28.1904296875,0.0275334591651453,NaN,0,0.0197823405926261,5000,0.996275722980499,0.996275722980499,0.996275722980499,5677.65386567116,4165.34585708008,9842.99972275124,,,38.3399999141693,0,27712.2444390412,27961.6192567992
2011-06-01T05:02:07Z,1306904527,360B,55.4669445,25.9019712,4220.5,0,-4.8,27,-77807.13,-29207.56,27.7,Weapon+Missile,Blue,Enemies,R-27ER,,cn,,322.3861794532,271.836608886719,0.995538483880191,4220.4990234375,4220.4990234375,321.255937217144,-26.9716796875,0.0283638293761285,NaN,0,0.0197823405926261,5000,0.996522486209869,0.996522486209869,0.996522486209869,5196.64243512154,4138.89567481934,9335.53810994087,,,39.3399999141693,0,28034.7144888263,28285.4286284636
2011-06-01T05:02:08Z,1306904528,360B,55.4683444,25.9044507,4194.61,0,-4.8,27,-77663.69,-28934.57,27.7,Weapon+Missile,Blue,Enemies,R-27ER,,cn,,309.469896075771,260.517364501953,0.955344862937702,4194.6083984375,4194.6083984375,308.384973878848,-25.890625,0.0245333221860601,NaN,0,0.0197823405926261,5000,0.996405005455017,0.996405005455017,0.996405005455017,4788.58082885742,4113.50564505371,8902.08647391113,,,40.3399999141693,0,28344.2817440108,28596.2801832861
2011-06-01T05:02:09Z,1306904529,360B,55.4696842,25.9068234,4169.83,0,-4.8,27,-77526.4,-28673.32,27.7,Weapon+Missile,Blue,Enemies,R-27ER,,cn,,296.166903706787,248.894409179688,0.913996448762194,4169.830078125,4169.830078125,295.128564686233,-24.7783203125,0.0276218177528327,NaN,0,0.0197823405926261,5000,0.996430993080139,0.996430993080139,0.996430993080139,4385.74174256325,4089.20641356445,8474.9481561277,,,41.3399999141693,0,28640.5299950967,28893.7564405817
2011-06-01T05:02:10Z,1306904530,360B,55.4709748,25.9091091,4145.96,0,-4.8,27,-77394.16,-28421.64,27.7,Weapon+Missile,Blue,Enemies,R-27ER,,cn,,285.3059071058,239.487197875977,0.880217397194784,4145.9599609375,4145.9599609375,284.305606935421,-23.8701171875,0.0261644883262023,NaN,0,0.0197823405926261,5000,0.996600747108459,0.996600747108459,0.996600747108459,4069.97303147316,4065.79782509277,8135.77085656593,,,42.3399999141693,0,28925.911060771,29180.3194423295
2011-06-01T05:02:11Z,1306904531,360B,55.4722239,25.9113211,4122.86,0,-4.8,27,-77266.17,-28178.09,27.7,Weapon+Missile,Blue,Enemies,R-27ER,,cn,,276.098768793765,231.570159912109,0.851567524915558,4122.861328125,4122.861328125,275.130847582793,-23.0986328125,0.0252783891566397,NaN,0,0.0197823405926261,5000,0.99681431055069,0.99681431055069,0.99681431055069,3811.52650647163,4043.1458043457,7854.67231081734,,,43.3399999141693,0,29202.0888028965,29457.639849764
2011-06-01T05:02:12Z,1306904532,360B,55.4734307,25.9134582,4100.55,0,-4.8,27,-77142.52,-27942.77,27.7,Weapon+Missile,Blue,Enemies,R-27ER,,cn,,266.764764564855,223.556777954102,0.822550971720534,4100.546875,4100.546875,265.829841806887,-22.314453125,0.0254088011758229,NaN,0,0.0197823405926261,5000,0.995868980884552,0.995868980884552,0.995868980884552,3558.17198066711,4021.26280117188,7579.43478183899,,,44.3399999141693,0,29468.9266119545,29725.580482884
2011-06-01T05:02:13Z,1306904533,360B,55.4745919,25.9155145,4079.07,0,-4.8,27,-77023.55,-27716.36,27.7,Weapon+Missile,Blue,Enemies,R-27ER,,cn,,256.663988063522,214.885177612305,0.791195139951885,4079.07153320312,4079.07153320312,255.763978041043,-21.475341796875,0.0279097130391571,NaN,0,0.0197823405926261,5000,0.997399508953094,0.997399508953094,0.997399508953094,3293.82013843358,4000.20268510864,7294.02282354222,,,45.3399999141693,0,29725.6593473437,29983.3738944389
2011-06-01T05:02:14Z,1306904534,360B,55.4757173,25.9175071,4058.27,0,-4.8,27,-76908.25,-27496.95,27.7,Weapon+Missile,Blue,Enemies,R-27ER,,cn,,248.737589575896,208.138931274414,0.766563421653506,4058.26831054688,4058.26831054688,247.866121918954,-20.80322265625,0.025193962202817,NaN,0,0.0197823405926261,5000,0.995849311351776,0.995849311351776,0.995849311351776,3093.51942340136,3979.80169276245,7073.32111616381,,,46.3399999141693,0,29974.4612210672,30233.2021309747
2011-06-01T05:02:15Z,1306904535,360B,55.4768072,25.9194371,4038.12,0,-4.8,27,-76796.59,-27284.45,27.7,Weapon+Missile,Blue,Enemies,R-27ER,,cn,,240.889869528419,201.470169067383,0.742192842033586,4038.11547851562,4038.11547851562,240.045396961781,-20.15283203125,0.0249418589787561,NaN,0,0.0197823405926261,5000,0.996223390102386,0.996223390102386,0.996223390102386,2901.39646207094,3960.03851573853,6861.43497780947,,,47.3399999141693,0,30215.4248989705,30475.1594819382
2011-06-01T05:02:16Z,1306904536,360B,55.4778741,25.921326,4018.39,0,-4.8,27,-76687.29,-27076.46,27.7,Weapon+Missile,Blue,Enemies,R-27ER,,cn,,235.78755538528,197.204025268555,0.726294900997003,4018.38696289062,4018.38696289062,234.960756182391,-19.728515625,0.0273578213264746,NaN,0,0.0197823405926261,5000,0.996896266937256,0.996896266937256,0.996896266937256,2779.78856372833,3940.69145096313,6720.48001469147,,,48.3399999141693,0,30451.2785258875,30711.9852293718
2011-06-01T05:02:17Z,1306904537,360B,55.4788996,25.9231416,3999.43,0,-4.8,27,-76582.24,-26876.54,27.7,Weapon+Missile,Blue,Enemies,R-27ER,,cn,,226.632402105057,189.410400390625,0.697930532665706,3999.42846679688,3999.42846679688,225.838041768369,-18.95849609375,0.0263910240248069,NaN,0,0.0197823405926261,5000,0.996962249279022,0.996962249279022,0.996962249279022,2568.11228419542,3922.09951739136,6490.21180158678,,,49.3399999141693,0,30677.9723777706,30939.6124437445
2011-06-01T05:02:18Z,1306904538,360B,55.4798966,25.9249068,3981,0,-4.8,27,-76480.11,-26682.18,27.7,Weapon+Missile,Blue,Enemies,R-27ER,,cn,,220.335541591472,184.109664916992,0.6783842200268,3981.00146484375,3981.00146484375,219.56365019608,-18.427001953125,0.0260451076880073,NaN,0,0.0197823405926261,5000,0.99538266658783,0.99538266658783,0.99538266658783,2427.38754442036,3904.028801521,6331.41634594136,,,50.3399999141693,0,30898.3726441609,31160.919086833
2011-06-01T05:02:19Z,1306904539,360B,55.4808694,25.9266291,3963.01,0,-4.8,27,-76380.45,-26492.54,27.7,Weapon+Missile,Blue,Enemies,R-27ER,,cn,,214.983333733593,179.630218505859,0.661758225986722,3963.01147460938,3963.01147460938,214.229302464851,-17.989990234375,0.0268995541992729,NaN,0,0.0197823405926261,5000,0.997022032737732,0.997022032737732,0.997022032737732,2310.89168916047,3886.3866477478,6197.27833690827,,,51.3399999141693,0,31113.4120992871,31376.8431930079
2011-06-01T05:02:20Z,1306904540,360B,55.481811,25.928296,3945.6,0,-4.8,27,-76284,-26308.99,27.7,Weapon+Missile,Blue,Enemies,R-27ER,,cn,,208.077823578972,173.807846069336,0.640363986721733,3945.6044921875,3945.6044921875,207.348444962402,-17.406982421875,0.0256193180214501,NaN,0,0.0197823405926261,5000,0.997057259082794,0.997057259082794,0.997057259082794,2164.81903326809,3869.31622933105,6034.13526259915,,,52.3399999141693,0,31321.5501683688,31585.8364757569
2011-06-01T05:02:21Z,1306904541,360B,55.4827283,25.9299198,3928.65,0,-4.8,27,-76190.05,-26130.19,27.7,Weapon+Missile,Blue,Enemies,R-27ER,,cn,,202.690565234287,169.299819946289,0.623653943777275,3928.65380859375,3928.65380859375,201.980542529966,-16.95068359375,0.0271807068409236,NaN,0,0.0197823405926261,5000,0.976509153842926,0.976509153842926,0.976509153842926,2054.17326174974,3852.69328720459,5906.86654895433,,,53.3399999141693,0,31524.2997656235,31789.4181313591
2011-06-01T05:02:22Z,1306904542,360B,55.4836123,25.9314848,3912.12,0.2,-5.4,27,-76099.49,-25957.86,27.7,Weapon+Missile,Blue,Enemies,R-27ER,,cn,,195.376355009847,163.134475708008,0.601026265460216,3912.11987304688,3912.11987304688,194.675496846074,-16.533935546875,0.100711894694231,NaN,0.40000002358188,1.0194683792657,5000,0.331066370010376,0.331066370010376,0.331066370010376,1908.59600484669,3836.47903530151,5745.07504014821,,,54.3399999141693,0,31719.7019343922,31985.6382397289
2011-06-01T05:02:23Z,1306904543,360B,55.4844794,25.9330191,3889.4,1.2,-8.3,27.1,-76010.69,-25788.92,27.7,Weapon+Missile,Blue,Enemies,R-27ER,,cn,,192.203751099465,160.58544921875,0.591100737183533,3889.4013671875,3889.4013671875,190.856363342234,-22.718505859375,0.0695395293372945,NaN,0.969230843816372,2.4579084596262,3843.46748220671,0.0248557366430759,0.0248557366430759,0.0248557366430759,1847.11409683526,3814.19979175293,5661.31388858819,,,55.3399999141693,0,31911.2883849212,32178.6833355677
2011-06-01T05:02:24Z,1306904544,360B,55.4853151,25.9344965,3858.13,1.9,-11.2,27.1,-75925.09,-25626.25,27.8,Weapon+Missile,Blue,Enemies,R-27ER,,cn,,186.463666030523,155.89421081543,0.573226591592806,3858.1337890625,3858.1337890625,183.823386182877,-31.267578125,0.0741466501513531,NaN,0.769230845365645,2.86586285214637,3719.10181444593,0.0394486747682095,0.0394486747682095,0.0394486747682095,1738.43493747711,3783.53677225098,5521.97170972809,,,56.3399999141693,0,32095.811868948,32365.9477193732
2011-06-01T05:02:25Z,1306904545,360B,55.4861266,25.9359285,3818.53,2.6,-14,27.1,-75841.98,-25468.56,27.8,Weapon+Missile,Blue,Enemies,R-27ER,,cn,,182.594473114651,152.870300292969,0.56105797834967,3818.53295898438,3818.53295898438,178.248466667011,-39.600830078125,0.0709599550805561,NaN,0.615384676292516,2.87778942965427,3629.8074779083,0.0467309840023518,0.0467309840023518,0.0467309840023518,1667.03708060086,3744.70162422241,5411.73870482327,,,57.3399999141693,0,32274.7353610813,32549.306342476
2011-06-01T05:02:26Z,1306904546,360B,55.4869152,25.9373163,3770.91,3.1,-16.9,27.2,-75761.22,-25315.76,27.9,Weapon+Missile,Blue,Enemies,R-27ER,,cn,,179.268250730861,150.366241455078,0.550514551845776,3770.9052734375,3770.9052734375,172.825661548136,-47.627685546875,0.0642940668530365,NaN,0.553846379417994,2.85810717234382,3588.10312286348,0.0580561123788357,0.0580561123788357,0.0580561123788357,1606.85528600514,3697.99481997559,5304.85010598072,,,58.3399999141693,0,32448.2155320039,32729.3051972106
2011-06-01T05:02:27Z,1306904547,360B,55.48768,25.938657,3715.74,3.5,-19.7,27.3,-75682.91,-25168.14,28,Weapon+Missile,Blue,Enemies,R-27ER,,cn,,175.971361331095,147.934356689453,0.540023681166554,3715.74291992188,3715.74291992188,167.101869419035,-55.162353515625,0,NaN,0.400000210344865,2.86329704889597,3561.2133786786,0.0662874057888985,0.0662874057888985,0.0662874057888985,1548.29600043595,3643.89903056519,5192.19503100113,,,59.3399999141693,0,32615.9523809941,32905.9731655358
2011-06-01T05:02:28Z,1306904548,360B,55.4884313,25.9399678,3652.64,3.8,-22.6,27.4,-75605.98,-25023.81,28.1,Weapon+Missile,Blue,Enemies,R-27ER,,cn,,175.308917648515,147.822341918945,0.53757403043667,3652.63842773438,3652.63842773438,163.557450679728,-63.1044921875,0.0621957390141881,NaN,0.338461486583519,2.81117779633031,3558.46837424383,0.0615010447800159,0.0615010447800159,0.0615010447800159,1536.66083035469,3582.01466373413,5118.67549408882,,,60.3399999141693,0,32780.117760514,33081.9379126386
2011-06-01T05:02:29Z,1306904549,360B,55.4891639,25.9412384,3582.25,4,-25.3,27.6,-75531,-24883.92,28.3,Weapon+Missile,Blue,Enemies,R-27ER,,cn,,173.626124936745,146.877975463867,0.531954580867396,3582.24609375,3582.24609375,158.71657310055,-70.392333984375,0.0482311511519418,NaN,0.200000745502667,2.76049160282988,3607.85775310211,0.0730464905500412,0.0730464905500412,0.0730464905500412,1507.3015630275,3512.98336552734,5020.28492855484,,,61.3399999141693,0,32939.4412193703,33256.2016411446
2011-06-01T05:02:30Z,1306904550,360B,55.4898785,25.9424692,3504.89,4.2,-28.1,27.8,-75457.85,-24748.41,28.5,Weapon+Missile,Blue,Enemies,R-27ER,,cn,,172.32994709717,146.311325073242,0.527483801668492,3504.89306640625,3504.89306640625,153.993895422093,-77.35302734375,0.0471447313048748,NaN,0.199999891729021,2.76185785410729,3665.80747862655,0.0781876668334007,0.0781876668334007,0.0781876668334007,1484.88053332567,3437.12595896729,4922.00649229296,,,62.3399999141693,0,33094.0018355153,33429.1149916721
2011-06-01T05:02:31Z,1306904551,360B,55.490576,25.9436609,3420.88,4.3,-30.7,28,-75386.48,-24617.21,28.6,Weapon+Missile,Blue,Enemies,R-27ER,,cn,,171.361449204823,146.071487426758,0.523981384412388,3420.87670898438,3420.87670898438,149.351926533061,-84.016357421875,0.0262715234117846,NaN,0,2.66434943318596,3739.35647659082,0.0830464512109756,0.0830464512109756,0.0830464512109756,1468.23731367886,3354.73405781616,4822.97137149502,,,63.3399999141693,0,33243.9183093323,33601.0397098756
2011-06-01T05:02:32Z,1306904552,360B,55.4912604,25.9448197,3330.03,4.3,-33.3,28.2,-75316.47,-24489.65,28.9,Weapon+Missile,Blue,Enemies,R-27ER,,cn,,171.547035996201,146.883865356445,0.523968381618115,3330.02514648438,3330.02514648438,145.514188828412,-90.8515625,0.0235616665970045,NaN,0,2.56520838360958,3853.01789597901,0.0844766795635223,0.0844766795635223,0.0844766795635223,1471.4192779541,3265.6391102771,4737.0583882312,,,64.3399999141693,0,33389.9778326942,33773.1152076763
2011-06-01T05:02:33Z,1306904553,360B,55.49193,25.9459426,3232.82,4.3,-35.8,28.5,-75247.97,-24366.05,29.1,Weapon+Missile,Blue,Enemies,R-27ER,,cn,,171.516337161529,147.554550170898,0.52325579778569,3232.82299804688,3232.82299804688,141.313821873309,-97.2021484375,0.030539712680778,NaN,0,2.48759950539166,3991.89123664086,0.0892675593495369,0.0892675593495369,0.0892675593495369,1470.89269566536,3170.31636537964,4641.209061045,,,65.3399999141693,0,33531.8099383842,33945.1190102663
2011-06-01T05:02:34Z,1306904554,360B,55.4925861,25.9470308,3129.46,4.3,-38.2,28.7,-75180.88,-24246.27,29.4,Weapon+Missile,Blue,Enemies,R-27ER,,cn,,171.846861377387,148.589157104492,0.523607268364254,3129.46362304688,3129.46362304688,137.288686223112,-103.359375,0.0350757278345111,NaN,0,2.41647140947903,4147.67689566697,0.0889347940683365,0.0889347940683365,0.0889347940683365,1476.56718826294,3068.95544389526,4545.5226321582,,,66.3399999141693,0,33669.6060771833,34117.4265306459
2011-06-01T05:02:35Z,1306904555,360B,55.4932332,25.9480918,3019.46,4.2,-40.5,29,-75114.73,-24129.49,29.7,Weapon+Missile,Blue,Enemies,R-27ER,,cn,,173.533355986059,150.877426147461,0.528042681708791,3019.4599609375,3019.4599609375,134.212592413345,-110.003662109375,0.0264336018381029,NaN,0,2.34444407647348,4342.45934532955,0.0898626446723938,0.0898626446723938,0.0898626446723938,1505.69128198922,2961.07870259277,4466.76998458199,,,67.3399999141693,0,33804.3130295345,34291.3928111406
2011-06-01T05:02:36Z,1306904556,360B,55.4938639,25.9491137,2904.29,4.1,-42.7,29.3,-75050.25,-24017.02,30,Weapon+Missile,Blue,Enemies,R-27ER,,cn,,173.413285216526,151.611267089844,0.526944541810601,2904.28686523438,2904.28686523438,129.643069678819,-115.173095703125,0.0188389078607426,NaN,0,2.26828213114255,4567.29669645339,0.0941071212291718,0.0941071212291718,0.0941071212291718,1503.60837447941,2848.13247869507,4351.74085317448,,,68.3399999141693,0,33934.4189752138,34465.197656674
2011-06-01T05:02:37Z,1306904557,360B,55.4944843,25.9501063,2783.25,3.9,-44.8,29.6,-74986.86,-23907.78,30.3,Weapon+Missile,Blue,Enemies,R-27ER,,cn,,174.930535259938,153.854354858398,0.530781443891461,2783.25073242188,2783.25073242188,126.297057448395,-121.0361328125,0.019232307942965,NaN,0.199987938897973,2.11968837754116,4805.15404507569,0.0921842753887177,0.0921842753887177,0.0921842753887177,1530.03460831642,2729.4365795105,4259.47118782692,,,69.3399999141693,0,34061.1698009997,34640.4969627468
2011-06-01T05:02:38Z,1306904558,360B,55.4950981,25.9510756,2655.79,3.8,-46.9,29.9,-74924.17,-23801.13,30.6,Weapon+Missile,Blue,Enemies,R-27ER,,cn,,177.626790660474,157.223663330078,0.538139101568489,2655.78930664062,2655.78930664062,123.712819457608,-127.46142578125,0.0601927145265186,NaN,0.199987938897973,2.02214217713598,5000,0.0889865309000015,0.0889865309000015,0.0889865309000015,1577.56383801699,2604.43962039673,4182.00345841372,,,70.3399999141693,0,34185.3311016558,34818.4733450693
2011-06-01T05:02:39Z,1306904559,360B,55.4956994,25.9520129,2523.22,3.6,-48.8,30.3,-74862.76,-23698,31,Weapon+Missile,Blue,Enemies,R-27ER,,cn,,178.831365644291,159.31005859375,0.540930299165375,2523.224609375,2523.224609375,120.030239427718,-132.564697265625,0.0495343596914454,NaN,0.199987938897973,1.94025098375188,5000,0.091084212064743,0.091084212064743,0.091084212064743,1599.0328669101,2474.43806155273,4073.47092846283,,,71.3399999141693,0,34305.7914319735,34997.6265620019
2011-06-01T05:02:40Z,1306904560,360B,55.4962893,25.9529201,2385.67,3.5,-50.7,30.6,-74802.53,-23598.19,31.3,Weapon+Missile,Blue,Enemies,R-27ER,,cn,,180.307766785966,161.69677734375,0.544502600509952,2385.66772460938,2385.66772460938,116.571841440885,-137.556884765625,0.0676141524781829,NaN,0.0922895160652123,1.85385592094038,5000,0.0896450579166412,0.0896450579166412,0.0896450579166412,1625.54453816712,2339.54083915405,3965.08537732117,,,72.3399999141693,0,34422.7716406193,35178.2277798084
2011-06-01T05:02:41Z,1306904561,360B,55.4968709,25.9538027,2242.57,3.3,-52.3,30.9,-74743.16,-23501.1,31.6,Weapon+Missile,Blue,Enemies,R-27ER,,cn,,182.832819633956,165.106506347656,0.551190059049374,2242.57006835938,2242.57006835938,113.802024195792,-143.09765625,0.0259703249818218,NaN,0.169224766876236,1.75204373379,5000,0.0852105394005775,0.0852105394005775,0.0852105394005775,1671.39199676514,2199.20997608765,3870.60197285278,,,73.3399999141693,0,34536.9705114356,35361.3337229033
2011-06-01T05:02:42Z,1306904562,360B,55.4974454,25.9546624,2093.77,3.1,-54.1,31.3,-74684.55,-23406.53,32,Weapon+Missile,Blue,Enemies,R-27ER,,cn,,185.799277006725,168.99967956543,0.559147194345172,2093.76684570312,2093.76684570312,111.260829869888,-148.80322265625,0.0413904416775133,NaN,0.199987938897973,1.65332786348945,5000,0.0841626226902008,0.0841626226902008,0.0841626226902008,1726.06856681108,2053.28386374145,3779.35243055254,,,74.3399999141693,0,34648.6222038204,35547.3901023049
2011-06-01T05:02:43Z,1306904563,360B,55.4980071,25.9554919,1940.84,2.9,-55.6,31.6,-74627.24,-23315.29,32.3,Weapon+Missile,Blue,Enemies,R-27ER,,cn,,187.072526576381,171.389205932617,0.561964184673025,1940.83764648438,1940.83764648438,107.744096014504,-152.92919921875,0,NaN,0.199987938897973,1.60126474654103,5000,0.0819877684116364,0.0819877684116364,0.0819877684116364,1749.80650998354,1903.3115505896,3653.11806057314,,,75.3399999141693,0,34756.7327786847,35734.6936818927
2011-06-01T05:02:44Z,1306904564,360B,55.4985589,25.9562959,1783.28,2.7,-57.1,32,-74570.97,-23226.87,32.6,Weapon+Missile,Blue,Enemies,R-27ER,,cn,,189.233145868012,174.663909912109,0.567402931308422,1783.2822265625,1783.2822265625,104.811607889327,-157.555419921875,0.041674303833589,NaN,0.199987938897973,1.49896889662004,5000,0.0806853771209717,0.0806853771209717,0.0806853771209717,1790.45917475522,1748.80246471191,3539.26163946713,,,76.3399999141693,0,34861.8984459166,35924.1402087835
2011-06-01T05:02:45Z,1306904565,360B,55.4991004,25.9570746,1621.36,2.6,-58.6,32.3,-74515.75,-23141.26,33,Weapon+Missile,Blue,Enemies,R-27ER,,cn,,191.307310593271,177.921783447266,0.572535543750888,1621.35607910156,1621.35607910156,101.874480881568,-161.926147460938,0.0542893133515674,NaN,0.184633673643785,1.44974276277641,5000,0.0733083188533783,0.0733083188533783,0.0733083188533783,1829.92435432151,1590.00715931213,3419.93151363364,,,77.3399999141693,0,34964.1268062448,36115.6507676612
2011-06-01T05:02:46Z,1306904566,360B,55.4996358,25.9578343,1453.85,2.4,-59.9,32.7,-74461.18,-23057.71,33.3,Weapon+Missile,Blue,Enemies,R-27ER,,cn,,194.977883444927,182.767883300781,0.582381619718832,1453.85070800781,1453.85070800781,99.7914108899581,-167.50537109375,0.040320332043618,NaN,0.199987938897973,1.37688961721153,5000,0.0732757747173309,0.0732757747173309,0.0732757747173309,1900.81875163317,1425.74050456848,3326.55925620165,,,78.3399999141693,0,35064.2485099667,36310.8102888389
2011-06-01T05:02:47Z,1306904567,360B,55.5001559,25.9585629,1283.82,2.3,-61.2,33,-74408.17,-22977.6,33.6,Weapon+Missile,Blue,Enemies,R-27ER,,cn,,195.28384993497,184.473358154297,0.582144312202763,1283.82312011719,1283.82312011719,96.0541586893549,-170.027587890625,0.0154061524287272,NaN,0.0615263440434749,1.29036670179651,5000,0.0696376264095306,0.0696376264095306,0.0696376264095306,1906.7891022712,1259.00040008972,3165.78950236092,,,79.3399999141693,0,35160.6246433245,36506.2629096285
2011-06-01T05:02:48Z,1306904568,360B,55.500663,25.9592645,1110.71,2.1,-62.4,33.3,-74356.5,-22900.47,34,Weapon+Missile,Blue,Enemies,R-27ER,,cn,,196.437316493958,187.026733398438,0.584410813906961,1110.7099609375,1110.7099609375,92.8410115744964,-173.113159179688,0.0103582170766429,NaN,0.199987938897973,1.2719182541266,5000,0.0673060640692711,0.0673060640692711,0.0673060640692711,1929.38096556738,1089.23438384277,3018.61534941015,,,80.3399999141693,0,35253.7705721286,36702.8528064074
2011-06-01T05:02:49Z,1306904569,360B,55.5011513,25.9599316,936.72,2,-63.6,33.7,-74306.75,-22827.14,34.3,Weapon+Missile,Blue,Enemies,R-27ER,,cn,,195.259359909195,187.351593017578,0.579742455116005,936.716125488281,936.716125488281,88.6135591081783,-173.993835449219,0.0369394473290858,NaN,0,1.20612250824334,5000,0.062876783311367,0.062876783311367,0.062876783311367,1906.31088160742,918.604719201965,2824.91560080939,,,81.3399999141693,0,35342.6698126752,36898.2484739325
2011-06-01T05:02:50Z,1306904570,360B,55.5016247,25.9605702,760.77,1.8,-64.7,34,-74258.55,-22756.94,34.6,Weapon+Missile,Blue,Enemies,R-27ER,,cn,,195.465971518856,189.029754638672,0.579184837963494,760.773864746094,760.773864746094,85.1543710371833,-175.942260742188,0.00521702779226313,NaN,0.199987938897973,1.13493251374135,5000,0.0605752132833004,0.0605752132833004,0.0605752132833004,1910.34730109051,746.064302071228,2656.41160316174,,,82.3399999141693,0,35428.1036557992,37093.8413248986
2011-06-01T05:02:51Z,1306904571,360B,55.5020856,25.961185,581.98,1.7,-65.8,34.3,-74211.61,-22689.38,35,Weapon+Missile,Blue,Enemies,R-27ER,,cn,,196.814188127131,191.856567382812,0.581988754446689,581.978454589844,581.978454589844,82.2680129527886,-178.79541015625,0.0217558216872368,NaN,0.199987938897973,1.09945672463572,5000,0.0558560416102409,0.0558560416102409,0.0558560416102409,1936.79123240709,570.725901170349,2507.51713357744,,,83.3399999141693,0,35510.6397584346,37290.7713661315
2011-06-01T05:02:52Z,1306904572,360B,55.5025303,25.9617707,402.09,1.6,-66.9,34.6,-74166.34,-22625,35.3,Weapon+Missile,Blue,Enemies,R-27ER,,cn,,196.349637888867,192.927291870117,0.57942694995813,402.091522216797,402.091522216797,78.7011553949759,-179.886932373047,0,NaN,0.199987938897973,1.05688885129408,5000,0.0535423569381237,0.0535423569381237,0.0535423569381237,1927.65901495446,394.317082634735,2321.9760975892,,,84.3399999141693,0,35589.5826439934,37487.2204668524
2011-06-01T05:02:53Z,1306904573,360B,55.5029584,25.9623281,221.46,1.5,-67.9,34.9,-74122.77,-22563.75,35.6,Weapon+Missile,Blue,Enemies,R-27ER,,cn,,195.64256768321,193.761749267578,0.576158972159005,221.464614868164,221.464614868164,75.1660470647995,-180.626907348633,0.0458806015019548,NaN,0.0769352508110236,1.02635619815683,5000,0.0519474856555462,0.0519474856555462,0.0519474856555462,1913.80071448396,217.182596539688,2130.98331102365,,,85.3399999141693,0,35664.9897139817,37682.9571823317
2011-06-01T05:02:54Z,1306904574,360B,55.5033702,25.9628581,40.34,1.4,-68.9,35.2,-74080.88,-22505.51,35.9,Weapon+Missile,Blue,Enemies,R-27ER,,cn,,194.815615203861,194.476119995117,0.572551185366238,40.3392372131348,40.3392372131348,71.740654419806,-181.125377655029,0.050549644649033,NaN,0.138461594854498,0.976521750590243,5000,0.0521297976374626,0.0521297976374626,0.0521297976374626,1897.65619636295,39.5592780616188,1937.21547442457,,,86.3399999141693,0,35736.9549340612,37877.8561508143
