ISOTime,UnixTime,Id,Longitude,Latitude,Altitude,Roll,Pitch,Yaw,U,V,Heading,Type,Color,Coalition,Name,Group,Country,Pilot,TAS,CAS,M,ASL,AGL,GS,VS,AOA,AOS,RRT,TRT,TRD,G,LatG,LonG,Ek,Ep,Em,FFW,FFV,RelativeTime,Elev,GroundDistance,AirDistance
2011-06-01T05:02:50Z,1306904570,8910,55.662318,25.4050105,2297.43,-32.3,8.9,54.6,-58791.04,-84463.89,55.2,Weapon+Missile,Blue,Enemies,R-27ER,,cn,,305.573805185782,278.794189453125,0.921819899029481,2297.42749023438,2252.65744018555,NaN,NaN,3.84652386773235,NaN,7.4615103851862,3.43820865400204,NaN,NaN,NaN,NaN,NaN,2253.00672971069,NaN,,,0.920000076293945,44.7700500488281,NaN,NaN
2011-06-01T05:02:51Z,1306904571,8910,55.6659906,25.4072733,2340.54,-27.5,8.8,53.4,-58419.08,-84216.98,54,Weapon+Missile,Blue,Enemies,R-27ER,,cn,,448.524874213513,409.562866210938,1.35375153888726,2340.54223632812,2292.0803527832,446.447848530508,43.11474609375,1.20753087249123,NaN,3.04614142642063,1.72481667876762,3745.47949877664,7.35540199279785,7.35540199279785,7.35540199279785,10058.7281394124,2295.28785218872,12354.0159916011,,,1.92000007629395,48.4618835449219,447.022720970701,449.25886753428
2011-06-01T05:02:52Z,1306904572,8910,55.6711557,25.4110826,2462.65,-26.6,12.2,47.9,-57895.32,-83800.26,48.5,Weapon+Missile,Blue,Enemies,R-27ER,,cn,,680.363340195593,605.526611328125,2.05648068314257,2462.64599609375,2414.12788009644,669.316775923929,122.103759765625,0.237121758200525,NaN,0.553832719039654,5.9635372020811,5000,10.4204607009888,10.4204607009888,10.4204607009888,23144.7137341052,2415.03073575928,25559.7444698645,,,2.92000007629395,48.5181159973145,1117.50777256025,1131.0199249046
2011-06-01T05:02:53Z,1306904573,8910,55.6773419,25.4167849,2676.53,-24.9,13.9,42.7,-57266.8,-83174.89,43.3,Weapon+Missile,Blue,Enemies,R-27ER,,cn,,912.064160066489,795.735412597656,2.76388117051186,2676.52685546875,2629.50009918213,886.63183456878,213.880859375,0.142432926584414,NaN,3.49232353395171,4.69546306379675,5000,4.52910804748535,4.52910804748535,4.52910804748535,41593.0516038895,2624.77620871826,44217.8278126077,,,3.92000007629395,47.0267562866211,2006.23209600701,2045.4664667893
2011-06-01T05:02:54Z,1306904574,8910,55.6838573,25.4234013,2903.52,-20.3,12,40.8,-56604.23,-82448.56,41.4,Weapon+Missile,Blue,Enemies,R-27ER,,cn,,1008.99773034381,868.792785644531,3.06597567275833,2903.51684570312,2859.59826660156,983.133746838325,226.989990234375,0.0737475256377896,NaN,4.61537055804189,2.40855415301393,5000,3.70157051086426,3.70157051086426,3.70157051086426,50903.8209919482,2847.37734749146,53751.1983394397,,,4.92000007629395,43.9185791015625,2991.93591650269,3057.38874526827
2011-06-01T05:02:55Z,1306904575,8910,55.6901833,25.4301959,3096.82,-16.3,10.2,39.6,-55960.59,-81702.33,40.2,Weapon+Missile,Blue,Enemies,R-27ER,,cn,,1004.24648887155,856.872131347656,3.05867063514075,3096.822265625,3053.99122619629,985.466399751748,193.305419921875,0.0324046328502576,NaN,3.84613074805296,2.20989084392811,5000,2.53178334236145,2.53178334236145,2.53178334236145,50425.5505205423,3036.94520711914,53462.4957276614,,,5.92000007629395,42.8310394287109,3980.15139907647,4064.78924439429
2011-06-01T05:02:56Z,1306904576,8910,55.6964283,25.4370986,3260.22,-12.9,8.7,39.3,-55325.04,-80943.97,39.9,Weapon+Missile,Blue,Enemies,R-27ER,,cn,,1002.85762431617,849.06591796875,3.06050014675591,3260.22241210938,3221.22241210938,989.456318782165,163.400146484375,0.0379130655810669,NaN,3.27693693356994,1.53059896905784,5000,1.31959366798401,1.31959366798401,1.31959366798401,50286.1707324535,3197.18601177124,53483.3567442247,,,6.92000007629395,39,4972.42899031839,5070.91847518101
2011-06-01T05:02:57Z,1306904577,8910,55.702719,25.4440322,3401.64,-10.1,7.6,39.8,-54684.94,-80182.22,40.4,Weapon+Missile,Blue,Enemies,R-27ER,,cn,,1004.9855430038,845.078796386719,3.07227876327867,3401.63623046875,3355.98997116089,994.986469065614,141.413818359375,0.0710436142328185,NaN,2.5077005386756,1.07146383465265,5000,1.19858241081238,1.19858241081238,1.19858241081238,50499.7970823318,3335.86559395264,53835.6626762844,,,7.92000007629395,45.6462593078613,5970.24194828296,6079.218409888
2011-06-01T05:02:58Z,1306904578,8910,55.7091403,25.4509505,3530.27,-8.8,7,40.5,-54031.79,-79422.26,41.1,Weapon+Missile,Blue,Enemies,R-27ER,,cn,,1010.29211598584,844.188720703125,3.09335755223316,3530.27001953125,3479.30078125,1002.06961231971,128.6337890625,0.0276995920442567,NaN,1.21539971940521,1.01475405463451,5000,1.63796591758728,1.63796591758728,1.63796591758728,51034.5079811573,3462.01224870361,54496.5202298609,,,8.92000007629395,50.96923828125,6975.10291664712,7092.82086166493
2011-06-01T05:02:59Z,1306904579,8910,55.7157529,25.4578481,3651.22,-7.7,6.7,41.7,-53359.5,-78664.75,42.2,Weapon+Missile,Blue,Enemies,R-27ER,,cn,,1020.0092988175,847.131164550781,3.12774134598121,3651.21752929688,3596.68859481812,1012.81324515217,120.947509765625,0.0287528796116378,NaN,1.03076263066684,1.12853369370611,5000,2.32031774520874,2.32031774520874,2.32031774520874,52020.9484837085,3580.62123836792,55601.5697220764,,,9.92000007629395,54.5289344787598,7990.65453213258,8116.11698573051
2011-06-01T05:03:00Z,1306904580,8910,55.7225443,25.4646275,3768.28,-6.8,6.4,42.8,-52669.45,-77920.48,43.3,Weapon+Missile,Blue,Enemies,R-27ER,,cn,,1021.67346024943,843.68701171875,3.13735385467581,3768.28002929688,3718.30989074707,1014.94484109818,117.0625,0.0585459865350238,NaN,0.969227748886904,0.980072595185004,5000,1.06185173988342,1.06185173988342,1.06185173988342,52190.8329689026,3695.42033493042,55886.253303833,,,10.9200000762939,49.9701385498047,9008.22983956004,9140.99161451498
2011-06-01T05:03:01Z,1306904581,8910,55.7291038,25.4710399,3870.06,-5.7,5.5,43,-52003.16,-77216.59,43.6,Weapon+Missile,Blue,Enemies,R-27ER,,cn,,974.552306176566,801.996337890625,2.9964095528221,3870.064453125,3820.08291244507,969.222435016874,101.784423828125,0.0423491863178616,NaN,1.13848581293534,0.956986449068655,5000,1.0690233707428,1.0690233707428,1.0690233707428,47487.6098737031,3795.23675692383,51282.846630627,,,11.9200000762939,49.9815406799316,9979.90374779422,10118.560685715
2011-06-01T05:03:02Z,1306904582,8910,55.7353507,25.4770304,3950.98,-4.7,4.7,44,-51368.81,-76559.1,44.6,Weapon+Missile,Blue,Enemies,R-27ER,,cn,,917.191478737807,753.493774414062,2.82286408257345,3950.97973632812,3906.40142822266,913.615305045512,80.915283203125,0.0427836291083944,NaN,0.969226895113258,1.26887529812965,5000,2.09315156936646,2.09315156936646,2.09315156936646,42062.0104334623,3874.58754312622,45936.5979765885,,,12.9200000762939,44.5783081054688,10895.7808104692,11038.5644842388
2011-06-01T05:03:03Z,1306904583,8910,55.7413644,25.4825347,4016.97,-3.7,4.1,45.5,-50758.48,-75955.22,46.1,Weapon+Missile,Blue,Enemies,R-27ER,,cn,,861.121344005539,707.049072265625,2.65246013726384,4016.97290039062,3986.01434326172,858.588883808151,65.9931640625,0.0892136583797855,NaN,0.969226895113258,1.47583835427409,5000,1.72223699092865,1.72223699092865,1.72223699092865,37076.4984550953,3939.30472936157,41015.8031844569,,,13.9200000762939,30.9585571289062,11756.3932505491,11902.2394392717
2011-06-01T05:03:04Z,1306904584,8910,55.7471401,25.4876129,4069.8,-2.9,3.4,45.9,-50172.58,-75398.27,46.4,Weapon+Missile,Blue,Enemies,R-27ER,,cn,,810.107407557398,665.416137695312,2.49695877461364,4069.8037109375,4037.66833496094,808.382902612573,52.830810546875,0.0307327237812951,NaN,0.769230845365645,0.777346497481796,5000,0.410271644592285,0.410271644592285,0.410271644592285,32813.7005889684,3991.11405618652,36804.8146451549,,,14.9200000762939,32.1353759765625,12566.5924050214,12714.6717749377
2011-06-01T05:03:05Z,1306904585,8910,55.7526031,25.4924648,4111.29,-2.5,2.9,45.3,-49618.38,-74866.05,45.8,Weapon+Missile,Blue,Enemies,R-27ER,,cn,,769.484352612211,632.528991699219,2.37296879607335,4111.28759765625,4076.28759765625,768.365314194843,41.48388671875,0.0280406220987102,NaN,0.369234050115366,0.773181522831116,5000,1.2623416185379,1.2623416185379,1.2623416185379,29605.3084457517,4031.79585195557,33637.1042977072,,,15.9200000762939,35,13336.6963472168,13486.3854156445
2011-06-01T05:03:06Z,1306904586,8910,55.7576909,25.4971151,4146.95,-2.3,2.8,44.4,-49102.15,-74355.81,44.9,Weapon+Missile,Blue,Enemies,R-27ER,,cn,,726.713608197214,598.350891113281,2.24206298184081,4146.9482421875,4105.79412841797,725.838127112809,35.66064453125,0.0476069057796305,NaN,0.138453057118036,0.826873746618292,5000,1.3859441280365,1.3859441280365,1.3859441280365,26405.6334169507,4066.7669979248,30472.4004148755,,,16.9200000762939,41.1541137695312,14064.2400727367,14215.2730096666
2011-06-01T05:03:07Z,1306904587,8910,55.7624621,25.5015985,4180.4,-2.2,2.8,43.6,-48617.96,-73863.73,44.2,Weapon+Missile,Blue,Enemies,R-27ER,,cn,,691.165052663947,569.996337890625,2.13327493140249,4180.4033203125,4144.4033203125,690.354899867892,33.455078125,0.0419407185037314,NaN,0,0.753050980995531,5000,1.35115098953247,1.35115098953247,1.35115098953247,23885.4565011978,4099.57522211426,27985.0317233121,,,17.9200000762939,36,14756.2745083313,14908.5668706294
2011-06-01T05:03:08Z,1306904588,8910,55.7669483,25.5059165,4212.94,-2.2,3,43,-48162.62,-73389.7,43.5,Weapon+Missile,Blue,Enemies,R-27ER,,cn,,658.102102122415,543.71240234375,2.03204839650222,4212.93603515625,4178.3406867981,657.29749678729,32.53271484375,0.0240017209888403,NaN,0.199987938897973,0.636285268596167,5000,1.49735224246979,1.49735224246979,1.49735224246979,21654.9188408971,4131.4789169165,25786.3977578136,,,18.9200000762939,34.5953483581543,15415.2214673794,15568.7494684657
2011-06-01T05:03:09Z,1306904589,8910,55.7711509,25.5100405,4247.17,-2.3,3.4,42.6,-47736,-72936.85,43.1,Weapon+Missile,Blue,Enemies,R-27ER,,cn,,623.090238251048,515.997741699219,1.92476074346516,4247.1669921875,4214.54888916016,622.149247837263,34.23095703125,0.041747569355194,NaN,0.24616001768726,0.621190283726174,5000,1.67847061157227,1.67847061157227,1.67847061157227,19412.0722501874,4165.04801839355,23577.120268581,,,19.9200000762939,32.6181030273438,16038.9458530605,16193.8255115861
2011-06-01T05:03:10Z,1306904590,8910,55.7751416,25.5139895,4286.16,-2.6,4,42.4,-47330.89,-72503.2,42.9,Weapon+Missile,Blue,Enemies,R-27ER,,cn,,594.711429695617,493.361999511719,1.83798959072301,4286.15771484375,4255.15771484375,593.431890074462,38.99072265625,0.0234284117350143,NaN,0.184579032130425,0.60183005916292,5000,1.42930126190186,1.42930126190186,1.42930126190186,17684.0842305303,4203.28485542725,21887.3690859575,,,20.9200000762939,31,16633.9155297299,16790.4685821314
2011-06-01T05:03:11Z,1306904591,8910,55.7789237,25.5177824,4326.97,-2.4,4,41.7,-46946.94,-72086.62,42.3,Weapon+Missile,Blue,Enemies,R-27ER,,cn,,568.001441500616,472.029907226562,1.75633440910057,4326.9658203125,4296.30450439453,566.533614249701,40.80810546875,0.0907591985360841,NaN,0.323090999630052,0.819384710997637,5000,1.43449246883392,1.43449246883392,1.43449246883392,16131.2818773389,4243.30393617676,20374.5858135156,,,21.9200000762939,30.6613159179688,17201.9317260901,17360.3313275401
2011-06-01T05:03:12Z,1306904592,8910,55.7824498,25.5215009,4359.41,-1.3,1.9,38.8,-46588.8,-71678.05,39.3,Weapon+Missile,Blue,Enemies,R-27ER,,cn,,544.286708145822,453.187591552734,1.68368712224447,4359.4130859375,4328.46064567566,543.318686976323,32.447265625,0.373561438132606,NaN,1.75386622035963,2.61056062625505,5000,2.76881384849548,2.76881384849548,2.76881384849548,14812.4010332108,4275.1238339209,19087.5248671317,,,22.9200000762939,30.9524402618408,17746.7471049338,17906.4824089811
2011-06-01T05:03:13Z,1306904593,8910,55.7855804,25.5251295,4369.84,-0.8,1.2,38,-46270.52,-71279.04,38.6,Weapon+Missile,Blue,Enemies,R-27ER,,cn,,510.510913109213,426.940399169922,1.5794113088521,4369.83984375,4338.88682174683,510.404423104975,10.4267578125,0.071765405727166,NaN,0,1.86884647862127,5000,1.0324375629425,1.0324375629425,1.0324375629425,13031.0696201801,4285.34899037109,17316.4186105512,,,23.9200000762939,30.9530220031738,18258.6736864761,18418.8654081281
2011-06-01T05:03:14Z,1306904594,8910,55.788578,25.5285991,4380.12,-0.8,1.3,38.1,-45965.79,-70897.52,38.7,Weapon+Missile,Blue,Enemies,R-27ER,,cn,,488.391693062564,409.563873291016,1.51117320673796,4380.11865234375,4348.91806221008,488.283515947867,10.27880859375,0.0238497684524099,NaN,0,0.141620157139233,5000,1.08741319179535,1.08741319179535,1.08741319179535,11926.3222926259,4295.42905820068,16221.7513508266,,,24.9200000762939,31.200590133667,18748.412126168,18909.047557827
2011-06-01T05:03:15Z,1306904595,8910,55.7914665,25.5319274,4390.78,-0.8,1.3,38.3,-45672.18,-70531.54,38.8,Weapon+Missile,Blue,Enemies,R-27ER,,cn,,469.320078271827,394.430419921875,1.4523556616448,4390.783203125,4358.02252197266,469.19889516676,10.66455078125,0.023546196638207,NaN,0,0.180768040037609,5000,1.08027005195618,1.08027005195618,1.08027005195618,11013.0667934537,4305.88740989258,15318.9542033463,,,25.9200000762939,32.7606811523438,19219.0185252159,19380.0982720841
2011-06-01T05:03:16Z,1306904596,8910,55.7942351,25.535102,4401.7,-0.8,1.4,38.4,-45390.8,-70182.48,38.9,Weapon+Missile,Blue,Enemies,R-27ER,,cn,,448.475385715817,377.720397949219,1.38803909422617,4401.69677734375,4365.53088378906,448.342576040602,10.91357421875,0.0467989900629695,NaN,0,0.180768040037609,5000,1.07667815685272,1.07667815685272,1.07667815685272,10056.5085796475,4316.58997015381,14373.0985498014,,,26.9200000762939,36.1658935546875,19668.705644459,19830.2276673825
2011-06-01T05:03:17Z,1306904597,8910,55.7968979,25.538139,4412.85,-0.8,1.5,38.6,-45120.18,-69848.54,39.1,Weapon+Missile,Blue,Enemies,R-27ER,,cn,,429.978801584298,362.653350830078,1.33097742792751,4412.8505859375,4370.015625,429.834110286425,11.15380859375,0.0304789320397459,NaN,0,0.181038446159632,5000,1.07721793651581,1.07721793651581,1.07721793651581,9244.08849059343,4327.5281198584,13571.6166104518,,,27.9200000762939,42.8349609375,20099.7934534336,20261.7575278063
2011-06-01T05:03:18Z,1306904598,8910,55.7994476,25.5410296,4424.18,-0.8,1.6,38.7,-44861.1,-69530.73,39.3,Weapon+Missile,Blue,Enemies,R-27ER,,cn,,410.188422775567,346.235076904297,1.26989717297852,4424.1767578125,4373.12720870972,410.032023151565,11.326171875,0.0458471000933929,NaN,0,0.224684782358829,5000,1.08252954483032,1.08252954483032,1.08252954483032,8412.72710895538,4338.6353002002,12751.3624091556,,,28.9200000762939,51.0495491027832,20511.0388404916,20673.4436393627
2011-06-01T05:03:19Z,1306904599,8910,55.8019113,25.5438041,4435.81,-0.8,1.7,38.9,-44610.79,-69225.68,39.5,Weapon+Missile,Blue,Enemies,R-27ER,,cn,,394.772293490781,333.124633789062,1.22234836095497,4435.80517578125,4392.01333618164,394.600992907412,11.62841796875,0.0481872680888587,NaN,0.199987938897973,0.223593539577,5000,1.09360218048096,1.09360218048096,1.09360218048096,7792.25818539858,4350.03888270752,12142.2970681061,,,29.9200000762939,43.7918395996094,20906.805097708,21069.6554574451
2011-06-01T05:03:20Z,1306904600,8910,55.8042866,25.5464592,4447.79,-0.8,1.9,39.2,-44369.47,-68933.77,39.7,Weapon+Missile,Blue,Enemies,R-27ER,,cn,,378.934054878262,319.371459960938,1.17348376062653,4447.7880859375,4404.7880859375,378.744541624918,11.98291015625,0.0313049179006993,NaN,0,0.223812199011933,5000,1.09593176841736,1.09593176841736,1.09593176841736,7179.55089732409,4361.7901032959,11541.34100062,,,30.9200000762939,43,21286.6435197843,21449.9472390033
2011-06-01T05:03:21Z,1306904601,8910,55.8065545,25.5489733,4459.99,-0.7,2,39.4,-44139.12,-68657.38,39.9,Weapon+Missile,Blue,Enemies,R-27ER,,cn,,359.997342479023,302.620422363281,1.11501072857192,4459.98583984375,4415.11962890625,359.79063549737,12.19775390625,0.0343192637050552,NaN,0,0.265408904830957,5000,1.09192085266113,1.09192085266113,1.09192085266113,6479.90432959795,4373.75201363037,10853.6563432283,,,31.9200000762939,44.8662109375,21647.480910068,21811.2425678977
2011-06-01T05:03:22Z,1306904602,8910,55.8087406,25.5513754,4472.47,-0.6,2.1,39.7,-43917.09,-68393.31,40.2,Weapon+Missile,Blue,Enemies,R-27ER,,cn,,345.229412998124,289.320739746094,1.06943751353847,4472.46826171875,4425.27935791016,345.00367641978,12.482421875,0.0339665324630964,NaN,0.200042580411333,0.296406544440296,5000,1.10871994495392,1.10871994495392,1.10871994495392,5959.16737995148,4385.99308787842,10345.1604678299,,,32.9200000762939,47.1889038085938,21993.4714916784,22157.7003616735
2011-06-01T05:03:23Z,1306904603,8910,55.8108347,25.5536537,4485.29,-0.6,2.3,40,-43704.43,-68142.88,40.5,Weapon+Missile,Blue,Enemies,R-27ER,,cn,,328.791280011348,274.425384521484,1.01867967778533,4485.28759765625,4441.28665924072,328.541276611664,12.8193359375,0.0286986964272784,NaN,0,0.370888503359242,5000,1.13123548030853,1.13123548030853,1.13123548030853,5405.18529057503,4398.56456195557,9803.74985253059,,,33.9200000762939,44.0009384155273,22322.9413463857,22487.6507023826
2011-06-01T05:03:24Z,1306904604,8910,55.8128513,25.5558229,4498.69,-0.6,2.6,40.3,-43499.68,-67904.45,40.8,Weapon+Missile,Blue,Enemies,R-27ER,,cn,,314.570439312202,261.574615478516,0.974783499076305,4498.6875,4452.11725616455,314.284908810859,13.39990234375,0.0393240958955413,NaN,0,0.424633581071207,5000,1.15610575675964,1.15610575675964,1.15610575675964,4947.7280644536,4411.7053771875,9359.4334416411,,,34.9200000762939,46.5702438354492,22638.1082481094,22803.3241014755
2011-06-01T05:03:25Z,1306904605,8910,55.8147986,25.557891,4512.88,-0.6,2.8,40.7,-43302.01,-67677.15,41.2,Weapon+Missile,Blue,Enemies,R-27ER,,cn,,301.564313750668,249.857772827148,0.934646663177097,4512.880859375,4471.98111724854,301.230117812883,14.193359375,0.0285394086675929,NaN,0,0.452410866528164,5000,1.17708051204681,1.17708051204681,1.17708051204681,4547.05176639557,4425.62430795898,8972.67607435455,,,35.9200000762939,40.8997421264648,22940.1730158586,23105.9352989888
2011-06-01T05:03:26Z,1306904606,8910,55.8166732,25.559854,4527.97,-0.6,3.2,41.1,-43111.74,-67461.42,41.6,Weapon+Missile,Blue,Enemies,R-27ER,,cn,,288.04186883709,237.765014648438,0.892905071514988,4527.9697265625,4491.15227890015,287.646387584063,15.0888671875,0.040702293550276,NaN,0,0.558838127123363,5000,1.19964778423309,1.19964778423309,1.19964778423309,4148.40591015816,4440.42143189941,8588.82734205757,,,36.9200000762939,36.8174476623535,23228.6095294356,23394.9703587881
2011-06-01T05:03:27Z,1306904607,8910,55.8184843,25.5617206,4544.14,-0.7,3.6,41.6,-42927.96,-67256.3,42.1,Weapon+Missile,Blue,Enemies,R-27ER,,cn,,275.878228554546,226.941421508789,0.855372340327853,4544.14453125,4507.31484222412,275.403654085627,16.1748046875,0.0358747776743072,NaN,0,0.601423502824746,5000,1.21340823173523,1.21340823173523,1.21340823173523,3805.43984951973,4456.28349673828,8261.72334625801,,,37.9200000762939,36.8296890258789,23504.7595028056,23671.7896851193
2011-06-01T05:03:28Z,1306904608,8910,55.8202398,25.5634993,4561.53,-0.7,4,42.1,-42749.85,-67060.88,42.6,Weapon+Missile,Blue,Enemies,R-27ER,,cn,,264.983290904862,217.284851074219,0.821771313707696,4561.525390625,4524.61511230469,264.412651335289,17.380859375,0.0392275088735652,NaN,0,0.657461096179028,5000,1.22432243824005,1.22432243824005,1.22432243824005,3510.80722293854,4473.32829719726,7984.1355201358,,,38.9200000762939,36.9102783203125,23769.8694892685,23937.6576488049
2011-06-01T05:03:29Z,1306904609,8910,55.8219471,25.5651975,4580.21,-0.8,4.4,42.6,-42576.67,-66874.34,43.1,Weapon+Missile,Blue,Enemies,R-27ER,,cn,,255.222666948457,208.658737182617,0.791687122123055,4580.20751953125,4544.54486083984,254.537988881451,18.68212890625,0.0426186456523911,NaN,0,0.701663465805559,5000,1.22585642337799,1.22585642337799,1.22585642337799,3256.93048621416,4491.64920714111,7748.57969335527,,,39.9200000762939,35.6626586914062,24025.0743414591,24193.7277985456
2011-06-01T05:03:30Z,1306904610,8910,55.8236007,25.566811,4600.09,-0.8,4.9,43.2,-42408.98,-66697.1,43.7,Weapon+Missile,Blue,Enemies,R-27ER,,cn,,244.80430024833,199.512145996094,0.759559570230387,4600.09228515625,4566.41394042969,243.995371915357,19.884765625,0.0379766789024619,NaN,0,0.616922856237944,5000,1.16525733470917,1.16525733470917,1.16525733470917,2996.45727100372,4511.14950082275,7507.60677182648,,,40.9200000762939,33.6783447265625,24269.6892477196,24439.3250546068
2011-06-01T05:03:31Z,1306904611,8910,55.8252089,25.5683563,4620.75,-0.8,5.1,43.5,-42245.9,-66527.38,44,Weapon+Missile,Blue,Enemies,R-27ER,,cn,,236.271783670639,192.026992797852,0.733275855525761,4620.7490234375,4588.7285118103,235.367064226254,20.65673828125,0.0362023044931075,NaN,0,0.513300508874947,5000,1.13101410865784,1.13101410865784,1.13101410865784,2791.21778794527,4531.40684106934,7322.62462901461,,,41.9200000762939,32.0205116271973,24505.6358711777,24676.3440877266
2011-06-01T05:03:32Z,1306904612,8910,55.8267696,25.569836,4641.86,-0.8,5.5,43.9,-42087.67,-66364.88,44.4,Weapon+Missile,Blue,Enemies,R-27ER,,cn,,227.790903517768,184.625579833984,0.707142851624647,4641.857421875,4610.98181152344,226.810782902499,21.1083984375,0.0334648191362871,NaN,0,0.544741470450102,5000,1.1455215215683,1.1455215215683,1.1455215215683,2594.43478627205,4552.10710862305,7146.5418948951,,,42.9200000762939,30.8756103515625,24733.0041888013,24904.8545235465
2011-06-01T05:03:33Z,1306904613,8910,55.8282737,25.571241,4663.37,-0.8,5.9,44.4,-41935.21,-66210.62,44.9,Weapon+Missile,Blue,Enemies,R-27ER,,cn,,217.950637066989,176.118225097656,0.676778305208557,4663.3671875,4633.80743408203,216.886629787694,21.509765625,0.0468128626853216,NaN,0,0.578875767714064,5000,1.15047931671143,1.15047931671143,1.15047931671143,2375.12400989532,4573.20098292969,6948.32499282501,,,43.9200000762939,29.5597534179688,24950.4246777331,25123.4942500518
2011-06-01T05:03:34Z,1306904614,8910,55.8297361,25.5725855,4685.49,-0.8,6.3,44.9,-41787,-66063.01,45.4,Weapon+Missile,Blue,Enemies,R-27ER,,cn,,210.349360045907,169.539169311523,0.653356804157386,4685.49267578125,4656.07440185547,209.182494583173,22.12548828125,0.036032493418012,NaN,0,0.534680174915851,5000,0.995622038841248,0.995622038841248,0.995622038841248,2212.34266358614,4594.89867489502,6807.24133848116,,,44.9200000762939,29.4182739257812,25160.1069292615,25334.4934260995
2011-06-01T05:03:35Z,1306904615,8910,55.8311553,25.5738724,4706.7,0.1,5,45.1,-41643.18,-65921.74,45.6,Weapon+Missile,Blue,Enemies,R-27ER,,cn,,202.706269276517,162.968948364258,0.629785073120309,4706.69580078125,4676.69580078125,201.594293307718,21.203125,0.0391013538299275,NaN,1.69230871357807,1.2708789981557,4961.52434096045,0.169397905468941,0.169397905468941,0.169397905468941,2054.4915802002,4615.69183747314,6670.18341767334,,,45.9200000762939,30,25362.1730949671,25537.8169507316
2011-06-01T05:03:36Z,1306904616,8910,55.8325322,25.5751188,4719.21,1.6,2.2,45,-41503.65,-65784.93,45.6,Weapon+Missile,Blue,Enemies,R-27ER,,cn,,195.811407620098,157.124633789062,0.608459438320282,4719.20849609375,4689.17457771301,195.411206971813,12.5126953125,0.0761717173839713,NaN,1.3538463732209,2.69618921377562,4097.6552742395,0.0612364187836647,0.0612364187836647,0.0612364187836647,1917.10536770821,4627.96259982178,6545.06796752998,,,46.9200000762939,30.0339183807373,25558.0497380668,25734.2372890301
2011-06-01T05:03:37Z,1306904617,8910,55.8338631,25.5763237,4722.26,2.8,-0.5,45,-41368.8,-65652.66,45.6,Weapon+Missile,Blue,Enemies,R-27ER,,cn,,188.922150387436,151.382766723633,0.58707451592374,4722.26123046875,4691.62463378906,188.897484683753,3.052734375,0.0660415836047929,NaN,1.13846148038643,2.73081763253735,3937.86564757972,0.0859204530715942,0.0859204530715942,0.0859204530715942,1784.57894535065,4630.95630957764,6415.53525492828,,,47.9200000762939,30.6365966796875,25747.3869925951,25923.7392704665
2011-06-01T05:03:38Z,1306904618,8910,55.8351638,25.5775011,4716.39,3.8,-3.3,45,-41237.01,-65523.41,45.6,Weapon+Missile,Blue,Enemies,R-27ER,,cn,,184.68469108085,147.918960571289,0.57386415277419,4716.38623046875,4685.18907165527,184.591222691191,-5.875,0.0988023014274056,NaN,0.969230310207843,2.76926305982806,3812.17303707146,0.0975532978773117,0.0975532978773117,0.0975532978773117,1705.42175598145,4625.19490270264,6330.61665868408,,,48.9200000762939,31.1971588134766,25932.4136020193,26108.9959647938
2011-06-01T05:03:39Z,1306904619,8910,55.836427,25.5786439,4701.97,4.7,-6.1,45.1,-41109.01,-65397.94,45.6,Weapon+Missile,Blue,Enemies,R-27ER,,cn,,179.811742156483,143.997955322266,0.558621155767337,4701.9697265625,4669.09564208984,179.232884908073,-14.41650390625,0.116713697879609,NaN,0.769231272252469,2.73465427786019,3696.75535753384,0.114855259656906,0.114855259656906,0.114855259656906,1616.61313086748,4611.05714189941,6227.6702727669,,,49.9200000762939,32.8740844726562,26112.0603232302,26289.3524281314
2011-06-01T05:03:40Z,1306904620,8910,55.8376494,25.5797483,4679.51,5.5,-8.8,45.1,-40985.16,-65276.7,45.6,Weapon+Missile,Blue,Enemies,R-27ER,,cn,,174.764348883781,139.994262695312,0.54278686973259,4679.50537109375,4644.78852844238,173.314541727304,-22.46435546875,0.0471966624468757,NaN,0.769231272252469,2.78508775436133,3601.80604110779,0.130090981721878,0.130090981721878,0.130090981721878,1527.12888203859,4589.02713474365,6116.15601678225,,,50.9200000762939,34.7168426513672,26285.7863158253,26464.6515334233
2011-06-01T05:03:41Z,1306904621,8910,55.8388496,25.5808304,4649.03,6,-11.6,45.2,-40863.55,-65157.92,45.7,Weapon+Missile,Blue,Enemies,R-27ER,,cn,,172.70420750505,138.509979248047,0.536182772363878,4649.02685546875,4611.78382492065,169.993539216184,-30.478515625,0.0589886183052377,NaN,0.569230526749801,2.809451679461,3565.09484958136,0.136374235153198,0.136374235153198,0.136374235153198,1491.33716449738,4559.13792121826,6050.47508571564,,,51.9200000762939,37.2430305480957,26456.1707359803,26637.8631554284
2011-06-01T05:03:42Z,1306904622,8910,55.840019,25.5818815,4611.03,6.5,-14.3,45.3,-40745.08,-65042.54,45.8,Weapon+Missile,Blue,Enemies,R-27ER,,cn,,169.68652926004,136.284530639648,0.526562413837373,4611.03173828125,4572.44602966309,165.378019344248,-37.9951171875,0.0107098281775905,NaN,0.369230635020781,2.77862404752897,3512.17587673041,0.142245560884476,0.142245560884476,0.142245560884476,1439.67591061592,4521.87743962158,5961.5533502375,,,52.9200000762939,38.5857086181641,26621.9420147278,26808.0502792226
2011-06-01T05:03:43Z,1306904623,8910,55.8411637,25.5829062,4565.6,7,-17.1,45.4,-40629.11,-64930.05,45.9,Weapon+Missile,Blue,Enemies,R-27ER,,cn,,167.824671259518,135.059707641602,0.520487767108035,4565.6044921875,4522.98962402344,161.559541951886,-45.42724609375,0.0432552972867414,NaN,0.369230635020781,2.75939108859986,3505.415486274,0.14444787800312,0.14444787800312,0.14444787800312,1408.25601416826,4477.32852933105,5885.58454349932,,,53.9200000762939,42.6148681640625,26783.8688199715,26976.3406928904
2011-06-01T05:03:44Z,1306904624,8910,55.8422917,25.5839108,4512.65,7.2,-19.8,45.6,-40514.85,-64819.78,46.1,Weapon+Missile,Blue,Enemies,R-27ER,,cn,,167.388538984627,135.061233520508,0.518790419769893,4512.64501953125,4465.93123626709,158.789852444606,-52.95947265625,0.0477872168188006,NaN,0.292308190814451,2.68073676455211,3570.38965996027,0.156486377120018,0.156486377120018,0.156486377120018,1400.9461491704,4425.39302807861,5826.33917724901,,,54.9200000762939,46.7137832641602,26943.0349343202,27144.1936916255
2011-06-01T05:03:45Z,1306904625,8910,55.8433837,25.5848776,4453.42,7.5,-22.5,45.8,-40404.23,-64713.66,46.3,Weapon+Missile,Blue,Enemies,R-27ER,,cn,,164.33489820815,132.932556152344,0.508948497650742,4453.416015625,4404.07613372803,153.290194942,-59.22900390625,0.0250792933351438,NaN,0.199999891729021,2.66420237067539,3567.28313708212,0.161119744181633,0.161119744181633,0.161119744181633,1350.29793845415,4367.30921696289,5717.60715541704,,,55.9200000762939,49.3398818969727,27096.668497332,27308.9496885663
2011-06-01T05:03:46Z,1306904626,8910,55.8444655,25.5858286,4386.8,7.6,-25.1,46,-40294.65,-64609.28,46.5,Weapon+Missile,Blue,Enemies,R-27ER,,cn,,165.354354123261,134.229507446289,0.511679301559169,4386.796875,4335.34716796875,151.340518467155,-66.619140625,0.0214813731696772,NaN,0.199999891729021,2.64867500281443,3657.59090322736,0.160676434636116,0.160676434636116,0.160676434636116,1367.10312137604,4301.97815742188,5669.08127879791,,,56.9200000762939,51.44970703125,27248.3463228542,27474.7090643412
2011-06-01T05:03:47Z,1306904627,8910,55.845524,25.5867516,4313.78,7.7,-27.7,46.3,-40187.45,-64507.99,46.8,Weapon+Missile,Blue,Enemies,R-27ER,,cn,,164.572324715968,134.072067260742,0.508795330431792,4313.77587890625,4259.46081542969,147.48553892465,-73.02099609375,0.06165067585606,NaN,0.199999891729021,2.56749884485906,3752.59045921202,0.165748953819275,0.165748953819275,0.165748953819275,1354.2025031209,4230.3690222876,5584.5715254085,,,57.9200000762939,54.3150634765625,27396.1660664874,27639.671362111
2011-06-01T05:03:48Z,1306904628,8910,55.8465661,25.5876522,4234.15,7.7,-30.1,46.5,-40081.92,-64409.17,47,Weapon+Missile,Blue,Enemies,R-27ER,,cn,,165.051425228651,135.012176513672,0.509770526728011,4234.15380859375,4178.06072998047,144.576273603798,-79.6220703125,0.0219076801562781,NaN,0,2.47173852547842,3891.89255440042,0.171997830271721,0.171997830271721,0.171997830271721,1362.09864850044,4152.28644470459,5514.38509320503,,,58.9200000762939,56.0930786132812,27541.0701790443,27805.0951380058
2011-06-01T05:03:49Z,1306904629,8910,55.8475824,25.5885219,4148.94,7.6,-32.5,46.8,-39979,-64313.73,47.3,Weapon+Missile,Blue,Enemies,R-27ER,,cn,,164.200308577123,134.875869750977,0.50660474706222,4148.94482421875,4093.32366943359,140.360857501668,-85.208984375,0.0164781928194623,NaN,0,2.37053539910293,3989.52834603131,0.172048181295395,0.172048181295395,0.172048181295395,1348.08706684113,4068.72497604248,5416.81204288361,,,59.9200000762939,55.6211547851562,27681.7320459753,27969.6318991497
2011-06-01T05:03:50Z,1306904630,8910,55.8485902,25.589375,4056.93,7.5,-34.8,47.1,-39876.97,-64220.11,47.6,Weapon+Missile,Blue,Enemies,R-27ER,,cn,,166.254917662891,137.234878540039,0.512358520808998,4056.92919921875,4000.63829803467,138.469572119488,-92.015625,0.0405589290081078,NaN,0,2.29442660118148,4174.78359316233,0.169024869799614,0.169024869799614,0.169024869799614,1382.03488235474,3978.48847315186,5360.52335550659,,,60.9200000762939,56.290901184082,27820.5035780587,28136.2128025024
2011-06-01T05:03:51Z,1306904631,8910,55.8495821,25.5902052,3958.9,7.4,-37,47.4,-39776.55,-64129.04,47.9,Weapon+Missile,Blue,Enemies,R-27ER,,cn,,167.298345321161,138.793991088867,0.514948886763715,3958.89990234375,3900.03058624268,135.569145831165,-98.029296875,0.0423243248607989,NaN,0.0615263440434749,2.2227493153709,4384.04939757825,0.171775907278061,0.171775907278061,0.171775907278061,1399.43681735992,3882.35457273193,5281.79139009186,,,61.9200000762939,58.8693161010742,27956.3628943746,28303.815610504
2011-06-01T05:03:52Z,1306904632,8910,55.8505547,25.5910096,3855.45,7.2,-39.1,47.8,-39678.09,-64040.79,48.3,Weapon+Missile,Blue,Enemies,R-27ER,,cn,,167.880379058948,140.006851196289,0.516080770681303,3855.44995117188,3794.62323760986,132.219246993442,-103.449951171875,0,NaN,0.169224766876236,2.15233027847148,4542.43169788334,0.167692318558693,0.167692318558693,0.167692318558693,1409.1910836488,3780.90482636597,5190.09591001477,,,62.9200000762939,60.8267135620117,28088.8551649013,28471.9750816796
2011-06-01T05:03:53Z,1306904633,8910,55.8515157,25.5917944,3745.92,6.9,-41.2,48.2,-39580.82,-63954.71,48.7,Weapon+Missile,Blue,Enemies,R-27ER,,cn,,169.906282072361,142.506698608398,0.521604550667912,3745.92065429688,3686.37994384766,129.890252958876,-109.529296875,0.0651935852040887,NaN,0.169224766876236,2.07691751951513,4823.09945882649,0.169759467244148,0.169759467244148,0.169759467244148,1443.40723438263,3673.49327844605,5116.90051282867,,,63.9200000762939,59.5407104492188,28219.0188716901,28642.1498606161
2011-06-01T05:03:54Z,1306904634,8910,55.8524577,25.5925537,3631.4,6.7,-43.1,48.5,-39485.48,-63871.44,49,Weapon+Missile,Blue,Enemies,R-27ER,,cn,,170.697917216842,143.997222900391,0.523298306728148,3631.39697265625,3575.18618774414,126.578455061059,-114.523681640625,0.014903101774803,NaN,0.199987938897973,1.97600296863207,5000,0.165776267647743,0.165776267647743,0.165776267647743,1456.88894710839,3561.18391218994,5018.07285929833,,,64.9200000762939,56.2107849121094,28345.8511202773,28813.0905075923
2011-06-01T05:03:55Z,1306904635,8910,55.8533877,25.5932934,3511.17,6.5,-45,48.9,-39391.37,-63790.33,49.4,Weapon+Missile,Blue,Enemies,R-27ER,,cn,,172.889240572213,146.751510620117,0.529236369715708,3511.17211914062,3456.30419921875,124.244412762841,-120.224853515625,0.0452508529012848,NaN,0.199987938897973,1.88072695235227,5000,0.163425400853157,0.163425400853157,0.163425400853157,1494.53447528183,3443.28360621704,4937.81808149888,,,65.9200000762939,54.867919921875,28470.3465500935,28986.2103765163
2011-06-01T05:03:56Z,1306904636,8910,55.8542997,25.5940088,3386.2,6.2,-46.8,49.3,-39299.09,-63711.88,49.8,Weapon+Missile,Blue,Enemies,R-27ER,,cn,,174.034174106313,148.650451660156,0.531928927876877,3386.20141601562,3332.58201599121,121.120671717546,-124.970703125,0.0510270305574176,NaN,0.215396845665522,1.83114041930821,5000,0.159492537379265,0.159492537379265,0.159492537379265,1514.39468784332,3320.72921163696,4835.12389948029,,,66.9200000762939,53.6194000244141,28591.7000168737,29160.4523645312
2011-06-01T05:03:57Z,1306904637,8910,55.8551973,25.594703,3256.19,6,-48.5,49.7,-39208.29,-63635.77,50.2,Weapon+Missile,Blue,Enemies,R-27ER,,cn,,175.899170779691,151.231781005859,0.536779123351867,3256.18676757812,3203.01843261719,118.476619941051,-130.0146484375,0.010849133002019,NaN,0.292277454963186,1.76082212769905,5000,0.158296599984169,0.158296599984169,0.158296599984169,1547.02591404915,3193.228396427,4740.25431047615,,,67.9200000762939,53.1683349609375,28710.4091748422,29336.5499298596
2011-06-01T05:03:58Z,1306904638,8910,55.8560801,25.5953763,3121.31,5.7,-50.2,50.1,-39118.98,-63561.97,50.6,Weapon+Missile,Blue,Enemies,R-27ER,,cn,,177.808494613936,153.910202026367,0.541718485572391,3121.30688476562,3069.15246582031,115.85887091354,-134.8798828125,0.0696607689089722,NaN,0.338449533752472,1.67512075597514,5000,0.153229609131813,0.153229609131813,0.153229609131813,1580.7930378437,3060.95641614868,4641.74945399239,,,68.9200000762939,52.1544189453125,28826.4871040863,29514.5390995802
2011-06-01T05:03:59Z,1306904639,8910,55.8569424,25.5960246,2982.66,5.4,-51.8,50.5,-39031.76,-63490.92,51,Weapon+Missile,Blue,Enemies,R-27ER,,cn,,178.547651363817,155.599502563477,0.543059187500513,2982.65600585938,2931.24349975586,112.495322507469,-138.65087890625,0.0438365356789276,NaN,0.369212705774209,1.61025637041823,5000,0.1494460105896,0.1494460105896,0.1494460105896,1593.96319037676,2924.98635198608,4518.94954236284,,,69.9200000762939,51.4125061035156,28939.1880287281,29693.2503836331
2011-06-01T05:04:00Z,1306904640,8910,55.8577928,25.5966548,2838.98,5.2,-53.3,51,-38945.75,-63421.86,51.5,Weapon+Missile,Blue,Enemies,R-27ER,,cn,,181.135710090263,158.991287231445,0.54997776982314,2838.97680664062,2788.69068527222,110.301555663384,-143.67919921875,0.0217654237850837,NaN,0.199987938897973,1.51025567750178,5000,0.145001336932182,0.145001336932182,0.145001336932182,1640.5072734952,2784.08519008423,4424.59246357943,,,70.9200000762939,50.2861213684082,29049.6952854015,29874.5421786893
2011-06-01T05:04:01Z,1306904641,8910,55.8586258,25.5972634,2691.33,4.9,-54.7,51.3,-38861.51,-63355.18,51.8,Weapon+Missile,Blue,Enemies,R-27ER,,cn,,182.59426262738,161.428268432617,0.553424243931648,2691.33447265625,2641.61859130859,107.43558982052,-147.642333984375,0.0542614681747024,NaN,0.323095268498283,1.45092374517259,5000,0.138154491782188,0.138154491782188,0.138154491782188,1667.03323722184,2639.29752062744,4306.33075784928,,,71.9200000762939,49.7158813476562,29157.3165231798,30057.2732228745
2011-06-01T05:04:02Z,1306904642,8910,55.859444,25.5978526,2539.4,4.7,-56.1,51.7,-38778.79,-63290.64,52.2,Weapon+Missile,Blue,Enemies,R-27ER,,cn,,184.647074155897,164.457244873047,0.558629577542412,2539.3984375,2489.96257400513,104.928467135149,-151.93603515625,0.0341671473614105,NaN,0.199987938897973,1.40531387632936,5000,0.13410185277462,0.13410185277462,0.13410185277462,1704.72709971666,2490.29916871094,4195.0262684276,,,72.9200000762939,49.435863494873,29262.4372810476,30242.0541656723
2011-06-01T05:04:03Z,1306904643,8910,55.8602418,25.5984188,2384.34,4.4,-57.4,52.2,-38698.12,-63228.61,52.7,Weapon+Missile,Blue,Enemies,R-27ER,,cn,,185.465445847553,166.411102294922,0.560069179365665,2384.3408203125,2336.47304153442,101.757392633491,-155.0576171875,0.0502796584386943,NaN,0.169224766876236,1.31262511436282,5000,0.13138809800148,0.13138809800148,0.13138809800148,1719.87158017159,2338.23959055176,4058.11117072334,,,73.9200000762939,47.8677787780762,29364.3578742054,30427.6308145091
2011-06-01T05:04:04Z,1306904644,8910,55.8610213,25.5989643,2225.98,4.2,-58.7,52.5,-38619.32,-63168.87,53,Weapon+Missile,Blue,Enemies,R-27ER,,cn,,186.699043032007,168.785339355469,0.562734945274238,2225.9814453125,2179.37899017334,98.8880226249709,-158.359375,0.0166303553354573,NaN,0.199987938897973,1.25725266403982,5000,0.127505362033844,0.127505362033844,0.127505362033844,1742.82663345337,2182.94209406738,3925.76872752075,,,74.9200000762939,46.6024551391602,29463.4077914555,30614.4346438632
2011-06-01T05:04:05Z,1306904645,8910,55.8617812,25.5994886,2064.76,4,-59.9,52.9,-38542.5,-63111.45,53.4,Weapon+Missile,Blue,Enemies,R-27ER,,cn,,187.589804318721,170.883850097656,0.564342206904782,2064.76000976562,2017.4833984375,95.9040322642433,-161.221435546875,0.0499748913674193,NaN,0.199987938897973,1.25335454701444,5000,0.119787909090519,0.119787909090519,0.119787909090519,1759.49673421681,2024.83787497681,3784.33460919362,,,75.9200000762939,47.276611328125,29559.4608785725,30802.1172338196
2011-06-01T05:04:06Z,1306904646,8910,55.8625269,25.599996,1899.64,3.8,-61,53.3,-38467.14,-63055.91,53.8,Weapon+Missile,Blue,Enemies,R-27ER,,cn,,189.812840959144,174.268081665039,0.56991963723862,1899.63842773438,1850.572265625,93.6150508223892,-165.12158203125,0.0118968371394452,NaN,0.199987938897973,1.20417366317406,5000,0.115645565092564,0.115645565092564,0.115645565092564,1801.44572964907,1862.90891873413,3664.3546483832,,,76.9200000762939,49.066162109375,29653.2365475806,30992.0237364059
2011-06-01T05:04:07Z,1306904647,8910,55.8632541,25.6004838,1731.67,3.6,-62.1,53.7,-38393.64,-63002.51,54.2,Weapon+Missile,Blue,Enemies,R-27ER,,cn,,190.962151094916,176.700241088867,0.572240855239629,1731.67224121094,1681.44116210938,90.8509952370985,-167.966186523438,0,NaN,0.276923189708997,1.14283781737541,5000,0.111918225884438,0.111918225884438,0.111918225884438,1823.32715753987,1698.19035842712,3521.517515967,,,77.9200000762939,50.2310791015625,29744.2297240498,31183.0659113915
2011-06-01T05:04:08Z,1306904648,8910,55.8639593,25.6009505,1561.91,3.4,-63.2,54.1,-38322.38,-62951.44,54.6,Weapon+Missile,Blue,Enemies,R-27ER,,cn,,191.067202858366,178.179779052734,0.571420052131475,1561.9052734375,1509.68385314941,87.6689948678141,-169.766967773438,0.0169098676036831,NaN,0.153870501622047,1.10358781514481,5000,0.106754928827286,0.106754928827286,0.106754928827286,1825.33380040601,1531.70583497559,3357.03963538159,,,78.9200000762939,52.2214202880859,29832.0398018521,31374.2083066637
2011-06-01T05:04:09Z,1306904649,8910,55.8646495,25.6014009,1388.77,3.2,-64.3,54.4,-38252.64,-62902.14,54.9,Weapon+Missile,Blue,Enemies,R-27ER,,cn,,193.0568265177,181.482757568359,0.576207154676528,1388.76611328125,1333.63045120239,85.4035683415724,-173.13916015625,0.022733593256143,NaN,0.199987938897973,1.03082762418566,5000,0.100407883524895,0.100407883524895,0.100407883524895,1863.54691325426,1361.91432048096,3225.46123373522,,,79.9200000762939,55.1356620788574,29917.5653224099,31567.3278751794
2011-06-01T05:04:10Z,1306904650,8910,55.8653188,25.6018319,1213.88,3,-65.2,54.8,-38185.02,-62854.99,55.3,Weapon+Missile,Blue,Enemies,R-27ER,,cn,,193.347021904194,183.203948974609,0.575903665704532,1213.876953125,1155.65074539185,82.443026018351,-174.88916015625,0.0140494176422229,NaN,0.199987938897973,0.984704423937624,5000,0.0994693115353584,0.0994693115353584,0.0994693115353584,1869.15354396105,1190.40664223633,3059.56018619738,,,80.9200000762939,58.2262077331543,30000.1230606765,31760.7310292302
2011-06-01T05:04:11Z,1306904651,8910,55.8659643,25.6022419,1038.31,2.9,-66.2,55.1,-38119.81,-62810.13,55.6,Weapon+Missile,Blue,Enemies,R-27ER,,cn,,192.580347134844,183.921203613281,0.57245765552488,1038.3115234375,977.147521972656,79.1452462326115,-175.5654296875,0.00767866593960546,NaN,0.0307631720217374,0.979872918873487,5000,0.0928649827837944,0.0928649827837944,0.0928649827837944,1854.35950512886,1018.23577013184,2872.5952752607,,,81.9200000762939,61.1640014648438,30079.3879359698,31953.3663305587
2011-06-01T05:04:12Z,1306904652,8910,55.8665977,25.602639,858.94,2.7,-67.2,55.5,-38055.82,-62766.69,56,Weapon+Missile,Blue,Enemies,R-27ER,,cn,,195.332897507441,188.075241088867,0.579442622611346,858.943786621094,795.050186157227,77.3443975864619,-179.367736816406,0.0365179249336938,NaN,0.199987938897973,0.928863251882833,5000,0.0878806561231613,0.0878806561231613,0.0878806561231613,1907.74704243261,842.336108506775,2750.08315093939,,,82.9200000762939,63.8936004638672,30156.8339994431,32148.7440724739
2011-06-01T05:04:13Z,1306904653,8910,55.8672075,25.6030163,679.25,2.5,-68.1,55.9,-37994.22,-62725.42,56.4,Weapon+Missile,Blue,Enemies,R-27ER,,cn,,194.393851543357,188.669937133789,0.57547075200442,679.245361328125,613.0791015625,74.1447601998138,-179.698425292969,0.0371081154798258,NaN,0.169224766876236,0.880682190343064,5000,0.0857697203755379,0.0857697203755379,0.0857697203755379,1889.44847589303,666.112152266846,2555.56062815987,,,83.9200000762939,66.166259765625,30231.0721111238,32343.176967054
2011-06-01T05:04:14Z,1306904654,8910,55.8677962,25.6033758,498.78,2.4,-68.9,56.2,-37934.77,-62686.11,56.7,Weapon+Missile,Blue,Enemies,R-27ER,,cn,,194.031279523835,189.829376220703,0.573215640146417,498.778472900391,431.167633056641,71.2729935871096,-180.466888427734,0.0481269731882342,NaN,0.199987938897973,0.879570416973086,5000,0.0804281234741211,0.0804281234741211,0.0804281234741211,1882.40687168282,489.134591126862,2371.54146280969,,,84.9200000762939,67.61083984375,30302.4431111678,32537.246692469
2011-06-01T05:04:15Z,1306904655,8910,55.8683696,25.6037216,315.84,2.3,-69.7,56.5,-37876.85,-62648.31,57,Weapon+Missile,Blue,Enemies,R-27ER,,cn,,195.57362803834,192.89274597168,0.576572121021733,315.843078613281,247.685729980469,69.164192333162,-182.935394287109,0.0167628016064918,NaN,0.199987938897973,0.827701693611745,5000,0.0776007175445557,0.0776007175445557,0.0776007175445557,1912.45219920394,309.736252688293,2222.18845189223,,,85.9200000762939,68.1573486328125,30371.6968703003,32732.8535794027
2011-06-01T05:04:16Z,1306904656,8910,55.8689187,25.6040485,133.64,2.2,-70.5,56.9,-37821.4,-62612.59,57.4,Weapon+Missile,Blue,Enemies,R-27ER,,cn,,193.778063123588,192.65251159668,0.570101690578217,133.635375976562,64.94482421875,65.9567346658271,-182.207702636719,0.0325629781431553,NaN,0,0.777031775171446,5000,0.0744729116559029,0.0744729116559029,0.0744729116559029,1877.49688739646,131.051535982056,2008.54842337852,,,86.9200000762939,68.6905517578125,30437.7436598837,32926.6631063346
2011-06-01T05:04:17Z,1306904657,8910,55.869459,25.6043661,-52.89,2.1,-71.2,57.2,-37766.84,-62577.86,57.7,Weapon+Missile,Blue,Enemies,R-27ER,,cn,,197.419050585684,197.876113891602,0.57959382128545,-52.8876914978027,-122.112789154053,64.679415845433,-186.523067474365,0.0257646464759817,NaN,0.0615263440434749,0.77583457107599,5000,0.0695994943380356,0.0695994943380356,0.0695994943380356,1948.71407670765,-51.8651079826927,1896.84896872496,,,87.9200000762939,69.22509765625,30502.4926144399,33124.1050848783
2011-06-01T05:04:18Z,1306904658,8910,55.869984,25.604671,-241.32,1.9,-72,57.5,-37713.83,-62544.55,58,Weapon+Missile,Blue,Enemies,R-27ER,,cn,,198.559871325619,200.647262573242,0.58171153629955,-241.31999206543,-311.073287963867,62.6042379047752,-188.432300567627,0.0246814669254875,NaN,0.199987938897973,0.775897643604107,5000,0.0673862025141716,0.0673862025141716,0.0673862025141716,1971.30112504231,-236.654070018845,1734.64705502347,,,88.9200000762939,69.7532958984375,30565.1792989135,33322.690509936
2011-06-01T05:04:19Z,1306904659,8910,55.8704937,25.6049633,-431.43,1.8,-72.7,57.8,-37662.38,-62512.62,58.3,Weapon+Missile,Blue,Enemies,R-27ER,,cn,,199.521178649951,203.270172119141,0.583287202342019,-431.429229736328,-501.678001403809,60.5572331109642,-190.109237670898,0.0060212520654412,NaN,0.199987938897973,0.700127847181069,5000,0.0657811909914017,0.0657811909914017,0.0657811909914017,1990.43503649329,-423.087545579376,1567.34749091391,,,89.9200000762939,70.2487716674805,30625.8135132716,33522.234095199
2011-06-01T05:04:20Z,1306904660,8910,55.8709913,25.6052453,-624.26,1.7,-73.3,58.1,-37612.14,-62481.8,58.6,Weapon+Missile,Blue,Enemies,R-27ER,,cn,,201.632086510806,207.109024047852,0.588194745313925,-624.256103515625,-694.637077331543,58.934667719468,-192.826873779297,0.00354840673662032,NaN,0.199987938897973,0.625819551157856,5000,0.0652695894241333,0.0652695894241333,0.0652695894241333,2032.77491553505,-612.18611175415,1420.5888037809,,,90.9200000762939,70.380973815918,30684.8108764086,33723.8830873151
