ISOTime,UnixTime,Id,Longitude,Latitude,Altitude,Roll,Pitch,Yaw,U,V,Heading,Type,Color,Coalition,Name,Group,Country,Pilot,TAS,CAS,M,ASL,AGL,GS,VS,AOA,AOS,RRT,TRT,TRD,G,LatG,LonG,Ek,Ep,Em,FFW,FFV,RelativeTime,Elev,GroundDistance,AirDistance
2011-06-01T05:03:04Z,1306904584,B010,55.6933749,25.4319296,2794.71,-75.3,-0.3,22.7,-55637.73,-81513.45,23.2,Weapon+Missile,Blue,Enemies,R-27ET,,cn,,320.060583180786,286.586700439453,0.971274691391166,2794.70532226562,2754.75604248047,NaN,NaN,NaN,NaN,NaN,NaN,NaN,NaN,NaN,NaN,NaN,2740.66969485962,NaN,,,0.059999942779541,39.9492797851562,NaN,NaN
2011-06-01T05:03:05Z,1306904585,B010,55.6952069,25.4355225,2787.98,-69.8,-0.3,22.7,-55449.58,-81117.32,23.2,Weapon+Missile,Blue,Enemies,R-27ET,,cn,,438.595793293935,394.0390625,1.33088106172353,2787.97998046875,2748.97998046875,438.544227727206,-6.725341796875,2.76182187854896,NaN,5.24614535808173,1.89703056141424,5000,1.08664977550507,1.08664977550507,1.08664977550507,9618.31349475682,2734.07438754639,12352.3878823032,,,1.05999994277954,39,440.326993745719,440.571033823566
2011-06-01T05:03:06Z,1306904586,B010,55.6980181,25.4410738,2777.9,-64.6,-0.3,22.7,-55160.87,-80505.27,23.2,Weapon+Missile,Blue,Enemies,R-27ET,,cn,,676.806174764906,594.331481933594,2.0534611496156,2777.89770507812,2739.09564590454,676.731073560873,-10.082275390625,0.867325131590142,NaN,5.21539584643834,0.00989117029631303,5000,2.92453861236572,2.92453861236572,2.92453861236572,22903.3299099952,2724.18705295044,25627.5169629456,,,2.05999994277954,38.802059173584,1119.84590497147,1120.4611964548
2011-06-01T05:03:07Z,1306904587,B010,55.7015546,25.4487571,2772.99,-59.8,-0.3,22.7,-54796.95,-79657.78,23.2,Weapon+Missile,Blue,Enemies,R-27ET,,cn,,922.330176178837,800.841003417969,2.79822743180356,2772.99291992188,2732.12652587891,922.317134706201,-4.90478515625,0.0381517931691309,NaN,4.81539264788571,0.00989117029631303,5000,1.00704503059387,1.00704503059387,1.00704503059387,42534.6476945043,2719.37710181519,45254.0247963195,,,3.05999994277954,40.8663940429688,2046.08330125593,2047.1146254241
2011-06-01T05:03:08Z,1306904588,B010,55.7054416,25.4572061,2767.68,-55.4,-0.3,22.7,-54396.99,-78725.84,23.2,Weapon+Missile,Blue,Enemies,R-27ET,,cn,,1014.15776361149,878.7939453125,3.07662365576012,2767.67529296875,2729.09526824951,1014.1438223137,-5.317626953125,0.0381068410811607,NaN,4.41536895876557,0.00989117029631303,5000,0.999009251594543,0.999009251594543,0.999009251594543,51425.7984746724,2714.1622911792,54139.9607658516,,,4.05999994277954,38.5800247192383,3064.54030541631,3066.02787106566
2011-06-01T05:03:09Z,1306904589,B010,55.7092167,25.4654108,2762.5,-51.2,-0.3,22.7,-54008.59,-77820.81,23.2,Weapon+Missile,Blue,Enemies,R-27ET,,cn,,984.857605355561,854.164855957031,2.98755091302255,2762.50146484375,2728.47053527832,984.844015227398,-5.173828125,0.0381696648952156,NaN,4.04617674355887,0.00989117029631303,5000,1.00133991241455,1.00133991241455,1.00133991241455,48497.2251413345,2709.088499021,51206.3136403555,,,5.05999994277954,34.0309295654297,4053.56351914238,4055.49337893202
2011-06-01T05:03:10Z,1306904590,B010,55.7129126,25.4734419,2757.45,-47.5,-0.3,22.7,-53628.41,-76934.93,23.2,Weapon+Missile,Blue,Enemies,R-27ET,,cn,,964.031332701141,836.719970703125,2.92419735240609,2757.44995117188,2723.01156234741,964.01809767201,-5.051513671875,0.0381561576167467,NaN,3.6461393940604,0.00989117029631303,5000,0.999266147613525,0.999266147613525,0.999266147613525,46467.8205214769,2704.13465636597,49171.9551778428,,,6.05999994277954,34.4383888244629,5021.68109766876,5024.04305887318
2011-06-01T05:03:11Z,1306904591,B010,55.7165563,25.4813588,2752.46,-43.9,-0.3,22.7,-53253.63,-76061.64,23.2,Weapon+Missile,Blue,Enemies,R-27ET,,cn,,950.324530046607,825.304870605469,2.8824479126741,2752.46313476562,2721.14217567444,950.311445827332,-4.98681640625,0.0382225277893973,NaN,3.44615828535159,0.00989117029631303,5000,1.00000238418579,1.00000238418579,1.00000238418579,45155.8356204152,2699.24426005493,47855.0798804701,,,7.05999994277954,31.3209590911865,5976.0282838996,5978.81548670483
2011-06-01T05:03:12Z,1306904592,B010,55.7201249,25.4891112,2747.58,-40.7,-0.3,22.7,-52886.64,-75206.49,23.2,Weapon+Missile,Blue,Enemies,R-27ET,,cn,,930.582127144101,808.776245117188,2.82240138758494,2747.57983398438,2714.49578857422,930.569314308999,-4.88330078125,0.0379616833840365,NaN,3.24617034645362,0.00989117029631303,5000,1.00039756298065,1.00039756298065,1.00039756298065,43299.154768002,2694.45537789429,45993.6101458963,,,8.05999994277954,33.0840454101562,6910.55690242954,6913.75979315436
2011-06-01T05:03:13Z,1306904593,B010,55.7236768,25.4968264,2742.72,-37.6,-0.3,22.7,-52521.4,-74355.44,23.2,Weapon+Missile,Blue,Enemies,R-27ET,,cn,,926.129938790916,805.190490722656,2.80873444513374,2742.72387695312,2706.13690185547,926.117208136301,-4.85595703125,0.037963403079641,NaN,3.07689776825319,0.00989117029631303,5000,0.999471127986908,0.999471127986908,0.999471127986908,42885.8331762433,2689.69331079224,45575.5264870355,,,9.05999994277954,36.5869750976562,7840.6135312909,7844.2293899138
2011-06-01T05:03:14Z,1306904594,B010,55.727154,25.5043784,2737.97,-34.8,-0.3,22.7,-52163.88,-73522.37,23.2,Weapon+Missile,Blue,Enemies,R-27ET,,cn,,906.558880902857,788.803588867188,2.74922301322344,2737.96533203125,2701.29699707031,906.546391970134,-4.758544921875,0.0381782779805916,NaN,2.78461348310084,0.00989117029631303,5000,1.0007244348526,1.0007244348526,1.0007244348526,41092.4502271921,2685.02677233643,43777.4769995285,,,10.0599999427795,36.6683349609375,8751.0076067663,8755.0270438796
2011-06-01T05:03:15Z,1306904595,B010,55.7304451,25.5115255,2733.47,-32.3,-0.3,22.7,-51825.54,-72733.97,23.2,Weapon+Missile,Blue,Enemies,R-27ET,,cn,,857.94606717901,747.866760253906,2.60165979640113,2733.46850585938,2700.20813751221,857.934282298073,-4.496826171875,0.0382716679117274,NaN,2.50770395377018,0.00989117029631303,5000,0.999445497989655,0.999445497989655,0.999445497989655,36803.5727093965,2680.61689229858,39484.1896016951,,,11.0599999427795,33.260368347168,9612.58541150457,9616.98612744708
2011-06-01T05:03:16Z,1306904596,B010,55.7334352,25.5180178,2729.38,-29.9,-0.3,22.7,-51518.18,-72017.78,23.2,Weapon+Missile,Blue,Enemies,R-27ET,,cn,,779.365803308992,681.736328125,2.36325478781382,2729.37768554688,2697.37768554688,779.355067062915,-4.0908203125,0.0383492951871018,NaN,2.50769029339184,0.00989117029631303,5000,0.999819934368134,0.999819934368134,0.999819934368134,30370.5527683735,2676.60516799683,33047.1579363703,,,12.0599999427795,32,10395.2562287514,10400.0028079312
2011-06-01T05:03:17Z,1306904597,B010,55.7361779,25.5239726,2725.62,-27.7,-0.3,22.7,-51236.27,-71360.9,23.2,Weapon+Missile,Blue,Enemies,R-27ET,,cn,,714.828832979287,627.585021972656,2.16746302744536,2725.623046875,2694.3052406311,714.818972290868,-3.754638671875,0.0379781590197232,NaN,2.30768527902094,0.00989117029631303,5000,1.00075721740723,1.00075721740723,1.00075721740723,25549.0130229265,2672.92312526367,28221.9361481901,,,13.0599999427795,31.3178062438965,11113.1166413194,11118.1800158467
2011-06-01T05:03:18Z,1306904598,B010,55.7387098,25.5294692,2722.16,-25.7,-0.3,22.7,-50976.05,-70754.55,23.2,Weapon+Missile,Blue,Enemies,R-27ET,,cn,,659.839360344377,581.543884277344,2.0006440712582,2722.16381835938,2692.16381835938,659.830292725148,-3.459228515625,0.0381052535773816,NaN,1.9692289150793,0.00989117029631303,5000,0.999437212944031,0.999437212944031,0.999437212944031,21769.3990729839,2669.5307809314,24438.9298539153,,,14.0599999427795,30,11775.7475837917,11781.102971734
2011-06-01T05:03:19Z,1306904599,B010,55.7410572,25.5345644,2718.95,-23.7,-0.3,22.7,-50734.83,-70192.47,23.2,Weapon+Missile,Blue,Enemies,R-27ET,,cn,,611.660545959846,541.250610351562,1.85449362784861,2718.95141601562,2686.09231948853,611.652110235122,-3.21240234375,0.0380776644519279,NaN,1.93849989400341,0.00989117029631303,5000,1.00055301189423,1.00055301189423,1.00055301189423,18706.4311741948,2666.38049038696,21372.8116645818,,,15.0599999427795,32.8590965270996,12390.0024580268,12395.6282492492
2011-06-01T05:03:20Z,1306904600,B010,55.7432462,25.5393157,2715.96,-22,-0.3,22.7,-50509.89,-69668.33,23.2,Weapon+Missile,Blue,Enemies,R-27ET,,cn,,570.377923348305,506.719451904297,1.72926680674572,2715.96069335938,2688.13940429688,570.37008250882,-2.99072265625,0.038128813954879,NaN,1.73845731359208,0.00989117029631303,5000,1.00034022331238,1.00034022331238,1.00034022331238,16266.5487721562,2663.44759335327,18929.9963655095,,,16.0599999427795,27.8212890625,12962.7986235456,12968.6762634397
2011-06-01T05:03:21Z,1306904601,B010,55.7452771,25.5437236,2713.19,-20.4,-0.3,22.7,-50301.2,-69182.06,23.2,Weapon+Missile,Blue,Enemies,R-27ET,,cn,,529.161990167974,472.163635253906,1.60425537147515,2713.18920898438,2685.05450439453,529.154732297549,-2.771484375,0.0378703097203663,NaN,1.53845912941035,0.00989117029631303,5000,0.999055504798889,0.999055504798889,0.999055504798889,14000.6205919266,2660.72969562866,16661.3502875552,,,17.0599999427795,28.1347045898438,13494.1962033513,13500.3072335388
2011-06-01T05:03:22Z,1306904602,B010,55.7471792,25.5478514,2710.58,-18.8,-0.3,22.7,-50105.79,-68726.71,23.2,Weapon+Missile,Blue,Enemies,R-27ET,,cn,,495.518399934352,443.829376220703,1.50221149414066,2710.58471679688,2681.20068359375,495.511555156835,-2.6044921875,0.0379683307436092,NaN,1.5384249784645,0.00989117029631303,5000,1.00079309940338,1.00079309940338,1.00079309940338,12276.924233675,2658.17556129761,14935.0997949726,,,18.0599999427795,29.384033203125,13991.8262289226,13998.1556565796
2011-06-01T05:03:23Z,1306904603,B010,55.7489559,25.5517068,2708.16,-17.5,-0.3,22.7,-49923.26,-68301.38,23.2,Weapon+Missile,Blue,Enemies,R-27ET,,cn,,462.847225737442,416.093719482422,1.40312488440789,2708.1591796875,2681.20715332031,462.840870216296,-2.425537109375,0.0387152341403228,NaN,1.33847119051238,0.00989117029631303,5000,1.00000929832458,1.00000929832458,1.00000929832458,10711.3777186424,2655.79692194824,13367.1746405906,,,19.0599999427795,26.9520263671875,14456.6261292341,14463.1593255163
2011-06-01T05:03:24Z,1306904604,B010,55.750625,25.5553288,2705.88,-16.1,-0.3,22.7,-49751.78,-67901.81,23.2,Weapon+Missile,Blue,Enemies,R-27ET,,cn,,434.817016656583,392.016052246094,1.3181150750454,2705.88061523438,2681.17678260803,434.811046453703,-2.278564453125,0.0379538715523089,NaN,1.33845411503945,0.00989117029631303,5000,0.999507009983063,0.999507009983063,0.999507009983063,9453.29189870656,2653.56241353882,12106.8543122454,,,20.0599999427795,24.7038326263428,14893.2898872792,14900.0143554963
2011-06-01T05:03:25Z,1306904605,B010,55.7521972,25.5587399,2703.73,-14.9,-0.3,22.7,-49590.29,-67525.52,23.2,Weapon+Missile,Blue,Enemies,R-27ET,,cn,,409.484810964411,369.907745361328,1.24129038710898,2703.72998046875,2679.72998046875,409.479163304635,-2.150634765625,0.0377724127128474,NaN,1.33843703956653,0.00989117029631303,5000,1.00025606155396,1.00025606155396,1.00025606155396,8383.89052052796,2651.45336129639,11035.3438818243,,,21.0599999427795,24,15304.5245851707,15311.4290687055
2011-06-01T05:03:26Z,1306904606,B010,55.7536681,25.5619311,2701.72,-13.8,-0.3,22.7,-49439.19,-67173.45,23.2,Weapon+Missile,Blue,Enemies,R-27ET,,cn,,383.129282106378,346.388305664062,1.16136965331481,2701.71997070312,2677.71997070312,383.12400951662,-2.010009765625,0.0384080353769615,NaN,1.16921398023759,0.00989117029631303,5000,0.999988257884979,0.999988257884979,0.999988257884979,7339.40234036744,2649.48221506958,9988.88455543702,,,22.0599999427795,24,15689.2577467639,15696.3305086519
2011-06-01T05:03:27Z,1306904607,B010,55.7550499,25.5649291,2699.83,-12.8,-0.3,22.7,-49297.26,-66842.72,23.2,Weapon+Missile,Blue,Enemies,R-27ET,,cn,,359.906695074982,325.087951660156,1.09095093755061,2699.83154296875,2676.75151824951,359.901740757791,-1.888427734375,0.0379748845347714,NaN,1.04613738648854,0.00989117029631303,5000,0.999754309654236,0.999754309654236,0.999754309654236,6476.64145798981,2647.63030008545,9124.27175807526,,,23.0599999427795,23.0800247192383,16050.6939214402,16057.924662046
2011-06-01T05:03:28Z,1306904608,B010,55.7563428,25.5677339,2698.06,-11.9,-0.3,22.7,-49164.47,-66533.3,23.2,Weapon+Missile,Blue,Enemies,R-27ET,,cn,,336.716441869149,303.370452880859,1.02063487726291,2698.06225585938,2676.78327178955,336.711793449746,-1.769287109375,0.0375482967708017,NaN,0.969226041339612,0.00989117029631303,5000,1.00072860717773,1.00072860717773,1.00072860717773,5668.898111251,2645.89522214233,8314.79333339333,,,24.0599999427795,21.2789840698242,16388.8366217688,16396.2150762755
2011-06-01T05:03:29Z,1306904609,B010,55.7575637,25.5703825,2696.4,-11,-0.3,22.7,-49039.08,-66241.11,23.2,Weapon+Missile,Blue,Enemies,R-27ET,,cn,,317.962406449552,285.786224365234,0.963769533810822,2696.3984375,2675.47570800781,317.958053245483,-1.663818359375,0.0391338111513149,NaN,0.769226149610591,0.00989117029631303,5000,0.999331474304199,0.999331474304199,0.999331474304199,5055.00459575951,2644.26357371094,7699.26816947045,,,25.0599999427795,20.9227294921875,16708.1452628254,16715.663081721
2011-06-01T05:03:30Z,1306904610,B010,55.7587118,25.5728727,2694.83,-10.2,-0.3,22.7,-48921.18,-65966.38,23.2,Weapon+Missile,Blue,Enemies,R-27ET,,cn,,298.968906215142,268.037536621094,0.906181647284989,2694.82763671875,2674.82763671875,298.964779645335,-1.57080078125,0.0380649469352964,NaN,0.846149447590567,0.00989117029631303,5000,0.99989777803421,0.99989777803421,0.99989777803421,4469.12034417391,2642.72314436279,7111.8434885367,,,26.0599999427795,20,17008.3767732425,17016.0255873932
2011-06-01T05:03:31Z,1306904611,B010,55.7598051,25.5752444,2693.33,-9.4,-0.3,22.7,-48808.89,-65704.73,23.2,Weapon+Missile,Blue,Enemies,R-27ET,,cn,,284.720940894761,254.793243408203,0.862980247619148,2693.33056640625,2673.33056640625,284.717005049712,-1.4970703125,0.038190430167155,NaN,0.769221026968714,0.00989117029631303,5000,1.00105845928192,1.00105845928192,1.00105845928192,4053.30070919991,2641.25501990479,6694.55572910469,,,27.0599999427795,20,17294.3089039828,17302.082411269
2011-06-01T05:03:32Z,1306904612,B010,55.7608384,25.5774856,2691.93,-8.7,-0.3,22.7,-48702.79,-65457.49,23.2,Weapon+Missile,Blue,Enemies,R-27ET,,cn,,269.055708188389,240.294586181641,0.815485687483678,2691.92602539062,2671.93298339844,269.052042128082,-1.404541015625,0.038217617823519,NaN,0.769239809988931,0.00989117029631303,5000,0.999388456344604,0.999388456344604,0.999388456344604,3619.54870543778,2639.8776356897,6259.42634112748,,,28.0599999427795,19.9930419921875,17564.5097673182,17572.4009929731
2011-06-01T05:03:33Z,1306904613,B010,55.7618296,25.5796355,2690.57,-8,-0.3,22.7,-48600.99,-65220.32,23.2,Weapon+Missile,Blue,Enemies,R-27ET,,cn,,258.09714733206,230.196929931641,0.782258504420607,2690.57299804688,2670.76940917969,258.093600807835,-1.35302734375,0.0385526241414413,NaN,0.769239809988931,0.00989117029631303,5000,0.99917072057724,0.99917072057724,0.99917072057724,3330.70687304735,2638.55076912964,5969.25764217699,,,29.0599999427795,19.8035888671875,17823.7025594916,17831.706681321
2011-06-01T05:03:34Z,1306904614,B010,55.7627743,25.5816844,2689.28,-7.5,-0.3,22.7,-48503.98,-64994.27,23.2,Weapon+Missile,Blue,Enemies,R-27ET,,cn,,245.982973378992,219.071044921875,0.745530440156363,2689.275390625,2670.28234100342,245.979550791013,-1.297607421875,0.0375044544005921,NaN,0.569209182408645,0.00989117029631303,5000,1.00141131877899,1.00141131877899,1.00141131877899,3025.3811596185,2637.27825094727,5662.65941056576,,,30.0599999427795,18.993049621582,18070.7249527501,18078.8366608431
2011-06-01T05:03:35Z,1306904615,B010,55.7636752,25.5836383,2688.05,-6.9,-0.3,22.7,-48411.48,-64778.72,23.2,Weapon+Missile,Blue,Enemies,R-27ET,,cn,,234.56985431115,208.625991821289,0.710928885956276,2688.05151367188,2670.20187759399,234.566661477623,-1.223876953125,0.0380682108490927,NaN,0.569251871090958,0.00989117029631303,5000,0.999033093452454,0.999033093452454,0.999033093452454,2751.15082757771,2636.07803765503,5387.22886523274,,,31.0599999427795,17.8496360778809,18306.2924516552,18314.5066396715
2011-06-01T05:03:36Z,1306904616,B010,55.7645472,25.5855295,2686.86,-6.4,-0.3,22.7,-48321.94,-64570.07,23.2,Weapon+Missile,Blue,Enemies,R-27ET,,cn,,227.048914126753,201.766128540039,0.688124747426469,2686.85766601562,2669.85766601562,227.045775415248,-1.19384765625,0.0382912598561254,NaN,0.446181253757437,0.00989117029631303,5000,0.999885737895966,0.999885737895966,0.999885737895966,2577.56047030687,2634.90727304321,5212.46774335009,,,32.0599999427795,17,18534.2980436727,18542.6114269777
2011-06-01T05:03:37Z,1306904617,B010,55.7653774,25.5873298,2685.72,-6,-0.3,22.7,-48236.71,-64371.46,23.2,Weapon+Missile,Blue,Enemies,R-27ET,,cn,,216.134944709038,191.832641601562,0.655038482358526,2685.71997070312,2669.51556396484,216.131950376974,-1.1376953125,0.0388369045327032,NaN,0.369238318983597,0.00989117029631303,5000,1.0008909702301,1.0008909702301,1.0008909702301,2335.71571621895,2633.79157506958,4969.50729128853,,,33.0599999427795,16.2044067382812,18751.3522294077,18759.7600100799
2011-06-01T05:03:38Z,1306904618,B010,55.7661718,25.5890525,2684.64,-5.5,-0.3,22.7,-48155.14,-64181.4,23.2,Weapon+Missile,Blue,Enemies,R-27ET,,cn,,206.824839551548,183.384689331055,0.626814305165083,2684.63989257812,2668.63989257812,206.822019346992,-1.080078125,0.0369861857398007,NaN,0.400030519309307,0.00989117029631303,5000,0.99921452999115,0.99921452999115,0.99921452999115,2138.82571277618,2632.73238025513,4771.55809303131,,,34.0599999427795,16,18959.0475160879,18967.5455431278
2011-06-01T05:03:39Z,1306904619,B010,55.7669385,25.5907151,2683.59,-5.1,-0.3,22.7,-48076.42,-63997.98,23.2,Weapon+Missile,Blue,Enemies,R-27ET,,cn,,199.597287105039,176.843536376953,0.604902491054866,2683.59008789062,2668.44799804688,199.594526302225,-1.0498046875,0.0388260386575499,NaN,0.400030519309307,0.00989117029631303,5000,1.00051724910736,1.00051724910736,1.00051724910736,1991.95385098457,2631.70287354126,4623.65672452583,,,35.0599999427795,15.14208984375,19159.4940926858,19168.0792216833
2011-06-01T05:03:40Z,1306904620,B010,55.7676771,25.5923167,2682.58,-4.7,-0.3,22.7,-48000.59,-63821.28,23.2,Weapon+Missile,Blue,Enemies,R-27ET,,cn,,192.290155972353,170.243453979492,0.582750362635899,2682.58374023438,2667.75015640259,192.287522601615,-1.00634765625,0.037802124697379,NaN,0.400030519309307,0.00989117029631303,5000,0.999636352062225,0.999636352062225,0.999636352062225,1848.77520419359,2630.71598361694,4479.49118781053,,,36.0599999427795,14.8335838317871,19352.5935645915,19361.2625458183
2011-06-01T05:03:41Z,1306904621,B010,55.768382,25.5938454,2681.62,-4.4,-0.3,22.7,-47928.21,-63652.64,23.2,Weapon+Missile,Blue,Enemies,R-27ET,,cn,,183.521245597035,162.338165283203,0.55616906886953,2681.61987304688,2667.04196166992,183.518714428617,-0.9638671875,0.252793265964059,NaN,0.215375501324366,0.634745647907711,5000,0.59058678150177,0.59058678150177,0.59058678150177,1684.00237927437,2629.77075280151,4313.77313207588,,,37.0599999427795,14.5779113769531,19536.8945829924,19545.6435849134
2011-06-01T05:03:42Z,1306904622,B010,55.7690636,25.5953233,2676.67,-3,-3.2,22.7,-47858.24,-63489.59,23.2,Weapon+Missile,Blue,Enemies,R-27ET,,cn,,177.496251876809,156.949935913086,0.537878182140322,2676.673828125,2662.01396656036,177.427326164676,-4.946044921875,0.0383729105695773,NaN,1.33843960088747,2.25390202161874,3178.46352865248,0.00651948852464557,0.00651948852464557,0.00651948852464557,1575.24597151577,2624.9203396582,4200.16631117398,,,38.0599999427795,14.6598615646362,19715.0748352809,19723.9672878704
2011-06-01T05:03:43Z,1306904623,B010,55.7697183,25.5967427,2662.38,-1.7,-6.4,22.7,-47791.04,-63333,23.2,Weapon+Missile,Blue,Enemies,R-27ET,,cn,,171.002280867713,151.214202880859,0.518110322797733,2662.37548828125,2648.37548828125,170.403455187014,-14.29833984375,0.0365989496373795,NaN,1.44614207914505,3.24235312448123,2959.61126904309,0.00112736213486642,0.00112736213486642,0.00112736213486642,1462.08900309801,2610.89845821533,4072.98746131334,,,39.0599999427795,14,19886.2075726487,19895.7676857135
2011-06-01T05:03:44Z,1306904624,B010,55.7703526,25.5981181,2638.85,-0.4,-9.9,22.7,-47725.92,-63181.25,23.2,Weapon+Missile,Blue,Enemies,R-27ET,,cn,,166.792342677125,147.598510742188,0.505212534971998,2638.8544921875,2624.8544921875,165.125553196595,-23.52099609375,0.0893667578763162,NaN,1.33844365631229,3.34620017439575,2826.88842651514,0.00196632626466453,0.00196632626466453,0.00196632626466453,1390.98427878618,2587.83224058105,3978.81651936724,,,40.0599999427795,14,20052.0351784505,20063.323326186
2011-06-01T05:03:45Z,1306904625,B010,55.7709594,25.5994338,2606.75,0.9,-13.1,22.7,-47663.62,-63036.1,23.2,Weapon+Missile,Blue,Enemies,R-27ET,,cn,,161.183228412101,142.781295776367,0.48803505365101,2606.75439453125,2593.65102386475,157.954477150243,-32.10009765625,0.0599760491035695,NaN,1.13846148038643,3.41158685598075,2704.19908954506,0.00279311812482774,0.00279311812482774,0.00279311812482774,1299.00165606737,2556.35279831299,3855.35445438036,,,41.0599999427795,13.1033706665039,20210.6601815341,20225.2276379595
2011-06-01T05:03:46Z,1306904626,B010,55.7715478,25.6007095,2566,2,-16.7,22.7,-47603.23,-62895.36,23.2,Weapon+Missile,Blue,Enemies,R-27ET,,cn,,158.481590224905,140.630325317383,0.479621155993284,2565.99682617188,2552.99682617188,153.151020439452,-40.757568359375,0.0635552155397108,NaN,1.13846190727325,3.42694539010317,2653.14832116579,0.000418649346102029,0.000418649346102029,0.000418649346102029,1255.82072201073,2516.38327753784,3772.20399954857,,,42.0599999427795,13,20364.4682538958,20384.4045598459
2011-06-01T05:03:47Z,1306904627,B010,55.772117,25.6019437,2516.92,3,-20,22.7,-47544.79,-62759.2,23.2,Weapon+Missile,Blue,Enemies,R-27ET,,cn,,156.091385178318,138.808670043945,0.472110723455697,2516.92065429688,2503.92065429688,148.175739852992,-49.076171875,0.0392902633699797,NaN,1.01538445975056,3.43079228070977,2620.11162112448,0.000818563508801162,0.000818563508801162,0.000818563508801162,1218.2260263443,2468.25599344605,3686.48201979034,,,43.0599999427795,13,20513.2660952608,20541.1429290552
2011-06-01T05:03:48Z,1306904628,B010,55.7726643,25.6031302,2460.12,4,-23.5,22.7,-47488.61,-62628.29,23.2,Weapon+Missile,Blue,Enemies,R-27ET,,cn,,153.35820221591,136.721160888672,0.46352980902213,2460.12158203125,2447.12158203125,142.452109765564,-56.799072265625,0.0505539152758845,NaN,0.769230418478822,3.37697529924853,2609.79058898554,0.000965843617450446,0.000965843617450446,0.000965843617450446,1175.93690934479,2412.55513124268,3588.49204058747,,,44.0599999427795,13,20656.3240648159,20695.1159470045
2011-06-01T05:03:49Z,1306904629,B010,55.7731949,25.6042806,2395.41,4.9,-26.7,22.7,-47434.14,-62501.38,23.2,Weapon+Missile,Blue,Enemies,R-27ET,,cn,,152.511316444146,136.381729125977,0.460614886292867,2395.41381835938,2382.43636703491,138.103609526005,-64.707763671875,0.0342902428917267,NaN,0.769231272252469,3.32311690976546,2644.19375763865,0.00290398509241641,0.00290398509241641,0.00290398509241641,1162.98508217633,2349.0984921814,3512.08357435772,,,45.0599999427795,12.9774513244629,20795.0153562422,20848.2074724868
2011-06-01T05:03:50Z,1306904630,B010,55.7737091,25.6053954,2323.02,5.7,-30,22.7,-47381.36,-62378.39,23.2,Weapon+Missile,Blue,Enemies,R-27ET,,cn,,152.169094042656,136.547119140625,0.45918576740969,2323.01538085938,2310.01538085938,133.842816128925,-72.3984375,0.0284807164617036,NaN,0.769230418478822,3.23466339869285,2715.36873859893,0.00129165174439549,0.00129165174439549,0.00129165174439549,1157.77165908813,2278.09987847046,3435.87153755859,,,46.0599999427795,13,20929.425386487,21000.9194805032
2011-06-01T05:03:51Z,1306904631,B010,55.7742043,25.6064689,2243.67,6.4,-33.2,22.7,-47330.54,-62259.96,23.2,Weapon+Missile,Blue,Enemies,R-27ET,,cn,,151.337608309077,136.31135559082,0.456246715090517,2243.669921875,2230.58880996704,128.869584570101,-79.345458984375,0.0314043654406904,NaN,0.769231272252469,3.17695534383883,2786.0685066463,0.000705745129380375,0.000705745129380375,0.000705745129380375,1145.15358443558,2200.28856393555,3345.44214837113,,,47.0599999427795,13.081111907959,21058.8531512274,21152.7721862442
2011-06-01T05:03:52Z,1306904632,B010,55.774681,25.6075023,2157.65,7,-36.3,22.7,-47281.6,-62145.94,23.2,Weapon+Missile,Blue,Enemies,R-27ET,,cn,,150.980224489163,136.548400878906,0.454705619564262,2157.6484375,2142.40810680389,124.077928789611,-86.021484375,0.050324091638312,NaN,0.569231380523448,3.06926161676112,2906.59393618607,0.00524943508207798,0.00524943508207798,0.00524943508207798,1139.7514093399,2115.93030496094,3255.68171430084,,,48.0599999427795,15.240330696106,21183.4501803103,21304.2146839455
2011-06-01T05:03:53Z,1306904633,B010,55.7751415,25.6085007,2064.98,7.5,-39.2,22.7,-47234.33,-62035.8,23.2,Weapon+Missile,Blue,Enemies,R-27ET,,cn,,151.504684011517,137.637161254883,0.455785484515557,2064.97998046875,2046.40360641479,119.859193843764,-92.66845703125,0.0498846961408758,NaN,0.492308082543472,2.68079161950888,3893.00867380344,0.171856343746185,0.171856343746185,0.171856343746185,1147.68346387148,2025.05359254639,3172.73705641787,,,49.0599999427795,18.5763740539551,21303.8245125465,21456.1588099573
2011-06-01T05:03:54Z,1306904634,B010,55.775593,25.6094793,1966.61,7.3,-40.1,22.7,-47188,-61927.83,23.2,Weapon+Missile,Blue,Enemies,R-27ET,,cn,,153.228817133507,139.874404907227,0.460437751483875,1966.61145019531,1945.47424316406,117.484903932282,-98.3685302734375,0.0258780138272676,NaN,0.569255286185543,1.19237216350534,5000,0.721921324729919,0.721921324729919,0.721921324729919,1173.95352000669,1928.58701780579,3102.54053781247,,,50.0599999427795,21.13720703125,21421.8055571193,21609.7970034042
2011-06-01T05:03:55Z,1306904635,B010,55.7760446,25.6104583,1867.65,6.7,-40.1,22.7,-47141.65,-61819.82,23.2,Weapon+Missile,Blue,Enemies,R-27ET,,cn,,153.651702698752,140.925720214844,0.461171038150149,1867.64758300781,1844.88439941406,117.537222757391,-98.9638671875,0.0253220448718994,NaN,0.569255286185543,0.0139882274201861,5000,0.76396906375885,0.76396906375885,0.76396906375885,1180.44228711128,1831.53661699036,3011.97890410164,,,51.0599999427795,22.76318359375,21539.8401298933,21763.8566803034
2011-06-01T05:03:56Z,1306904636,B010,55.7764982,25.6114415,1768.24,6.2,-40.1,22.7,-47095.09,-61711.34,23.2,Weapon+Missile,Blue,Enemies,R-27ET,,cn,,154.324755105333,142.217483520508,0.462650833088678,1768.24304199219,1744.57659912109,118.046038746728,-99.404541015625,0.02312303886143,NaN,0.47691112860697,0.0139882274201861,5000,0.765463471412659,0.765463471412659,0.765463471412659,1190.80650191605,1734.05406277527,2924.86056469132,,,52.0599999427795,23.6664428710938,21658.3872018816,21918.5909150802
2011-06-01T05:03:57Z,1306904637,B010,55.7769538,25.6124293,1668.39,5.8,-40.1,22.7,-47048.32,-61602.38,23.2,Weapon+Missile,Blue,Enemies,R-27ET,,cn,,155.020329722717,143.539688110352,0.464192839283785,1668.39453125,1643.67422103882,118.581522717105,-99.8485107421875,0.0239334548321355,NaN,0.369212705774209,0.0139882274201861,5000,0.764837324619293,0.764837324619293,0.764837324619293,1201.565131367,1636.13612298828,2837.70125435528,,,53.0599999427795,24.7203102111816,21777.4737507605,22074.0224868915
2011-06-01T05:03:58Z,1306904638,B010,55.7774117,25.6134216,1568.07,5.3,-40.1,22.7,-47001.34,-61492.89,23.2,Weapon+Missile,Blue,Enemies,R-27ET,,cn,,155.751248748514,144.905349731445,0.465835027803069,1568.07458496094,1543.28491210938,119.14008503976,-100.319946289062,0.0259669560398411,NaN,0.369212705774209,0.0139882274201861,5000,0.764228701591492,0.764228701591492,0.764228701591492,1212.92257433608,1537.75586286072,2750.6784371968,,,54.0599999427795,24.7896728515625,21897.1189624931,22230.1837276265
2011-06-01T05:03:59Z,1306904639,B010,55.7778693,25.6144137,1467.78,4.9,-40.1,22.7,-46954.37,-61383.44,23.2,Weapon+Missile,Blue,Enemies,R-27ET,,cn,,155.708691027361,145.549346923828,0.465163452681121,1467.77685546875,1442.18511962891,119.103156633928,-100.297729492188,0.0239412116396236,NaN,0.369212705774209,0.0139882274201861,5000,0.765705049037933,0.765705049037933,0.765705049037933,1212.2598230727,1439.39738996826,2651.65721304096,,,55.0599999427795,25.5917358398438,22016.7368432632,22386.3083036831
2011-06-01T05:04:00Z,1306904640,B010,55.7783307,25.6154138,1366.68,4.6,-40.1,22.7,-46907.02,-61273.11,23.2,Weapon+Missile,Blue,Enemies,R-27ET,,cn,,156.960835396673,147.424926757812,0.4683529990104,1366.67846679688,1340.68310546875,120.065897141412,-101.098388671875,0.025292083446799,NaN,0.369212705774209,0.0139882274201861,5000,0.764948904514313,0.764948904514313,0.764948904514313,1231.83519242108,1340.25373864136,2572.08893106244,,,56.0599999427795,25.995361328125,22137.3090914885,22543.6773365833
2011-06-01T05:04:01Z,1306904641,B010,55.7787926,25.6164149,1265.47,4.2,-40.1,22.7,-46859.62,-61162.66,23.2,Weapon+Missile,Blue,Enemies,R-27ET,,cn,,157.124895775767,148.278518676758,0.468292224110086,1265.474609375,1238.61006164551,120.191564244245,-101.203857421875,0.0239941947743969,NaN,0.384621612541758,0.0139882274201861,5000,0.764407873153687,0.764407873153687,0.764407873153687,1234.41164362729,1241.00665780273,2475.41830143002,,,57.0599999427795,26.8645477294922,22258.0117620801,22701.2126294816
2011-06-01T05:04:02Z,1306904642,B010,55.7792576,25.6174227,1163.59,3.9,-40.1,22.7,-46811.9,-61051.46,23.2,Weapon+Missile,Blue,Enemies,R-27ET,,cn,,158.181894410333,149.991897583008,0.470886687649384,1163.58605957031,1136.69598388672,120.996839371694,-101.888549804688,0.0263475956921852,NaN,0.399975877795947,0.0139882274201861,5000,0.765220999717712,0.765220999717712,0.765220999717712,1251.07558596209,1141.08812310852,2392.16370907061,,,58.0599999427795,26.8900756835938,22379.5262788447,22859.8085888396
2011-06-01T05:04:03Z,1306904643,B010,55.7797219,25.6184291,1061.84,3.6,-40.1,22.7,-46764.25,-60940.43,23.2,Weapon+Missile,Blue,Enemies,R-27ET,,cn,,157.959483356189,150.487838745117,0.469672331208292,1061.84301757812,1035.54834938049,120.828605008624,-101.743041992188,0.0225499270675241,NaN,0.399975877795947,0.0139882274201861,5000,0.763597786426544,0.763597786426544,0.763597786426544,1247.55991910771,1041.31228283325,2288.87220194096,,,59.0599999427795,26.2946681976318,22500.8685782444,23018.1775822573
2011-06-01T05:04:04Z,1306904644,B010,55.7801877,25.6194389,959.75,3.4,-40.3,22.7,-46716.44,-60829.03,23.2,Weapon+Missile,Blue,Enemies,R-27ET,,cn,,158.487405657362,151.707977294922,0.470687978748929,959.75,934.454919815063,121.224063262184,-102.093017578125,0.209007836180234,NaN,0.199987938897973,0.727003734430571,5000,0.348691195249557,0.348691195249557,0.348691195249557,1255.91288760006,941.19323375,2197.10612135006,,,60.0599999427795,25.2950801849365,22622.6113897854,23177.0769041095
2011-06-01T05:04:05Z,1306904645,B010,55.7806414,25.6204222,855.01,4.1,-42.9,22.7,-46669.88,-60720.54,23.2,Weapon+Missile,Blue,Enemies,R-27ET,,cn,,157.825109170051,151.801910400391,0.46815702670257,855.013854980469,830.900609970093,118.063986934994,-104.736145019531,0.0196342372795963,NaN,0.569231380523448,2.03079111761592,3505.09113973567,0.00474009709432721,0.00474009709432721,0.00474009709432721,1245.43825422693,838.482162094421,2083.92041632135,,,61.0599999427795,24.113245010376,22741.1647594993,23335.2810786825
2011-06-01T05:04:06Z,1306904646,B010,55.7810808,25.6213745,744,4.6,-45.4,22.7,-46624.79,-60615.47,23.2,Weapon+Missile,Blue,Enemies,R-27ET,,cn,,159.364831732377,154.073593139648,0.472122880238834,743.996948242188,721.048551559448,114.334579245968,-111.016906738281,0.0245421438197785,NaN,0.476923081438018,2.55769304108845,3705.97156261486,0.00227583735249937,0.00227583735249937,0.00227583735249937,1269.85747965444,729.611767247925,1999.46924690236,,,62.0599999427795,22.9483966827393,22855.9900653514,23495.0086909427
2011-06-01T05:04:07Z,1306904647,B010,55.7815029,25.6222894,627.78,5.2,-47.8,22.7,-46581.48,-60514.54,23.2,Weapon+Missile,Blue,Enemies,R-27ET,,cn,,159.902293263019,155.419952392578,0.473085846074885,627.776916503906,606.328430175781,109.825532612072,-116.220031738281,0.0186426433855001,NaN,0.553845525644348,2.40774072017246,3899.98975495493,0.00057444378035143,0.00057444378035143,0.00057444378035143,1278.43716953862,615.638849823303,1894.07601936193,,,63.0599999427795,21.448486328125,22966.29360559,23655.247836249
2011-06-01T05:04:08Z,1306904648,B010,55.7819106,25.623173,505.86,5.6,-50.1,22.7,-46539.64,-60417.05,23.2,Weapon+Missile,Blue,Enemies,R-27ET,,cn,,161.616208726534,157.966918945312,0.477492140302278,505.859985351562,486.254699707031,106.094584317642,-121.916931152344,0.0293315599448886,NaN,0.415384784563495,2.25774421647028,4154.88889792473,0.00306394696235657,0.00306394696235657,0.00306394696235657,1305.98994615693,496.07918253479,1802.06912869172,,,64.0599999427795,19.6052856445312,23072.827408749,23817.1589434463
2011-06-01T05:04:09Z,1306904649,B010,55.7823037,25.6240248,378.67,5.9,-52.2,22.7,-46499.3,-60323.07,23.2,Weapon+Missile,Blue,Enemies,R-27ET,,cn,,163.210637827375,160.45280456543,0.48150574491224,378.666900634766,360.392242431641,102.272339859046,-127.193084716797,0.0281716389243872,NaN,0.292307337040804,2.18080619089491,4222.07073847881,0.00415768614038825,0.00415768614038825,0.00415768614038825,1331.88561500092,371.345376110992,1703.23099111191,,,65.0599999427795,18.274658203125,23175.5340593712,23980.6465571362
