ISOTime,UnixTime,Id,Longitude,Latitude,Altitude,Roll,Pitch,Yaw,U,V,Heading,Type,Color,Coalition,Name,Group,Country,Pilot,TAS,CAS,M,ASL,AGL,GS,VS,AOA,AOS,RRT,TRT,TRD,G,LatG,LonG,Ek,Ep,Em,FFW,FFV,RelativeTime,Elev,GroundDistance,AirDistance
2011-06-01T05:03:53Z,1306904633,DF0E,55.3551109,25.6153025,3045.2,-76.3,10.3,154,-89407.42,-60825.69,154.7,Weapon+Missile,Blue,Enemies,AIM-120B,,us,,291.208137987223,256.905334472656,0.886389629749417,3045.19750976562,3045.19750976562,NaN,NaN,2.29428921882577,NaN,17.0615666598817,3.15576167324656,NaN,NaN,NaN,NaN,NaN,2986.31861591431,NaN,,,0.940000057220459,0,NaN,NaN
2011-06-01T05:03:54Z,1306904634,DF0E,55.3567504,25.6118859,3101.86,-61.1,6.6,155.8,-89247.47,-61206.18,156.5,Weapon+Missile,Blue,Enemies,AIM-120B,,us,,416.617046279779,370.451904296875,1.26898329434677,3101.8583984375,3101.8583984375,412.746056245,56.660888671875,0.513440654266087,NaN,14.4307417161329,2.9814945397001,5000,1.45144391059875,1.45144391059875,1.45144391059875,8678.48816254437,3041.88396630371,11720.3721288481,,,1.94000005722046,0,414.414806895052,418.468213642891
2011-06-01T05:03:55Z,1306904635,DF0E,55.3590466,25.607396,3155.88,-49.5,5,154.1,-89023.02,-61706.38,154.8,Weapon+Missile,Blue,Enemies,AIM-120B,,us,,550.898329079601,481.645324707031,1.67909221170726,3155.8798828125,3155.8798828125,548.243238178656,54.021484375,0.0388008365983504,NaN,11.0154012443164,2.16349400922645,5000,1.81548643112183,1.81548643112183,1.81548643112183,15174.4484491348,3094.86094527832,18269.3093944131,,,2.94000005722046,0,964.819286184406,971.786124934643
2011-06-01T05:03:56Z,1306904636,DF0E,55.3620798,25.601891,3208.62,-40.2,3.9,152.9,-88725.91,-62319.91,153.7,Weapon+Missile,Blue,Enemies,AIM-120B,,us,,683.726199243365,588.941772460938,2.08527423867735,3208.62451171875,3208.62451171875,681.688726365135,52.74462890625,1.25800764555916,NaN,8.83075840809866,4.56463505911339,5000,9.39628410339355,9.39628410339355,9.39628410339355,23374.0757765889,3146.58575678467,26520.6615333736,,,3.94000005722046,0,1649.11424580703,1658.45122739397
2011-06-01T05:03:57Z,1306904637,DF0E,55.3661307,25.5964055,3258.38,-33.5,4,137.3,-88326.54,-62932.54,138,Weapon+Missile,Blue,Enemies,AIM-120B,,us,,732.997529465602,627.789733886719,2.23689660360268,3258.3798828125,3258.3798828125,731.306899495691,49.75537109375,0.212025506165052,NaN,6.15384334783058,12.3332879522177,2448.06532110021,21.6209354400635,21.6209354400635,21.6209354400635,26864.2689101338,3195.37910777832,30059.6480179122,,,4.94000005722046,0,2382.78355522125,2394.17682930967
2011-06-01T05:03:58Z,1306904638,DF0E,55.3714163,25.5925243,3306.55,-28.7,4.1,120.3,-87800.91,-63368.97,121,Weapon+Missile,Blue,Enemies,AIM-120B,,us,,684.889279053941,587.36474609375,2.0913088520985,3306.5546875,3306.5546875,683.192881078505,48.1748046875,0.275956432841254,NaN,4.44614579116565,16.9555143126389,2374.41206192613,19.7399616241455,19.7399616241455,19.7399616241455,23453.6662281513,3242.62245261719,26696.2886807685,,,5.94000005722046,0,3067.08398125333,3080.52221625538
2011-06-01T05:03:59Z,1306904639,DF0E,55.3774406,25.5902686,3359.01,-26,5.2,105,-87198.87,-63626.24,105.8,Weapon+Missile,Blue,Enemies,AIM-120B,,us,,656.810121269866,563.305419921875,2.00685037268686,3359.00927734375,3359.00927734375,654.71218974971,52.45458984375,1.06010080881474,NaN,1.98459342561725,12.8611181410871,4057.0924754084,11.0205526351929,11.0205526351929,11.0205526351929,21569.9767701268,3294.06283296631,24864.0396030931,,,6.94000005722046,0,3721.96158230097,3737.83832334872
2011-06-01T05:04:00Z,1306904640,DF0E,55.3839721,25.5888828,3423.33,-22.7,5.4,102.1,-86544.64,-63787.75,102.8,Weapon+Missile,Blue,Enemies,AIM-120B,,us,,676.932153378347,577.948669433594,2.0699549160449,3423.33227539062,3423.33227539062,673.869195170477,64.322998046875,1.42119117290011,NaN,3.38462511111895,5.97506869583419,5000,5.49414730072021,5.49414730072021,5.49414730072021,22911.8570138723,3357.14214584595,26268.9991597182,,,7.94000005722046,0,4395.63514977746,4414.93229696803
2011-06-01T05:04:01Z,1306904641,DF0E,55.3904734,25.587679,3426.56,-13.3,-2.7,100.8,-85893.23,-63929.03,101.5,Weapon+Missile,Blue,Enemies,AIM-120B,,us,,666.564979968709,569.514770507812,2.038333923745,3426.55834960938,3426.55834960938,666.557173066062,3.22607421875,0.20560402817233,NaN,4.84613874443452,4.44900721354106,5000,3.18334722518921,3.18334722518921,3.18334722518921,22215.4436260343,3360.30584391968,25575.7494699539,,,8.94000005722046,0,5061.98754498651,5081.65031658653
2011-06-01T05:04:02Z,1306904642,DF0E,55.3964896,25.5867107,3395.89,-11.3,-2.9,99.2,-85290.21,-64043.61,99.9,Weapon+Missile,Blue,Enemies,AIM-120B,,us,,614.569980131663,528.335205078125,1.87863210251545,3395.89453125,3395.89453125,613.804521588638,-30.663818359375,0.0339673618692659,NaN,1.70769755666493,1.86575304325749,5000,2.16570663452148,2.16570663452148,2.16570663452148,18884.8130239517,3330.23491048828,22215.0479344399,,,9.94000005722046,0,5675.56224085262,5696.31850740716
2011-06-01T05:04:03Z,1306904643,DF0E,55.4022051,25.5859585,3366.9,-9.7,-2.8,97.3,-84717.09,-64133.84,98,Weapon+Missile,Blue,Enemies,AIM-120B,,us,,580.909134975384,501.784088134766,1.77510927772426,3366.89599609375,3366.89599609375,580.184891268844,-28.99853515625,0.0381559001246423,NaN,1.53847791243057,1.90603899308611,5000,2.27758264541626,2.27758264541626,2.27758264541626,16872.7711548924,3301.79706200928,20174.5682169017,,,10.9400000572205,0,6255.49382271059,6277.28171855914
2011-06-01T05:04:04Z,1306904644,DF0E,55.4076297,25.5854193,3340.17,-8.3,-2.7,95.2,-84172.89,-64200.13,95.9,Weapon+Missile,Blue,Enemies,AIM-120B,,us,,548.868892357043,476.370666503906,1.67665659716281,3340.169921875,3340.169921875,548.217819807147,-26.72607421875,0.0629023606211934,NaN,1.16926179156178,2.02180322899842,5000,2.21531057357788,2.21531057357788,2.21531057357788,15062.8530498624,3275.58773643555,18338.4407862979,,,11.9400000572205,0,6803.44588441758,6826.17293164304
2011-06-01T05:04:05Z,1306904645,DF0E,55.4127483,25.5850774,3315.74,-7.1,-2.7,93.2,-83659.18,-64244.16,93.9,Weapon+Missile,Blue,Enemies,AIM-120B,,us,,516.172866657806,450.213470458984,1.57630962695169,3315.74145507812,3315.74145507812,515.594490160331,-24.428466796875,0.0501504118036292,NaN,1.0307617768932,1.9888198186096,5000,1.99997186660767,1.99997186660767,1.99997186660767,13321.7214136869,3251.63159404419,16573.3530077311,,,12.9400000572205,0,7318.78133960966,7342.3556417102
2011-06-01T05:04:06Z,1306904646,DF0E,55.4175627,25.5849005,3293.52,-6.2,-2.6,91.5,-83175.8,-64269.53,92.2,Weapon+Missile,Blue,Enemies,AIM-120B,,us,,484.558150933889,424.665435791016,1.47936324949203,3293.51611328125,3293.51611328125,484.048175100869,-22.225341796875,0.0254154506593383,NaN,0.892300182038697,1.73576429806839,5000,1.68797934055328,1.68797934055328,1.68797934055328,11739.8300818235,3229.83597923096,14969.6660610544,,,13.9400000572205,0,7802.56622257149,7826.90117154858
2011-06-01T05:04:07Z,1306904647,DF0E,55.4221183,25.5848453,3273.15,-5.3,-2.5,90.1,-82718.27,-64281.09,90.8,Weapon+Missile,Blue,Enemies,AIM-120B,,us,,458.130143478893,403.083557128906,1.39833180282472,3273.14990234375,3273.14990234375,457.677228858985,-20.3662109375,0.0575568706429348,NaN,0.7692355411207,1.24995332625119,5000,1.33585715293884,1.33585715293884,1.33585715293884,10494.1614181995,3209.86354898193,13704.0249671815,,,14.9400000572205,0,8260.01206603379,8285.03540923704
2011-06-01T05:04:08Z,1306904648,DF0E,55.4264102,25.5848634,3254.47,-4.5,-2.4,89.3,-82287.11,-64284.22,90,Weapon+Missile,Blue,Enemies,AIM-120B,,us,,431.571921295594,381.029602050781,1.3169702428206,3254.47314453125,3254.47314453125,431.167603106244,-18.6767578125,0.0182075838225587,NaN,0.769238956215285,0.996558110520476,5000,1.34954047203064,1.34954047203064,1.34954047203064,9312.71616253853,3191.54790628174,12504.2640688203,,,15.9400000572205,0,8690.93325618835,8716.58145224993
2011-06-01T05:04:09Z,1306904649,DF0E,55.4304573,25.5849464,3237.93,-4.1,-2.2,87.9,-81880.48,-64279.84,88.6,Weapon+Missile,Blue,Enemies,AIM-120B,,us,,406.992661038574,360.186737060547,1.24171546181194,3237.93310546875,3237.93310546875,406.656431459125,-16.5400390625,0.0597339211695273,NaN,0.56922625788157,1.39170184292205,5000,1.60834312438965,1.60834312438965,1.60834312438965,8282.15130696297,3175.32766887451,11457.4789758375,,,16.9400000572205,0,9097.3840728312,9123.57536378631
2011-06-01T05:04:10Z,1306904650,DF0E,55.4342427,25.5851256,3223.27,-3.5,-2.1,85.9,-81499.99,-64264.48,86.6,Weapon+Missile,Blue,Enemies,AIM-120B,,us,,381.076312736548,337.563934326172,1.16243888156245,3223.27001953125,3223.27001953125,380.794104523262,-14.6630859375,0.0382493048925701,NaN,0.569196375803951,2.03163485942183,5000,1.93106174468994,1.93106174468994,1.93106174468994,7260.95780644417,3160.94809370361,10421.9059001478,,,17.9400000572205,0,9477.98165192303,9504.64793102603
2011-06-01T05:04:11Z,1306904651,DF0E,55.4378041,25.5854249,3211.32,-3.3,-1.7,83.2,-81141.86,-64235.55,83.9,Weapon+Missile,Blue,Enemies,AIM-120B,,us,,359.498192521659,318.149139404297,1.09645762765045,3211.3154296875,3211.3154296875,359.299371288078,-11.95458984375,0.0815223946052185,NaN,0.200042580411333,2.421229703453,5000,1.91527926921844,1.91527926921844,1.91527926921844,6461.94752131701,3149.22464585449,9611.1721671715,,,18.9400000572205,0,9837.10773565769,9864.15398387429
2011-06-01T05:04:12Z,1306904652,DF0E,55.4411111,25.5858299,3202.04,-2.9,-1.6,81.8,-80809.14,-64194.61,82.5,Weapon+Missile,Blue,Enemies,AIM-120B,,us,,335.357000953508,295.926788330078,1.02271264668778,3202.0400390625,3202.0400390625,335.228705837202,-9.275390625,0.0340575861345171,NaN,0.569251444204135,1.69819132072245,5000,1.15893173217773,1.15893173217773,1.15893173217773,5623.21590442658,3140.12859490723,8763.3444993338,,,19.9400000572205,0,10172.1927304278,10199.5357319159
2011-06-01T05:04:13Z,1306904653,DF0E,55.4442136,25.5862591,3193.41,-2.5,-1.6,80.8,-80496.95,-64150.72,81.5,Weapon+Missile,Blue,Enemies,AIM-120B,,us,,315.374822556804,277.518463134766,0.961673763257235,3193.40625,3193.40625,315.256619897442,-8.6337890625,0.0467281501864384,NaN,0.369212705774209,0.966499728643719,5000,1.1713719367981,1.1713719367981,1.1713719367981,4973.0639351368,3131.66174015625,8104.72567529305,,,20.9400000572205,0,10487.3306726605,10514.9498586617
2011-06-01T05:04:14Z,1306904654,DF0E,55.4471411,25.5867146,3185.42,-2.1,-1.5,79.6,-80202.29,-64103.71,80.2,Weapon+Missile,Blue,Enemies,AIM-120B,,us,,298.496839554508,262.042022705078,0.910119513799426,3185.423828125,3185.423828125,298.390087243258,-7.982421875,0.0396119415639788,NaN,0.353824716460994,1.23304455263059,5000,1.26740658283234,1.26740658283234,1.26740658283234,4455.01816120148,3123.8336584082,7578.85181960968,,,21.9400000572205,0,10785.6058097156,10813.4808895716
2011-06-01T05:04:15Z,1306904655,DF0E,55.4499269,25.5872114,3178.2,-1.9,-1.4,78.1,-79921.82,-64051.96,78.7,Weapon+Missile,Blue,Enemies,AIM-120B,,us,,285.294526103808,250.007995605469,0.869789322884621,3178.19995117188,3178.19995117188,285.203054378039,-7.223876953125,0.083162368305054,NaN,0.199987938897973,1.39279147153808,5000,1.1800719499588,1.1800719499588,1.1800719499588,4069.64833123982,3116.74945511597,7186.39778635579,,,22.9400000572205,0,11070.7170537552,11098.8258204155
2011-06-01T05:04:16Z,1306904656,DF0E,55.4525894,25.5877366,3171.55,-1.6,-1.4,77.9,-79653.69,-63996.91,78.6,Weapon+Missile,Blue,Enemies,AIM-120B,,us,,273.807355065826,239.58415222168,0.83470056622326,3171.54833984375,3171.54833984375,273.726549232775,-6.651611328125,0.0504030068616723,NaN,0.369216974642441,0.259820689511976,5000,0.984644055366516,0.984644055366516,0.984644055366516,3748.52338440716,3110.22645269287,6858.74983710003,,,23.9400000572205,0,11344.3631891817,11372.6889592871
2011-06-01T05:04:17Z,1306904657,DF0E,55.4551722,25.5882216,3164.59,-1.3,-1.6,78.7,-79393.62,-63946.21,79.3,Weapon+Missile,Blue,Enemies,AIM-120B,,us,,265.049033694839,231.682662963867,0.807932648917439,3164.58618164062,3164.58618164062,264.957578898439,-6.962158203125,0.0446574282275712,NaN,0.199987938897973,0.74133074990576,5000,0.99347311258316,0.99347311258316,0.99347311258316,3512.5495131284,3103.3989078186,6615.948420947,,,24.9400000572205,0,11609.2357956959,11637.7845686837
2011-06-01T05:04:18Z,1306904658,DF0E,55.4576627,25.5886628,3157.4,-1,-1.7,79.2,-79142.9,-63900.25,79.9,Weapon+Missile,Blue,Enemies,AIM-120B,,us,,255.005689436072,222.640701293945,0.777250391370384,3157.39697265625,3157.39697265625,254.904328952933,-7.189208984375,0.0528560209958654,NaN,0.169237360037518,0.559013150720844,5000,0.986647129058838,0.986647129058838,0.986647129058838,3251.39508223832,3096.34870218994,6347.74378442826,,,25.9400000572205,0,11864.0638745719,11892.8402804272
2011-06-01T05:04:19Z,1306904659,DF0E,55.4600851,25.5890725,3150.06,-0.9,-1.7,79.6,-78899.05,-63857.71,80.3,Weapon+Missile,Blue,Enemies,AIM-120B,,us,,247.635955077179,216.044342041016,0.75472048050474,3150.05615234375,3150.05615234375,247.527127006569,-7.3408203125,0.0407304619223313,NaN,0.0461509478915415,0.461192408727538,5000,0.984597027301788,0.984597027301788,0.984597027301788,3066.17831234932,3089.14981663818,6155.3281289875,,,26.9400000572205,0,12111.5161703715,12140.5237384047
2011-06-01T05:04:20Z,1306904660,DF0E,55.4624438,25.5894565,3142.63,-0.7,-1.8,80,-78661.63,-63817.92,80.7,Weapon+Missile,Blue,Enemies,AIM-120B,,us,,240.847368315511,209.987289428711,0.733964837852058,3142.63061523438,3142.63061523438,240.732873166804,-7.425537109375,0.0463438431769876,NaN,0.184604325174695,0.35360294875638,5000,0.986408114433289,0.986408114433289,0.986408114433289,2900.37274122536,3081.86785228882,5982.24059351418,,,27.9400000572205,0,12352.1580680504,12381.3988270143
2011-06-01T05:04:21Z,1306904661,DF0E,55.4647364,25.5898184,3135.21,-0.6,-1.8,80.3,-78430.89,-63780.51,80.9,Weapon+Missile,Blue,Enemies,AIM-120B,,us,,233.873452540941,203.774810791016,0.712648277877641,3135.212890625,3135.212890625,233.755789586139,-7.417724609375,0.0504309774928437,NaN,0,0.277835606932575,5000,0.987392604351044,0.987392604351044,0.987392604351044,2734.83959017098,3074.59354938477,5809.43313955575,,,28.9400000572205,0,12585.8358499304,12615.3092548896
2011-06-01T05:04:22Z,1306904662,DF0E,55.4669683,25.590162,3127.83,-0.5,-1.9,80.5,-78206.27,-63745.05,81.1,Weapon+Missile,Blue,Enemies,AIM-120B,,us,,227.526116446713,198.137237548828,0.693244940523489,3127.82763671875,3127.82763671875,227.406226146215,-7.38525390625,0.0408432263726346,NaN,0,0.206534154949115,5000,0.989707052707672,0.989707052707672,0.989707052707672,2588.40668326616,3067.35108936279,5655.75777262896,,,29.9400000572205,0,12813.1569182042,12842.8618090034
2011-06-01T05:04:23Z,1306904663,DF0E,55.4691331,25.5904885,3120.55,-0.4,-1.9,80.6,-77988.41,-63711.39,81.3,Weapon+Missile,Blue,Enemies,AIM-120B,,us,,220.564450171987,191.957275390625,0.671974333267352,3120.55004882812,3120.55004882812,220.444354416631,-7.277587890625,0.0213725561407475,NaN,0,0.176938918595023,5000,0.990510106086731,0.990510106086731,0.990510106086731,2432.43383398354,3060.21421363403,5492.64804761757,,,30.9400000572205,0,13033.5215985781,13063.4545104912
2011-06-01T05:04:24Z,1306904664,DF0E,55.4712541,25.5908033,3113.32,-0.3,-1.9,80.8,-77774.96,-63678.98,81.4,Weapon+Missile,Blue,Enemies,AIM-120B,,us,,216.013555326704,187.94563293457,0.658051892528217,3113.3193359375,3113.3193359375,215.892503056444,-7.230712890625,0.0468835149694571,NaN,0.0307673875291158,0.150332943879657,5000,0.992558479309082,0.992558479309082,0.992558479309082,2333.09280424416,3053.12330657715,5386.21611082131,,,31.9400000572205,0,13249.3353008571,13279.4947161968
2011-06-01T05:04:25Z,1306904665,DF0E,55.4733142,25.5911053,3106.22,-0.3,-1.9,80.9,-77567.65,-63647.91,81.5,Weapon+Missile,Blue,Enemies,AIM-120B,,us,,209.74745586126,182.404418945312,0.638908262744102,3106.21997070312,3106.21997070312,209.627274593599,-7.099365234375,0.0619279156850664,NaN,0,0.112776761862158,5000,0.994559109210968,0.994559109210968,0.994559109210968,2199.69976201355,3046.16120756958,5245.86096958313,,,32.9400000572205,0,13458.8796987252,13489.2614512311
2011-06-01T05:04:26Z,1306904666,DF0E,55.4753062,25.5913945,3099.3,-0.2,-2,80.9,-77367.19,-63618.18,81.6,Weapon+Missile,Blue,Enemies,AIM-120B,,us,,202.77176102864,176.237518310547,0.617607961895132,3099.29907226562,3099.29907226562,202.653616388836,-6.9208984375,0.0457442602111473,NaN,0,0.0733549043347213,5000,0.994893074035645,0.994893074035645,0.994893074035645,2055.81935353279,3039.37412470337,5095.19347823616,,,33.9400000572205,0,13661.4491624964,13692.0475948193
2011-06-01T05:04:27Z,1306904667,DF0E,55.4772618,25.5916765,3092.46,-0.2,-2,81,-77170.41,-63589.2,81.6,Weapon+Missile,Blue,Enemies,AIM-120B,,us,,199.013525460055,172.945327758789,0.606110865033942,3092.46313476562,3092.46313476562,198.896086624489,-6.8359375,0.0561804106106059,NaN,0,0.0532655904281015,5000,0.995549917221069,0.995549917221069,0.995549917221069,1980.319165802,3032.67036005493,5012.98952585693,,,34.9400000572205,0,13860.2789618416,13891.0913250766
2011-06-01T05:04:28Z,1306904668,DF0E,55.4791472,25.5919472,3085.84,-0.1,-2,81,-76980.7,-63561.39,81.7,Weapon+Missile,Blue,Enemies,AIM-120B,,us,,191.860956549291,166.635345458984,0.584280322248331,3085.83837890625,3085.83837890625,191.746549533003,-6.624755859375,0.0373395347318727,NaN,0.199987938897973,0.0532655904281015,5000,0.995965719223022,0.995965719223022,0.995965719223022,1840.53133240044,3026.1736938501,4866.70502625054,,,35.9400000572205,0,14051.9580287198,14082.9776206083
2011-06-01T05:04:29Z,1306904669,DF0E,55.480988,25.592211,3079.34,-0.1,-2,81,-76795.46,-63534.3,81.7,Weapon+Missile,Blue,Enemies,AIM-120B,,us,,187.317600123534,162.651000976562,0.570399425868126,3079.33837890625,3079.33837890625,187.204789778574,-6.5,0.0244467130612959,NaN,0,0.0171320104161963,5000,0.996965050697327,0.996965050697327,0.996965050697327,1754.394165802,3019.7993713501,4774.1935371521,,,36.9400000572205,0,14239.086085585,14270.3089195737
2011-06-01T05:04:30Z,1306904670,DF0E,55.4827783,25.5924673,3072.99,-0.1,-2,81,-76615.32,-63507.96,81.7,Weapon+Missile,Blue,Enemies,AIM-120B,,us,,182.166057873169,158.129806518555,0.554669926720401,3072.99438476562,3072.99438476562,182.055558496286,-6.343994140625,0.0238824807854986,NaN,0,0.0171320104161963,5000,0.996492207050323,0.996492207050323,0.996492207050323,1659.22363205254,3013.57803833618,4672.80167038872,,,37.9400000572205,0,14421.0809795636,14452.5020723642
2011-06-01T05:04:31Z,1306904671,DF0E,55.4845096,25.5927154,3066.83,-0.1,-2,81,-76441.1,-63482.47,81.7,Weapon+Missile,Blue,Enemies,AIM-120B,,us,,176.181764442997,152.875259399414,0.536408600648856,3066.83081054688,3066.83081054688,176.07391764568,-6.16357421875,0.0407982816276686,NaN,0,0.0171320104161963,5000,0.99824994802475,0.99824994802475,0.99824994802475,1552.00070611238,3007.53363682495,4559.53434293734,,,38.9400000572205,0,14597.084546955,14628.6981914588
2011-06-01T05:04:32Z,1306904672,DF0E,55.4862026,25.5929586,3060.79,-0.1,-2,81,-76270.73,-63457.48,81.6,Weapon+Missile,Blue,Enemies,AIM-120B,,us,,172.295867626559,149.481842041016,0.524539157495332,3060.79150390625,3060.79150390625,172.189990349292,-6.039306640625,0.0486162154116084,NaN,0,0.0532655904281015,5000,0.997319042682648,0.997319042682648,0.997319042682648,1484.29330005944,3001.61110017822,4485.90440023766,,,39.9400000572205,0,14769.20009478,14801.0022891751
2011-06-01T05:04:33Z,1306904673,DF0E,55.4878328,25.5931935,3054.95,0,-2,80.9,-76106.71,-63433.32,81.6,Weapon+Missile,Blue,Enemies,AIM-120B,,us,,165.896532608712,143.869430541992,0.505021311014201,3054.95458984375,3054.95458984375,165.793817634495,-5.8369140625,0.0322741792267148,NaN,0.199987938897973,0.0532655904281015,5000,0.998020827770233,0.998020827770233,0.998020827770233,1376.08297657967,2995.88704284912,4371.97001942879,,,40.9400000572205,0,14934.9399108368,14966.924265159
2011-06-01T05:04:34Z,1306904674,DF0E,55.4894304,25.5934248,3049.22,0,-2,80.9,-75945.95,-63409.54,81.6,Weapon+Missile,Blue,Enemies,AIM-120B,,us,,162.608501594546,141.007995605469,0.494977571699452,3049.21850585938,3049.21850585938,162.507298701774,-5.736083984375,0.0534294719437911,NaN,0,0.0550717152262136,5000,0.997484266757965,0.997484266757965,0.997484266757965,1322.07623954117,2990.26186604858,4312.33810558976,,,41.9400000572205,0,15097.3850284925,15129.5483097866
2011-06-01T05:04:35Z,1306904675,DF0E,55.4909614,25.5936476,3043.7,0,-2,80.8,-75791.89,-63386.61,81.5,Weapon+Missile,Blue,Enemies,AIM-120B,,us,,155.856716145947,135.094467163086,0.474393587396988,3043.69848632812,3043.69848632812,155.758933458639,-5.52001953125,0.0466819531177129,NaN,0,0.0550717152262136,5000,0.996588528156281,0.996588528156281,0.996588528156281,1214.56579838991,2984.84857609497,4199.41437448488,,,42.9400000572205,0,15253.0860413595,15285.4214641796
2011-06-01T05:04:36Z,1306904676,DF0E,55.4924584,25.5938668,3038.27,0,-2,80.8,-75641.26,-63364.04,81.4,Weapon+Missile,Blue,Enemies,AIM-120B,,us,,152.411060818343,132.096817016602,0.463875327654219,3038.27001953125,3038.27001953125,152.314356539388,-5.428466796875,0.0653553798953833,NaN,0,0.0550717152262136,5000,0.998029232025146,0.998029232025146,0.998029232025146,1161.45657298863,2979.52506870361,4140.98164169224,,,43.9400000572205,0,15405.3451492015,15437.8498597781
2011-06-01T05:04:37Z,1306904677,DF0E,55.4938943,25.5940785,3033.04,0,-2.1,80.7,-75496.77,-63342.24,81.4,Weapon+Missile,Blue,Enemies,AIM-120B,,us,,146.221025750455,126.686920166016,0.44500734103056,3033.04296875,3033.04296875,146.127568622918,-5.22705078125,0.0806937441812577,NaN,0,0.510624942350153,5000,0.73778235912323,0.73778235912323,0.73778235912323,1069.02941857576,2974.39908294922,4043.42850152498,,,44.9400000572205,0,15551.4219095559,15584.0895901247
2011-06-01T05:04:38Z,1306904678,DF0E,55.4952823,25.5942841,3025.43,2.2,-4.9,80.7,-75357.09,-63321.04,81.4,Weapon+Missile,Blue,Enemies,AIM-120B,,us,,141.47668941778,122.566925048828,0.430528851566763,3025.42626953125,3025.42626953125,141.271510013966,-7.61669921875,0.0880857882900701,NaN,2.800000405197,2.30777001605533,2335.50278294482,0.13578100502491,0.13578100502491,0.13578100502491,1000.78268243074,2966.92965260986,3967.71233504061,,,45.9400000572205,0,15692.6384138005,15725.578325695
2011-06-01T05:04:39Z,1306904679,DF0E,55.4966209,25.5944824,3009.77,4.7,-8.4,80.7,-75222.39,-63300.61,81.4,Weapon+Missile,Blue,Enemies,AIM-120B,,us,,137.141183209421,118.855346679688,0.417256482866352,3009.76611328125,3009.76611328125,136.244132491295,-15.66015625,0.113232141643196,NaN,2.30769338987058,3.57312403150273,2243.33387499248,0.144891366362572,0.144891366362572,0.144891366362572,940.385206604004,2951.57228548096,3891.95749208496,,,46.9400000572205,0,15828.8278615806,15862.729193785
2011-06-01T05:04:40Z,1306904680,DF0E,55.4979131,25.5946734,2986.44,6.8,-11.8,80.7,-75092.37,-63280.93,81.4,Weapon+Missile,Blue,Enemies,AIM-120B,,us,,133.557510447897,115.845947265625,0.406238579559397,2986.4375,2986.4375,131.504313235019,-23.32861328125,0.0510113501870558,NaN,2.09230807014928,3.44617962969275,2259.3797291033,0.182134687900543,0.182134687900543,0.182134687900543,891.880429852009,2928.6947309375,3820.57516078951,,,47.9400000572205,0,15960.2852177335,15996.3013118416
2011-06-01T05:04:41Z,1306904681,DF0E,55.4991627,25.5948576,2956.03,8.5,-15.2,80.8,-74966.62,-63261.93,81.4,Weapon+Missile,Blue,Enemies,AIM-120B,,us,,130.752579392114,113.55623626709,0.39756098365863,2956.03295898438,2956.03295898438,127.168395851014,-30.404541015625,0.0973231110306431,NaN,1.53846254450494,3.29623115075817,2283.69454468879,0.206908702850342,0.206908702850342,0.206908702850342,854.811850884557,2898.87806172241,3753.68991260697,,,48.9400000572205,0,16087.4099962921,16127.0690669531
2011-06-01T05:04:42Z,1306904682,DF0E,55.5003766,25.5950359,2918.91,9.8,-18.4,80.8,-74844.48,-63243.57,81.5,Weapon+Missile,Blue,Enemies,AIM-120B,,us,,128.978254881684,112.204574584961,0.391990540780576,2918.91235351562,2918.91235351562,123.521054407571,-37.12060546875,0.0610788956243995,NaN,1.20000105792142,3.19655201034124,2323.04235798007,0.222980841994286,0.222980841994286,0.222980841994286,831.76951161623,2862.4751831604,3694.24469477663,,,49.9400000572205,0,16210.8820448297,16256.0548489078
2011-06-01T05:04:43Z,1306904683,DF0E,55.5015563,25.5952081,2875.45,10.9,-21.5,80.9,-74725.79,-63225.83,81.5,Weapon+Missile,Blue,Enemies,AIM-120B,,us,,127.633116457714,111.261581420898,0.387699364352374,2875.453125,2875.453125,120.006282641932,-43.459228515625,0.0380972212265641,NaN,0.969231163981489,3.12796154314868,2403.73180055552,0.244163081049919,0.244163081049919,0.244163081049919,814.510620835424,2819.85623882812,3634.36685966355,,,50.9400000572205,0,16330.8586477088,16383.7113006144
2011-06-01T05:04:44Z,1306904684,DF0E,55.5026983,25.5953737,2826.26,11.8,-24.5,80.9,-74610.87,-63208.79,81.6,Weapon+Missile,Blue,Enemies,AIM-120B,,us,,126.164427331128,110.236671447754,0.383011265852197,2826.26000976562,2826.26000976562,116.17874219206,-49.193115234375,0.048261423416677,NaN,0.769229564705176,3.00808596024284,2485.39812284788,0.259265035390854,0.259265035390854,0.259265035390854,795.87313618958,2771.61427247681,3567.48740866639,,,51.9400000572205,0,16446.9869411916,16509.8770701158
2011-06-01T05:04:45Z,1306904685,DF0E,55.5038094,25.5955335,2771.49,12.3,-27.3,81,-74499.05,-63192.35,81.7,Weapon+Missile,Blue,Enemies,AIM-120B,,us,,125.587189088461,110.025146484375,0.381007991390986,2771.48852539062,2771.48852539062,113.014275923443,-54.771484375,0.0254213650793972,NaN,0.569231380523448,2.85807302139797,2582.74251690662,0.265027612447739,0.265027612447739,0.265027612447739,788.607103157044,2717.9017947522,3506.50889790924,,,52.9400000572205,0,16559.9478162086,16635.4608116954
2011-06-01T05:04:46Z,1306904686,DF0E,55.5049001,25.5956888,2710.93,12.7,-30.1,81.1,-74389.33,-63176.39,81.8,Weapon+Missile,Blue,Enemies,AIM-120B,,us,,126.341212715158,111.024040222168,0.383017070718783,2710.92919921875,2710.92919921875,110.881333162734,-60.559326171875,0.0705190067246594,NaN,0.199999891729021,2.74762992973592,2714.60994068808,0.266187518835068,0.266187518835068,0.266187518835068,798.105101516843,2658.51338315186,3456.6184846687,,,53.9400000572205,0,16670.8042941001,16761.8220251531
2011-06-01T05:04:47Z,1306904687,DF0E,55.505965,25.5958386,2645.1,13,-32.6,81.2,-74282.18,-63161,81.9,Weapon+Missile,Blue,Enemies,AIM-120B,,us,,126.695463019909,111.700561523438,0.383788117651786,2645.09545898438,2645.09545898438,108.248136226829,-65.833740234375,0.0638246544798769,NaN,0.169229889518113,2.51302659212433,3380.25923314169,0.356466501951218,0.356466501951218,0.356466501951218,802.58701749146,2593.95253828491,3396.53955577637,,,54.9400000572205,0,16779.0067003164,16888.5172329981
2011-06-01T05:04:48Z,1306904688,DF0E,55.5070178,25.5959851,2574.4,11.9,-33.6,81.3,-74176.24,-63145.96,81.9,Weapon+Missile,Blue,Enemies,AIM-120B,,us,,128.243311707853,113.472312927246,0.388148456862894,2574.4013671875,2574.4013671875,106.998562526851,-70.694091796875,0.0454702140819642,NaN,2.00004331351981,1.0471684248881,5000,0.823877453804016,0.823877453804016,0.823877453804016,822.317349889875,2524.62531675293,3346.9426666428,,,55.9400000572205,0,16885.956972243,17016.7567654548
2011-06-01T05:04:49Z,1306904689,DF0E,55.5080739,25.5961316,2503.4,10,-33.4,81.3,-74070,-63130.93,82,Weapon+Missile,Blue,Enemies,AIM-120B,,us,,128.664938262937,114.246452331543,0.389094471754874,2503.39990234375,2503.39990234375,107.300784378527,-71.00146484375,0.0432088107219584,NaN,1.73841974755165,0.227282388677549,5000,0.877954244613647,0.877954244613647,0.877954244613647,827.733316910267,2454.99666523193,3282.7299821422,,,56.9400000572205,0,16993.2271643138,17145.431801411
2011-06-01T05:04:50Z,1306904690,DF0E,55.509156,25.5962815,2431.16,8.5,-33.2,81.3,-73961.13,-63115.55,82,Weapon+Missile,Blue,Enemies,AIM-120B,,us,,131.557201556979,117.253059387207,0.397498402913893,2431.1591796875,2431.1591796875,109.948057152487,-72.24072265625,0.0400879905598862,NaN,1.40002485531253,0.156393336045655,5000,0.856415212154388,0.856415212154388,0.856415212154388,865.364864075184,2384.15271694824,3249.51758102343,,,57.9400000572205,0,17103.1385073015,17276.9938530478
2011-06-01T05:04:51Z,1306904691,DF0E,55.5102405,25.5964316,2358.98,7.3,-33.2,81.3,-73852.01,-63100.14,82,Weapon+Missile,Blue,Enemies,AIM-120B,,us,,131.73935688165,117.831176757812,0.397706958455329,2358.98217773438,2358.98217773438,110.207706357811,-72.177001953125,0.0316801536454915,NaN,1.13845593085773,0.0513960362511687,5000,0.835177361965179,0.835177361965179,0.835177361965179,867.762907579541,2313.37125732788,3181.13416490742,,,58.9400000572205,0,17213.2945636852,17408.7246060507
2011-06-01T05:04:52Z,1306904692,DF0E,55.5113436,25.5965842,2285.56,6.3,-33.3,81.3,-73741.03,-63084.48,82,Weapon+Missile,Blue,Enemies,AIM-120B,,us,,133.982356682303,120.285507202148,0.404125628302027,2285.56396484375,2285.56396484375,112.076036323965,-73.418212890625,0.0522422650537992,NaN,0.969231163981489,0.0513960362511687,5000,0.819945216178894,0.819945216178894,0.819945216178894,897.563595107198,2241.3725855835,3138.93618069069,,,59.9400000572205,0,17325.3321890519,17542.7089551317
2011-06-01T05:04:53Z,1306904693,DF0E,55.5124619,25.5967387,2210.95,5.5,-33.4,81.3,-73628.52,-63068.63,82,Weapon+Missile,Blue,Enemies,AIM-120B,,us,,135.930548004096,122.49341583252,0.409639156104534,2210.94604492188,2210.94604492188,113.619012085243,-74.617919921875,0.0203183238945062,NaN,0.769243225083516,0.100870594880489,5000,0.804360270500183,0.804360270500183,0.804360270500183,923.855694034696,2168.19740314331,3092.05309717801,,,60.9400000572205,0,17438.9100856963,17678.6386004786
2011-06-01T05:04:54Z,1306904694,DF0E,55.5135891,25.5968944,2135.37,4.9,-33.5,81.3,-73515.11,-63052.67,82,Weapon+Missile,Blue,Enemies,AIM-120B,,us,,137.221763593602,124.120941162109,0.413160451753263,2135.3662109375,2135.3662109375,114.531659809124,-75.579833984375,0.0115218505259587,NaN,0.569255286185543,0.150657991515041,5000,0.791210114955902,0.791210114955902,0.791210114955902,941.490620186925,2094.07890524902,3035.56952543595,,,61.9400000572205,0,17553.3986440177,17815.8569478851
2011-06-01T05:04:55Z,1306904695,DF0E,55.5147291,25.5970514,2058.43,4.4,-33.7,81.4,-73400.41,-63036.55,82,Weapon+Missile,Blue,Enemies,AIM-120B,,us,,139.047097938848,126.254676818848,0.418275826502747,2058.42993164062,2058.42993164062,115.822728223648,-76.936279296875,0,NaN,0.369212705774209,0.200281343547593,5000,0.779154717922211,0.779154717922211,0.779154717922211,966.704772260785,2018.63018891235,2985.33496117314,,,62.9400000572205,0,17669.174404524,17954.8966283652
2011-06-01T05:04:56Z,1306904696,DF0E,55.5158782,25.5972095,1980.26,3.9,-33.9,81.4,-73284.8,-63020.34,82,Weapon+Missile,Blue,Enemies,AIM-120B,,us,,140.495524342836,128.062240600586,0.422243345608217,1980.25915527344,1980.25915527344,116.740404670018,-78.1707763671875,0.0295585675733209,NaN,0.369212705774209,0.234694611350468,5000,0.767004728317261,0.767004728317261,0.767004728317261,986.949618018419,1941.97084450623,2928.92046252464,,,63.9400000572205,0,17785.8714728655,18095.3868435495
2011-06-01T05:04:57Z,1306904697,DF0E,55.517042,25.5973691,1900.35,3.6,-34.2,81.4,-73167.73,-63003.96,82.1,Weapon+Missile,Blue,Enemies,AIM-120B,,us,,142.690374432325,130.579864501953,0.428436391144887,1900.35144042969,1900.35144042969,118.217173304418,-79.90771484375,0.0434216637545389,NaN,0.261568924454808,0.27250232308828,5000,0.758447289466858,0.758447289466858,0.758447289466858,1018.02714778185,1863.60814532898,2881.63529311083,,,64.9400000572205,0,17904.0472681808,18238.0727213936
2011-06-01T05:04:58Z,1306904698,DF0E,55.5182106,25.5975289,1819.3,3.3,-34.5,81.4,-73050.16,-62987.59,82.1,Weapon+Missile,Blue,Enemies,AIM-120B,,us,,143.738550140706,132.057632446289,0.431172652991507,1819.29760742188,1819.29760742188,118.705715748206,-81.0538330078125,0.0305257920155226,NaN,0.199987938897973,0.272861121463117,5000,0.747670590877533,0.747670590877533,0.747670590877533,1033.03853982762,1784.12148818237,2817.16002800999,,,65.9400000572205,0,18022.7073986429,18381.8021999767
2011-06-01T05:04:59Z,1306904699,DF0E,55.5193978,25.5976906,1736.04,3,-34.8,81.5,-72930.71,-62971.01,82.1,Weapon+Missile,Blue,Enemies,AIM-120B,,us,,146.540451219398,135.188690185547,0.439148403536247,1736.03845214844,1736.03845214844,120.590285291719,-83.2591552734375,0.0144404965047865,NaN,0.369212705774209,0.319288878779029,5000,0.737563908100128,0.737563908100128,0.737563908100128,1073.70519217923,1702.47214867615,2776.17734085538,,,66.9400000572205,0,18143.2463427046,18528.3280485163
2011-06-01T05:05:00Z,1306904700,DF0E,55.520589,25.597852,1651.51,2.9,-35.1,81.5,-72810.88,-62954.46,82.2,Weapon+Missile,Blue,Enemies,AIM-120B,,us,,147.576654092457,136.69970703125,0.441816242581008,1651.51379394531,1651.51379394531,120.972934943191,-84.524658203125,0.0361256272326558,NaN,0.0461720787892862,0.348867546588298,5000,0.731040120124817,0.731040120124817,0.731040120124817,1088.94344165623,1619.58177473938,2708.52521639561,,,67.9400000572205,0,18264.1837340044,18675.9018929591
2011-06-01T05:05:01Z,1306904701,DF0E,55.5217902,25.5980139,1565.24,2.7,-35.4,81.6,-72690.03,-62937.87,82.2,Weapon+Missile,Blue,Enemies,AIM-120B,,us,,149.405079757043,138.972900390625,0.446839533954594,1565.23840332031,1565.23840332031,121.977189792649,-86.275390625,0.00626559618273237,NaN,0.199987938897973,0.321882936601032,5000,0.722685754299164,0.722685754299164,0.722685754299164,1116.09389286041,1534.97451879211,2651.06841165253,,,68.9400000572205,0,18386.1098440294,18825.2903724018
2011-06-01T05:05:02Z,1306904702,DF0E,55.5229925,25.598175,1477.78,2.6,-35.8,81.6,-72569.07,-62921.38,82.3,Weapon+Missile,Blue,Enemies,AIM-120B,,us,,150.174995216895,140.271820068359,0.448684386524265,1477.77990722656,1477.77990722656,122.080058360955,-87.45849609375,0.0305549732219907,NaN,0,0.344918976876517,5000,0.713302195072174,0.713302195072174,0.713302195072174,1127.62645941973,1449.20703272034,2576.83349214006,,,69.9400000572205,0,18508.140935275,18975.4492263336
2011-06-01T05:05:03Z,1306904703,DF0E,55.5242141,25.5983374,1387.75,2.5,-36.2,81.7,-72446.18,-62904.76,82.3,Weapon+Missile,Blue,Enemies,AIM-120B,,us,,153.246311729101,143.768890380859,0.457381259052315,1387.74621582031,1387.74621582031,124.009541851976,-90.03369140625,0.0278693731889629,NaN,0,0.378202622104121,5000,0.706809937953949,0.706809937953949,0.706809937953949,1174.22160292864,1360.91414273743,2535.13574566607,,,70.9400000572205,0,18632.1042909976,19128.6806978648
2011-06-01T05:05:04Z,1306904704,DF0E,55.5254431,25.5984995,1295.95,2.4,-36.5,81.7,-72322.54,-62888.18,82.4,Weapon+Missile,Blue,Enemies,AIM-120B,,us,,154.881778258518,145.939575195312,0.461770029182616,1295.95080566406,1295.95080566406,124.747616854057,-91.79541015625,0.0178158807058845,NaN,0,0.371679044394819,5000,0.697035372257233,0.697035372257233,0.697035372257233,1199.41826182604,1270.89359683655,2470.31185866259,,,71.9400000572205,0,18756.8041452421,19283.5451372314
2011-06-01T05:05:05Z,1306904705,DF0E,55.5266883,25.5986622,1201.66,2.3,-36.9,81.8,-72197.28,-62871.55,82.5,Weapon+Missile,Blue,Enemies,AIM-120B,,us,,157.659485798116,149.229049682617,0.469538330004269,1201.66149902344,1201.66149902344,126.356796870435,-94.289306640625,0.0274419909938601,NaN,0,0.375867177655653,5000,0.691492140293121,0.691492140293121,0.691492140293121,1242.82567310631,1178.42737393982,2421.25304704613,,,72.9400000572205,0,18883.119251949,19441.1910320429
2011-06-01T05:05:06Z,1306904706,DF0E,55.52793,25.5988229,1106.32,2.3,-37.3,81.9,-72072.37,-62855.13,82.6,Weapon+Missile,Blue,Enemies,AIM-120B,,us,,157.996254626077,150.213073730469,0.47002291022259,1106.32067871094,1106.32067871094,125.987874249897,-95.3408203125,0.0366928503373727,NaN,0,0.396637862962941,5000,0.683629095554352,0.683629095554352,0.683629095554352,1248.14082379341,1084.92996838806,2333.07079218147,,,73.9400000572205,0,19009.0501186566,19599.159998258
2011-06-01T05:05:07Z,1306904707,DF0E,55.5291872,25.5989837,1008.42,2.2,-37.7,82,-71945.9,-62838.71,82.6,Weapon+Missile,Blue,Enemies,AIM-120B,,us,,160.773489168863,153.563171386719,0.477745072638908,1008.42230224609,1008.42230224609,127.530477553713,-97.8983764648438,0.0206127875478982,NaN,0,0.423479972792562,5000,0.675708949565887,0.675708949565887,0.675708949565887,1292.40574097652,988.924457032165,2281.33019800869,,,74.9400000572205,0,19136.5313689029,19759.9112037938
2011-06-01T05:05:08Z,1306904708,DF0E,55.530448,25.5991431,908.84,2.2,-38.1,82.1,-71819.09,-62822.46,82.7,Weapon+Missile,Blue,Enemies,AIM-120B,,us,,162.054532154147,155.50520324707,0.481000148516138,908.841552734375,908.841552734375,127.848917548737,-99.5807495117188,0.024691186279621,NaN,0,0.408066690435076,5000,0.669787526130676,0.669787526130676,0.669787526130676,1313.08356958497,891.269101312256,2204.35267089723,,,75.9400000572205,0,19264.3344349221,19921.9447176176
2011-06-01T05:05:09Z,1306904709,DF0E,55.531716,25.5993012,807.23,2.1,-38.5,82.2,-71691.53,-62806.36,82.9,Weapon+Missile,Blue,Enemies,AIM-120B,,us,,163.871030457814,157.991821289062,0.485824603536169,807.233825683594,807.233825683594,128.567431439225,-101.607727050781,0.0353938752806375,NaN,0,0.426816840367231,5000,0.659794926643372,0.659794926643372,0.659794926643372,1342.6857311653,791.625959664001,2134.3116908293,,,76.9400000572205,0,19392.8488971763,20085.7877559845
2011-06-01T05:05:10Z,1306904710,DF0E,55.532995,25.5994584,703.24,2.1,-39,82.3,-71562.89,-62790.37,83,Weapon+Missile,Blue,Enemies,AIM-120B,,us,,166.191811342303,161.002258300781,0.492118318987343,703.2353515625,703.2353515625,129.630380458131,-103.998474121094,0.0178756616522411,NaN,0,0.426702194574795,5000,0.65415370464325,0.65415370464325,0.65415370464325,1380.98590786178,689.638296040039,2070.62420390182,,,77.9400000572205,0,19522.4317361515,20251.9544542754
2011-06-01T05:05:11Z,1306904711,DF0E,55.53428,25.5996138,597.2,2.1,-39.4,82.5,-71433.63,-62774.59,83.1,Weapon+Missile,Blue,Enemies,AIM-120B,,us,,167.930521353705,163.479782104492,0.496664654534452,597.196899414062,597.196899414062,130.217151973505,-106.038452148438,0.028829117217613,NaN,0,0.431150195189207,5000,0.644224047660828,0.644224047660828,0.644224047660828,1410.03300010636,585.650097363892,1995.68309747026,,,78.9400000572205,0,19652.597378378,20419.8553251374
2011-06-01T05:05:12Z,1306904712,DF0E,55.5355701,25.599767,489.14,2,-39.8,82.6,-71303.88,-62759.05,83.2,Weapon+Missile,Blue,Enemies,AIM-120B,,us,,169.566084529645,165.88703918457,0.50088452240575,489.140747070312,489.140747070312,130.677178433646,-108.05615234375,0.157691187490387,NaN,0,0.804623178097359,5000,0.417132794857025,0.417132794857025,0.417132794857025,1437.63285113573,479.683210725708,1917.31606186144,,,79.9400000572205,0,19783.22349588,20589.3906341216
2011-06-01T05:05:13Z,1306904713,DF0E,55.5368581,25.5999179,376.78,3.3,-41.8,82.6,-71174.33,-62743.77,83.3,Weapon+Missile,Blue,Enemies,AIM-120B,,us,,172.170554866355,169.296951293945,0.507928505776225,376.78076171875,376.78076171875,130.452802402958,-112.359985351562,0.017673714406085,NaN,1.33846179900227,1.59664273618534,4883.37365208342,0.126676991581917,0.126676991581917,0.126676991581917,1482.13499814942,369.495705690918,1851.63070384034,,,80.9400000572205,0,19913.6225226226,20761.5271528486
2011-06-01T05:05:14Z,1306904714,DF0E,55.5381085,25.6000635,259.7,4.3,-43.8,82.7,-71048.57,-62729.04,83.3,Weapon+Missile,Blue,Enemies,AIM-120B,,us,,172.452280197889,170.467910766602,0.508084486053799,259.701538085938,259.701538085938,126.61849919735,-117.079223632812,0.0587380639611299,NaN,0.87692286489606,1.95036756112972,5000,0.149841666221619,0.149841666221619,0.149841666221619,1486.98944727257,254.680208847046,1741.66965611961,,,81.9400000572205,0,20040.1897889874,20933.9464561276
2011-06-01T05:05:15Z,1306904715,DF0E,55.53934,25.6002058,136.68,5.1,-45.5,82.8,-70924.7,-62714.63,83.4,Weapon+Missile,Blue,Enemies,AIM-120B,,us,,175.171118662084,174.112762451172,0.515377146847803,136.679992675781,136.679992675781,124.702125796727,-123.021545410156,0,NaN,0.599999675187063,1.78889762028239,5000,0.164899900555611,0.164899900555611,0.164899900555611,1534.24604066629,134.037285017395,1668.28332568368,,,82.9400000572205,0,20164.8330705531,21109.0784457786
2011-06-01T05:05:16Z,1306904716,DF0E,55.5405494,25.6003444,8.45,5.7,-47.1,82.8,-70803.06,-62700.61,83.5,Weapon+Missile,Blue,Enemies,AIM-120B,,us,,177.303137583343,177.239456176758,0.520895879792447,8.44769096374512,8.44769096374512,122.445413938339,-128.232301712036,0.0238212730862349,NaN,0.53846137831254,1.63881755348458,5000,0.175068512558937,0.175068512558937,0.175068512558937,1571.8201298449,8.28435485896111,1580.10448470386,,,83.9400000572205,0,20287.2262180343,21286.3464536347
2011-06-01T05:05:17Z,1306904717,DF0E,55.5417474,25.6004804,-125.8,6,-48.7,82.9,-70682.59,-62686.89,83.5,Weapon+Missile,Blue,Enemies,AIM-120B,,us,,180.898948372561,181.907073974609,0.530658205927344,-125.79615020752,-125.79615020752,121.256012757648,-134.243841171265,0.0292838634924652,NaN,0.276923189708997,1.52839111040864,5000,0.189089089632034,0.189089089632034,0.189089089632034,1636.22147611493,-123.363881643257,1512.85759447167,,,84.9400000572205,0,20408.4398653252,21467.2162600043
2011-06-01T05:05:18Z,1306904718,DF0E,55.5429107,25.6006109,-263.05,6.3,-50.1,83,-70565.59,-62673.71,83.6,Weapon+Missile,Blue,Enemies,AIM-120B,,us,,180.833597274186,182.940399169922,0.529650823615966,-263.048431396484,-263.048431396484,117.739548205129,-137.252281188965,0.0280813532229484,NaN,0.199999891729021,1.43988605275214,5000,0.195176884531975,0.195176884531975,0.195176884531975,1635.03949515613,-257.962389975433,1377.07710518069,,,85.9400000572205,0,20526.1278092519,21648.0139271703
2011-06-01T05:05:19Z,1306904719,DF0E,55.5440678,25.6007392,-406.34,6.4,-51.5,83.1,-70449.23,-62660.77,83.7,Weapon+Missile,Blue,Enemies,AIM-120B,,us,,185.039932165003,188.359802246094,0.541103640950592,-406.340759277344,-406.340759277344,117.077261951727,-143.292327880859,0.0493103185092543,NaN,0,1.31961506592638,5000,0.198646694421768,0.198646694421768,0.198646694421768,1711.98882478145,-398.484160696716,1313.50466408473,,,86.9400000572205,0,20643.1617167076,21833.0225465876
2011-06-01T05:05:20Z,1306904720,DF0E,55.545206,25.600864,-553.91,6.5,-52.7,83.1,-70334.76,-62648.2,83.8,Weapon+Missile,Blue,Enemies,AIM-120B,,us,,187.18694689009,191.760284423828,0.546482879375205,-553.914611816406,-553.914611816406,115.156029511322,-147.573852539062,0.0352127049106782,NaN,0.0769232979799761,1.23902246225823,5000,0.198722407221794,0.198722407221794,0.198722407221794,1751.94765430167,-543.204672796936,1208.74298150474,,,87.9400000572205,0,20758.2708136177,22020.1752953218
2011-06-01T05:05:21Z,1306904721,DF0E,55.5463303,25.6009858,-706.21,6.4,-53.8,83.2,-70221.7,-62635.96,83.9,Weapon+Missile,Blue,Enemies,AIM-120B,,us,,190.071677450823,195.981872558594,0.55396715222894,-706.211486816406,-706.211486816406,113.722928357496,-152.296875,0.0206657617972026,NaN,0.138461594854498,1.17075482822566,5000,0.19988739490509,0.19988739490509,0.19988739490509,1806.36212844849,-692.556887718811,1113.80524072968,,,88.9400000572205,0,20871.9469623692,22210.2122706896
2011-06-01T05:05:22Z,1306904722,DF0E,55.5474401,25.6011043,-862.97,6.4,-55,83.3,-70110.09,-62624.06,84,Weapon+Missile,Blue,Enemies,AIM-120B,,us,,192.796183061861,200.110610961914,0.560933926078213,-862.971496582031,-862.971496582031,112.234876671665,-156.760009765625,0.0402782264596867,NaN,0,1.1054484013634,5000,0.204613819718361,0.204613819718361,0.204613819718361,1858.51841016114,-846.285942695618,1012.23246746552,,,89.9400000572205,0,20984.1407686585,22402.976515789
