ISOTime,UnixTime,Id,Longitude,Latitude,Altitude,Roll,Pitch,Yaw,U,V,Heading,Type,Color,Coalition,Name,Group,Country,Pilot,TAS,CAS,M,ASL,AGL,GS,VS,AOA,AOS,RRT,TRT,TRD,G,LatG,LonG,Ek,Ep,Em,FFW,FFV,RelativeTime,Elev,GroundDistance,AirDistance
2011-06-01T05:04:31Z,1306904671,E607,55.3230067,25.5794261,3084.09,-98.3,-9.3,37.4,-92681.84,-64759.21,38.2,Weapon+Missile,Blue,Enemies,AIM-120B,,us,,347.819175424808,308.974700927734,1.05920241683102,3084.08544921875,3084.08544921875,NaN,NaN,1.85286380882838,NaN,22.3384342088502,2.79517287500028,NaN,NaN,NaN,NaN,NaN,3024.45465705811,NaN,,,0.920000076293945,0,NaN,NaN
2011-06-01T05:04:32Z,1306904672,E607,55.3259367,25.5826583,3018.38,-83.6,-5.6,38.8,-92382.99,-64404.91,39.5,Weapon+Missile,Blue,Enemies,AIM-120B,,us,,468.137682015979,415.549377441406,1.42447226890862,3018.38061523438,3018.38061523438,463.503790830647,-65.704833984375,0.759564510673599,NaN,13.3230762780536,1.76246147982156,5000,4.67332220077515,4.67332220077515,4.67332220077515,10957.6444661647,2960.02022603882,13917.6646922035,,,1.92000007629395,0,464.769298435067,469.610849180282
2011-06-01T05:04:33Z,1306904673,E607,55.3296318,25.5867462,2976.93,-70.4,-3.4,39.4,-92006.09,-63956.79,40.1,Weapon+Missile,Blue,Enemies,AIM-120B,,us,,587.011894555644,515.042175292969,1.78529470098519,2976.931640625,2976.931640625,585.546707661855,-41.448974609375,0.0897426150046322,NaN,13.3846436032321,2.52100510684855,5000,1.75929689407349,1.75929689407349,1.75929689407349,17229.1482174903,2919.37266735352,20148.5208848438,,,2.92000007629395,0,1051.90433907524,1058.48238534962
2011-06-01T05:04:34Z,1306904674,E607,55.3340969,25.591699,2935.61,-58.3,-3.3,39,-91550.68,-63413.82,39.8,Weapon+Missile,Blue,Enemies,AIM-120B,,us,,709.876227800169,617.692321777344,2.15788930952397,2935.61303710938,2935.61303710938,708.672725451824,-41.318603515625,0.054887759770959,NaN,11.5384844517127,0.396391122379174,5000,1.21777880191803,1.21777880191803,1.21777880191803,25196.2129397899,2878.85295903687,28075.0658988268,,,3.92000007629395,0,1762.50266754758,1770.60976823738
2011-06-01T05:04:35Z,1306904675,E607,55.3390891,25.5973531,2888.08,-48.2,-3.4,38.3,-91041.37,-62793.83,39,Weapon+Missile,Blue,Enemies,AIM-120B,,us,,803.774579990878,697.254516601562,2.44192337083573,2888.08203125,2888.08203125,802.367982238517,-47.531005859375,0.0737992374509608,NaN,9.63076480520391,0.703334834439802,5000,1.36796855926514,1.36796855926514,1.36796855926514,32302.6787719756,2832.24096517578,35134.9197371514,,,4.92000007629395,0,2567.09493057935,2576.9714334231
2011-06-01T05:04:36Z,1306904676,E607,55.3442432,25.6033598,2835.22,-39.8,-3.6,37.4,-90515.37,-62134.96,38.1,Weapon+Missile,Blue,Enemies,AIM-120B,,us,,844.737359120887,733.280944824219,2.56473883263945,2835.22290039062,2835.22290039062,843.081916648271,-52.859130859375,0.0312889254782581,NaN,8.09229201541522,0.894900349678356,5000,1.57432472705841,1.57432472705841,1.57432472705841,35679.0602947265,2780.40386561157,38459.4641603381,,,5.92000007629395,0,3412.57924897721,3424.4851007151
2011-06-01T05:04:37Z,1306904677,E607,55.3495362,25.6097309,2777.47,-32.7,-3.8,36.5,-89974.97,-61435.89,37.3,Weapon+Missile,Blue,Enemies,AIM-120B,,us,,885.471160860113,769.55810546875,2.68654668731072,2777.474609375,2777.474609375,883.586052175866,-57.748291015625,0.0381916389949724,NaN,6.70767606687023,0.928968586206439,5000,1.74765503406525,1.74765503406525,1.74765503406525,39202.9588357478,2723.77213780273,41926.7309735506,,,6.92000007629395,0,4298.75704366681,4312.93159146412
2011-06-01T05:04:38Z,1306904678,E607,55.3549683,25.6165024,2714.81,-26.5,-4.4,34.1,-89420.09,-60692.6,34.8,Weapon+Missile,Blue,Enemies,AIM-120B,,us,,929.672987869605,809.245544433594,2.81853551314063,2714.80908203125,2714.80908203125,927.558567453899,-62.66552734375,0.347875096559601,NaN,6.47694544651803,3.35027096714108,5000,6.89417743682861,6.89417743682861,6.89417743682861,43214.59321872,2662.31824843018,45876.9114671501,,,7.92000007629395,0,5229.10294918051,5245.78525718791
2011-06-01T05:04:39Z,1306904679,E607,55.3596128,25.6232974,2636.42,-21.5,-4.7,32.3,-88944.34,-59945.73,33,Weapon+Missile,Blue,Enemies,AIM-120B,,us,,888.991171712864,777.592956542969,2.69266791122878,2636.41918945312,2636.41918945312,885.528276298956,-78.389892578125,1.17066618699737,NaN,3.12307667723165,3.42661647380595,5000,1.79590129852295,1.79590129852295,1.79590129852295,39515.2651691705,2585.44402442505,42100.7091935956,,,8.92000007629395,0,6117.64537485101,6138.1501767941
2011-06-01T05:04:40Z,1306904680,E607,55.3636427,25.6294639,2564.96,-17.8,-4.7,32,-88531.21,-59267.7,32.7,Weapon+Missile,Blue,Enemies,AIM-120B,,us,,797.186790700505,701.943786621094,2.41253822400283,2564.9560546875,2564.9560546875,793.977203474282,-71.463134765625,0.645958782875808,NaN,2.09228160316625,0.782115090100375,5000,2.27400875091553,2.27400875091553,2.27400875091553,31775.3389633685,2515.36262937012,34290.7015927387,,,9.92000007629395,0,6914.40483294907,6938.4316397683
2011-06-01T05:04:41Z,1306904681,E607,55.3675014,25.6351324,2505.15,-14.5,-4.6,31,-88136.01,-58644.6,31.7,Weapon+Missile,Blue,Enemies,AIM-120B,,us,,740.278984634964,655.346069335938,2.23871771092558,2505.14990234375,2505.14990234375,737.859200141876,-59.80615234375,0.0627600521904963,NaN,3.07694899467197,0.573014878436812,5000,2.04962182044983,2.04962182044983,2.04962182044983,27400.6487546086,2456.71282898193,29857.3615835906,,,10.9200000762939,0,7654.77922348664,7681.51093509186
2011-06-01T05:04:42Z,1306904682,E607,55.3709802,25.6405402,2448.38,-11.7,-4.7,29.5,-87779.32,-58049.9,30.3,Weapon+Missile,Blue,Enemies,AIM-120B,,us,,695.787646011571,619.042602539062,2.10274494480789,2448.38134765625,2448.38134765625,693.467936923558,-56.7685546875,0.0219985834027308,NaN,2.70769189266816,1.43464249518198,5000,1.83498680591583,1.83498680591583,1.83498680591583,24206.0224171162,2401.04189429932,26607.0643114155,,,11.9200000762939,0,8350.69255168705,8380.0051916678
2011-06-01T05:04:43Z,1306904683,E607,55.3741137,25.6456768,2394.74,-9.4,-4.7,28.4,-87457.72,-57484.81,29.1,Weapon+Missile,Blue,Enemies,AIM-120B,,us,,652.401190006737,583.428405761719,1.97036711039556,2394.73779296875,2394.73779296875,650.192034527258,-53.6435546875,0.032843693640715,NaN,2.12308234122842,1.28424663885676,5000,1.75420415401459,1.75420415401459,1.75420415401459,21281.3656361103,2348.4355377417,23629.801173852,,,12.9200000762939,0,9003.2528683302,9035.013595443
2011-06-01T05:04:44Z,1306904684,E607,55.3769193,25.6505267,2345.02,-7.6,-4.6,26.9,-87169.45,-56951.07,27.6,Weapon+Missile,Blue,Enemies,AIM-120B,,us,,608.649236403787,547.233337402344,1.8371415795788,2345.01928710938,2345.01928710938,606.615168908612,-49.718505859375,0.0291295131951054,NaN,1.73845731359208,1.48328059242676,5000,2.16892170906067,2.16892170906067,2.16892170906067,18522.6946487457,2299.67833919312,20822.3729879388,,,13.9200000762939,0,9612.1437866983,9646.15649520449
2011-06-01T05:04:45Z,1306904685,E607,55.3794149,25.6551736,2300.21,-6,-4.3,24.9,-86912.59,-56439.41,25.6,Weapon+Missile,Blue,Enemies,AIM-120B,,us,,574.261845122332,518.769897460938,1.73242432532797,2300.21069335938,2300.21069335938,572.511010103258,-44.80859375,0.0259007519991688,NaN,1.53846510582588,1.94206674685404,5000,2.51116466522217,2.51116466522217,2.51116466522217,16488.8333381653,2255.73611960327,18744.5694577686,,,14.9200000762939,0,10186.866567933,10222.8320477469
2011-06-01T05:04:46Z,1306904686,E607,55.3815703,25.6595955,2262.11,-4.9,-3.8,22.6,-86690.21,-55952.27,23.3,Weapon+Missile,Blue,Enemies,AIM-120B,,us,,536.857394423379,487.40576171875,1.61885073334956,2262.10620117188,2262.10620117188,535.503417003283,-38.1044921875,0.0579634639018931,NaN,1.16921483401123,2.31169225218621,5000,2.65905070304871,2.65905070304871,2.65905070304871,14410.793097353,2218.36837777222,16629.1614751252,,,15.9200000762939,0,10724.5259849879,10762.0318408647
2011-06-01T05:04:47Z,1306904687,E607,55.3833862,25.6637939,2230.68,-3.8,-3.4,20.1,-86502.22,-55489.45,20.8,Weapon+Missile,Blue,Enemies,AIM-120B,,us,,500.527512673525,456.621948242188,1.50873836015371,2230.67846679688,2230.67846679688,499.539876741787,-31.427734375,0.0499211854298188,NaN,1.10771837204538,2.63606839459729,5000,2.72990107536316,2.72990107536316,2.72990107536316,12526.3895471573,2187.54829864136,14713.9378457986,,,16.9200000762939,0,11226.150777523,11264.8165000724
2011-06-01T05:04:48Z,1306904688,E607,55.3848731,25.6677896,2204.49,-2.9,-3,17,-86347.55,-55048.69,17.7,Weapon+Missile,Blue,Enemies,AIM-120B,,us,,467.846131601923,428.642150878906,1.40978934384432,2204.4921875,2204.4921875,467.112707632183,-26.186279296875,0.0881925924037019,NaN,0.969272998890156,3.07119327963576,5000,2.93591094017029,2.93591094017029,2.93591094017029,10944.0001427442,2161.86833105469,13105.8684737989,,,17.9200000762939,0,11695.3096190359,11734.8684381545
2011-06-01T05:04:49Z,1306904689,E607,55.3860188,25.6715861,2181.77,-2,-2.9,13.3,-86227.42,-54629.57,14,Weapon+Missile,Blue,Enemies,AIM-120B,,us,,436.587719769302,401.514770507812,1.31524238234897,2181.76928710938,2181.76928710938,435.995994077006,-22.722900390625,0.0836065809351421,NaN,0.969256350304054,3.64329248583697,5000,3.09770488739014,3.09770488739014,3.09770488739014,9530.44185266793,2139.58477794312,11670.026630611,,,18.9200000762939,0,12133.2826491005,12173.5809218127
2011-06-01T05:04:50Z,1306904690,E607,55.3868112,25.6751557,2160.87,-1.3,-3.1,9.2,-86143.05,-54235.14,9.9,Weapon+Missile,Blue,Enemies,AIM-120B,,us,,403.894409852094,372.586242675781,1.2164511076982,2160.8701171875,2160.8701171875,403.353342624488,-20.899169921875,0.0655330842125766,NaN,0.769238956215285,4.19129008889132,5000,3.1663293838501,3.1663293838501,3.1663293838501,8156.53471548855,2119.08969347168,10275.6244089602,,,19.9200000762939,0,12538.5329242619,12579.5075118836
2011-06-01T05:04:51Z,1306904691,E607,55.3872637,25.6785175,2139.59,-0.6,-3.4,4.4,-86093.09,-53863.33,5.1,Weapon+Missile,Blue,Enemies,AIM-120B,,us,,375.753081553447,347.113800048828,1.131410024205,2139.59448242188,2139.59448242188,375.150270774568,-21.275634765625,0.0742956577889248,NaN,0.769234794068759,4.73845654330104,4225.22966647855,3.35368585586548,3.35368585586548,3.35368585586548,7059.51891484559,2098.22542310425,9157.74433794983,,,20.9200000762939,0,12915.5025075934,12957.2038855559
2011-06-01T05:04:52Z,1306904692,E607,55.3873754,25.6816312,2117.98,0.1,-3.8,358.8,-86077.67,-53518.57,359.5,Weapon+Missile,Blue,Enemies,AIM-120B,,us,,345.782334327377,319.157562255859,1.04090056275095,2117.97998046875,2117.97998046875,345.106122863979,-21.614501953125,0.0732783726458104,NaN,0.569216492845491,5.68417093908335,3106.42749777259,3.82659220695496,3.82659220695496,3.82659220695496,5978.27113664448,2077.02883754639,8055.29997419087,,,21.9200000762939,0,13262.3042195913,13304.7940348452
2011-06-01T05:04:53Z,1306904693,E607,55.3871273,25.6844734,2096.32,0.9,-4.1,351.4,-86098.73,-53203.44,352.1,Weapon+Missile,Blue,Enemies,AIM-120B,,us,,316.569150316798,291.577728271484,0.952716854671657,2096.32446289062,2096.32446289062,315.827588235611,-21.655517578125,0.195181240862885,NaN,0.969230843816372,7.35049846683234,2205.61458652608,4.48551750183105,4.48551750183105,4.48551750183105,5010.80134661496,2055.79202940063,7066.59337601559,,,22.9200000762939,0,13579.6712346587,13623.0036290576
2011-06-01T05:04:54Z,1306904694,E607,55.3864994,25.6869855,2075.42,1.7,-4.3,342.7,-86158.35,-52924.42,343.5,Weapon+Missile,Blue,Enemies,AIM-120B,,us,,286.083972426006,262.887268066406,0.860758879413096,2075.419921875,2075.419921875,285.31918870621,-20.904541015625,0.229916895303565,NaN,0.769231058809057,8.30100893607247,1976.3284777453,4.14372587203979,4.14372587203979,4.14372587203979,4092.20196395218,2035.29167768555,6127.49364163773,,,23.9200000762939,0,13866.3236804467,13910.5108079906
2011-06-01T05:04:55Z,1306904695,E607,55.3855655,25.6891811,2055.25,2.3,-4.6,334.9,-86249.11,-52680.07,335.6,Weapon+Missile,Blue,Enemies,AIM-120B,,us,,261.437645504259,239.852676391602,0.786416552715317,2055.24853515625,2055.24853515625,260.658315893918,-20.17138671875,0.1725733434878,NaN,0.599999675187063,7.55523424097711,2684.9549743489,2.65555548667908,2.65555548667908,2.65555548667908,3417.48212434053,2015.510304729,5432.99242906954,,,24.9200000762939,0,14128.07373285,14173.1214571356
2011-06-01T05:04:56Z,1306904696,E607,55.3844737,25.6911523,2034.16,1.5,-5.1,335.5,-86356.02,-52460.39,336.2,Weapon+Missile,Blue,Enemies,AIM-120B,,us,,245.226492288852,224.83659362793,0.737469084327822,2034.16455078125,2034.16455078125,244.318435905212,-21.083984375,0.135457510354596,NaN,1.53848645016703,0.409622159296841,2532.02810462258,2.48557782173157,2.48557782173157,2.48557782173157,3006.80162601471,1994.83397919189,5001.6356052066,,,25.9200000762939,0,14373.32308498,14419.353764865
2011-06-01T05:04:57Z,1306904697,E607,55.3836579,25.6930694,2013.64,0.3,-5.2,342.5,-86435.3,-52247.04,343.2,Weapon+Missile,Blue,Enemies,AIM-120B,,us,,228.533136272249,209.400726318359,0.687100768770217,2013.63842773438,2013.63842773438,227.609473983608,-20.526123046875,0.111632358187169,NaN,1.13845593085773,6.90392575785809,1932.03116663637,2.84561991691589,2.84561991691589,2.84561991691589,2611.36971872151,1974.70472873413,4586.07444745564,,,26.9200000762939,0,14601.8876359295,14648.9103711706
2011-06-01T05:04:58Z,1306904698,E607,55.3831347,25.6949315,1994.35,-0.8,-5.2,349,-86485.28,-52040.14,349.7,Weapon+Missile,Blue,Enemies,AIM-120B,,us,,213.721140382253,195.745040893555,0.642421311674614,1994.34838867188,1994.34838867188,212.848820150025,-19.2900390625,0.0979100088915978,NaN,0.969231163981489,6.53512798607596,1929.13330120551,2.5574152469635,2.5574152469635,2.5574152469635,2283.83629231453,1955.7876625769,4239.62395489143,,,27.9200000762939,0,14815.7166416042,14863.6746274527
2011-06-01T05:04:59Z,1306904699,E607,55.3828591,25.696729,1976.28,-1.5,-5.1,355.2,-86510.5,-51840.69,355.9,Weapon+Missile,Blue,Enemies,AIM-120B,,us,,201.843514245931,184.835174560547,0.606589330627612,1976.2822265625,1976.2822265625,201.033375412604,-18.066162109375,0.419064283575975,NaN,0.769243225083516,4.73888172257687,3959.9694255309,1.34936785697937,1.34936785697937,1.34936785697937,2037.04021215737,1938.07080971191,3975.11102186928,,,28.9200000762939,0,15017.7204437054,15066.5473195869
2011-06-01T05:05:00Z,1306904700,E607,55.3826937,25.6984415,1957.77,-0.8,-6.5,352.6,-86524.79,-51650.81,353.3,Weapon+Missile,Blue,Enemies,AIM-120B,,us,,191.317590295008,175.198364257812,0.574830933505659,1957.76843261719,1957.76843261719,190.41969380828,-18.5137939453125,0.173049897152006,NaN,1.16921494073294,1.80282587010393,2065.37017427917,1.49398624897003,1.49398624897003,1.49398624897003,1830.12101781443,1919.91497997253,3750.03599778696,,,29.9200000762939,0,15209.0674163928,15258.8465952064
2011-06-01T05:05:01Z,1306904701,E607,55.3823962,25.7000488,1931.12,-0.5,-11.2,349.1,-86552.47,-51472.41,349.9,Weapon+Missile,Blue,Enemies,AIM-120B,,us,,182.488643901747,167.207443237305,0.548131547030951,1931.12377929688,1931.12377929688,180.533009731016,-26.6446533203125,0.405682052906359,NaN,0.169224766876236,4.8333718402153,2014.58532002251,0.668404579162598,0.668404579162598,0.668404579162598,1665.10525765494,1893.78550102417,3558.89075867911,,,30.9200000762939,0,15390.4622641625,15442.2425977882
2011-06-01T05:05:02Z,1306904702,E607,55.3821166,25.7015552,1890.23,-2.3,-15.7,352.5,-86578.47,-51305.2,353.2,Weapon+Missile,Blue,Enemies,AIM-120B,,us,,174.091356483382,159.720916748047,0.522657488917581,1890.22998046875,1890.22998046875,169.22026362002,-40.893798828125,0.137311063533076,NaN,2.04616075079574,4.97447074186307,1840.10126837596,1.27453947067261,1.27453947067261,1.27453947067261,1515.3900201112,1853.68238379639,3369.07240390759,,,31.9200000762939,0,15560.4828689582,15617.1615235195
2011-06-01T05:05:03Z,1306904703,E607,55.3819715,25.7029996,1841,-4.2,-18.3,357.3,-86591.08,-51145.02,358,Weapon+Missile,Blue,Enemies,AIM-120B,,us,,168.043350797496,154.46418762207,0.504208306100749,1841.00305175781,1841.00305175781,160.671332965587,-49.2269287109375,0.07361650869751,NaN,2.06151501604993,5.2322984302,1876.39548672796,1.37797105312347,1.37797105312347,1.37797105312347,1411.92838736251,1805.40725775208,3217.33564511459,,,32.9200000762939,0,15721.9362798573,15785.9979711219
2011-06-01T05:05:04Z,1306904704,E607,55.3819616,25.7043848,1787.18,-6,-20.3,2.2,-86590.2,-50991.57,2.9,Weapon+Missile,Blue,Enemies,AIM-120B,,us,,162.618746052296,149.803573608398,0.487623706337423,1787.17541503906,1787.17541503906,153.451758194214,-53.82763671875,0.0794495546164719,NaN,1.73847438906501,5.03781903886764,1895.32248305823,1.34406423568726,1.34406423568726,1.34406423568726,1322.24282838106,1752.62037838928,3074.86320677034,,,33.9200000762939,0,15876.1383682505,15949.3663482555
2011-06-01T05:05:05Z,1306904705,E607,55.3820749,25.7057071,1729.97,-7.4,-22.4,6.8,-86577.02,-50845.25,7.5,Weapon+Missile,Blue,Enemies,AIM-120B,,us,,157.656307220118,145.579452514648,0.472426503478109,1729.970703125,1729.970703125,146.911987737942,-57.2047119140625,0.0349574015532749,NaN,1.3384438697557,4.82450625467262,1898.85914068424,1.17664265632629,1.17664265632629,1.17664265632629,1242.77556031421,1696.52171958008,2939.29727989429,,,34.9200000762939,0,16023.771548791,16107.7328712725
2011-06-01T05:05:06Z,1306904706,E607,55.3822935,25.7069712,1667.9,-8.4,-25.1,11.1,-86553.38,-50705.5,11.8,Weapon+Missile,Blue,Enemies,AIM-120B,,us,,154.737380766245,143.278839111328,0.463342874925645,1667.89611816406,1667.89611816406,141.740618413796,-62.0745849609375,0.439800896128126,NaN,0.876941647916277,4.12394186235405,2438.08377976805,1.21238338947296,1.21238338947296,1.21238338947296,1197.18285031989,1635.64734671936,2832.83019703925,,,35.9200000762939,0,16166.1901612121,16263.1263146
2011-06-01T05:05:07Z,1306904707,E607,55.3825983,25.708185,1605.6,-9.6,-22.8,14.6,-86521.14,-50571.42,15.3,Weapon+Missile,Blue,Enemies,AIM-120B,,us,,151.316912191831,140.497497558594,0.452770784577418,1605.59997558594,1605.59997558594,137.898508096195,-62.296142578125,0.133360819641829,NaN,1.16921910287946,3.5483178516543,2056.02291002229,1.8573077917099,1.8573077917099,1.8573077917099,1144.84039576352,1574.55570005798,2719.3960958215,,,36.9200000762939,0,16304.7237864321,16415.0546719997
2011-06-01T05:05:08Z,1306904708,E607,55.3829808,25.7093704,1551.52,-10.5,-20.3,18.1,-86481.15,-50440.6,18.8,Weapon+Missile,Blue,Enemies,AIM-120B,,us,,147.101981358036,136.903030395508,0.439881014729479,1551.52001953125,1551.52001953125,136.800406697433,-54.0799560546875,0.0328875440724304,NaN,0.769243225083516,4.1834703760653,2091.95391466803,1.73381018638611,1.73381018638611,1.73381018638611,1081.949645973,1521.52137995361,2603.47102592661,,,37.9200000762939,0,16442.1418748155,16562.7629016075
2011-06-01T05:05:09Z,1306904709,E607,55.3834475,25.7105341,1503.03,-10.8,-19.5,22.1,-86432.73,-50312.27,22.8,Weapon+Missile,Blue,Enemies,AIM-120B,,us,,145.475899161946,135.689407348633,0.434772593478353,1503.03076171875,1503.03076171875,137.156950657885,-48.4892578125,0.076204081810448,NaN,0.0922895160652123,3.80969937279375,2013.03921441568,1.29682552814484,1.29682552814484,1.29682552814484,1058.16186184883,1473.96966194092,2532.13152378975,,,38.9200000762939,0,16579.884861383,16708.8225674052
2011-06-01T05:05:10Z,1306904710,E607,55.3839931,25.7116282,1454.22,-10.9,-20.8,26.6,-86376.51,-50191.75,27.3,Weapon+Missile,Blue,Enemies,AIM-120B,,us,,141.664117363269,132.41569519043,0.423139962710082,1454.22155761719,1454.22155761719,132.99016408474,-48.8092041015625,0.109541841018868,NaN,0.199987938897973,4.30854864212798,1848.18253846351,1.21869575977325,1.21869575977325,1.21869575977325,1003.43610741571,1426.10418380066,2429.54029121637,,,39.9200000762939,0,16713.4113912689,16851.0194035108
2011-06-01T05:05:11Z,1306904711,E607,55.3846126,25.7126488,1403.61,-11,-22,31.1,-86312.95,-50079.46,31.8,Weapon+Missile,Blue,Enemies,AIM-120B,,us,,138.599147697596,129.843307495117,0.413741406597196,1403.6083984375,1403.6083984375,129.027252394026,-50.6131591796875,0.0217317136232208,NaN,0.199987938897973,4.35720136024645,1851.17052782915,1.20664846897125,1.20664846897125,1.20664846897125,960.486187124997,1376.46963005371,2336.95581717871,,,40.9200000762939,0,16842.9064307006,16990.0811580437
2011-06-01T05:05:12Z,1306904712,E607,55.3853012,25.7135992,1351.36,-11.2,-23,35.6,-86242.58,-49975.04,36.3,Weapon+Missile,Blue,Enemies,AIM-120B,,us,,136.333448333646,128.025039672852,0.406730897815186,1351.36450195312,1351.36450195312,125.926106962269,-52.243896484375,0.0646705085129068,NaN,0.292277454963186,4.26199492651882,1848.63075575024,1.20800793170929,1.20800793170929,1.20800793170929,929.340456727147,1325.23586930786,2254.57632603501,,,41.9200000762939,0,16969.2450781901,17126.8209609715
2011-06-01T05:05:13Z,1306904713,E607,55.3860507,25.7144763,1297.97,-11.6,-23.9,40,-86166.16,-49878.8,40.7,Weapon+Missile,Blue,Enemies,AIM-120B,,us,,133.983745352875,126.124771118164,0.399473259370899,1297.97229003906,1297.97229003906,122.885783253019,-53.3922119140625,0.0256484787279159,NaN,0.400030519309307,4.20476178325552,1848.74579692669,1.21312463283539,1.21312463283539,1.21312463283539,897.582200939208,1272.87599581116,2170.45819675037,,,42.9200000762939,0,17092.4728585677,17261.1419286303
2011-06-01T05:05:14Z,1306904714,E607,55.3868631,25.7152874,1243.3,-12,-24.6,44.5,-86083.57,-49789.95,45.2,Weapon+Missile,Blue,Enemies,AIM-120B,,us,,133.059313668543,125.574668884277,0.396465699683022,1243.29919433594,1243.29919433594,121.308011112954,-54.673095703125,0.0544221147255637,NaN,0.369267347287569,4.09122269490875,1868.98125525349,1.22972249984741,1.22972249984741,1.22972249984741,885.239047697186,1219.26000441345,2104.49905211064,,,43.9200000762939,0,17214.0920833942,17394.5071308777
2011-06-01T05:05:15Z,1306904715,E607,55.3877213,25.7160212,1188.58,-12.4,-25,48.9,-85996.46,-49709.72,49.6,Weapon+Missile,Blue,Enemies,AIM-120B,,us,,130.457019327943,123.426651000977,0.388465655548784,1188.57543945312,1188.57543945312,118.424425451243,-54.7237548828125,0.0432739570910311,NaN,0.461502221839422,3.96803809879346,1896.14930383687,1.24364757537842,1.24364757537842,1.24364757537842,850.951694596559,1165.5943333313,2016.54602792786,,,44.9200000762939,0,17332.7537725422,17525.2001108809
2011-06-01T05:05:16Z,1306904716,E607,55.3886331,25.7166903,1133.51,-12.8,-25.1,53.1,-85904.05,-49636.73,53.8,Weapon+Missile,Blue,Enemies,AIM-120B,,us,,129.999909624655,123.312789916992,0.386858084563539,1133.50610351562,1133.50610351562,117.75969064931,-55.0693359375,0.0478317388673709,NaN,0.446147956585233,3.89398774913312,1982.35427242764,1.26621901988983,1.26621901988983,1.26621901988983,844.998825120926,1111.58976300415,1956.58858812508,,,45.9200000762939,0,17450.6986773642,17655.3872736814
2011-06-01T05:05:17Z,1306904717,E607,55.3895826,25.7172895,1079.42,-13.3,-24.8,57.1,-85807.96,-49571.52,57.9,Weapon+Missile,Blue,Enemies,AIM-120B,,us,,128.108148731628,121.821876525879,0.380990472900298,1079.42077636719,1079.42077636719,116.131284151564,-54.0853271484375,0.106946644927691,NaN,0.399975877795947,3.5640396664632,2207.30571359722,1.26940357685089,1.26940357685089,1.26940357685089,820.584888572246,1058.55017565613,1879.13506422837,,,46.9200000762939,0,17566.9698308378,17783.6405178055
2011-06-01T05:05:18Z,1306904718,E607,55.390569,25.7178315,1026.79,-13.4,-24,60.2,-85708.27,-49512.69,61,Weapon+Missile,Blue,Enemies,AIM-120B,,us,,127.156103071785,121.214393615723,0.377929600505093,1026.78686523438,1026.78686523438,115.75122438776,-52.6339111328125,0.145910041176522,NaN,0.0769352508110236,2.77677199904684,3256.89590549238,1.18999123573303,1.18999123573303,1.18999123573303,808.433727420121,1006.93394119507,1815.36766861519,,,47.9200000762939,0,17682.8384075207,17910.920875471
2011-06-01T05:05:19Z,1306904719,E607,55.391572,25.7183342,976.39,-12.5,-23.4,61.5,-85606.95,-49458.23,62.2,Weapon+Missile,Blue,Enemies,AIM-120B,,us,,125.591056517469,120.002281188965,0.373061335980724,976.386901855469,976.386901855469,115.034591182736,-50.3999633789062,0.0322193930215718,NaN,1.33845240749216,1.45755329753573,5000,1.02239644527435,1.02239644527435,1.02239644527435,788.65567385871,957.508461108093,1746.1641349668,,,48.9200000762939,0,17797.9539390296,18036.6026328553
2011-06-01T05:05:20Z,1306904720,E607,55.3925713,25.7188222,927.5,-11,-23.1,61.7,-85506.02,-49405.4,62.4,Weapon+Missile,Blue,Enemies,AIM-120B,,us,,123.961193736358,118.713272094727,0.368012826489277,927.5,927.5,113.914215001977,-48.8869018554688,0.053179957457864,NaN,1.53847791243057,0.376387419290911,5000,0.894825875759125,0.894825875759125,0.894825875759125,768.318877627142,909.5667875,1677.88566512714,,,49.9200000762939,0,17911.9481341958,18160.6529651049
2011-06-01T05:05:21Z,1306904721,E607,55.3935668,25.7193071,878.55,-8.7,-23.9,61.7,-85405.47,-49352.9,62.4,Weapon+Missile,Blue,Enemies,AIM-120B,,us,,123.54396405113,118.585868835449,0.366567856489684,878.55078125,878.55078125,113.433174324055,-48.94921875,0.0153834517255809,NaN,2.87690470671334,0.727003734430571,5000,0.630083739757538,0.630083739757538,0.630083739757538,763.15555267334,861.564001894531,1624.71955456787,,,50.9200000762939,0,18025.4516315125,18284.2762565009
2011-06-01T05:05:22Z,1306904722,E607,55.3945414,25.7197825,827.61,-6.5,-25.3,61.7,-85307.05,-49301.44,62.4,Weapon+Missile,Blue,Enemies,AIM-120B,,us,,122.184300816541,117.558769226074,0.362321615156524,827.609191894531,827.609191894531,111.058353310167,-50.9415893554688,0.0809323056867079,NaN,2.1076666042717,1.30003867654807,5000,0.679773092269897,0.679773092269897,0.679773092269897,746.450168301351,811.607368169251,1558.0575364706,,,51.9200000762939,0,18136.5978089658,18406.5539040061
2011-06-01T05:05:23Z,1306904723,E607,55.3954975,25.7202495,775.21,-4.9,-26.1,61.7,-85210.49,-49250.89,62.4,Weapon+Missile,Blue,Enemies,AIM-120B,,us,,120.936404641745,116.642784118652,0.358405698998938,775.207702636719,775.207702636719,108.994026860353,-52.4014892578125,0.0549246767343256,NaN,1.52308181226771,0.819325000203253,5000,0.74860543012619,0.74860543012619,0.74860543012619,731.2806983836,760.219061706238,1491.49976008984,,,52.9200000762939,0,18245.6690302954,18527.5722380219
2011-06-01T05:05:24Z,1306904724,E607,55.3964503,25.720715,721.35,-3.9,-26.6,61.6,-85114.25,-49200.48,62.4,Weapon+Missile,Blue,Enemies,AIM-120B,,us,,121.261420854763,117.253944396973,0.359147280883281,721.346923828125,721.346923828125,108.643217431406,-53.8607788085938,0.0414327390786867,NaN,1.0307617768932,0.580900438555297,5000,0.80110228061676,0.80110228061676,0.80110228061676,735.216609385796,707.399681055908,1442.6162904417,,,53.9200000762939,0,18354.3737431495,18648.9001857745
2011-06-01T05:05:25Z,1306904725,E607,55.397385,25.7211715,667.51,-3,-27,61.7,-85019.87,-49151.04,62.4,Weapon+Missile,Blue,Enemies,AIM-120B,,us,,119.375409496454,115.718368530273,0.353343699894317,667.514587402344,667.514587402344,106.54843005595,-53.8323364257812,0.0822872500771003,NaN,0.769230845365645,0.419533991082146,5000,0.82737535238266,0.82737535238266,0.82737535238266,712.52441962231,654.608192854919,1367.13261247723,,,54.9200000762939,0,18460.9994018325,18768.3548939916
2011-06-01T05:05:26Z,1306904726,E607,55.3983221,25.7216292,612.84,-2.4,-27.2,61.7,-84925.21,-49101.49,62.4,Weapon+Missile,Blue,Enemies,AIM-120B,,us,,120.018108834404,116.642196655273,0.355024187244062,612.8369140625,612.8369140625,106.83959231637,-54.6776733398438,0.0305544064977271,NaN,0.569251017317311,0.269614780575378,5000,0.840514123439789,0.840514123439789,0.840514123439789,720.217322409339,600.987712329102,1321.20503473844,,,55.9200000762939,0,18567.9005274105,18888.4373355104
2011-06-01T05:05:27Z,1306904727,E607,55.3992514,25.7220828,558.09,-1.9,-27.4,61.7,-84831.36,-49052.38,62.4,Weapon+Missile,Blue,Enemies,AIM-120B,,us,,119.234310878476,116.176742553711,0.352485373488093,558.09228515625,558.09228515625,105.923776823629,-54.74462890625,0.0248135989441329,NaN,0.369263078419338,0.204391369860008,5000,0.860077261924744,0.860077261924744,0.860077261924744,710.841044533253,547.301570822754,1258.14261535601,,,56.9200000762939,0,18673.9037364422,19007.7508623938
2011-06-01T05:05:28Z,1306904728,E607,55.4001747,25.7225332,503.4,-1.5,-27.6,61.7,-84738.12,-49003.62,62.4,Weapon+Missile,Blue,Enemies,AIM-120B,,us,,118.586341222655,115.841178894043,0.350351377030101,503.403076171875,503.403076171875,105.222672201571,-54.689208984375,0.0357666177562724,NaN,0.230784834978738,0.0328053018670254,5000,0.864370286464691,0.864370286464691,0.864370286464691,703.136016228795,493.669777694092,1196.80579392289,,,57.9200000762939,0,18779.1991775042,19126.4095526116
2011-06-01T05:05:29Z,1306904729,E607,55.4010954,25.722982,448.63,-1.3,-27.6,61.7,-84645.13,-48955.02,62.4,Weapon+Missile,Blue,Enemies,AIM-120B,,us,,118.358437792058,115.9150390625,0.349460095492623,448.626129150391,448.626129150391,104.919997481805,-54.7769470214844,0.0150675989419377,NaN,0.399975877795947,0.0279764548403722,5000,0.868898630142212,0.868898630142212,0.868898630142212,700.435989828827,439.951942943268,1140.38793277209,,,58.9200000762939,0,18884.1897129876,19244.8374710744
2011-06-01T05:05:30Z,1306904730,E607,55.4020151,25.72343,393.73,-1.1,-27.7,61.7,-84552.25,-48906.52,62.4,Weapon+Missile,Blue,Enemies,AIM-120B,,us,,118.292593865569,116.148216247559,0.349047776018721,393.729217529297,393.729217529297,104.782951179618,-54.8969116210938,0.0397626571571067,NaN,0.215426300856318,0.11992415462218,5000,0.87690669298172,0.87690669298172,0.87690669298172,699.656888172217,386.116463108368,1085.77335128058,,,59.9200000762939,0,18989.0481544315,19363.2030734876
2011-06-01T05:05:31Z,1306904731,E607,55.4029259,25.7238734,339.28,-0.9,-27.7,61.7,-84460.27,-48858.5,62.4,Weapon+Missile,Blue,Enemies,AIM-120B,,us,,117.177358865569,115.34496307373,0.345543327736552,339.277679443359,339.277679443359,103.757233149242,-54.4515380859375,0.0506072763171885,NaN,0.199987938897973,0.0839293978716497,5000,0.87688535451889,0.87688535451889,0.87688535451889,686.526671535522,332.717745511322,1019.24441704684,,,60.9200000762939,0,19092.8720327433,19480.4447323149
2011-06-01T05:05:32Z,1306904732,E607,55.403842,25.7243192,284.42,-0.7,-27.8,61.8,-84367.75,-48810.24,62.5,Weapon+Missile,Blue,Enemies,AIM-120B,,us,,117.891964787919,116.346542358398,0.347434420627236,284.422302246094,284.422302246094,104.352302102549,-54.8553771972656,0.0953206968414415,NaN,0.199987938897973,0.064102125773363,5000,0.875789165496826,0.875789165496826,0.875789165496826,694.925768077793,278.922997032165,973.848765109958,,,61.9200000762939,0,19197.2884743487,19598.3979936684
2011-06-01T05:05:33Z,1306904733,E607,55.4047505,25.724761,229.95,-0.6,-27.9,61.8,-84276.02,-48762.41,62.5,Weapon+Missile,Blue,Enemies,AIM-120B,,us,,116.914060429145,115.673629760742,0.344339963589553,229.949996948242,229.949996948242,103.448854423659,-54.4723052978516,0.125972944520531,NaN,0.200042580411333,0.065610617074264,5000,0.877090573310852,0.877090573310852,0.877090573310852,683.444876301487,225.503913757248,908.948790058735,,,62.9200000762939,0,19300.8241622749,19715.3925885605
2011-06-01T05:05:34Z,1306904734,E607,55.405656,25.7252011,175.58,-0.5,-27.8,61.8,-84184.58,-48714.75,62.5,Weapon+Missile,Blue,Enemies,AIM-120B,,us,,116.576509604961,115.631843566895,0.343134672071346,175.577697753906,175.577697753906,103.120006167557,-54.3722991943359,0.0501209104146038,NaN,0.0307631720217374,0.0356631257199208,5000,0.882250666618347,0.882250666618347,0.882250666618347,679.504129583773,172.182902967834,851.687032551607,,,63.9200000762939,0,19404.006536158,19832.0271723297
2011-06-01T05:05:35Z,1306904735,E607,55.4065583,25.7256396,121.37,-0.4,-27.9,61.8,-84093.45,-48667.29,62.5,Weapon+Missile,Blue,Enemies,AIM-120B,,us,,116.166838424473,115.515991210938,0.341719490242244,121.373847961426,121.373847961426,102.74569099097,-54.2038497924805,0.0983218826254105,NaN,0.107685829671479,0.0296735133902291,5000,0.884018063545227,0.884018063545227,0.884018063545227,674.736717476885,119.027084611092,793.763802087977,,,64.9200000762939,0,19506.8164651593,19948.2529480796
2011-06-01T05:05:36Z,1306904736,E607,55.4074614,25.7260783,67.13,-0.4,-27.8,61.8,-84002.25,-48619.79,62.5,Weapon+Missile,Blue,Enemies,AIM-120B,,us,,116.260271116359,115.900749206543,0.341785046408511,67.1284637451172,67.1284637451172,102.829416663105,-54.2453842163086,0.0401175816691384,NaN,0,0.0279764548403722,5000,0.879052460193634,0.879052460193634,0.879052460193634,675.822532002468,65.8305348986054,741.653066901073,,,65.9200000762939,0,19609.7154195182,20064.5760732408
2011-06-01T05:05:37Z,1306904737,E607,55.4083645,25.7265167,12.83,-0.3,-27.9,61.8,-83911.06,-48572.31,62.5,Weapon+Missile,Blue,Enemies,AIM-120B,,us,,116.263019712628,116.195457458496,0.341584028241044,12.8338451385498,12.8338451385498,102.806537452958,-54.2946186065674,0.0224814657443502,NaN,0.138453217200595,0.089568392712263,5000,0.852685332298279,0.852685332298279,0.852685332298279,675.854487634951,12.5857027427959,688.440190377747,,,66.9200000762939,0,19712.5968736188,20180.905914237
2011-06-01T05:05:38Z,1306904738,E607,55.4092578,25.7269502,-41.22,0.1,-28.3,61.8,-83820.85,-48525.38,62.5,Weapon+Missile,Blue,Enemies,AIM-120B,,us,,115.161890299452,115.383560180664,0.338143068136188,-41.2169227600098,-41.2169227600098,101.689603534083,-54.0507678985596,0.113444895957761,NaN,0.430755324877816,0.243492348568694,5000,0.797462463378906,0.797462463378906,0.797462463378906,663.113048867145,-40.419993558445,622.6930553087,,,67.9200000762939,0,19814.3475930323,20296.1215743658
2011-06-01T05:05:39Z,1306904739,E607,55.4101483,25.727382,-96.01,0.2,-28.5,61.8,-83730.93,-48478.62,62.5,Weapon+Missile,Blue,Enemies,AIM-120B,,us,,115.217409904642,115.732383728027,0.338097726344679,-96.0115356445312,-96.0115356445312,101.353845235244,-54.7946128845215,0.0573743283339093,NaN,0.276923082987291,0.270339554359766,5000,0.801695168018341,0.801695168018341,0.801695168018341,663.752577256715,-94.1551526028442,569.59742465387,,,68.9200000762939,0,19915.7670401513,20411.3957369099
