ISOTime,UnixTime,Id,Longitude,Latitude,Altitude,Roll,Pitch,Yaw,U,V,Heading,Type,Color,Coalition,Name,Group,Country,Pilot,TAS,CAS,M,ASL,AGL,GS,VS,AOA,AOS,RRT,TRT,TRD,G,LatG,LonG,Ek,Ep,Em,FFW,FFV,RelativeTime,Elev,GroundDistance,AirDistance
2011-06-01T05:05:39Z,1306904739,1680C,55.6634052,25.5392689,4743.44,-133.4,-18.5,250.1,-58532.45,-69595.23,250.7,Weapon+Missile,Red,Allies,R-27ET,,xu,,346.505160871167,287.100677490234,1.07705034644349,4743.44287109375,4733.68786621094,NaN,NaN,NaN,NaN,NaN,NaN,NaN,NaN,NaN,NaN,NaN,4651.72840318115,NaN,,,0.170000076293945,9.7550048828125,NaN,NaN
2011-06-01T05:05:40Z,1306904740,1680C,55.6591098,25.5379665,4628.1,-110,-10.2,250.1,-58965.52,-69735.13,250.7,Weapon+Missile,Red,Allies,R-27ET,,xu,,469.500791393625,390.799957275391,1.45724302184989,4628.10009765625,4621.72711181641,455.112115566028,-115.3427734375,0.992738804436215,NaN,21.338439872847,6.71721502001356,3721.68256327254,8.2845287322998,8.2845287322998,8.2845287322998,11021.549655962,4538.61578226807,15560.1654382301,,,1.17000007629395,6.37298583984375,455.154723973575,469.866239934109
2011-06-01T05:05:41Z,1306904741,1680C,55.6524826,25.5355888,4531.76,-93.8,-6.4,244.8,-59634.11,-69991.73,245.4,Weapon+Missile,Red,Allies,R-27ET,,xu,,722.58736971405,584.902954101562,2.24006536027847,4531.76220703125,4527.47442770004,716.136521691357,-96.337890625,0.295809227111191,NaN,14.7999954030421,5.60293138843475,5000,9.32985210418701,9.32985210418701,9.32985210418701,26106.6253435135,4444.1405847583,30550.7659282718,,,2.17000007629395,4.28777933120728,1171.51060768544,1193.18081941261
2011-06-01T05:05:42Z,1306904742,1680C,55.6441292,25.5315822,4419.12,-82.9,-8.1,239.9,-60478.04,-70426.95,240.5,Weapon+Missile,Red,Allies,R-27ET,,xu,,956.198315210864,766.862609863281,2.96009494085652,4419.115234375,4414.013671875,949.539824106118,-112.64697265625,0.172578594017982,NaN,9.67694371418237,4.59734355438811,5000,7.52674531936646,7.52674531936646,7.52674531936646,45715.7609006047,4333.67164131836,50049.4325419231,,,3.17000007629395,5.1015625,2121.76172122179,2150.74761791873
2011-06-01T05:05:43Z,1306904743,1680C,55.6358487,25.5270455,4243.04,-73.7,-12.9,238.2,-61315.29,-70920.91,238.8,Weapon+Missile,Red,Allies,R-27ET,,xu,,987.92789816038,798.123718261719,3.05160797152803,4243.04052734375,4236.47564697266,972.110708462491,-176.07470703125,0.210912203956781,NaN,8.69231730381167,4.75381166232888,5000,6.63205194473267,6.63205194473267,6.63205194473267,48800.0765981793,4161.00133874756,52961.0779369269,,,4.17000007629395,6.56488037109375,3094.85946736228,3140.29699749657
2011-06-01T05:05:44Z,1306904744,1680C,55.6281927,25.5228283,4007.03,-64.7,-14.9,239.7,-62089.49,-71380.07,240.3,Weapon+Missile,Red,Allies,R-27ET,,xu,,930.541655770337,762.005126953125,2.86593870980326,4007.03442382812,4000.03442382812,900.116043756122,-236.006103515625,0.177682832594694,NaN,9.86152274631279,2.27543824840202,5000,2.37613224983215,2.37613224983215,2.37613224983215,43295.38865619,3929.55841324341,47224.9470694335,,,5.17000007629395,7,3995.89741791787,4072.29418410343
2011-06-01T05:05:45Z,1306904745,1680C,55.6204622,25.5187891,3772.9,-54.6,-14.3,240.6,-62871.02,-71819.4,241.2,Weapon+Missile,Red,Allies,R-27ET,,xu,,926.619603627108,767.423400878906,2.84562445066649,3772.90307617188,3763.90307617188,896.552509265758,-234.13134765625,0.0221497422260071,NaN,9.64614639121478,1.40736688178347,5000,2.71408915519714,2.71408915519714,2.71408915519714,42931.194491303,3699.95399519409,46631.1484864971,,,6.17000007629395,9,4893.26844870609,5000.23535351181
2011-06-01T05:05:46Z,1306904746,1680C,55.6126783,25.5149111,3549.99,-46.2,-13.8,242,-63657.79,-72240.77,242.6,Weapon+Missile,Red,Allies,R-27ET,,xu,,919.909546140597,770.155639648438,2.81729997848646,3549.9921875,3545.77734375,892.493310222611,-222.910888671875,0.0622269415489047,NaN,8.07695141053937,1.49710681629757,5000,3.26742935180664,3.26742935180664,3.26742935180664,42311.67865403,3481.35308855469,45793.0317425847,,,7.17000007629395,4.21484375,5786.48920778261,5921.34819940814
2011-06-01T05:05:47Z,1306904747,1680C,55.6047495,25.5112282,3335.93,-39.2,-13.3,243.8,-64458.94,-72640.34,244.4,Weapon+Missile,Red,Allies,R-27ET,,xu,,920.50999463712,778.4697265625,2.8117814857286,3335.92529296875,3331.92529296875,895.273150995035,-214.06689453125,0.143420025622205,NaN,6.55387386713989,1.3992415179921,5000,2.11696624755859,2.11696624755859,2.11696624755859,42366.9325113416,3271.4251774292,45638.3576887708,,,8.17000007629395,4,6682.36926557977,6842.91883979658
2011-06-01T05:05:48Z,1306904748,1680C,55.5968552,25.5077256,3127.88,-33.4,-13.2,244,-65256.46,-73019.93,244.7,Weapon+Missile,Red,Allies,R-27ET,,xu,,907.420693367309,775.28857421875,2.76480435299374,3127.87915039062,3120.31542634964,883.249181890122,-208.046142578125,0.0284679785529305,NaN,5.64612806606685,0.617398514880612,5000,1.22490358352661,1.22490358352661,1.22490358352661,41170.6157375604,3067.40160701782,44238.0173445782,,,9.17000007629395,7.56372404098511,7566.14244302784,7751.2854908038
2011-06-01T05:05:49Z,1306904749,1680C,55.5889778,25.5042522,2922.83,-28.4,-13.1,244.1,-66052.31,-73396.26,244.7,Weapon+Missile,Red,Allies,R-27ET,,xu,,903.902799094462,779.812194824219,2.74727001524789,2922.8330078125,2911.8330078125,880.33876980662,-205.046142578125,0.0964098401559617,NaN,4.81539606298029,0.305669028006774,5000,1.5596752166748,1.5596752166748,1.5596752166748,40852.0135105401,2866.32003160645,43718.3335421466,,,10.1700000762939,11,8446.99528191717,8656.09590694549
2011-06-01T05:05:50Z,1306904750,1680C,55.5816156,25.5009869,2736.73,-23.7,-12.4,243.8,-66796.16,-73750.05,244.4,Weapon+Missile,Red,Allies,R-27ET,,xu,,844.456047340748,736.3662109375,2.56085238517792,2736.72607421875,2725.67677593231,823.693040615672,-186.10693359375,0.00997764179279024,NaN,4.23077968135139,0.561022346914739,5000,2.05188512802124,2.05188512802124,2.05188512802124,35655.300794518,2683.81147557373,38339.1122700917,,,11.1700000762939,11.049298286438,9271.18027987961,9501.38851100437
2011-06-01T05:05:51Z,1306904751,1680C,55.5748052,25.4979443,2574.62,-19.4,-11.4,244,-67484.33,-74079.73,244.6,Weapon+Missile,Red,Allies,R-27ET,,xu,,780.095248158259,687.11669921875,2.36108646169608,2574.61694335938,2567.61694335938,763.065676001164,-162.109130859375,0.104832423245436,NaN,4.16922260145665,0.974615914368398,5000,2.68983101844788,2.68983101844788,2.68983101844788,30427.4298099548,2524.83672475952,32952.2665347143,,,12.1700000762939,7,10034.7004285719,10282.2392948088
2011-06-01T05:05:52Z,1306904752,1680C,55.5685179,25.4952626,2439.26,-16.2,-10.7,245.6,-68119.52,-74369.96,246.2,Weapon+Missile,Red,Allies,R-27ET,,xu,,711.35040333756,632.56298828125,2.14954372511723,2439.2646484375,2434.73186588287,698.354603756495,-135.352294921875,0.0927150013923992,NaN,3.01541240534474,1.28130933734854,5000,1.96654093265533,1.96654093265533,1.96654093265533,25300.9698164254,2392.10146645996,27693.0712828854,,,13.1700000762939,4.53278255462646,10733.4203240481,10994.2179427169
2011-06-01T05:05:53Z,1306904753,1680C,55.5626688,25.4928997,2317.94,-13.9,-10.7,246.4,-68710.3,-74625.34,247.1,Weapon+Missile,Red,Allies,R-27ET,,xu,,654.952327126327,587.531127929688,1.9762662897892,2317.93994140625,2310.32189035416,643.617018320657,-121.32470703125,0.0622920625558102,NaN,2.30766137335885,0.994543097993616,5000,1.39142072200775,1.39142072200775,1.39142072200775,21448.1275404096,2273.12257263916,23721.2501130487,,,14.1700000762939,7.61805105209351,11377.3133251309,11649.6774545784
2011-06-01T05:05:54Z,1306904754,1680C,55.5571821,25.490768,2205.49,-11.9,-10.6,247.2,-69264.41,-74855.47,247.8,Weapon+Missile,Red,Allies,R-27ET,,xu,,610.442402062809,551.976196289062,1.83950512891968,2205.48901367188,2198.41046142578,599.995595890412,-112.450927734375,0.0549894112490734,NaN,1.90767695782644,0.718406553977934,5000,1.35747754573822,1.35747754573822,1.35747754573822,18631.9963118106,2162.84588359253,20794.8421954031,,,15.1700000762939,7.07855224609375,11977.532809814,12260.5491171236
2011-06-01T05:05:55Z,1306904755,1680C,55.552069,25.4888423,2103.22,-9.9,-10.2,247.7,-69780.73,-75063.19,248.4,Weapon+Missile,Red,Allies,R-27ET,,xu,,565.856563236646,515.683837890625,1.70308760548802,2103.21533203125,2097.53061771393,556.537280154403,-102.273681640625,0.0314838922270496,NaN,2.03078087233216,0.635438912108467,5000,1.43689179420471,1.43689179420471,1.43689179420471,16009.6825078994,2062.54966358643,18072.2321714858,,,16.1700000762939,5.68471431732178,12534.2441522122,12826.7618239272
2011-06-01T05:05:56Z,1306904756,1680C,55.547308,25.4870973,2011.71,-8.4,-10,248.2,-70261.45,-75251.23,248.9,Weapon+Missile,Red,Allies,R-27ET,,xu,,524.238433588771,481.300231933594,1.57612340178315,2011.70690917969,2007.82546520233,516.19002683007,-91.5084228515625,0.0560164160656239,NaN,1.53842839355909,0.602804748501822,5000,1.21985173225403,1.21985173225403,1.21985173225403,13741.2967625804,1972.8105560907,15714.1073186711,,,17.1700000762939,3.88144397735596,13050.5818039213,13351.309622035
2011-06-01T05:05:57Z,1306904757,1680C,55.542803,25.4854818,1927.06,-7.1,-9.8,248.6,-70716.28,-75425.22,249.2,Weapon+Missile,Red,Allies,R-27ET,,xu,,494.279442642732,456.584167480469,1.48457007574258,1927.05541992188,1922.63342285156,486.976686080191,-84.6514892578125,0,NaN,1.18459812756939,0.393915152124618,5000,1.15014731884003,1.15014731884003,1.15014731884003,12215.6083709605,1889.79580337769,14105.4041743382,,,18.1700000762939,4.4219970703125,13537.6887007713,13845.8655360973
2011-06-01T05:05:58Z,1306904758,1680C,55.5386312,25.4840076,1850.17,-5.9,-9.5,248.8,-71137.46,-75583.91,249.5,Weapon+Missile,Red,Allies,R-27ET,,xu,,456.602810078393,424.505157470703,1.37016855088573,1850.16540527344,1844.16540527344,450.082272277911,-76.8900146484375,0.0129177225705569,NaN,1.26153850102229,0.367975347636953,5000,1.33520245552063,1.33520245552063,1.33520245552063,10424.3063085742,1814.39245716248,12238.6987657367,,,19.1700000762939,6,13987.885965437,14302.7131011445
2011-06-01T05:05:59Z,1306904759,1680C,55.5346944,25.4826328,1780.97,-4.7,-9,249,-71534.91,-75731.82,249.7,Weapon+Missile,Red,Allies,R-27ET,,xu,,429.692151442164,401.426788330078,1.28836825094956,1780.97155761719,1775.02981519699,424.084374219942,-69.19384765625,0.0373606761742737,NaN,1.13848581293534,0.527588037318997,5000,1.43833589553833,1.43833589553833,1.43833589553833,9231.76725054979,1746.53647255066,10978.3037231005,,,20.1700000762939,5.94174242019653,14412.0608976025,14732.6137977513
2011-06-01T05:06:00Z,1306904760,1680C,55.5310157,25.4813568,1720.67,-3.4,-8.3,249.1,-71906.3,-75869.09,249.8,Weapon+Missile,Red,Allies,R-27ET,,xu,,400.511331683962,375.684600830078,1.20002523628531,1720.66833496094,1716.15829181671,395.945511585283,-60.30322265625,0.0333346702051315,NaN,1.33843533201924,0.685582212291587,5000,1.4976714849472,1.4976714849472,1.4976714849472,8020.46634036303,1687.39921270447,9707.86555306749,,,21.1700000762939,4.51004314422607,14808.0869748379,15133.3122488339
2011-06-01T05:06:01Z,1306904761,1680C,55.5275606,25.4801686,1668.94,-2.4,-7.5,249.4,-72255.11,-75996.84,250.1,Weapon+Missile,Red,Allies,R-27ET,,xu,,375.050662604187,352.688354492188,1.12305873250711,1668.93603515625,1665.8773598671,371.465703230807,-51.7322998046875,0.532177075588192,NaN,0.969218357376796,0.635130913265582,5000,0.213259026408195,0.213259026408195,0.213259026408195,7033.14997599199,1636.6671569165,8669.8171329085,,,22.1700000762939,3.05867528915405,15179.636197922,15508.5434183644
2011-06-01T05:06:02Z,1306904762,1680C,55.5243765,25.4790616,1609.43,-6,-13,248.5,-72576.59,-76115.91,249.2,Weapon+Missile,Red,Allies,R-27ET,,xu,,347.950189920441,327.621063232422,1.04118385637658,1609.42761230469,1606.08060026169,342.823689781483,-59.5084228515625,0.159870937666416,NaN,3.89227892118015,3.6646227397281,4046.86741855447,2.00288891792297,2.00288891792297,2.00288891792297,6053.46673328355,1578.30932942078,7631.77606270433,,,23.1700000762939,3.34701204299927,15522.5203132991,15856.6399674501
2011-06-01T05:06:03Z,1306904763,1680C,55.5214983,25.4780324,1527.57,-6.6,-14.9,249,-72867.23,-76226.68,249.6,Weapon+Missile,Red,Allies,R-27ET,,xu,,321.619501060304,303.209564208984,0.961474402330748,1527.56848144531,1525.2798910141,311.027629250564,-81.859130859375,0.0942659108949618,NaN,1.35381947935104,2.14158873878457,5000,1.48329365253448,1.48329365253448,1.48329365253448,5171.95517311394,1498.03294485657,6669.98811797051,,,24.1700000762939,2.28859043121338,15833.6281814715,16178.41105479
2011-06-01T05:06:04Z,1306904764,1680C,55.5187417,25.4771196,1453,-4.9,-13.4,251.1,-73145.48,-76324.72,251.8,Weapon+Missile,Red,Allies,R-27ET,,xu,,304.301912342535,287.364654541016,0.908913772873012,1452.99914550781,1450.99914550781,295.023843092663,-74.5693359375,0.0570714915282317,NaN,1.58458681197003,2.38115122062042,5000,2.18829417228699,2.18829417228699,2.18829417228699,4629.98269276619,1424.90540702942,6054.88809979561,,,25.1700000762939,2,16128.6968269748,16482.8232469884
2011-06-01T05:06:05Z,1306904765,1680C,55.5160946,25.4763636,1390.06,-3.6,-12,254.1,-73412.55,-76405.48,254.8,Weapon+Missile,Red,Allies,R-27ET,,xu,,286.019379952859,270.443634033203,0.853680704349144,1390.05773925781,1389.54324066639,279.008001834877,-62.94140625,0.0428342692851559,NaN,1.2769004502393,3.12025815698196,4871.63374233843,2.23531126976013,2.23531126976013,2.23531126976013,4090.35428543091,1363.18097286926,5453.53525830017,,,26.1700000762939,0.514498591423035,16407.7064629519,16768.904881325
2011-06-01T05:06:06Z,1306904766,1680C,55.5135597,25.4757768,1337.12,-2.6,-10.7,257.4,-73668.13,-76467.64,258.1,Weapon+Missile,Red,Allies,R-27ET,,xu,,268.309477314005,253.957641601562,0.800329676103334,1337.11999511719,1337.07053160667,263.035303451488,-52.937744140625,0.114565768571123,NaN,0.93845134337365,3.48320480452292,4324.46805308611,2.18730282783508,2.18730282783508,2.18730282783508,3599.49878082573,1311.2667800116,4910.76556083733,,,27.1700000762939,0.0494635105133057,16670.6973348204,17037.2259203429
2011-06-01T05:06:07Z,1306904767,1680C,55.5111081,25.4753486,1291.89,-1.9,-9.7,260.9,-73915.14,-76512.3,261.5,Weapon+Missile,Red,Allies,R-27ET,,xu,,255.055183726612,241.673110961914,0.760394791997273,1291.89379882812,1289.89379882812,251.013421782659,-45.2261962890625,0.0425533058640986,NaN,0.630785899097249,3.65384555499146,3909.88099212461,2.13285565376282,2.13285565376282,2.13285565376282,3252.65733729079,1266.91503222778,4519.57236951858,,,28.1700000762939,2,16921.6424538693,17292.264782873
2011-06-01T05:06:08Z,1306904768,1680C,55.5087521,25.4750773,1253.02,-1.5,-8.9,264.7,-74152.35,-76539.7,265.4,Weapon+Missile,Red,Allies,R-27ET,,xu,,241.929937771241,229.439605712891,0.72093961917813,1253.02453613281,1251.02453613281,238.787091794175,-38.8692626953125,0.0884375467614654,NaN,0.369263078419338,3.74837195800986,3630.28342748319,2.02386236190796,2.02386236190796,2.02386236190796,2926.50473949984,1228.79730672668,4155.30204622652,,,29.1700000762939,2,17160.3295418531,17534.1430163516
2011-06-01T05:06:09Z,1306904769,1680C,55.5065146,25.4749559,1219.08,-1.4,-8.3,268.5,-74377.45,-76550.64,269.1,Weapon+Missile,Red,Allies,R-27ET,,xu,,227.908953163063,216.29084777832,0.678890800070559,1219.08374023438,1217.08374023438,225.367507209145,-33.9407958984375,0.0691818472392281,NaN,0,3.88199863270563,3348.90360222558,1.90197038650513,1.90197038650513,1.90197038650513,2597.12454659417,1195.51275611694,3792.63730271112,,,30.1700000762939,2,17385.5945935389,17761.9938251981
2011-06-01T05:06:10Z,1306904770,1680C,55.5043723,25.4749729,1187.85,-1.6,-8.2,272.6,-74592.82,-76546.34,273.2,Weapon+Missile,Red,Allies,R-27ET,,xu,,217.66282144695,206.737930297852,0.648135464924203,1187.84997558594,1185.84997558594,215.41020353301,-31.2337646484375,0.0551765811044903,NaN,0.215451487178882,3.92931348752042,3210.36187257749,1.79288041591644,1.79288041591644,1.79288041591644,2368.85519201234,1164.88289630798,3533.73808832032,,,31.1700000762939,2,17600.8984207306,17979.5915758522
2011-06-01T05:06:11Z,1306904771,1680C,55.5023363,25.4751159,1158.43,-1.8,-8.1,276.4,-74797.34,-76528.2,277.1,Weapon+Missile,Red,Allies,R-27ET,,xu,,207.423810887184,197.168151855469,0.617436558828604,1158.42687988281,1156.42687988281,205.326371326742,-29.423095703125,0.0861747670297359,NaN,0.169224766876236,3.81294328576269,3131.92004660824,1.72251892089844,1.72251892089844,1.72251892089844,2151.23186614811,1136.02869616028,3287.26056230839,,,32.1700000762939,2,17806.1232631579,18186.9522502398
2011-06-01T05:06:12Z,1306904772,1680C,55.5004094,25.4753695,1130.92,-2,-7.9,280.2,-74990.76,-76497.91,280.9,Weapon+Missile,Red,Allies,R-27ET,,xu,,197.69316228226,188.062393188477,0.588284351781114,1130.919921875,1129.37013888359,195.770155218604,-27.5069580078125,0.0619272314790458,NaN,0.199987938897973,3.63390994035149,3553.92812194737,1.52738523483276,1.52738523483276,1.52738523483276,1954.129320658,1109.05358518555,3063.18290584355,,,33.1700000762939,1.5497829914093,18001.8182122909,18384.6057174715
2011-06-01T05:06:13Z,1306904773,1680C,55.4985694,25.4757084,1105.02,-1.8,-7.7,281.9,-75175.32,-76458.31,282.5,Weapon+Missile,Red,Allies,R-27ET,,xu,,190.531286568448,181.401733398438,0.566802862115166,1105.02453613281,1105.02453613281,188.763344319525,-25.8953857421875,0.0522035739423469,NaN,0.369208436905978,1.81230403823779,5000,1.04263627529144,1.04263627529144,1.04263627529144,1815.1085580714,1083.65888672668,2898.76744479809,,,34.1700000762939,0,18190.5338985633,18575.1225597388
2011-06-01T05:06:14Z,1306904774,1680C,55.4967999,25.4760471,1080.47,-1.5,-7.6,281.9,-75352.81,-76418.8,282.5,Weapon+Missile,Red,Allies,R-27ET,,xu,,183.48749316095,174.836517333984,0.545693913785331,1080.474609375,1079.96203613281,181.837733275236,-24.5499267578125,0.0556898342488783,NaN,0.400030519309307,0.103266904051786,5000,1.02205157279968,1.02205157279968,1.02205157279968,1683.38300732449,1059.58363280273,2742.96664012722,,,35.1700000762939,0.5125732421875,18372.3172808444,18758.5870550569
2011-06-01T05:06:15Z,1306904775,1680C,55.4950937,25.4763709,1057.11,-1.2,-7.6,281.7,-75523.93,-76380.98,282.4,Weapon+Missile,Red,Allies,R-27ET,,xu,,176.798162700946,168.595260620117,0.525658005665105,1057.10534667969,1056.95917221904,175.246876992167,-23.3692626953125,0.0543347623899196,NaN,0.323057489014437,0.222276967253627,5000,1.01408660411835,1.01408660411835,1.01408660411835,1562.87951672152,1036.66621480164,2599.54573152315,,,36.1700000762939,0.14617446064949,18547.5275263415,18935.3780101999
2011-06-01T05:06:16Z,1306904776,1680C,55.4934494,25.4766762,1034.8,-0.9,-7.5,281.3,-75688.88,-76345.3,282,Weapon+Missile,Red,Allies,R-27ET,,xu,,170.226537333439,162.452285766602,0.505988995513539,1034.79760742188,1034.79760742188,168.758522101073,-22.3077392578125,0.0264953292394199,NaN,0.369208436905978,0.329245587041615,5000,0.871580362319946,0.871580362319946,0.871580362319946,1448.85370062664,1014.78979568237,2463.64349630901,,,37.1700000762939,0,18716.2322511264,19105.5786415148
2011-06-01T05:06:17Z,1306904777,1680C,55.4918573,25.4769627,1011.98,-2.2,-9.2,281.1,-75848.6,-76311.76,281.8,Weapon+Missile,Red,Allies,R-27ET,,xu,,164.799232954057,157.405532836914,0.489727791233493,1011.97613525391,1010.98232287169,163.211419913963,-22.8214721679688,0.0836988623146884,NaN,2.46154553535924,1.62745916233826,3472.92515233563,0.204389125108719,0.204389125108719,0.204389125108719,1357.93935911227,992.409576678772,2350.34893579104,,,38.1700000762939,0.993812382221222,18879.3835895328,19270.3442976926
2011-06-01T05:06:18Z,1306904778,1680C,55.4903285,25.4772362,982.44,-4.2,-12.2,281.1,-76001.95,-76279.73,281.8,Weapon+Missile,Red,Allies,R-27ET,,xu,,159.421672706988,152.447311401367,0.473586314599696,982.436889648438,980.436889648438,156.661107802013,-29.5392456054688,0.0352850557761999,NaN,1.84611817038441,3.00387984437458,3092.02574495408,0.15153706073761,0.15153706073761,0.15153706073761,1270.76348643471,963.441472387085,2234.20495882179,,,39.1700000762939,2,19036.0025008287,19429.7485675805
2011-06-01T05:06:19Z,1306904779,1680C,55.488861,25.4774981,945.97,-5.9,-15.1,281.1,-76149.16,-76249.04,281.8,Weapon+Missile,Red,Allies,R-27ET,,xu,,154.726593846629,148.18376159668,0.459445969147944,945.969970703125,943.969970703125,150.367824570337,-36.4669189453125,0.0476328587962438,NaN,1.53848645016703,2.90431468273943,3067.5454833064,0.17821778357029,0.17821778357029,0.17821778357029,1197.01594216898,927.67964131958,2124.69558348856,,,40.1700000762939,2,19186.3325038824,19584.4604910754
2011-06-01T05:06:20Z,1306904780,1680C,55.4874434,25.4777503,902.89,-7.3,-18,281.1,-76291.37,-76219.49,281.7,Weapon+Missile,Red,Allies,R-27ET,,xu,,151.503303164144,145.371627807617,0.449651860999437,902.885375976562,901.01953125,145.247955465454,-43.0845947265625,0.0494219989883852,NaN,1.36920704177744,2.85043366825472,3099.74699453358,0.20305447280407,0.20305447280407,0.20305447280407,1147.66254348233,885.428087232056,2033.09063071439,,,41.1700000762939,1.8658447265625,19331.5350469588,19735.9404333062
2011-06-01T05:06:21Z,1306904781,1680C,55.4860723,25.477993,853.64,-8.4,-20.7,281,-76428.91,-76191.04,281.7,Weapon+Missile,Red,Allies,R-27ET,,xu,,148.834423637082,143.12580871582,0.441480968754317,853.639953613281,853.639953613281,140.451322655376,-49.2454223632812,0.0473277767668023,NaN,1.04616641479251,2.76581103953285,3128.38028168309,0.218221619725227,0.218221619725227,0.218221619725227,1107.58428296912,837.134825110169,1944.71910807929,,,42.1700000762939,0,19471.9453347891,19884.7543789161
2011-06-01T05:06:22Z,1306904782,1680C,55.484741,25.4782273,798.42,-9.3,-23.4,280.9,-76562.46,-76163.57,281.6,Weapon+Missile,Red,Allies,R-27ET,,xu,,147.107277373169,141.820663452148,0.436081420272381,798.420715332031,798.420715332031,136.350235715913,-55.21923828125,0.0452931220658297,NaN,0.923113726705563,2.70534956466966,3184.93741877612,0.232636734843254,0.232636734843254,0.232636734843254,1082.02755280733,782.983250801086,1865.01080360842,,,43.1700000762939,0,19608.2503146214,20031.8360720228
2011-06-01T05:06:23Z,1306904783,1680C,55.4834626,25.4784505,738.24,-10,-26,280.8,-76690.71,-76137.38,281.5,Weapon+Missile,Red,Allies,R-27ET,,xu,,144.071284123671,139.271072387695,0.426787146048098,738.2353515625,738.2353515625,130.897887289951,-60.1853637695312,0.0479801598466365,NaN,0.569255286185543,2.60873974051101,3243.55581649056,0.248695462942123,0.248695462942123,0.248695462942123,1037.82674545217,723.961571040039,1761.78831649221,,,44.1700000762939,0,19739.1046896456,20175.8821447179
2011-06-01T05:06:24Z,1306904784,1680C,55.4822157,25.4786663,672.55,-10.5,-28.5,280.7,-76815.79,-76112.05,281.4,Weapon+Missile,Red,Allies,R-27ET,,xu,,143.528139505137,139.167221069336,0.424858716145454,672.549194335938,672.549194335938,127.615263893522,-65.6861572265625,0.0526029121461877,NaN,0.47691112860697,2.51329958624771,3336.23735829388,0.251529008150101,0.251529008150101,0.251529008150101,1030.0163414903,659.545455663452,1689.56179715375,,,45.1700000762939,0,19866.6843921362,20319.3912112107
2011-06-01T05:06:25Z,1306904785,1680C,55.4810021,25.4788741,601.72,-10.9,-30.9,280.6,-76937.55,-76087.63,281.3,Weapon+Missile,Red,Allies,R-27ET,,xu,,142.962527272878,139.072204589844,0.422842132076496,601.719177246094,601.719177246094,124.18290092964,-70.8300170898438,0.0536928414637687,NaN,0.399975877795947,2.40993662599062,3438.41533577164,0.254592180252075,0.254592180252075,0.254592180252075,1021.91421021242,590.08493695404,1611.99914716646,,,46.1700000762939,0,19990.8246972636,20462.3275106967
2011-06-01T05:06:26Z,1306904786,1680C,55.4798216,25.479074,526.04,-11.1,-33.3,280.5,-77055.98,-76064.15,281.2,Weapon+Missile,Red,Allies,R-27ET,,xu,,142.491634681145,139.098251342773,0.421085756946951,526.043823242188,526.043823242188,120.735689630234,-75.6753540039062,0.0453333082869612,NaN,0.200042580411333,2.30927607276732,3572.52214448836,0.259879261255264,0.259879261255264,0.259879261255264,1015.19329770524,515.8727659198,1531.06606362504,,,47.1700000762939,0,20111.5239055678,20604.7972763485
2011-06-01T05:06:27Z,1306904787,1680C,55.4786756,25.4792655,445.94,-11.3,-35.5,280.3,-77170.95,-76041.62,281,Weapon+Missile,Red,Allies,R-27ET,,xu,,141.922410428587,139.054077148438,0.419021279926618,445.940765380859,445.940765380859,117.155754033359,-80.1030578613281,0.0503139916651815,NaN,0.107698422832761,2.22910694082771,3716.09240305826,0.264053821563721,0.264053821563721,0.264053821563721,1007.09852909301,437.31850068222,1444.41702977523,,,48.1700000762939,0,20228.6448407484,20746.6983117244
2011-06-01T05:06:28Z,1306904788,1680C,55.47756,25.4794493,361.45,-11.3,-37.6,280.2,-77282.87,-76019.98,280.9,Weapon+Missile,Red,Allies,R-27ET,,xu,,141.893262934471,139.5673828125,0.418533151809774,361.446899414062,361.446899414062,113.993353666676,-84.4938659667969,0.155016434056591,NaN,0,1.64680215134603,5000,0.511723756790161,0.511723756790161,0.511723756790161,1006.68490330954,354.458323613892,1361.14322692343,,,49.1700000762939,0,20342.6034154503,20888.5694296865
2011-06-01T05:06:29Z,1306904789,1680C,55.4764542,25.479629,274.27,-9.4,-37.3,280.1,-77393.82,-75998.81,280.7,Weapon+Missile,Red,Allies,R-27ET,,xu,,142.683769032217,140.909088134766,0.420448923284334,274.269989013672,274.269989013672,112.955054062584,-87.1769104003906,0.0556432923465422,NaN,2.12305843556633,0.256981011684117,5000,0.958617627620697,0.958617627620697,0.958617627620697,1017.93289726195,268.966978776093,1286.89987603804,,,50.1700000762939,0,20455.5159593213,21031.2240021128
2011-06-01T05:06:30Z,1306904790,1680C,55.4753326,25.4798094,187.91,-7.5,-36.7,280,-77506.35,-75977.53,280.7,Weapon+Missile,Red,Allies,R-27ET,,xu,,143.439491402623,142.217483520508,0.422262809349211,187.906143188477,187.906143188477,114.525865323625,-86.3638458251953,0.0328404000569543,NaN,1.70768901892847,0.624410878002394,5000,0.942274034023285,0.942274034023285,0.942274034023285,1028.74438469216,184.272977909927,1213.01736260208,,,51.1700000762939,0,20569.9985884237,21174.6322862617
2011-06-01T05:06:31Z,1306904791,1680C,55.4742055,25.4799892,102.86,-6,-36.2,279.9,-77619.45,-75956.31,280.6,Weapon+Missile,Red,Allies,R-27ET,,xu,,143.084404953235,142.417297363281,0.420812966825057,102.860771179199,102.860771179199,115.067074528837,-85.0453720092773,0.0360649618921058,NaN,1.3384899735326,0.513109850547569,5000,0.920175313949585,0.920175313949585,0.920175313949585,1023.65734704107,100.871958168449,1124.52930520952,,,52.1700000762939,0,20685.0228543985,21317.684375469
2011-06-01T05:06:32Z,1306904792,1680C,55.4730732,25.4801688,18.83,-4.9,-35.8,279.9,-77733.05,-75935.13,280.5,Weapon+Missile,Red,Allies,R-27ET,,xu,,142.881295776711,142.760757446289,0.419817629511639,18.8299999237061,18.8299999237061,115.55905055442,-84.0307712554932,0.060702176451857,NaN,0.969226895113258,0.448719362725184,5000,0.915426433086395,0.915426433086395,0.915426433086395,1020.7532341416,18.4659218751812,1039.21915601679,,,53.1700000762939,0,20800.5518139228,21460.5422266987
