ISOTime,UnixTime,Id,Longitude,Latitude,Altitude,Roll,Pitch,Yaw,U,V,Heading,Type,Color,Coalition,Name,Group,Country,Pilot,TAS,CAS,M,ASL,AGL,GS,VS,AOA,AOS,RRT,TRT,TRD,G,LatG,LonG,Ek,Ep,Em,FFW,FFV,RelativeTime,Elev,GroundDistance,AirDistance
2011-06-01T05:06:04Z,1306904764,1C10C,55.6689231,25.4865218,844.21,12.6,-0.4,189,-58036.48,-75442.8,189.5,Weapon+Missile,Red,Allies,R-27ET,,xu,,384.796831993708,373.017395019531,1.14128222362566,844.206909179688,816.498352050781,NaN,NaN,0.851973458297395,NaN,2.7077055530465,5.01569946103597,NaN,NaN,NaN,NaN,NaN,827.884168590698,NaN,,,0.5,27.7085571289062,NaN,NaN
2011-06-01T05:06:05Z,1306904765,1C10C,55.6679783,25.4815841,830.63,9.8,-3.3,192,-58136.92,-75988.73,192.6,Weapon+Missile,Red,Allies,R-27ET,,xu,,555.258603397989,533.023132324219,1.64660401906781,830.626892089844,799.527648925781,555.09251461655,-13.5800170898438,0.532990443988821,NaN,3.01539191477723,4.61231234084101,3853.11672798983,9.70189762115479,9.70189762115479,9.70189762115479,15415.6058323743,814.566721131287,16230.1725535056,,,1.5,31.0992431640625,557.805324778611,558.043821356424
2011-06-01T05:06:06Z,1306904766,1C10C,55.66581,25.474901,743.52,6.5,-9.1,201.2,-58362.31,-76726.73,201.8,Weapon+Missile,Red,Allies,R-27ET,,xu,,776.560086180478,741.884887695312,2.30056898000022,743.521545410156,707.378597259521,771.659397680377,-87.1053466796875,0.81347688204886,NaN,3.20002558842101,8.02099337821675,5000,9.30964756011963,9.30964756011963,9.30964756011963,30152.2783724315,729.145556329651,30881.4239287612,,,2.5,36.1429481506348,1333.02260962483,1338.23450890141
2011-06-01T05:06:07Z,1306904767,1C10C,55.6622015,25.4670421,594.2,5.9,-8.6,203.2,-58733.84,-77593.5,203.8,Weapon+Missile,Red,Allies,R-27ET,,xu,,954.783215071221,915.906433105469,2.82373252913944,594.203857421875,560.753479003906,943.035108485136,-149.317687988281,0.0276356469681152,NaN,0.199987938897973,3.94777805016791,5000,2.85199236869812,2.85199236869812,2.85199236869812,45580.5493890869,582.714925838623,46163.2643149255,,,3.5,33.4503784179688,2280.05016749026,2297.05935275314
2011-06-01T05:06:08Z,1306904768,1C10C,55.6584539,25.4593297,456.99,5.6,-8,204.3,-59119.23,-78443.91,204.9,Weapon+Missile,Red,Allies,R-27ET,,xu,,943.687143323403,910.976013183594,2.7865555908457,456.986145019531,428.790710449219,933.657712374805,-137.217712402344,0.0537524418210088,NaN,0.24616001768726,1.22072054349036,5000,2.87649989128113,2.87649989128113,2.87649989128113,44527.2712236943,448.150317905579,44975.4215415999,,,4.5,28.1954345703125,3217.58753367276,3244.661529203
2011-06-01T05:06:09Z,1306904769,1C10C,55.6547268,25.4519073,340.28,5.8,-6.5,204.6,-59502.29,-79262.19,205.2,Weapon+Missile,Red,Allies,R-27ET,,xu,,911.007720126985,884.285461425781,2.68649360413868,340.281524658203,307.281524658203,903.501575935142,-116.704620361328,0.0538519887547046,NaN,0.199999891729021,1.46023692154931,5000,3.75973415374756,3.75973415374756,3.75973415374756,41496.7533065483,333.702181378937,41830.4554879273,,,5.5,33,4124.80258206267,4159.40848631704
2011-06-01T05:06:10Z,1306904770,1C10C,55.6511077,25.4447076,253.95,6,-4.9,204.5,-59874.27,-80055.91,205.1,Weapon+Missile,Red,Allies,R-27ET,,xu,,880.803588788351,858.491149902344,2.59488297651689,253.949996948242,217.619857788086,876.562507380793,-86.3315277099609,0.133882960112924,NaN,0.199999891729021,1.92962470350722,5000,4.21338796615601,4.21338796615601,4.21338796615601,38790.7481011219,249.039873757248,39039.7879748792,,,6.5,36.3301391601562,5004.9663535239,5043.83687474194
2011-06-01T05:06:11Z,1306904771,1C10C,55.6475304,25.4377815,200.85,6.6,-2.1,206.2,-60241.78,-80819.37,206.8,Weapon+Missile,Red,Allies,R-27ET,,xu,,848.974372717929,829.672058105469,2.49960991523357,200.846145629883,160.908344268799,847.311906270033,-53.1038513183594,0.0822100710253325,NaN,0.569230526749801,2.70638156356457,5000,5.87013864517212,5.87013864517212,5.87013864517212,36037.87427659,196.962785404129,36234.8370619942,,,7.5,39.937801361084,5855.71509766538,5896.27165500624
2011-06-01T05:06:12Z,1306904772,1C10C,55.6437724,25.4311667,186.93,7,0.1,208.1,-60627.17,-81548.16,208.7,Weapon+Missile,Red,Allies,R-27ET,,xu,,824.530256603511,806.494262695312,2.42725770072235,186.927688598633,153.655654907227,824.412773195879,-13.91845703125,0.0632409255111182,NaN,0.292307337040804,2.90665893172862,5000,4.16980695724487,4.16980695724487,4.16980695724487,33992.5072027326,183.313441739578,34175.8206444721,,,8.5,33.2720336914062,6683.32890051555,6724.02764173461
2011-06-01T05:06:13Z,1306904773,1C10C,55.6399301,25.4247787,199.2,7.1,1.5,209.1,-61020.8,-82251.7,209.7,Weapon+Missile,Red,Allies,R-27ET,,xu,,806.274592603042,788.392883300781,2.37384606388098,199.201522827148,163.609298706055,806.181165539441,12.2738342285156,0.0343199259618751,NaN,0,1.92807659844315,5000,3.08172702789307,3.08172702789307,3.08172702789307,32503.9359338601,195.349961383286,32699.2858952434,,,9.5,35.5922241210938,7492.57881702026,7533.39512403375
2011-06-01T05:06:14Z,1306904774,1C10C,55.6361074,25.4187094,226.79,7,2.4,210.7,-61412.17,-82920,211.3,Weapon+Missile,Red,Allies,R-27ET,,xu,,774.949601385001,757.1962890625,2.28233082271276,226.786911010742,188.45719909668,774.45847599825,27.5853881835938,0.0415180062273789,NaN,0.153815860108687,1.876531722098,5000,3.40208411216736,3.40208411216736,3.40208411216736,30027.3442343386,222.401986086349,30249.7462204249,,,10.5,38.3297119140625,8269.8846702366,8311.21624606175
2011-06-01T05:06:15Z,1306904775,1C10C,55.632385,25.4133198,256.61,6.6,2.4,213.6,-61792.69,-83513.09,214.2,Weapon+Missile,Red,Allies,R-27ET,,xu,,705.293152887655,689.178833007812,2.0778847374129,256.609985351562,219.730743408203,704.662341655257,29.8230743408203,0.021889608926487,NaN,0.369212705774209,2.8205217085583,5000,3.91001176834106,3.91001176834106,3.91001176834106,24871.9215755104,251.64843128479,25123.5700067952,,,11.5,36.8792419433594,8977.01787336171,9019.00483109719
2011-06-01T05:06:16Z,1306904776,1C10C,55.6287693,25.4086784,283.5,6,2.2,217,-62161.66,-84023.42,217.6,Weapon+Missile,Red,Allies,R-27ET,,xu,,630.322732223302,616.522155761719,1.85757806674977,283.501556396484,246.112468719482,629.748831014544,26.8915710449219,0.0520897026501387,NaN,0.661544802250755,3.28021862602272,5000,3.55150437355042,3.55150437355042,3.55150437355042,19865.3373378724,278.020053803558,20143.357391676,,,12.5,37.389087677002,9608.78612710625,9651.37187866746
2011-06-01T05:06:17Z,1306904777,1C10C,55.6252191,25.4046372,300.54,5.1,1.4,220.2,-62523.4,-84467.32,220.8,Weapon+Missile,Red,Allies,R-27ET,,xu,,572.876762225781,561.17578125,1.68860929074198,300.536926269531,259.101379394531,572.623419772176,17.0353698730469,0.151602169093071,NaN,0.60001845820728,3.0564283316409,5000,2.93566250801086,2.93566250801086,2.93566250801086,16409.3892349147,294.72604480011,16704.1152797148,,,13.5,41.435546875,10183.0853092532,10225.9499467487
2011-06-01T05:06:18Z,1306904778,1C10C,55.6217974,25.4011106,316.82,5.1,2.1,222.6,-62871.62,-84854.38,223.2,Weapon+Missile,Red,Allies,R-27ET,,xu,,520.901366403962,511.197418212891,1.53569036399578,316.820770263672,276.100826263428,520.646780405189,16.2838439941406,0.0595419158616897,NaN,0.199987938897973,2.93120278962424,5000,3.25206446647644,3.25206446647644,3.25206446647644,13566.9116760757,310.695040670624,13877.6067167464,,,14.5,40.7199440002441,10705.1019892184,10748.2457963853
2011-06-01T05:06:19Z,1306904779,1C10C,55.6184856,25.3980731,335.73,5.2,2.6,228.2,-63208.27,-85187.34,228.8,Weapon+Missile,Red,Allies,R-27ET,,xu,,473.872741193957,465.908782958984,1.39734312366194,335.732299804688,293.477199554443,473.495225844036,18.9115295410156,0.0307284984938617,NaN,0.199999891729021,5.76099904130177,3638.43066790098,6.12867164611816,6.12867164611816,6.12867164611816,11227.7687423338,329.240915787964,11557.0096581217,,,15.5,42.2551002502441,11179.7007812644,11223.2454857244
2011-06-01T05:06:20Z,1306904780,1C10C,55.6151341,25.3957087,357.5,5.2,3,234,-63548.14,-85445.72,234.6,Weapon+Missile,Red,Allies,R-27ET,,xu,,427.488779314202,421.048431396484,1.26087887070102,357.503845214844,312.791118621826,426.934018614118,21.7715454101562,0.0937859721516559,NaN,0.215396845665522,4.9011452460284,5000,2.38365197181702,2.38365197181702,2.38365197181702,9137.33282197732,350.591508367615,9487.92433034494,,,16.5,44.7127265930176,11607.3273021433,11651.4490792666
2011-06-01T05:06:21Z,1306904781,1C10C,55.6119942,25.3937132,378.43,5.1,3.3,238.2,-63866.33,-85663.45,238.8,Weapon+Missile,Red,Allies,R-27ET,,xu,,386.117932904927,380.667022705078,1.13912616251396,378.432312011719,334.252830505371,385.550330551415,20.928466796875,0.143777372652487,NaN,0.199999891729021,4.58907561039781,3176.81615267054,4.70852422714233,4.70852422714233,4.70852422714233,7454.35290553868,371.115323258972,7825.46822879765,,,17.5,44.1794815063477,11993.4029250145,12038.1137742061
2011-06-01T05:06:22Z,1306904782,1C10C,55.6089309,25.3922325,400.05,5.4,3.7,245.8,-64176.21,-85824.23,246.4,Weapon+Missile,Red,Allies,R-27ET,,xu,,349.782237631872,344.677093505859,1.03218192933106,400.047698974609,358.047698974609,349.11371902176,21.6153869628906,0.187724220406508,NaN,0.307693191919904,7.51297415303495,2784.8732480722,4.43292951583862,4.43292951583862,4.43292951583862,6117.38068813798,392.312776714935,6509.69346485292,,,18.5,42,12342.7798348254,12388.1799807999
2011-06-01T05:06:23Z,1306904783,1C10C,55.6060203,25.3912274,421.63,5.6,4.1,252.6,-64470.2,-85932.52,253.2,Weapon+Missile,Red,Allies,R-27ET,,xu,,314.036828619805,309.016510009766,0.926927181136373,421.630004882812,381.40478515625,313.294324559622,21.5823059082031,0.051811771611661,NaN,0.199999891729021,6.85153863381092,2743.78821857135,3.70490837097168,3.70490837097168,3.70490837097168,4930.95648647924,413.477788738403,5344.43427521764,,,19.5,40.2252197265625,12656.1467067287,12702.309322665
2011-06-01T05:06:24Z,1306904784,1C10C,55.6032456,25.3905871,443.01,5.7,4.4,258.9,-64750.09,-86000.52,259.5,Weapon+Missile,Red,Allies,R-27ET,,xu,,288.827147782179,283.816986083984,0.852724319502743,443.013061523438,404.013061523438,288.034522557093,21.383056640625,0.0511360932187186,NaN,0.0307691484372612,6.25907393793885,2761.7178182535,3.16440200805664,3.16440200805664,3.16440200805664,4171.05606479943,434.447403978882,4605.50346877831,,,20.5,39,12944.1452150347,12991.1200225136
2011-06-01T05:06:25Z,1306904785,1C10C,55.6006315,25.3902429,463.83,5.9,4.6,264.6,-65013.5,-86035.89,265.2,Weapon+Missile,Red,Allies,R-27ET,,xu,,266.588966714354,261.615234375,0.787255437764737,463.830749511719,425.363464355469,265.774906717413,20.8176879882812,0.0665223792744757,NaN,0.199999891729021,5.76575029164316,2757.23167580412,2.75548577308655,2.75548577308655,2.75548577308655,3553.48385869134,454.86258196991,4008.34644066125,,,21.5,38.46728515625,13209.8219202389,13257.6299169459
2011-06-01T05:06:26Z,1306904786,1C10C,55.5981798,25.390138,483.92,6,4.7,270,-65260.28,-86044.91,270.6,Weapon+Missile,Red,Allies,R-27ET,,xu,,247.757752365135,242.830169677734,0.731812862430432,483.916168212891,446.946502685547,246.942260078388,20.0854187011719,0.0402415760082105,NaN,0.199999891729021,5.36893209567788,2752.43196544163,2.43268203735352,2.43268203735352,2.43268203735352,3069.19519285117,474.559649100494,3543.75484195167,,,22.5,36.9696655273438,13456.6507130737,13505.2928538258
2011-06-01T05:06:27Z,1306904787,1C10C,55.5958995,25.3902276,503.09,6,4.8,274.9,-65489.59,-86032.58,275.5,Weapon+Missile,Red,Allies,R-27ET,,xu,,230.435094028464,225.580276489258,0.680794777460896,503.0869140625,467.028522491455,229.636266873237,19.1707458496094,0.032416879490636,NaN,0,4.99961053376377,2748.91614531218,2.17130327224731,2.17130327224731,2.17130327224731,2655.01662799534,493.359728579102,3148.37635657445,,,23.5,36.0583915710449,13686.191462645,13735.6504606652
2011-06-01T05:06:28Z,1306904788,1C10C,55.5937659,25.3904758,521.44,6.1,4.9,279.6,-65703.96,-86002.84,280.2,Weapon+Missile,Red,Allies,R-27ET,,xu,,217.205272051206,212.397308349609,0.641842940752101,521.441528320312,485.738300323486,216.428367693066,18.3546142578125,0.0417067105452807,NaN,0.200000745502667,4.63740432141752,2769.5738097794,1.96118974685669,1.96118974685669,1.96118974685669,2358.90651034191,511.359456370239,2870.26596671215,,,24.5,35.7032279968262,13902.5384154221,13952.7919229697
2011-06-01T05:06:29Z,1306904789,1C10C,55.5918023,25.3908486,538.7,6.1,4.9,284,-65901.07,-85959.47,284.6,Weapon+Missile,Red,Allies,R-27ET,,xu,,202.560297024414,197.861465454102,0.598684693812301,538.700012207031,501.863708496094,201.823731668381,17.2584838867188,0.0332582263532538,NaN,0,4.34957630781178,2745.76029949805,1.79308044910431,1.79308044910431,1.79308044910431,2051.53369653095,528.284247471008,2579.81794400195,,,25.5,36.8363037109375,14104.3160189495,14155.3229678498
2011-06-01T05:06:30Z,1306904790,1C10C,55.5899684,25.3913277,555.17,6,4.9,288,-66085.02,-85904.45,288.7,Weapon+Missile,Red,Allies,R-27ET,,xu,,192.708667711024,188.059814453125,0.569674284070845,555.166931152344,518.129821777344,192.003831189396,16.4669189453125,0.0345054674855311,NaN,0,4.08114432390158,2763.12502064873,1.66047704219818,1.66047704219818,1.66047704219818,1856.83153054789,544.432778538513,2401.2643090864,,,26.5,37.037109375,14296.3096886048,14348.0379146812
2011-06-01T05:06:31Z,1306904791,1C10C,55.5882791,25.391888,570.64,6,4.9,292,-66254.33,-85840.61,292.6,Weapon+Missile,Red,Allies,R-27ET,,xu,,181.602502268066,177.055145263672,0.536937615876391,570.638427734375,532.90380859375,180.942260468734,15.4714965820312,0.0253284971166408,NaN,0,3.88206181195545,2774.38087439158,1.5386666059494,1.5386666059494,1.5386666059494,1648.97344150115,559.605133734131,2208.57857523528,,,27.5,37.734619140625,14477.2819512075,14529.6862236942
2011-06-01T05:06:32Z,1306904792,1C10C,55.5867171,25.3925143,585.22,5.9,4.8,295.6,-66410.73,-85769.58,296.3,Weapon+Missile,Red,Allies,R-27ET,,xu,,172.397655935191,167.936294555664,0.509806779421461,585.219177246094,548.236175537109,171.779956676048,14.5807495117188,0.0612303099121801,NaN,0.199987938897973,3.67938405918496,2863.6610106748,1.40440404415131,1.40440404415131,1.40440404415131,1486.04758859742,573.903964454041,2059.95155305146,,,28.5,36.9830017089844,14649.141947498,14702.179149247
2011-06-01T05:06:33Z,1306904793,1C10C,55.5852703,25.3931919,598.67,5,3.9,298.3,-66555.5,-85692.98,298.9,Weapon+Missile,Red,Allies,R-27ET,,xu,,164.331053061286,159.952163696289,0.48602719901033,598.673034667969,563.233104705811,163.779390402771,13.453857421875,0.188963934169104,NaN,1.72306548229746,2.59293788442277,3443.73200964757,0.398816645145416,0.398816645145416,0.398816645145416,1350.23475001156,587.097691542663,1937.33244155423,,,29.5,35.4399299621582,14813.0218857946,14866.6255713458
2011-06-01T05:06:34Z,1306904794,1C10C,55.5838956,25.3938633,604.56,1.9,0.3,298.3,-66693.02,-85617.16,298.9,Weapon+Missile,Red,Allies,R-27ET,,xu,,157.146772134307,152.894897460938,0.464810132023187,604.559997558594,570.195831298828,157.036466020336,5.886962890625,0.0622390578934777,NaN,3.27690619771868,3.19501820598575,2460.01898752976,0.000561934837605804,0.000561934837605804,0.000561934837605804,1234.75539961159,592.870830005798,1827.62622961739,,,30.5,34.3641662597656,14970.1864023376,15023.9151183182
2011-06-01T05:06:35Z,1306904795,1C10C,55.5825854,25.3945032,600.61,-1.2,-3.4,298.3,-66824.09,-85544.88,298.9,Weapon+Missile,Red,Allies,R-27ET,,xu,,149.728118853563,145.680648803711,0.44284718379405,600.606140136719,567.009857177734,149.67590516484,-3.953857421875,0.0521969767389024,NaN,3.0769182588207,3.73847800211027,2261.03258639257,0.00342181185260415,0.00342181185260415,0.00342181185260415,1120.92547877133,588.993420417175,1709.9188991885,,,31.5,33.5962829589844,15119.9703497668,15173.7653878988
2011-06-01T05:06:36Z,1306904796,1C10C,55.5813219,25.3951203,587.2,-4.1,-7.3,298.3,-66950.46,-85475.2,298.9,Weapon+Missile,Red,Allies,R-27ET,,xu,,144.933169913463,141.089218139648,0.428599695245782,587.200012207031,554.344207763672,144.311813359467,-13.4061279296875,0.0582993211627337,NaN,2.87693031992273,3.84616447211198,2122.52561741001,0.00211432506330311,0.00211432506330311,0.00211432506330311,1050.28118705824,575.846499971008,1626.12768702925,,,32.5,32.8558044433594,15264.406858709,15318.8361109736
2011-06-01T05:06:37Z,1306904797,1C10C,55.5801091,25.3957126,564.71,-6.9,-11.1,298.3,-67071.78,-85408.3,298.9,Weapon+Missile,Red,Allies,R-27ET,,xu,,140.359532232068,136.767349243164,0.414967947474795,564.711486816406,532.692367553711,138.546254060368,-22.488525390625,0.0581673082357398,NaN,2.67694238102476,3.90387999748541,2049.98379490711,0.0119720594957471,0.0119720594957471,0.0119720594957471,985.039914420247,553.792790218811,1538.83270463906,,,33.5,32.0191192626953,15403.050273809,15459.3039081171
2011-06-01T05:06:38Z,1306904798,1C10C,55.5789376,25.3962846,533.47,-9,-15,298.2,-67188.96,-85343.7,298.9,Weapon+Missile,Red,Allies,R-27ET,,xu,,137.406581767267,134.076690673828,0.406092966703767,533.468444824219,501.320087432861,133.807477519155,-31.2430419921875,0.0452148229012486,NaN,1.75382865431919,3.6849391374143,2332.56103958978,0.150259271264076,0.150259271264076,0.150259271264076,944.028435648233,523.153832443542,1467.18226809178,,,34.5,32.1483573913574,15536.9704254548,15596.8314427477
2011-06-01T05:06:39Z,1306904799,1C10C,55.577807,25.3968345,495.21,-9.8,-18.1,298.1,-67302.05,-85281.57,298.7,Weapon+Missile,Red,Allies,R-27ET,,xu,,134.580205131526,131.545989990234,0.397566524358049,495.207672119141,462.207672119141,129.026915352007,-38.2607727050781,0.0495159944567175,NaN,0.769243225083516,3.29930836442267,2448.18964004992,0.203958973288536,0.203958973288536,0.203958973288536,905.591580662178,485.632831778717,1391.22441244089,,,35.5,33,15666.0907730886,15731.5112107399
2011-06-01T05:06:40Z,1306904800,1C10C,55.5767072,25.3973661,450.42,-10.4,-21.3,297.9,-67412.07,-85221.52,298.5,Weapon+Missile,Red,Allies,R-27ET,,xu,,133.108211911318,130.374862670898,0.393017665379139,450.41845703125,417.41845703125,125.346409162924,-44.7892150878906,0.0778970406680858,NaN,0.415384784563495,3.08161251977121,2474.74826302344,0.20991462469101,0.20991462469101,0.20991462469101,885.88980391142,441.709616164551,1327.59942007597,,,36.5,33,15791.5237237633,15864.7096778324
2011-06-01T05:06:41Z,1306904801,1C10C,55.5756374,25.3978791,399.4,-10.9,-24.3,297.7,-67519.09,-85163.55,298.3,Weapon+Missile,Red,Allies,R-27ET,,xu,,131.972745484995,129.566848754883,0.389439122282183,399.404602050781,366.404602050781,121.714387608363,-51.0138549804688,0.0568420876527116,NaN,0.47691112860697,2.98645432425459,2525.91092149004,0.218364641070366,0.218364641070366,0.218364641070366,870.84027754236,391.682114070129,1262.52239161249,,,37.5,33,15913.3228814294,15996.7680925363
2011-06-01T05:06:42Z,1306904802,1C10C,55.5745991,25.3983723,342.61,-11.2,-27.3,297.5,-67622.96,-85107.81,298.1,Weapon+Missile,Red,Allies,R-27ET,,xu,,130.84571705705,128.796920776367,0.385864415411229,342.607696533203,309.607696533203,117.875838049198,-56.7969055175781,0.097232853162565,NaN,0.338504175265832,2.93357564003059,2591.33583501265,0.223823025822639,0.223823025822639,0.223823025822639,856.030083608674,335.983376720734,1192.01346032941,,,38.5,33,16031.2951943796,16127.706911303
2011-06-01T05:06:43Z,1306904803,1C10C,55.5735864,25.3988481,280.03,-11.3,-30,297.2,-67724.28,-85054.02,297.8,Weapon+Missile,Red,Allies,R-27ET,,xu,,130.672860634654,128.999603271484,0.385081305803568,280.033843994141,247.033843994141,114.716648682148,-62.5738525390625,0.0263610228390957,NaN,0.199987938897973,2.85076023667442,2680.06102649272,0.226285099983215,0.226285099983215,0.226285099983215,853.769825322181,274.619389620514,1128.38921494269,,,39.5,33,16146.0803536605,16258.4448402483
2011-06-01T05:06:44Z,1306904804,1C10C,55.572598,25.3993068,211.89,-11.4,-32.8,296.9,-67823.17,-85002.16,297.5,Weapon+Missile,Red,Allies,R-27ET,,xu,,130.812522560203,129.544738769531,0.385195545536016,211.89306640625,178.89306640625,111.663559357031,-68.1407775878906,0.0343300958150255,NaN,0.199987938897973,2.77110251514891,2802.31538207526,0.227683573961258,0.227683573961258,0.227683573961258,855.595802928181,207.796113967285,1063.39191689547,,,40.5,33,16257.8235335454,16389.3290138111
2011-06-01T05:06:45Z,1306904805,1C10C,55.5716305,25.3997497,138.22,-11.3,-35.4,296.6,-67919.97,-84952.05,297.2,Weapon+Missile,Red,Allies,R-27ET,,xu,,131.556338520496,130.725143432617,0.387063305425924,138.223068237305,105.223068237305,108.994502497635,-73.6699981689453,0.0503980895478507,NaN,0,2.62758081733649,2936.77089194285,0.225886896252632,0.225886896252632,0.225886896252632,865.353510245972,135.550525212936,1000.90403545891,,,41.5,33,16366.8914800682,16520.9486878603
2011-06-01T05:06:46Z,1306904806,1C10C,55.5706828,25.4001772,59.14,-11.1,-37.9,296.2,-68014.81,-84903.7,296.8,Weapon+Missile,Red,Allies,R-27ET,,xu,,132.619209365531,132.261840820312,0.389842375587872,59.1415367126465,26.3540306091309,106.461101179976,-79.0815315246582,0.0512171375900484,NaN,0.184604645339812,2.47546097857608,3110.19914645929,0.227284386754036,0.227284386754036,0.227284386754036,879.392734636932,57.9980351003075,937.390769737239,,,42.5,32.7875061035156,16473.4180987433,16653.6218210341
2011-06-01T05:06:47Z,1306904807,1C10C,55.5697649,25.4005847,-24.19,-10.9,-40.2,295.8,-68106.67,-84857.58,296.4,Weapon+Missile,Red,Allies,R-27ET,,xu,,132.321413359366,132.470153808594,0.388602015166965,-24.18922996521,-56.4037914276123,102.785892798092,-83.3307666778564,0.0500440605376077,NaN,0.169233304612698,2.40865596552124,3140.37761166009,0.232165426015854,0.232165426015854,0.232165426015854,875.447821671007,-23.7215312038326,851.726290467174,,,43.5,32.2145614624023,16576.2618016687,16785.9883646443
