ISOTime,UnixTime,Id,Longitude,Latitude,Altitude,Roll,Pitch,Yaw,U,V,Heading,Type,Color,Coalition,Name,Group,Country,Pilot,TAS,CAS,M,ASL,AGL,GS,VS,AOA,AOS,RRT,TRT,TRD,G,LatG,LonG,Ek,Ep,Em,FFW,FFV,RelativeTime,Elev,GroundDistance,AirDistance
2011-06-01T05:06:32Z,1306904792,2130F,55.4620568,25.7124364,974.71,-18.7,-0.5,171.1,-78542.19,-50195.79,171.7,Weapon+Missile,Red,Allies,R-27ER,,xu,,282.634696514959,271.782135009766,0.83953464096699,974.710693359375,974.710693359375,NaN,NaN,NaN,NaN,NaN,NaN,NaN,NaN,NaN,NaN,NaN,955.864662103271,NaN,,,0.119999885559082,0,NaN,NaN
2011-06-01T05:06:33Z,1306904793,2130F,55.4627059,25.7087154,967.94,-15.2,-0.7,171.1,-78481.85,-50608.71,171.8,Weapon+Missile,Red,Allies,R-27ER,,xu,,417.353941051588,402.195434570312,1.23960638224588,967.938415527344,967.938415527344,417.298991568705,-6.77227783203125,0.647746188680141,NaN,3.29231851958081,3.71729108151721,5000,2.19201469421387,2.19201469421387,2.19201469421387,8709.2156055646,949.223326263123,9658.43893182772,,,1.11999988555908,0,419.308122635844,419.426656842122
2011-06-01T05:06:34Z,1306904794,2130F,55.4637328,25.7029116,970.09,-12.7,3.2,171,-78386.28,-51252.76,171.6,Weapon+Missile,Red,Allies,R-27ER,,xu,,651.106524385362,618.473754882812,1.93393587470834,970.086120605469,970.086120605469,651.102982223306,2.147705078125,0.821873358856111,NaN,2.00001770031043,2.09038174335993,5000,5.29280424118042,5.29280424118042,5.29280424118042,21196.9853048593,951.329505463562,22148.3148103228,,,2.11999988555908,0,1073.54081307644,1073.76226768172
2011-06-01T05:06:35Z,1306904795,2130F,55.464842,25.6949534,1018.39,-10.2,2.7,174.4,-78285.23,-52135.53,175.1,Weapon+Missile,Red,Allies,R-27ER,,xu,,889.850690905242,838.039611816406,2.64453188216543,1018.38995361328,1018.38995361328,888.538683356717,48.3038330078125,0.0510746273625128,NaN,2.4768827251405,2.92345223246357,5000,5.52536106109619,5.52536106109619,5.52536106109619,39591.7126052268,998.699383860168,40590.411989087,,,3.11999988555908,0,1966.40020091076,1968.06630100105
2011-06-01T05:06:36Z,1306904796,2130F,55.4654951,25.6861992,1057.58,-8.2,1.9,177.9,-78230.95,-53105.95,178.5,Weapon+Missile,Red,Allies,R-27ER,,xu,,972.720622326792,913.468811035156,2.89211803659205,1057.57543945312,1057.57543945312,971.931019568424,39.1854858398438,0.0695047775880503,NaN,1.90767695782644,3.45447937675137,5000,5.71392917633057,5.71392917633057,5.71392917633057,47309.2704549911,1037.1272183313,48346.3976733224,,,4.11999988555908,0,2943.11652193248,2945.72718311493
2011-06-01T05:06:37Z,1306904797,2130F,55.4655869,25.6775548,1081.76,-6.6,1,181.1,-78232.84,-54063.54,181.8,Weapon+Missile,Red,Allies,R-27ER,,xu,,957.901057085449,898.70751953125,2.84885112004799,1081.76306152344,1081.76306152344,957.595631832144,24.1876220703125,0.0725746781952192,NaN,1.43078375846604,3.34319510460436,5000,5.27480697631836,5.27480697631836,5.27480697631836,45878.721758271,1060.84717272888,46939.5689309999,,,5.11999988555908,0,3905.4507966994,3908.52672057378
2011-06-01T05:06:38Z,1306904798,2130F,55.4651672,25.6689642,1090.7,-5.4,0.2,183.9,-78286.02,-55014.57,184.6,Weapon+Missile,Red,Allies,R-27ER,,xu,,952.558469437064,893.38720703125,2.83325438468028,1090.70458984375,1090.70458984375,952.516502097249,8.9415283203125,0.10608986383522,NaN,1.16921483401123,2.88233193233915,5000,4.26287460327148,4.26287460327148,4.26287460327148,45368.3818848141,1069.61581659912,46437.9977014132,,,6.11999988555908,0,4862.67198216111,4865.95268034168
2011-06-01T05:06:39Z,1306904799,2130F,55.4643423,25.6605127,1093.42,-4.3,0.2,185.9,-78379.69,-55949.73,186.5,Weapon+Missile,Red,Allies,R-27ER,,xu,,939.843758555267,881.493530273438,2.79552373356608,1093.41613769531,1093.41613769531,939.839846997104,2.7115478515625,0.199710161141341,NaN,0.984652877353732,1.45136215793994,5000,1.0735719203949,1.0735719203949,1.0735719203949,44165.3145247646,1072.27493667297,45237.5894614376,,,7.11999988555908,0,5807.12909607385,5810.57539534004
2011-06-01T05:06:40Z,1306904800,2130F,55.4634434,25.6520686,1093.73,-3.6,-0.2,185.2,-78480.78,-56883.98,185.9,Weapon+Missile,Red,Allies,R-27ER,,xu,,939.707618387012,881.354553222656,2.79512901695257,1093.73303222656,1093.73303222656,939.707564954357,0.31689453125,0.0835982437981626,NaN,0.769238956215285,0.608780630417054,5000,1.51433074474335,1.51433074474335,1.51433074474335,44152.5204027295,1072.58570404846,45225.106106778,,,8.11999988555908,0,6751.4366028401,6755.04486315731
2011-06-01T05:06:41Z,1306904801,2130F,55.4626754,25.6436343,1077,-3,-1.9,184,-78568.75,-57817.29,184.7,Weapon+Missile,Red,Allies,R-27ER,,xu,,937.594447988038,880.067016601562,2.78830492297772,1077.00231933594,1077.00231933594,937.44516220639,-16.730712890625,0.0683266585664063,NaN,0.569204486653591,1.97176163460091,5000,3.8410918712616,3.8410918712616,3.8410918712616,43954.1674448997,1056.17847949158,45010.3459243913,,,9.11999988555908,0,7693.49103602673,7697.40813596376
2011-06-01T05:06:42Z,1306904802,2130F,55.4622422,25.6352667,1032.68,-2.4,-3.6,181.2,-78623.01,-58743.61,181.8,Weapon+Missile,Red,Allies,R-27ER,,xu,,928.966009223457,873.825805664062,2.76123276918703,1032.67834472656,1032.67834472656,927.907986584544,-44.323974609375,0.0704740126809327,NaN,0.569242479580849,3.16689490207822,5000,5.7260627746582,5.7260627746582,5.7260627746582,43148.8923146278,1012.71150893127,44161.603823559,,,10.1199998855591,0,8625.98633634343,8631.11030565698
2011-06-01T05:06:43Z,1306904803,2130F,55.4623515,25.6273684,964.66,-1.9,-5.7,176.8,-78622.2,-59618.59,177.5,Weapon+Missile,Red,Allies,R-27ER,,xu,,877.613082955472,828.674194335938,2.6065494482004,964.656921386719,964.656921386719,874.97303349385,-68.0214233398438,0.183174438446708,NaN,0.60001845820728,4.58071802017465,5000,7.37344598770142,7.37344598770142,7.37344598770142,38510.2361687304,946.005279811707,39456.2414485421,,,11.1199998855591,0,9505.2903573781,9513.17867995006
2011-06-01T05:06:44Z,1306904804,2130F,55.4631034,25.6202008,872.57,-1.4,-7.4,172.5,-78555.91,-60413.37,173.2,Weapon+Missile,Red,Allies,R-27ER,,xu,,802.843058119623,762.231140136719,2.38195573246322,872.573852539062,872.573852539062,797.544785201725,-92.0830688476562,0.115091352521975,NaN,0.446181467200848,4.59948012293785,5000,5.08046722412109,5.08046722412109,5.08046722412109,32227.8487985434,855.70263710022,33083.5514356436,,,12.1199998855591,0,10306.7477446319,10320.0233202513
2011-06-01T05:06:45Z,1306904805,2130F,55.4642514,25.6136425,766.13,-0.8,-9,168.9,-78449.04,-61141.11,169.6,Weapon+Missile,Red,Allies,R-27ER,,xu,,743.205263290431,709.891357421875,2.20232519501338,766.129211425781,766.129211425781,735.543065877766,-106.444641113281,0.0389983525222941,NaN,0.569196375803951,4.44246730741078,5000,6.21771907806396,6.21771907806396,6.21771907806396,27617.70316913,751.316103122864,28369.0192722528,,,13.1199998855591,0,11045.8516457825,11066.8468595892
2011-06-01T05:06:46Z,1306904806,2130F,55.4658701,25.6077495,653.12,-0.3,-9.9,162.8,-78294.02,-61795.72,163.5,Weapon+Missile,Red,Allies,R-27ER,,xu,,682.139677880753,655.884033203125,2.01875830204087,653.119201660156,653.119201660156,672.71336974378,-113.010009765625,0.181998643329442,NaN,0.369208490266831,5.46507255777451,5000,6.81038856506348,6.81038856506348,6.81038856506348,23265.7270069629,640.491141896057,23906.218148859,,,14.1199998855591,0,11721.6766598786,11752.129538647
2011-06-01T05:06:47Z,1306904807,2130F,55.4679652,25.6024941,544.88,-0.1,-9.8,157.2,-78090.35,-62380.26,157.9,Weapon+Missile,Red,Allies,R-27ER,,xu,,628.398134552072,608.105712890625,1.85741652872906,544.87841796875,544.87841796875,619.005774007314,-108.240783691406,0.110418722041433,NaN,0.107685802991052,5.66820964076668,5000,6.07257223129272,6.07257223129272,6.07257223129272,19744.2107754262,534.343193757324,20278.5539691835,,,15.1199998855591,0,12343.3665954902,12383.2294056966
2011-06-01T05:06:48Z,1306904808,2130F,55.470431,25.5977848,448.46,0,-9.4,152.1,-77848.71,-62904.74,152.8,Weapon+Missile,Red,Allies,R-27ER,,xu,,585.462609157906,569.800170898438,1.72860876203589,448.459991455078,448.459991455078,577.468573820784,-96.4184265136719,0.140211778886824,NaN,0.199987938897973,4.90602712373766,5000,4.41826772689819,4.41826772689819,4.41826772689819,17138.3233360991,439.789017520294,17578.1123536194,,,16.1199998855591,0,12923.1097695867,12970.9802098972
2011-06-01T05:06:49Z,1306904809,2130F,55.4730554,25.593625,358.25,0.4,-9.9,148.3,-77590.43,-63368.53,149,Weapon+Missile,Red,Allies,R-27ER,,xu,,538.47121123536,527.115478515625,1.58823516481029,358.248443603516,358.248443603516,530.860736882566,-90.2115478515625,0.0493269958275117,NaN,0.338461566624799,3.87382460381642,5000,3.19318056106567,3.19318056106567,3.19318056106567,14497.5622664638,351.321709946442,14848.8839764102,,,17.1199998855591,0,13455.8913386185,13511.3784213977
2011-06-01T05:06:50Z,1306904810,2130F,55.4757742,25.5898607,267.7,0.8,-10.8,145.4,-77322.14,-63788.6,146.1,Weapon+Missile,Red,Allies,R-27ER,,xu,,506.593085498497,498.469116210938,1.49267622864962,267.703063964844,267.703063964844,498.43564128278,-90.5453796386719,0.129118172228846,NaN,0.476923081438018,2.73124814789847,5000,1.60396218299866,1.60396218299866,1.60396218299866,12831.8277137444,262.527025223084,13094.3547389675,,,18.1199998855591,0,13955.9881002026,14019.6301128383
2011-06-01T05:06:51Z,1306904811,2130F,55.4784401,25.5864153,174.68,1.1,-11.7,144.9,-77058.73,-64173.3,145.5,Weapon+Missile,Red,Allies,R-27ER,,xu,,475.426640596148,470.229034423828,1.39937025751825,174.675384521484,174.675384521484,466.236357919374,-93.0276794433594,0.196934273351135,NaN,0.153846169073129,0.641492220621244,5000,1.3887003660202,1.3887003660202,1.3887003660202,11301.524529427,171.298035961761,11472.8225653887,,,19.1199998855591,0,14423.6952523809,14496.5151113214
2011-06-01T05:06:52Z,1306904812,2130F,55.480859,25.5831597,89.48,-0.2,-9.4,148.5,-76819.9,-64536.68,149.2,Weapon+Missile,Red,Allies,R-27ER,,xu,,443.112233677249,440.387359619141,1.30300162085205,89.476921081543,89.476921081543,434.844424434664,-85.1984634399414,0.0808588252000928,NaN,1.89234489068705,4.09872608459884,3667.65631684437,5.78968858718872,5.78968858718872,5.78968858718872,9817.42258172206,87.7468848124313,9905.16946653449,,,20.1199998855591,0,14859.9574945689,14941.0276584517
2011-06-01T05:06:53Z,1306904813,2130F,55.4827437,25.5799635,38.45,-1.9,-5.2,155.4,-76634.62,-64892.88,156,Weapon+Missile,Red,Allies,R-27ER,,xu,,404.725467384599,403.672241210938,1.18943803159207,38.4461517333984,38.4461517333984,401.495410346643,-51.0307693481445,0.250747497959776,NaN,1.3384438697557,7.2140611692931,3195.05513921712,5.59032678604126,5.59032678604126,5.59032678604126,8190.13519748412,37.7027953896332,8227.83799287376,,,21.1199998855591,0,15262.9566801046,15347.2489532143
2011-06-01T05:06:54Z,1306904814,2130F,55.4841101,25.5768665,14.94,-2.5,-1.7,161.1,-76501.3,-65237.46,161.8,Weapon+Missile,Red,Allies,R-27ER,,xu,,370.220897081319,369.919036865234,1.08774526284304,14.9423084259033,14.9423084259033,369.474061316182,-23.5038433074951,0.174706522918741,NaN,0.707716881040041,6.8313844531175,3367.04825800711,4.61871528625488,4.61871528625488,4.61871528625488,6853.17563178485,14.6533988924885,6867.82903067733,,,22.1199998855591,0,15634.0000465425,15719.0375528631
2011-06-01T05:06:55Z,1306904815,2130F,55.4850695,25.5739341,13.81,-2.5,0.6,165.5,-76408.62,-65563.36,166.1,Weapon+Missile,Red,Allies,R-27ER,,xu,,338.828256230804,338.661407470703,0.995497937060949,13.8123073577881,13.8123073577881,338.826371934053,-1.13000106811523,0.108430378287468,NaN,0.369208436905978,5.01672229206877,5000,2.6047248840332,2.6047248840332,2.6047248840332,5740.22936102036,13.5452463950253,5753.77460741538,,,23.1199998855591,0,15974.3552009921,16059.3953503546
2011-06-01T05:06:56Z,1306904816,2130F,55.4857659,25.5711771,17.53,-2,0.8,168.5,-76342.15,-65869.54,169.2,Weapon+Missile,Red,Allies,R-27ER,,xu,,313.333610309028,313.129302978516,0.920631725798402,17.5346164703369,17.5346164703369,313.311499572167,3.72230911254883,0.177466859546038,NaN,0.50769094921481,2.81737576611527,5000,1.6435090303421,1.6435090303421,1.6435090303421,4908.89756746448,17.195584660883,4926.09315212536,,,24.1199998855591,0,16289.1329908551,16374.1959214385
2011-06-01T05:06:57Z,1306904817,2130F,55.4863136,25.5685807,22.87,-1.7,1.3,169.7,-76290.41,-66157.74,170.3,Weapon+Missile,Red,Allies,R-27ER,,xu,,292.859599690727,292.602478027344,0.860527028774643,22.8684616088867,22.8684616088867,292.811023062744,5.3338451385498,0.0254059207590318,NaN,0.399975877795947,1.48123356338816,5000,1.32075726985931,1.32075726985931,1.32075726985931,4288.33725655064,22.4262999036789,4310.76355645432,,,25.1199998855591,0,16583.3444546244,16668.4566623564
2011-06-01T05:06:58Z,1306904818,2130F,55.486793,25.5661215,30.34,-1.4,1.7,170.1,-76245.34,-66430.68,170.8,Weapon+Missile,Red,Allies,R-27ER,,xu,,276.733280799837,276.40283203125,0.813210537571842,30.3384609222412,30.3384609222412,276.632441720959,7.46999931335449,0.0333507415662454,NaN,0.384646798864322,0.676531304506821,5000,1.08411598205566,1.08411598205566,1.08411598205566,3829.06543511208,29.7518667803097,3858.81730189239,,,26.1199998855591,0,16861.304681893,16946.5184061443
2011-06-01T05:06:59Z,1306904819,2130F,55.4872372,25.5637996,38.14,-1.1,1.4,170,-76203.66,-66688.37,170.7,Weapon+Missile,Red,Allies,R-27ER,,xu,,261.152943664865,260.752532958984,0.767493488041789,38.1369209289551,38.1369209289551,261.036480221343,7.79846000671387,0.119402149605537,NaN,0.323090999630052,0.0513960362511687,5000,0.91162097454071,0.91162097454071,0.91162097454071,3410.0429992412,37.3995435627937,3447.44254280399,,,27.1199998855591,0,17123.5922434903,17208.9232832461
2011-06-01T05:07:00Z,1306904820,2130F,55.4876677,25.5615757,44.78,-1,1.6,170.1,-76163.21,-66935.17,170.7,Weapon+Missile,Red,Allies,R-27ER,,xu,,250.186209806944,249.729278564453,0.735318783862471,44.7799987792969,44.7799987792969,250.097998980876,6.6430778503418,0.0313124203030965,NaN,0.0615346683365258,0.0663520060942211,5000,1.11485707759857,1.11485707759857,1.11485707759857,3129.6569788782,43.9141775028992,3173.5711563811,,,28.1199998855591,0,17374.9027831352,17460.3232412311
2011-06-01T05:07:01Z,1306904821,2130F,55.4880699,25.5594824,52.13,-0.8,1.9,170.2,-76125.44,-67167.48,170.8,Weapon+Missile,Red,Allies,R-27ER,,xu,,235.47042891329,234.960861206055,0.692125184092932,52.129997253418,52.129997253418,235.355689149506,7.34999847412109,0.0601767415102857,NaN,0.199987938897973,0.325209238726829,5000,1.11384499073029,1.11384499073029,1.11384499073029,2772.31614463043,51.1220637565231,2823.43820838696,,,29.1199998855591,0,17611.4059915278,17696.9424287955
2011-06-01T05:07:02Z,1306904822,2130F,55.4884482,25.5574649,60.27,-0.7,2.2,170.6,-76089.98,-67391.38,171.3,Weapon+Missile,Red,Allies,R-27ER,,xu,,226.843165278928,226.269653320312,0.666828046585728,60.2746124267578,60.2746124267578,226.696905310684,8.14461517333984,0.0345043336647221,NaN,0,0.452302757440208,5000,1.11846458911896,1.11846458911896,1.11846458911896,2572.89108168816,59.1092027954864,2632.00028448365,,,30.1199998855591,0,17839.184102697,17924.8681119504
2011-06-01T05:07:03Z,1306904823,2130F,55.4887868,25.5555434,68.94,-0.6,2.4,171.2,-76058.38,-67604.6,171.9,Weapon+Missile,Red,Allies,R-27ER,,xu,,215.721973229767,215.090484619141,0.634198163094043,68.9392318725586,68.9392318725586,215.547892831278,8.66461944580078,0.0343508038593612,NaN,0,0.68707914429773,5000,1.07884836196899,1.07884836196899,1.07884836196899,2326.79848670722,67.6062918243027,2394.40477853153,,,31.1199998855591,0,18055.7730299479,18141.6324757231
2011-06-01T05:07:04Z,1306904824,2130F,55.4890847,25.5537059,77.64,-0.5,2.4,172,-76030.76,-67808.46,172.7,Weapon+Missile,Red,Allies,R-27ER,,xu,,205.905521693658,205.219772338867,0.605398329192169,77.6415328979492,77.6415328979492,205.721544376861,8.70230102539062,0.0631039808031982,NaN,0.0153836137232786,0.775140613184146,5000,1.06100046634674,1.06100046634674,1.06100046634674,2119.85419319686,76.1403338593674,2195.99452705623,,,32.1199998855591,0,18262.4920651355,18348.5369745415
2011-06-01T05:07:05Z,1306904825,2130F,55.4893433,25.5519436,86.21,-0.4,2.6,172.9,-76007,-68003.95,173.5,Weapon+Missile,Red,Allies,R-27ER,,xu,,197.116703910559,196.38102722168,0.579613670851613,86.2069244384766,86.2069244384766,196.930518275661,8.56539154052734,0.0282686889521716,NaN,0,0.850384271597681,5000,1.15462696552277,1.15462696552277,1.15462696552277,1942.74974802814,84.5401135544586,2027.2898615826,,,33.1199998855591,0,18460.3876216495,18546.6203491064
2011-06-01T05:07:06Z,1306904826,2130F,55.4895612,25.5502702,95.47,-0.3,3.2,173.6,-75987.22,-68189.55,174.3,Weapon+Missile,Red,Allies,R-27ER,,xu,,186.882657938308,186.102737426758,0.549578343721974,95.474609375,95.474609375,186.652719921259,9.26768493652344,0.0699693574316254,NaN,0.199987938897973,0.950831594852827,5000,1.28899657726288,1.28899657726288,1.28899657726288,1746.25639190433,93.6286078027344,1839.88499970706,,,34.1199998855591,0,18647.9543962857,18734.4186107581
2011-06-01T05:07:07Z,1306904827,2130F,55.4897505,25.5486677,106.99,-0.3,4.3,174,-75970.21,-68367.27,174.7,Weapon+Missile,Red,Allies,R-27ER,,xu,,178.89370760793,178.050735473633,0.52615305936067,106.986152648926,106.986152648926,178.522948085573,11.5115432739258,0.072754471599687,NaN,0.0307631720217374,1.11575771814189,5000,1.39692449569702,1.39692449569702,1.39692449569702,1600.14793108558,104.917575387459,1705.06550647304,,,35.1199998855591,0,18827.3485047528,18914.1845234003
2011-06-01T05:07:08Z,1306904828,2130F,55.4899291,25.547136,121.83,-0.4,5.8,173.8,-75954.2,-68537.12,174.5,Weapon+Missile,Red,Allies,R-27ER,,xu,,171.256324178306,170.33122253418,0.503774782021908,121.827690124512,121.827690124512,170.612008183556,14.8415374755859,0.0733281242593374,NaN,0,1.50678434057783,5000,1.45059466362,1.45059466362,1.45059466362,1466.43642855325,119.472151735954,1585.9085802892,,,36.1199998855591,0,18998.7990602097,19086.2793192495
2011-06-01T05:07:09Z,1306904829,2130F,55.4901129,25.5456858,140.18,-0.3,6.3,173.1,-75937.55,-68697.96,173.8,Weapon+Missile,Red,Allies,R-27ER,,xu,,162.734078975626,161.714920043945,0.47880461385171,140.178466796875,140.178466796875,161.696102165656,18.3507766723633,0.171720824248779,NaN,0.107685829671479,0.444227045922446,4993.89803155227,0.488590598106384,0.488590598106384,0.488590598106384,1324.11902300227,137.468116141357,1461.58713914363,,,37.1199998855591,0,19161.2826348976,19249.7991883072
2011-06-01T05:07:10Z,1306904830,2130F,55.4902971,25.5442961,152.73,0,2.8,173.1,-75920.8,-68852.09,173.8,Weapon+Missile,Red,Allies,R-27ER,,xu,,155.547879984449,154.480514526367,0.457725936865846,152.734603881836,152.734603881836,155.040273442613,12.5561370849609,0.0215899659474433,NaN,0.399975877795947,2.88937855312849,2421.29472378147,0.001776980352588,0.001776980352588,0.001776980352588,1209.75714838282,149.781480315781,1359.5386286986,,,38.1199998855591,0,19317.0848122997,19406.1100640054
2011-06-01T05:07:11Z,1306904831,2130F,55.4904751,25.5429521,155.22,0.3,-1,173.1,-75904.59,-69001.16,173.8,Weapon+Missile,Red,Allies,R-27ER,,xu,,149.968905646761,148.918594360352,0.441321252112036,155.219223022461,155.219223022461,149.948322193392,2.484619140625,0.0115586978234776,NaN,0.384615449363249,3.75769217801916,2243.50178939904,0.00171762111131102,0.00171762111131102,0.00171762111131102,1124.53363304436,152.218059345322,1276.75169238968,,,39.1199998855591,0,19467.7703248329,19556.8196965653
2011-06-01T05:07:12Z,1306904832,2130F,55.490646,25.5416633,147.98,0.5,-4.9,173.1,-75889.05,-69144.11,173.8,Weapon+Missile,Red,Allies,R-27ER,,xu,,143.969356402487,143.003982543945,0.423631432565836,147.983840942383,147.983840942383,143.787429315297,-7.23538208007812,0.0389951280854887,NaN,0.20000005181158,3.87695197668264,2106.17641437261,0.00615418795496225,0.00615418795496225,0.00615418795496225,1036.35877914731,145.122573377762,1181.48135252508,,,40.1199998855591,0,19612.2622092465,19701.496052333
2011-06-01T05:07:13Z,1306904833,2130F,55.4908114,25.5404153,131.39,0.7,-8.9,173.1,-75873.99,-69282.52,173.8,Weapon+Missile,Red,Allies,R-27ER,,xu,,140.216754814272,139.37956237793,0.412512020405568,131.388458251953,131.388458251953,139.231216341753,-16.5953826904297,0.0706491922266489,NaN,0.169230850013465,3.94230493420861,2011.15368666274,0.0038713226094842,0.0038713226094842,0.0038713226094842,983.036916532286,128.848062411652,1111.88497894394,,,41.1199998855591,0,19752.1760334922,19842.393683275
2011-06-01T05:07:14Z,1306904834,2130F,55.4909717,25.5392092,105.74,0.9,-12.8,173.1,-75859.41,-69416.29,173.8,Weapon+Missile,Red,Allies,R-27ER,,xu,,136.98115025316,136.321762084961,0.402876313737171,105.73999786377,105.73999786377,134.558507736949,-25.6484603881836,0.0292183497154342,NaN,0.169230850013465,3.96922527104857,1944.74176213503,0.00506165996193886,0.00506165996193886,0.00506165996193886,938.191776233938,103.695515005074,1041.88729123901,,,42.1199998855591,0,19887.3990364257,19980.0301023797
2011-06-01T05:07:15Z,1306904835,2130F,55.4911268,25.538046,71.38,1.1,-16.8,173.1,-75845.29,-69545.3,173.7,Weapon+Missile,Red,Allies,R-27ER,,xu,,134.248289134474,133.811584472656,0.394685647223752,71.3846130371094,71.3846130371094,129.777928281142,-34.3553848266602,0.043225397602222,NaN,0.199999891729021,4.06567266477103,1922.09140618445,0.0099042747169733,0.0099042747169733,0.0099042747169733,901.130156776661,70.0043915440369,971.134548320698,,,43.1199998855591,0,20017.8162467361,20114.8982363299
2011-06-01T05:07:16Z,1306904836,2130F,55.491278,25.5369176,28.45,1.2,-20.9,173,-75831.52,-69670.45,173.7,Weapon+Missile,Red,Allies,R-27ER,,xu,,133.030979829908,132.859588623047,0.39091753364842,28.4492301940918,28.4492301940918,125.91185208164,-42.9353828430176,0.0857001975640116,NaN,0.200000105172432,3.9964440017779,1934.56125763223,0.0105254268273711,0.0105254268273711,0.0105254268273711,884.86207972527,27.899164328289,912.761244053559,,,44.1199998855591,0,20144.3421299571,20248.5114722136
2011-06-01T05:07:17Z,1306904837,2130F,55.4914249,25.5358278,-22.6,1.3,-24.7,173,-75818.12,-69791.34,173.7,Weapon+Missile,Red,Allies,R-27ER,,xu,,131.900833176844,132.039596557617,0.387373789233368,-22.5984592437744,-22.5984592437744,121.622215058766,-51.0476894378662,0.0524552232309679,NaN,0.153846169073129,3.87335588208463,1955.87956109307,0.0122104566544294,0.0122104566544294,0.0122104566544294,869.891489637281,-22.161518034296,847.729971602985,,,45.1199998855591,0,20266.5528993713,20380.9552431433
2011-06-01T05:07:18Z,1306904838,2130F,55.4915684,25.5347719,-81.7,1.4,-28.6,172.9,-75805.03,-69908.45,173.6,Weapon+Missile,Red,Allies,R-27ER,,xu,,131.834472265349,132.330703735352,0.386921623279461,-81.6953811645508,-81.6953811645508,117.846857815441,-59.0969219207764,0.0605705313500215,NaN,0.200000105172432,3.81610737089569,2023.97630831711,0.0149595364928246,0.0149595364928246,0.0149595364928246,869.01640387415,-80.1158009697342,788.900602904416,,,46.1199998855591,0,20384.9788406345,20513.3067464088
2011-06-01T05:07:19Z,1306904839,2130F,55.4917093,25.5337461,-148.78,1.5,-32.2,172.9,-75792.16,-70022.23,173.5,Weapon+Missile,Red,Allies,R-27ER,,xu,,132.710131024658,133.618499755859,0.389198239422223,-148.779220581055,-148.779220581055,114.506494862618,-67.0838394165039,0.10052805554696,NaN,0.199999891729021,3.66950547121101,2058.24951325676,0.0223790779709816,0.0223790779709816,0.0223790779709816,880.598943829097,-145.90257435112,734.696369477977,,,47.1199998855591,0,20500.0495648307,20646.5022215841
