ISOTime,UnixTime,Id,Longitude,Latitude,Altitude,Roll,Pitch,Yaw,U,V,Heading,Type,Color,Coalition,Name,Group,Country,Pilot,TAS,CAS,M,ASL,AGL,GS,VS,AOA,AOS,RRT,TRT,TRD,G,LatG,LonG,Ek,Ep,Em,FFW,FFV,RelativeTime,Elev,GroundDistance,AirDistance
2011-06-01T05:06:46Z,1306904806,22A09,55.4852479,25.7254017,494.25,51.6,9.8,153.1,-76198.66,-48786.61,153.8,Weapon+Missile,Red,Allies,R-27ET,,xu,,312.356400533685,306.490325927734,0.922729268107224,494.249969482422,494.249969482422,NaN,NaN,NaN,NaN,NaN,NaN,NaN,NaN,NaN,NaN,NaN,484.693646322479,NaN,,,0.480000019073486,0,NaN,NaN
2011-06-01T05:06:47Z,1306904807,22A09,55.4874094,25.721559,567.59,42.5,9.7,157,-75986.68,-49214.72,157.7,Weapon+Missile,Red,Allies,R-27ET,,xu,,483.312634950209,470.788360595703,1.42894354647296,567.594604492188,567.594604492188,477.71504855698,73.3446350097656,1.7175493471568,NaN,8.10765311085858,10.7426127884772,3353.76376345605,8.69790554046631,8.69790554046631,8.69790554046631,11679.5551551257,556.620162814331,12236.17531794,,,1.48000001907349,0,479.550152721412,485.166024801614
2011-06-01T05:06:48Z,1306904808,22A09,55.4896517,25.7155888,656.84,35.6,5.7,166.5,-75769.26,-49878.59,167.2,Weapon+Missile,Red,Allies,R-27ET,,xu,,704.245192147437,676.570434570312,2.08426702911154,656.8369140625,656.8369140625,698.567892795924,89.2423095703125,0.254835291824482,NaN,6.53845813018317,10.1747731508961,3381.48910254048,16.594518661499,16.594518661499,16.594518661499,24798.064533139,644.136972329102,25442.2015054681,,,2.48000001907349,0,1181.17670816766,1192.51213681416
2011-06-01T05:06:49Z,1306904809,22A09,55.4908391,25.7077043,696.83,29.5,-1,178.2,-75660.09,-50753.25,178.9,Weapon+Missile,Red,Allies,R-27ET,,xu,,882.356730350755,843.165649414062,2.6125961468365,696.829223632812,696.829223632812,881.449950235694,39.9923095703125,0.388420754563714,NaN,6.12307334561967,12.5765024508253,4177.43165329434,18.1270408630371,18.1270408630371,18.1270408630371,38927.6699797638,683.356030593872,39611.0260103577,,,3.48000001907349,0,2066.91150036448,2079.24322340952
2011-06-01T05:06:50Z,1306904810,22A09,55.4904585,25.7001045,643,23.7,-5,184.7,-75707.91,-51594.6,185.3,Weapon+Missile,Red,Allies,R-27ET,,xu,,844.423025670118,809.28515625,2.49873879505974,643,643,842.705560065297,-53.8292236328125,0.195703931658703,NaN,5.3692390273037,7.34239957002399,5000,3.54774522781372,3.54774522781372,3.54774522781372,35652.5123140939,630.567595,36283.0799090939,,,4.48000001907349,0,2913.77829736007,2927.9078337571
2011-06-01T05:06:51Z,1306904811,22A09,55.4897717,25.6927759,570.93,19.2,-5.1,184.9,-75786.11,-52405.56,185.6,Weapon+Missile,Red,Allies,R-27ET,,xu,,817.899892224589,786.694641113281,2.41826330430925,570.927673339844,570.927673339844,814.718241744216,-72.0723266601562,0.0651082704684628,NaN,4.21537418967843,0.84773367795204,5000,0.97564709186554,0.97564709186554,0.97564709186554,33448.0116850497,559.888786775818,34007.9004718255,,,5.48000001907349,0,3732.5015744547,3749.87486960902
2011-06-01T05:06:52Z,1306904812,22A09,55.4890797,25.6854642,498.79,15.6,-5.1,184.9,-75864.82,-53214.62,185.6,Weapon+Missile,Red,Allies,R-27ET,,xu,,816.072681935175,787.455932617188,2.41087779065437,498.793060302734,498.793060302734,812.878354861818,-72.1346130371094,0.0587303522266344,NaN,3.47694877813001,0.0504352774299245,5000,1.00637197494507,1.00637197494507,1.00637197494507,33298.7311100435,489.148896481781,33787.8800065253,,,6.48000001907349,0,4549.38957120031,4570.00981260635
2011-06-01T05:06:53Z,1306904813,22A09,55.4884024,25.6783194,428.41,12.5,-5.1,184.9,-75941.85,-54005.23,185.6,Weapon+Missile,Red,Allies,R-27ET,,xu,,797.468887446216,772.112915039062,2.35403151503075,428.412292480469,428.412292480469,794.357082152261,-70.3807678222656,0.0595798606265689,NaN,2.90769349194447,0,5000,1.0058331489563,1.0058331489563,1.0058331489563,31797.8313222353,420.128940805359,32217.9602630406,,,7.48000001907349,0,5347.64719349511,5371.42189194642
2011-06-01T05:06:54Z,1306904814,22A09,55.4877308,25.6712435,358.81,10.2,-5.1,184.9,-76018.23,-54788.21,185.6,Weapon+Missile,Red,Allies,R-27ET,,xu,,789.765601365803,767.077209472656,2.32944954548041,358.8115234375,358.8115234375,786.692721492526,-69.6007690429688,0.0608602390870069,NaN,2.2615029549479,0,5000,1.00237047672272,1.00237047672272,1.00237047672272,31186.4852550345,351.873902631836,31538.3591576663,,,8.48000001907349,0,6138.20472072504,6165.08593409447
2011-06-01T05:06:55Z,1306904815,22A09,55.4870708,25.6642968,290.56,8.2,-5,184.9,-76093.27,-55556.88,185.6,Weapon+Missile,Red,Allies,R-27ET,,xu,,775.332320309355,755.474853515625,2.28510791332218,290.555389404297,290.555389404297,772.322022917338,-68.2561340332031,0.055599016974571,NaN,1.90769915594124,0.0494558589854351,5000,1.00443828105927,1.00443828105927,1.00443828105927,30057.0103458144,284.937500950165,30341.9478467646,,,9.48000001907349,0,6914.33556294541,6944.25171534206
2011-06-01T05:06:56Z,1306904816,22A09,55.4864222,25.6574756,223.6,6.7,-5,184.9,-76167.02,-56311.68,185.6,Weapon+Missile,Red,Allies,R-27ET,,xu,,761.345955535757,744.172485351562,2.2421853388281,223.59846496582,223.59846496582,758.395961408284,-66.9569244384766,0.0500400622820242,NaN,1.38456130703162,0.0453270429826955,5000,1.00575339794159,1.00575339794159,1.00575339794159,28982.3832005328,219.275188645706,29201.6583891785,,,10.4800000190735,0,7676.45042770055,7709.33283435939
2011-06-01T05:06:57Z,1306904817,22A09,55.4858283,25.6512327,162.36,5.4,-5,184.9,-76234.56,-57002.48,185.6,Weapon+Missile,Red,Allies,R-27ET,,xu,,696.794587601015,683.725708007812,2.05065895689324,162.360763549805,162.360763549805,694.098437712801,-61.2377014160156,0.0452715567668053,NaN,1.27691752571222,0,5000,1.00466549396515,1.00466549396515,1.00466549396515,24276.1348655034,159.221518186569,24435.35638369,,,11.4800000190735,0,8373.96633448049,8409.55275548479
2011-06-01T05:06:58Z,1306904818,22A09,55.4852947,25.6456274,107.41,4.4,-5,184.9,-76295.23,-57622.71,185.6,Weapon+Missile,Red,Allies,R-27ET,,xu,,625.608143885265,616.439086914062,1.84001560553654,107.409996032715,107.409996032715,623.190149829768,-54.9507675170898,0.0429804705797889,NaN,0.938467991959752,0,5000,1.00357270240784,1.00357270240784,1.00357270240784,19569.2774847783,105.333223759422,19674.6107085377,,,12.4800000190735,0,9000.23445943005,9038.24022983247
2011-06-01T05:06:59Z,1306904819,22A09,55.4848105,25.6405422,57.59,3.5,-5,184.9,-76350.3,-58185.41,185.6,Weapon+Missile,Red,Allies,R-27ET,,xu,,567.582356803338,561.512084960938,1.6684142558269,57.5884590148926,57.5884590148926,565.391498170616,-49.8215370178223,0.039755891042515,NaN,0.769243225083516,0,5000,1.00083792209625,1.00083792209625,1.00083792209625,16107.4865877216,56.4749861598396,16163.9615738814,,,13.4800000190735,0,9568.40350855596,9608.59678939599
2011-06-01T05:07:00Z,1306904820,22A09,55.4843683,25.6359007,12.13,2.9,-5,184.9,-76400.58,-58699.02,185.6,Weapon+Missile,Red,Allies,R-27ET,,xu,,518.059256238911,514.490966796875,1.52206060034819,12.1284618377686,12.1284618377686,516.060831328507,-45.459997177124,0.0381951419832543,NaN,0.569255286185543,0,5000,0.999789655208588,0.999789655208588,0.999789655208588,13419.2696487407,11.8939580281353,13431.1636067688,,,14.4800000190735,0,10086.9952971952,10129.1801105288
2011-06-01T05:07:01Z,1306904821,22A09,55.483961,25.6316253,-29.73,2.3,-5,184.9,-76446.91,-59172.08,185.6,Weapon+Missile,Red,Allies,R-27ET,,xu,,477.16532572715,475.5341796875,1.4012534740335,-29.732307434082,-29.732307434082,475.325597956039,-41.8607692718506,0.0361361717331057,NaN,0.553846379417994,0,5000,1.00015163421631,1.00015163421631,1.00015163421631,11384.3374038148,-29.1574332698441,11355.179970545,,,15.4800000190735,0,10564.675098752,10608.6899509278
2011-06-01T05:07:02Z,1306904822,22A09,55.4835857,25.6276875,-68.27,1.9,-5,184.9,-76489.57,-59607.81,185.6,Weapon+Missile,Red,Allies,R-27ET,,xu,,439.507218708257,439.407836914062,1.29010650203563,-68.2723083496094,-68.2723083496094,437.814188470518,-38.5400009155273,0.0357230483698499,NaN,0.399975877795947,0,5000,0.99848461151123,0.99848461151123,0.99848461151123,9658.32976483337,-66.9522632676697,9591.3775015657,,,16.4800000190735,0,11004.6418433274,11050.3381068849
2011-06-01T05:07:03Z,1306904823,22A09,55.4832428,25.6240909,-103.47,1.5,-5,184.9,-76528.56,-60005.79,185.6,Weapon+Missile,Red,Allies,R-27ET,,xu,,401.432223084063,402.478820800781,1.17787707995158,-103.471534729004,-103.471534729004,399.886039006746,-35.1992263793945,0.0344127546026179,NaN,0.399975877795947,0,5000,0.998710095882416,0.998710095882416,0.998710095882416,8057.39148651064,-101.470912605019,7955.92057390562,,,17.4800000190735,0,11406.4929556114,11453.7224815546
2011-06-01T05:07:04Z,1306904824,22A09,55.4829261,25.6207678,-135.99,1.2,-5,184.9,-76564.59,-60373.52,185.6,Weapon+Missile,Red,Allies,R-27ET,,xu,,370.911583505373,372.610443115234,1.0879264876687,-135.986145019531,-135.986145019531,369.483697740669,-32.5146102905273,0.0335757123409974,NaN,0.338449533752472,0,5000,0.998157918453217,0.998157918453217,0.998157918453217,6878.77013892315,-133.356852905579,6745.41328601757,,,18.4800000190735,0,11777.7868111574,11826.4303448742
2011-06-01T05:07:05Z,1306904825,22A09,55.4826337,25.6177015,-165.98,1,-5,184.9,-76597.84,-60712.8,185.6,Weapon+Missile,Red,Allies,R-27ET,,xu,,342.226801716858,344.269378662109,1.00345286249354,-165.981536865234,-165.981536865234,340.90975386658,-29.9953918457031,0.0327659697836657,NaN,0.199987938897973,0,5000,0.997653186321259,0.997653186321259,0.997653186321259,5855.95919066747,-162.772283849945,5693.18690681752,,,19.4800000190735,0,12120.3813877801,12170.327438046
2011-06-01T05:07:06Z,1306904826,22A09,55.4823622,25.6148537,-193.84,0.8,-5,184.9,-76628.71,-61027.91,185.6,Weapon+Missile,Red,Allies,R-27ET,,xu,,317.845262727888,320.179290771484,0.93167194643525,-193.837692260742,-193.837692260742,316.622244394075,-27.8561553955078,0.031993934022435,NaN,0.199987938897973,0,5000,0.998008847236633,0.998008847236633,0.998008847236633,5051.28055192801,-190.089840480881,4861.19071144713,,,20.4800000190735,0,12438.5630623412,12489.717218914
2011-06-01T05:07:07Z,1306904827,22A09,55.4821104,25.6122122,-219.67,0.7,-5,184.9,-76657.36,-61320.21,185.6,Weapon+Missile,Red,Allies,R-27ET,,xu,,294.827442040959,297.355804443359,0.863951636829847,-219.669998168945,-219.669998168945,293.693569136064,-25.8323059082031,0.0324932706515792,NaN,0.0461720787892862,0,5000,0.996877431869507,0.996877431869507,0.996877431869507,4346.16102902074,-215.422678754349,4130.7383502664,,,21.4800000190735,0,12733.7073798231,12785.980326186
2011-06-01T05:07:08Z,1306904828,22A09,55.4818736,25.609729,-243.96,0.5,-5,184.9,-76684.29,-61594.99,185.6,Weapon+Missile,Red,Allies,R-27ET,,xu,,277.163779034258,279.86279296875,0.811969742687805,-243.956146240234,-243.956146240234,276.09770629328,-24.2861480712891,0.0322086424604002,NaN,0.199987938897973,0,5000,0.996439158916473,0.996439158916473,0.996439158916473,3840.98802042754,-239.239254152679,3601.74876627486,,,22.4800000190735,0,13011.1552526438,13064.4790582274
2011-06-01T05:07:09Z,1306904829,22A09,55.4816517,25.6074016,-266.72,0.4,-5,184.9,-76709.53,-61852.52,185.6,Weapon+Missile,Red,Allies,R-27ET,,xu,,259.76892213404,262.593414306641,0.760816380454419,-266.723846435547,-266.723846435547,258.769249978619,-22.7677001953125,0.0306292429669817,NaN,0.199987938897973,0,5000,0.998004078865051,0.998004078865051,0.998004078865051,3373.99464533404,-261.566740864716,3112.42790446932,,,23.4800000190735,0,13271.1968378453,13325.5050723246
2011-06-01T05:07:10Z,1306904830,22A09,55.4814396,25.6051769,-288.47,0.3,-5,184.9,-76733.66,-62098.68,185.6,Weapon+Missile,Red,Allies,R-27ET,,xu,,248.286168103127,251.245513916016,0.727008491285698,-288.473083496094,-288.473083496094,247.331744745025,-21.7492370605469,0.0309974197403515,NaN,0.199987938897973,0,5000,0.996205747127533,0.996205747127533,0.996205747127533,3082.3010635667,-282.895456426697,2799.40560714,,,24.4800000190735,0,13519.7530035362,13575.0002008583
2011-06-01T05:07:11Z,1306904831,22A09,55.4812398,25.6030822,-308.96,0.3,-5,184.9,-76756.38,-62330.47,185.6,Weapon+Missile,Red,Allies,R-27ET,,xu,,233.803743346262,236.83772277832,0.684445535707259,-308.959991455078,-308.959991455078,232.904437495306,-20.4869079589844,0.0312457645615481,NaN,0,0,5000,0.997388601303101,0.997388601303101,0.997388601303101,2733.20952013624,-302.986250020294,2430.22327011594,,,25.4800000190735,0,13753.7997180679,13809.9309291985
2011-06-01T05:07:12Z,1306904832,22A09,55.4810489,25.6010805,-328.53,0.2,-5,184.9,-76778.08,-62551.95,185.6,Weapon+Missile,Red,Allies,R-27ET,,xu,,223.399214174767,226.517074584961,0.653843872145283,-328.528442382812,-328.528442382812,222.540523550639,-19.5684509277344,0.0316611599831742,NaN,0.0307631720217374,0,5000,0.996191442012787,0.996191442012787,0.996191442012787,2495.36044469518,-322.176344949341,2173.18409974584,,,26.4800000190735,0,13977.4451613734,14034.4197029271
2011-06-01T05:07:13Z,1306904833,22A09,55.480866,25.5991625,-347.28,0.2,-5,184.9,-76798.88,-62764.19,185.6,Weapon+Missile,Red,Allies,R-27ET,,xu,,214.078762978916,217.268478393555,0.626433491019649,-347.284606933594,-347.284606933594,213.255534629061,-18.7561645507812,0.0309833493886014,NaN,0,0,5000,0.996542036533356,0.996542036533356,0.996542036533356,2291.48583792914,-340.569859058533,1950.9159788706,,,27.4800000190735,0,14191.7457969308,14249.5282572736
2011-06-01T05:07:14Z,1306904834,22A09,55.4806921,25.5973379,-365.13,0.1,-5,184.9,-76818.68,-62966.09,185.6,Weapon+Missile,Red,Allies,R-27ET,,xu,,203.649939862663,206.874420166016,0.595798076010947,-365.128448486328,-365.128448486328,202.866693482955,-17.8438415527344,0.0306819514830778,NaN,0.199987938897973,0,5000,0.997111439704895,0.997111439704895,0.997111439704895,2073.66490030331,-358.068689934845,1715.59621036846,,,28.4800000190735,0,14395.6148268952,14454.1653551103
2011-06-01T05:07:15Z,1306904835,22A09,55.4805263,25.5955995,-382.13,0.1,-5,184.9,-76837.54,-63158.45,185.6,Weapon+Missile,Red,Allies,R-27ET,,xu,,194.03532169218,197.281021118164,0.567561822698081,-382.125366210938,-382.125366210938,193.289448372255,-16.9969177246094,0.0309171580831013,NaN,0,0,5000,0.995987296104431,0.995987296104431,0.995987296104431,1882.4853032094,-374.736972255249,1507.74833095415,,,29.4800000190735,0,14589.8488965941,14649.1303497748
2011-06-01T05:07:16Z,1306904836,22A09,55.4803668,25.5939264,-398.49,0.1,-5,184.9,-76855.69,-63343.58,185.6,Weapon+Missile,Red,Allies,R-27ET,,xu,,186.730705625449,190.01091003418,0.546095747790003,-398.487670898438,-398.487670898438,186.012449606717,-16.3623046875,0.0309733888476714,NaN,0,0,5000,0.99713134765625,0.99713134765625,0.99713134765625,1743.4178211689,-390.782911781616,1352.63490938728,,,30.4800000190735,0,14776.7829464499,14836.7677323574
2011-06-01T05:07:17Z,1306904837,22A09,55.4802144,25.5923291,-414.1,0.1,-5,184.9,-76873.02,-63520.32,185.6,Weapon+Missile,Red,Allies,R-27ET,,xu,,178.274871614617,181.554794311523,0.521275735644709,-414.103851318359,-414.103851318359,177.589596424736,-15.6161804199219,0.02934467483379,NaN,0,0,5000,0.996729910373688,0.996729910373688,0.996729910373688,1589.09649246042,-406.097153353119,1182.9993391073,,,31.4800000190735,0,14955.2483505235,15015.9037363033
2011-06-01T05:07:18Z,1306904838,22A09,55.4800677,25.5907901,-429.15,0.1,-5,184.9,-76889.7,-63690.62,185.6,Weapon+Missile,Red,Allies,R-27ET,,xu,,171.776506903555,175.070861816406,0.502190231305461,-429.1484375,-429.1484375,171.116418705542,-15.0445861816406,0.0319311815350992,NaN,0,0,5000,0.996031224727631,0.996031224727631,0.996031224727631,1475.35841619936,-420.850852460938,1054.50756373842,,,32.4800000190735,0,15127.203294563,15188.5042381448
2011-06-01T05:07:19Z,1306904839,22A09,55.4799275,25.5893197,-443.53,0.1,-5,184.9,-76905.66,-63853.32,185.6,Weapon+Missile,Red,Allies,R-27ET,,xu,,164.106628830064,167.380920410156,0.47969035568886,-443.526153564453,-443.526153564453,163.475585047854,-14.3777160644531,0.0304919277233162,NaN,0,0,5000,0.940489649772644,0.940489649772644,0.940489649772644,1346.54928129842,-434.950575385284,911.598705913131,,,33.4800000190735,0,15291.488183757,15353.4058781628
2011-06-01T05:07:20Z,1306904840,22A09,55.479792,25.5878986,-457.97,-0,-6.3,184.9,-76921.07,-64010.57,185.6,Weapon+Missile,Red,Allies,R-27ET,,xu,,158.666695254345,161.950790405273,0.463714517111129,-457.973846435547,-457.973846435547,158.007545242744,-14.4476928710938,0.0390349645068932,NaN,0.0461720787892862,1.51920546647032,3252.71011764013,0.222076758742332,0.222076758742332,0.222076758742332,1258.75600914676,-449.118922114716,809.637087032042,,,34.4800000190735,0,15450.2723902507,15512.8348485764
2011-06-01T05:07:21Z,1306904841,22A09,55.4796619,25.5865354,-479.33,-0.3,-10,184.9,-76935.86,-64161.41,185.6,Weapon+Missile,Red,Allies,R-27ET,,xu,,153.055927391145,156.387100219727,0.447210236151152,-479.326141357422,-479.326141357422,151.559217506336,-21.352294921875,0.0942689321158282,NaN,0.200042580411333,3.39231654445462,2374.32382652495,0.00447624502703547,0.00447624502703547,0.00447624502703547,1171.30584547818,-470.058370414276,701.247475063901,,,35.4800000190735,0,15602.5781075512,15666.6189284519
2011-06-01T05:07:22Z,1306904842,22A09,55.4795378,25.5852367,-509.26,-0.5,-13.6,184.9,-76949.98,-64305.11,185.6,Weapon+Missile,Red,Allies,R-27ET,,xu,,147.461480676803,150.887023925781,0.430720343263704,-509.261535644531,-509.261535644531,144.390998515387,-29.9353942871094,0.0438678537273291,NaN,0.199987938897973,3.719230955916,2267.9173436557,0.00676622381433845,0.00676622381433845,0.00676622381433845,1087.24441416976,-499.414963852844,587.829450316916,,,36.4800000190735,0,15747.6863885828,15814.771814064
2011-06-01T05:07:23Z,1306904843,22A09,55.4794181,25.5839888,-547.58,-0.7,-17.4,185,-76963.58,-64443.2,185.6,Weapon+Missile,Red,Allies,R-27ET,,xu,,143.956123128514,147.562255859375,0.42030226567372,-547.582275390625,-547.582275390625,138.7619771101,-38.3207397460938,0.0596046360433645,NaN,0.200042580411333,3.70388650905874,2199.44323176686,0.00621993094682693,0.00621993094682693,0.00621993094682693,1036.16826930959,-536.994772095947,499.173497213641,,,37.4800000190735,0,15887.1247702963,15959.3689089468
2011-06-01T05:07:24Z,1306904844,22A09,55.4793025,25.5827884,-594.03,-0.8,-21.1,185,-76976.72,-64576.02,185.7,Weapon+Missile,Red,Allies,R-27ET,,xu,,141.319848609584,145.169708251953,0.412392236859938,-594.029968261719,-594.029968261719,133.468765776822,-46.4476928710938,0.054810635158446,NaN,0,3.73106980818174,2162.98330200277,0.00876171048730612,0.00876171048730612,0.00876171048730612,998.564980551787,-582.544398825378,416.020581726408,,,38.4800000190735,0,16021.2526792902,16101.3001043708
2011-06-01T05:07:25Z,1306904845,22A09,55.4791913,25.581641,-648,-1,-24.8,185,-76989.36,-64702.97,185.7,Weapon+Missile,Red,Allies,R-27ET,,xu,,138.52430575066,142.65119934082,0.403992202951282,-648.003051757812,-648.003051757812,127.576994562601,-53.9730834960938,0,NaN,0.138461594854498,3.7117715355687,2162.08416193212,0.00896402169018984,0.00896402169018984,0.00896402169018984,959.449164185114,-635.473912752075,323.975251433039,,,39.4800000190735,0,16149.4628145246,16240.396228281
2011-06-01T05:07:26Z,1306904846,22A09,55.4790827,25.5805305,-709.86,-1.1,-28.5,185.1,-77001.67,-64825.86,185.7,Weapon+Missile,Red,Allies,R-27ET,,xu,,138.128591939357,142.640075683594,0.402561878850263,-709.856140136719,-709.856140136719,123.505883945424,-61.8530883789062,0.0534904803673745,NaN,0.199987938897973,3.63875254447303,2203.14343036001,0.0137150967493653,0.0137150967493653,0.0137150967493653,953.975395557471,-696.131071667175,257.844323890295,,,40.4800000190735,0,16273.5734672728,16379.0540068504
2011-06-01T05:07:27Z,1306904847,22A09,55.4789772,25.5794635,-778.9,-1.1,-32,185.1,-77013.63,-64943.91,185.8,Weapon+Missile,Red,Allies,R-27ET,,xu,,137.2803329134,142.206558227539,0.399783898324623,-778.8984375,-778.8984375,118.65517679231,-69.0422973632812,0.0932899873268758,NaN,0,3.57337119897332,2258.43841173187,0.0118745621293783,0.0118745621293783,0.0118745621293783,942.294490240701,-763.838436210938,178.456054029763,,,41.4800000190735,0,16392.8120772651,16516.8268868695
2011-06-01T05:07:28Z,1306904848,22A09,55.4788746,25.5784404,-854.73,-1.2,-35.4,185.2,-77025.22,-65057.12,185.9,Weapon+Missile,Red,Allies,R-27ET,,xu,,136.75619803911,142.147094726562,0.397923726518094,-854.72998046875,-854.72998046875,113.8061280999,-75.83154296875,0.0243448976909766,NaN,0,3.41566618646254,2355.2017132585,0.0181061252951622,0.0181061252951622,0.0181061252951622,935.11288510561,-838.203776296387,96.9091088092233,,,42.4800000190735,0,16507.1771358079,16654.0363607715
2011-06-01T05:07:29Z,1306904849,22A09,55.478775,25.5774604,-936.88,-1.3,-38.6,185.3,-77036.48,-65165.55,186,Weapon+Missile,Red,Allies,R-27ET,,xu,,136.503165207826,142.406890869141,0.396827447591059,-936.884582519531,-936.884582519531,109.012547322007,-82.1546020507812,0.0331145302831121,NaN,0.199987938897973,3.20102663802124,2437.88778743397,0.02050338126719,0.02050338126719,0.02050338126719,931.655705587752,-918.769919116516,12.8857864712361,,,43.4800000190735,0,16616.7284548041,16790.9578680554
