ISOTime,UnixTime,Id,Longitude,Latitude,Altitude,Roll,Pitch,Yaw,U,V,Heading,Type,Color,Coalition,Name,Group,Country,Pilot,TAS,CAS,M,ASL,AGL,GS,VS,AOA,AOS,RRT,TRT,TRD,G,LatG,LonG,Ek,Ep,Em,FFW,FFV,RelativeTime,Elev,GroundDistance,AirDistance
2011-06-01T05:01:16Z,1306904476,2D08,55.750961,25.6911853,8110.03,98.9,-12.8,206.3,-49576.16,-52855.41,206.8,Weapon+Missile,Red,Allies,R-27ER,,xu,,341.879372113081,242.240219116211,1.11086849021068,8110.03125,8110.03125,NaN,NaN,NaN,NaN,NaN,NaN,NaN,NaN,NaN,NaN,NaN,7953.22379578125,NaN,,,0.369999885559082,0,NaN,NaN
2011-06-01T05:01:17Z,1306904477,2D08,55.7491452,25.6870481,7979.41,80.4,-15.8,204.8,-49762.71,-53311.9,205.3,Weapon+Missile,Red,Allies,R-27ER,,xu,,510.14992899275,365.727142333984,1.65465489441185,7979.4111328125,7979.4111328125,493.144334893175,-130.6201171875,2.71269411419507,NaN,17.3076993568123,5.73313793882184,5000,3.72181272506714,3.72181272506714,3.72181272506714,13012.6475025654,7825.12921855957,20837.776721125,,,1.36999988555908,0,495.27141079859,512.810444383836
2011-06-01T05:01:18Z,1306904478,2D08,55.7461526,25.6810069,7738.59,65.5,-19.4,207.4,-50069.39,-53978.16,207.9,Weapon+Missile,Red,Allies,R-27ER,,xu,,771.973751506996,534.946228027344,2.49563498582531,7738.5859375,7736.5859375,733.448497386477,-240.8251953125,0.190882389225205,NaN,14.0923195031371,4.00050668367358,5000,9.63092803955078,9.63092803955078,9.63092803955078,29797.1736507893,7588.96037839844,37386.1340291877,,,2.36999988555908,2,1231.7464002231,1288.52280290854
2011-06-01T05:01:19Z,1306904479,2D08,55.7414342,25.6736402,7373.88,53.1,-22.6,213.2,-50550.7,-54789.56,213.8,Weapon+Missile,Red,Allies,R-27ER,,xu,,1011.46004397786,698.103210449219,3.25370241507006,7373.8759765625,7372.61206054688,943.418287376636,-364.7099609375,0.0494491544188642,NaN,11.9384603295086,6.14766416106583,5000,11.8634071350098,11.8634071350098,11.8634071350098,51152.5710281849,7231.30208455566,58383.8731127406,,,3.36999988555908,1.263916015625,2178.62452240152,2304.25759038109
2011-06-01T05:01:20Z,1306904480,2D08,55.735673,25.6666571,6952.07,42.3,-24.3,220.6,-51136.33,-55557.47,221.2,Weapon+Missile,Red,Allies,R-27ER,,xu,,1053.83503909629,741.475219726562,3.37087022600008,6952.0673828125,6952.0673828125,965.735885149621,-421.80859375,0.130552049030615,NaN,10.1538138616543,6.80504980499887,5000,12.7029619216919,12.7029619216919,12.7029619216919,55528.4144813538,6817.64915996582,62346.0636413196,,,4.36999988555908,0,3147.33798181169,3361.81950032989
2011-06-01T05:01:21Z,1306904481,2D08,55.7291475,25.6605924,6529.17,34.5,-23.8,228.2,-51797.77,-56222.88,228.7,Weapon+Missile,Red,Allies,R-27ER,,xu,,1029.13543197432,740.873901367188,3.27343349978127,6529.16748046875,6529.16748046875,938.229934473755,-422.89990234375,0.111279043207535,NaN,7.06154133757942,6.91891290044439,5000,12.8336219787598,12.8336219787598,12.8336219787598,52955.986867249,6402.92602723389,59358.9128944829,,,5.36999988555908,0,4087.81078287977,4393.90666529884
2011-06-01T05:01:22Z,1306904482,2D08,55.7219135,25.6554124,6141.66,29.4,-21.1,235.2,-52529.46,-56789.6,235.7,Weapon+Missile,Red,Allies,R-27ER,,xu,,1003.34613743804,737.572631835938,3.17520101134888,6141.65966796875,6141.65966796875,925.495092781861,-387.5078125,0.191381199576778,NaN,4.21537418967843,6.82064824951589,5000,12.1867799758911,12.1867799758911,12.1867799758911,50335.173575592,6022.91067828857,56358.0842538806,,,6.36999988555908,0,5014.85591456702,5399.53241080341
2011-06-01T05:01:23Z,1306904483,2D08,55.7141294,25.6508833,5826.04,27.3,-16.7,238.3,-53315.74,-57283.66,238.9,Weapon+Missile,Red,Allies,R-27ER,,xu,,980.782887139078,733.306579589844,3.09107373362671,5826.04443359375,5826.04443359375,928.612995566656,-315.615234375,0.310083758932528,NaN,2.01534293726064,4.41621035269395,5000,5.88443470001221,5.88443470001221,5.88443470001221,48096.7535852432,5713.39786447021,53810.1514497134,,,7.36999988555908,0,5944.55181800749,6382.16663320286
2011-06-01T05:01:24Z,1306904484,2D08,55.7061136,25.6463144,5553.57,24.2,-15.3,237.1,-54125.36,-57781.85,237.7,Weapon+Missile,Red,Allies,R-27ER,,xu,,988.902624227453,749.147094726562,3.10571512487796,5553.572265625,5553.572265625,950.624698756745,-272.47216796875,0.0587467930281816,NaN,2.96921983598794,2.09176314911956,5000,4.04811811447144,4.04811811447144,4.04811811447144,48896.4200101972,5446.19394586914,54342.6139560663,,,8.36999988555908,0,6896.24029308507,7372.90811789773
2011-06-01T05:01:25Z,1306904485,2D08,55.698049,25.6414685,5299.14,21.5,-14.1,235.7,-54940.27,-58310.62,236.3,Weapon+Missile,Red,Allies,R-27ER,,xu,,1004.19500416989,769.848266601562,3.14346450565728,5299.13525390625,5299.13525390625,971.426483820267,-254.43701171875,0.0433490798493266,NaN,2.87693031992273,1.85427832545187,5000,3.88711833953857,3.88711833953857,3.88711833953857,50420.3803199887,5196.67647377197,55617.0567937607,,,9.36999988555908,0,7868.86844885737,8379.0661972743
2011-06-01T05:01:26Z,1306904486,2D08,55.6899915,25.6363411,5059.25,18.9,-13.2,234.4,-55754.82,-58870.55,234.9,Weapon+Missile,Red,Allies,R-27ER,,xu,,1017.13212497267,788.655212402344,3.17424033291753,5059.2529296875,5059.2529296875,988.440301777924,-239.88232421875,0.0987646767180359,NaN,2.66153347425721,1.34065877203749,5000,2.54751515388489,2.54751515388489,2.54751515388489,51727.8879825711,4961.43227429199,56689.3202568631,,,10.3699998855591,0,8858.66219743494,9398.29478018175
2011-06-01T05:01:27Z,1306904487,2D08,55.6823763,25.631377,4843.5,16.4,-12.6,234.1,-56524.87,-59412.75,234.7,Weapon+Missile,Red,Allies,R-27ER,,xu,,966.183905755397,758.742980957031,3.00700850073282,4843.5009765625,4843.5009765625,941.786830691267,-215.751953125,0,NaN,2.41537345656995,0.854573845601543,5000,2.21072626113892,2.21072626113892,2.21072626113892,46675.5669870377,4749.85188518066,51425.4188722183,,,11.3699998855591,0,9801.79491862094,10366.5043730156
2011-06-01T05:01:28Z,1306904488,2D08,55.6752168,25.6265963,4648.38,14,-12.7,231.1,-57249.01,-59935.08,231.7,Weapon+Missile,Red,Allies,R-27ER,,xu,,913.934888018815,726.297241210938,2.83740715682577,4648.3798828125,4647.02720248699,892.863224862446,-195.12109375,0.0630511229905266,NaN,2.7077055530465,3.32784937708663,5000,8.33920192718506,8.33920192718506,8.33920192718506,41763.8489768982,4558.50345777832,46322.3524346765,,,12.3699998855591,1.35268032550812,10695.9856056785,11282.3862383147
2011-06-01T05:01:29Z,1306904489,2D08,55.669169,25.6216826,4453.49,11.5,-13.7,227,-57861.73,-60473.21,227.6,Weapon+Missile,Red,Allies,R-27ER,,xu,,838.448359492124,675.304260253906,2.59669375098899,4453.4853515625,4453.4852129817,815.482540109767,-194.89453125,0.0761946778526242,NaN,2.30767503373719,3.48119096593482,5000,1.80756604671478,1.80756604671478,1.80756604671478,35149.7825767517,4367.37721229004,39517.1597890418,,,13.3699998855591,0.000138580799102783,11513.104437088,12122.9932893434
2011-06-01T05:01:30Z,1306904490,2D08,55.6635616,25.6169359,4266.2,9.7,-13.6,226.9,-58430.09,-60993.28,227.5,Weapon+Missile,Red,Allies,R-27ER,,xu,,792.82625278548,646.044372558594,2.44966540770551,4266.1982421875,4266.1982421875,770.387568544445,-187.287109375,0.0343557229339238,NaN,1.80000073310848,0.292084021871457,5000,1.00996291637421,1.00996291637421,1.00996291637421,31428.6733552933,4183.7112991748,35612.3846544681,,,14.3699998855591,0,12285.1102181805,12917.9048945177
2011-06-01T05:01:31Z,1306904491,2D08,55.6582361,25.6124257,4088.65,8.2,-13.6,226.9,-58969.92,-61487.41,227.5,Weapon+Missile,Red,Allies,R-27ER,,xu,,753.065721722967,620.409790039062,2.32168430643044,4088.65454101562,4088.65454101562,731.837560807264,-177.543701171875,0.0408732402721707,NaN,1.53848645016703,0.0513960362511687,5000,1.00841593742371,1.00841593742371,1.00841593742371,28355.3990617067,4009.60040546509,32364.9994671718,,,15.3699998855591,0,13018.490180267,13672.9364839142
2011-06-01T05:01:32Z,1306904492,2D08,55.6531684,25.6081342,3920.05,6.8,-13.6,226.9,-59483.66,-61957.56,227.5,Weapon+Missile,Red,Allies,R-27ER,,xu,,716.514285459613,596.496398925781,2.20439213065488,3920.05297851562,3920.05297851562,696.395171142261,-168.6015625,0.0389280322012514,NaN,1.3384438697557,0.0139882274201861,5000,0.999651491641998,0.999651491641998,0.999651491641998,25669.636063385,3844.25875417603,29513.894817561,,,16.3699998855591,0,13716.3495336409,14391.2998091331
2011-06-01T05:01:33Z,1306904493,2D08,55.6483205,25.6040292,3759.04,5.7,-13.6,226.9,-59975.14,-62407.26,227.5,Weapon+Missile,Red,Allies,R-27ER,,xu,,685.354461073444,576.157531738281,2.10434660979959,3759.04223632812,3759.04223632812,666.172859109031,-161.0107421875,0.0495326534578234,NaN,1.01540324277078,0.0139882274201861,5000,0.992828488349915,0.992828488349915,0.992828488349915,23485.5368656635,3686.36115468872,27171.8980203523,,,17.3699998855591,0,14383.9291315933,15078.4123946002
2011-06-01T05:01:34Z,1306904494,2D08,55.6437167,25.600131,3606.36,4.8,-13.6,227,-60441.91,-62834.29,227.5,Weapon+Missile,Red,Allies,R-27ER,,xu,,650.801665123491,552.498352050781,1.99451096346329,3606.35522460938,3605.81610107422,632.636928877778,-152.68701171875,0.0618052093246399,NaN,0.969231163981489,0.0139882274201861,5000,0.987667977809906,0.987667977809906,0.987667977809906,21177.1403663754,3536.62634634155,24713.766712717,,,18.3699998855591,0.53912353515625,15017.8960907189,15730.862920249
2011-06-01T05:01:35Z,1306904495,2D08,55.6393519,25.5964352,3461.77,4,-13.5,227,-60884.48,-63239.13,227.6,Weapon+Missile,Red,Allies,R-27ER,,xu,,616.983518516788,528.796630859375,1.88752662935312,3461.77001953125,3461.20909422636,599.803118192855,-144.585205078125,0.06385270701967,NaN,0.769243225083516,0.0720088301298065,5000,0.989206075668335,0.989206075668335,0.989206075668335,19033.4331060678,3394.83669620361,22428.2698022714,,,19.3699998855591,0.560925304889679,15618.9576446737,16349.3937132081
2011-06-01T05:01:36Z,1306904496,2D08,55.6351731,25.5928971,3323.49,3.4,-13.5,227,-61308.21,-63626.69,227.6,Weapon+Missile,Red,Allies,R-27ER,,xu,,590.651885636183,510.589416503906,1.8039268360348,3323.4921875,3322.4921875,574.237660881204,-138.27783203125,0.0529028831321472,NaN,0.569255286185543,0.0720088301298065,5000,0.984880149364471,0.984880149364471,0.984880149364471,17443.482500279,3259.23246605469,20702.7149663336,,,20.3699998855591,1,16194.4037110566,16941.5181114362
2011-06-01T05:01:37Z,1306904497,2D08,55.6311753,25.5895121,3191.31,2.9,-13.5,227,-61713.61,-63997.46,227.6,Weapon+Missile,Red,Allies,R-27ER,,xu,,565.060940297627,492.527130126953,1.72299881100898,3191.3076171875,3191.3076171875,549.382476623834,-132.1845703125,0.0460381267457388,NaN,0.569255286185543,0.0171320104161963,5000,0.983175277709961,0.983175277709961,0.983175277709961,15964.6933125019,3129.60368440918,19094.2969969111,,,21.3699998855591,0,16744.9368235088,17507.9712237317
2011-06-01T05:01:38Z,1306904498,2D08,55.6273372,25.5862624,3064.5,2.4,-13.5,227,-62102.84,-64353.41,227.6,Weapon+Missile,Red,Allies,R-27ER,,xu,,542.476312254274,476.509765625,1.65159402584841,3064.49829101562,3063.66905081272,527.446626828566,-126.809326171875,0.0395209203261978,NaN,0.415384784563495,0.0171320104161963,5000,0.97996199131012,0.97996199131012,0.97996199131012,14714.0274678499,3005.24621655884,17719.2736844087,,,22.3699998855591,0.829240202903748,17273.4856549895,18051.7713206063
2011-06-01T05:01:39Z,1306904499,2D08,55.6237181,25.5831979,2944.99,2,-13.5,227,-62469.88,-64689.06,227.6,Weapon+Missile,Red,Allies,R-27ER,,xu,,511.527823902621,453.100402832031,1.55512349305582,2944.98608398438,2943.13662755489,497.370633428503,-119.51220703125,0.0354914483889497,NaN,0.399975877795947,0.0171320104161963,5000,0.978524804115295,0.978524804115295,0.978524804115295,13083.0357313275,2888.04477805054,15971.0805093781,,,23.3699998855591,1.84945642948151,17771.8999569124,18564.5423197566
2011-06-01T05:01:40Z,1306904500,2D08,55.6202349,25.5802485,2830.02,1.7,-13.5,227,-62823.15,-65012.1,227.6,Weapon+Missile,Red,Allies,R-27ER,,xu,,492.315296451425,439.045013427734,1.4946433839457,2830.017578125,2830.017578125,478.703032976101,-114.968505859375,0.0338513690260351,NaN,0.276923189708997,0.0171320104161963,5000,0.977365732192993,0.977365732192993,0.977365732192993,12118.7175560027,2775.29918825195,14894.0167442547,,,24.3699998855591,0,18251.6041869245,19058.0423790659
2011-06-01T05:01:41Z,1306904501,2D08,55.6169169,25.5774389,2720.55,1.4,-13.5,227,-63159.68,-65319.81,227.6,Weapon+Missile,Red,Allies,R-27ER,,xu,,468.959120882381,421.109008789062,1.42186442252037,2720.54907226562,2718.54907226562,456.003622007207,-109.468505859375,0.0319522773440705,NaN,0.338449533752472,0.0171320104161963,5000,0.975452125072479,0.975452125072479,0.975452125072479,10996.1328529388,2667.94725595337,13664.0801088921,,,25.3699998855591,2,18708.5631339319,19528.1238512634
2011-06-01T05:01:42Z,1306904502,2D08,55.6137445,25.5747525,2615.91,1.2,-13.5,227,-63481.46,-65614.03,227.6,Weapon+Missile,Red,Allies,R-27ER,,xu,,448.393554667561,405.139953613281,1.3578071968878,2615.91088867188,2613.91088867188,436.013337412528,-104.63818359375,0.0336434018393047,NaN,0.199987938897973,0.0171320104161963,5000,0.975577592849731,0.975577592849731,0.975577592849731,10052.8389933705,2565.3322516394,12618.1712450099,,,26.3699998855591,2,19145.4921371398,19977.5856013006
2011-06-01T05:01:43Z,1306904503,2D08,55.6107143,25.5721863,2515.99,1,-13.5,227,-63788.84,-65895.06,227.6,Weapon+Missile,Red,Allies,R-27ER,,xu,,428.303522253931,389.180755615234,1.29542349007506,2515.9931640625,2514.63936555386,416.48572062438,-99.917724609375,0.0315363837910112,NaN,0.199987938897973,0.0171320104161963,5000,0.974286556243896,0.974286556243896,0.974286556243896,9172.19535875619,2467.34643623535,11639.5417949915,,,27.3699998855591,1.3537985086441,19562.8491738717,20406.8997383396
2011-06-01T05:01:44Z,1306904504,2D08,55.6078455,25.5697568,2421.42,0.8,-13.5,227,-64079.85,-66161.12,227.6,Weapon+Missile,Red,Allies,R-27ER,,xu,,405.480478653594,370.342407226562,1.22501198384176,2421.42163085938,2421.42163085938,394.29765872594,-94.571533203125,0.033147963917509,NaN,0.199987938897973,0.0171320104161963,5000,0.973972916603088,0.973972916603088,0.973972916603088,8220.72092845738,2374.60344362671,10595.3243720841,,,28.3699998855591,0,19957.9816882958,20813.3408345084
2011-06-01T05:01:45Z,1306904505,2D08,55.6050839,25.567418,2330.4,0.7,-13.5,227,-64360,-66417.25,227.6,Weapon+Missile,Red,Allies,R-27ER,,xu,,390.349227919669,357.959014892578,1.1780219651178,2330.39770507812,2330.39770507812,379.588151386278,-91.02392578125,0.0329146095124208,NaN,0.184633673643785,0.0171320104161963,5000,0.973237216472626,0.973237216472626,0.973237216472626,7618.6259868741,2285.33946545044,9903.96545232454,,,29.3699998855591,0,20338.352702909,21204.589188493
2011-06-01T05:01:46Z,1306904506,2D08,55.6024655,25.5652004,2244.1,0.6,-13.5,227,-64625.63,-66660.11,227.6,Weapon+Missile,Red,Allies,R-27ER,,xu,,370.11882356581,340.501037597656,1.11582553851274,2244.10473632812,2244.10473632812,359.918695127178,-86.29296875,0.0360959706023089,NaN,0.0461720787892862,0.0171320104161963,5000,0.972868740558624,0.972868740558624,0.972868740558624,6849.39717788696,2200.71497125122,9050.11214913818,,,30.3699998855591,0,20699.0256609557,21575.5673211191
2011-06-01T05:01:47Z,1306904507,2D08,55.5999668,25.5630841,2161.77,0.5,-13.5,227,-64879.12,-66891.86,227.6,Weapon+Missile,Red,Allies,R-27ER,,xu,,353.190682551947,325.649871826172,1.06375269000876,2161.76831054688,2161.76831054688,343.459417153001,-82.33642578125,0.0323329139544371,NaN,0,0.0171320104161963,5000,0.97324925661087,0.97324925661087,0.97324925661087,6237.18291207552,2119.97052026245,8357.15343233797,,,31.3699998855591,0,21043.2005967515,21929.5694603273
2011-06-01T05:01:48Z,1306904508,2D08,55.5975865,25.5610679,2083.34,0.4,-13.5,226.9,-65120.62,-67112.65,227.6,Weapon+Missile,Red,Allies,R-27ER,,xu,,336.486212581951,310.708679199219,1.01250200872292,2083.33984375,2083.33984375,327.218500170204,-78.428466796875,0.0367190939338351,NaN,0.169224766876236,0.0171320104161963,5000,0.971747636795044,0.971747636795044,0.971747636795044,5661.14856288731,2043.05846787109,7704.20703075841,,,32.3699998855591,0,21371.0975034371,22266.821558309
2011-06-01T05:01:49Z,1306904509,2D08,55.595327,25.559154,2008.89,0.3,-13.5,226.9,-65349.86,-67322.23,227.6,Weapon+Missile,Red,Allies,R-27ER,,xu,,319.3983165613,295.314849853516,0.960239521228718,2008.89453125,2008.89453125,310.601320133978,-74.4453125,0.0361852341039498,NaN,0.138461594854498,0.0171320104161963,5000,0.972675561904907,0.972675561904907,0.972675561904907,5100.76423110962,1970.05255548828,7070.8167865979,,,33.3699998855591,0,21682.3497055461,22586.9499779298
2011-06-01T05:01:50Z,1306904510,2D08,55.5931731,25.5573295,1937.93,0.3,-13.5,226.9,-65568.4,-67522.02,227.6,Weapon+Missile,Red,Allies,R-27ER,,xu,,304.483844128143,281.919036865234,0.914635450331877,1937.93383789062,1937.93383789062,296.099630754596,-70.960693359375,0.0341191204842076,NaN,0,0.0171320104161963,5000,0.972321093082428,0.972321093082428,0.972321093082428,4635.52056675255,1900.46388713501,6535.98445388756,,,34.3699998855591,0,21979.0663620776,22892.1231793014
2011-06-01T05:01:51Z,1306904511,2D08,55.591107,25.5555793,1869.87,0.2,-13.5,226.9,-65778.03,-67713.66,227.6,Weapon+Missile,Red,Allies,R-27ER,,xu,,292.069567428344,270.865570068359,0.876642064270495,1869.87072753906,1869.87072753906,284.028247234409,-68.0631103515625,0.0378249581402719,NaN,0.199987938897973,0.0171320104161963,5000,0.972777545452118,0.972777545452118,0.972777545452118,4265.23161088899,1833.71677702209,6098.94838791108,,,35.3699998855591,0,22263.70147784,23184.8655767973
2011-06-01T05:01:52Z,1306904512,2D08,55.58913,25.5539045,1804.75,0.2,-13.5,226.9,-65978.63,-67897.05,227.6,Weapon+Missile,Red,Allies,R-27ER,,xu,,279.488862130611,259.609008789062,0.838239791270408,1804.74841308594,1804.74841308594,271.796078366359,-65.122314453125,0.0373053247159821,NaN,0,0.0171320104161963,5000,0.971489727497101,0.971489727497101,0.971489727497101,3905.70120275319,1769.85360251892,5675.55480527211,,,36.3699998855591,0,22536.0538597412,23464.971764945
2011-06-01T05:01:53Z,1306904513,2D08,55.5872241,25.5522898,1741.96,0.2,-13.5,226.9,-66172.04,-68073.86,227.6,Weapon+Missile,Red,Allies,R-27ER,,xu,,269.464846221455,250.746536254883,0.80758088071739,1741.95776367188,1740.03825950623,262.047014284293,-62.7906494140625,0.0369349071366699,NaN,0,0.0171320104161963,5000,0.972995460033417,0.972995460033417,0.972995460033417,3630.56516745761,1708.27701031128,5338.84217776889,,,37.3699998855591,1.91950416564941,22798.6425899571,23735.0344520999
2011-06-01T05:01:54Z,1306904514,2D08,55.5853883,25.5507345,1681.49,0.1,-13.5,226.9,-66358.33,-68244.16,227.6,Weapon+Missile,Red,Allies,R-27ER,,xu,,259.539962368772,241.938293457031,0.77728551080611,1681.48999023438,1677.60882568359,252.397782165166,-60.4677734375,0.0353407405204147,NaN,0.199987938897973,0.0171320104161963,5000,0.971359968185425,0.971359968185425,0.971359968185425,3368.04960331917,1648.97838127319,5017.02798459236,,,38.3699998855591,3.88116455078125,23051.56144839,23995.1471965094
2011-06-01T05:01:55Z,1306904515,2D08,55.5836067,25.5492251,1622.8,0.1,-13.5,226.9,-66539.1,-68409.43,227.6,Weapon+Missile,Red,Allies,R-27ER,,xu,,251.869997945846,235.241256713867,0.753797461658313,1622.80310058594,1620.73315429688,244.937430476913,-58.6868896484375,0.0396751053126732,NaN,0,0.0171320104161963,5000,0.972628176212311,0.972628176212311,0.972628176212311,3171.92479326203,1591.42620263611,4763.35099589814,,,39.3699998855591,2.0699462890625,23297.0154675029,24247.5814311175
2011-06-01T05:01:56Z,1306904516,2D08,55.5818814,25.5477634,1565.97,0.1,-13.5,226.9,-66714.18,-68569.48,227.6,Weapon+Missile,Red,Allies,R-27ER,,xu,,243.919719301439,228.24250793457,0.729519441302568,1565.974609375,1563.974609375,237.207403026932,-56.8284912109375,0.0365024240057493,NaN,0,0.0171320104161963,5000,0.971268713474274,0.971268713474274,0.971268713474274,2974.84147320464,1535.69649030273,4510.53796350738,,,40.3699998855591,2,23534.7190132852,24492.0414596134
2011-06-01T05:01:57Z,1306904517,2D08,55.5802215,25.5463569,1511.29,0.1,-13.5,226.9,-66882.62,-68723.46,227.6,Weapon+Missile,Red,Allies,R-27ER,,xu,,234.680974131324,219.978759765625,0.701440463794622,1511.29235839844,1508.29235839844,228.221407951496,-54.6822509765625,0.0396473914989142,NaN,0,0.0171320104161963,5000,0.973354876041412,0.973354876041412,0.973354876041412,2753.75798096135,1482.0715206488,4235.82950161016,,,41.3699998855591,3,23763.4297460278,24727.2519786715
2011-06-01T05:01:58Z,1306904518,2D08,55.5786042,25.5449865,1458.02,0.1,-13.5,226.9,-67046.76,-68873.52,227.6,Weapon+Missile,Red,Allies,R-27ER,,xu,,228.678493595587,214.768051147461,0.683075511676795,1458.02075195312,1454.3466796875,222.387026105128,-53.2716064453125,0.0370256093403388,NaN,0,0.0171320104161963,5000,0.97094339132309,0.97094339132309,0.97094339132309,2614.69267165735,1429.82992071411,4044.52259237147,,,42.3699998855591,3.674072265625,23986.2698048139,24956.4215151704
2011-06-01T05:01:59Z,1306904519,2D08,55.5770344,25.5436564,1406.31,0.1,-13.5,226.9,-67206.06,-69019.16,227.6,Weapon+Missile,Red,Allies,R-27ER,,xu,,221.954191901829,208.839782714844,0.662590796094359,1406.30529785156,1401.74743652344,215.845257325389,-51.7154541015625,0.0411485043961539,NaN,0,0.0171320104161963,5000,0.973220944404602,0.973220944404602,0.973220944404602,2463.18316513971,1379.1143849176,3842.29755005731,,,43.3699998855591,4.557861328125,24202.5658585304,25178.8613573568
2011-06-01T05:02:00Z,1306904520,2D08,55.5755095,25.5423642,1356.08,0.1,-13.5,226.9,-67360.83,-69160.62,227.6,Weapon+Missile,Red,Allies,R-27ER,,xu,,215.612008045744,203.24690246582,0.643282103103428,1356.07849121094,1356.07849121094,209.680246824071,-50.226806640625,0.0367862669381259,NaN,0.0615263440434749,0.0171320104161963,5000,0.971790015697479,0.971790015697479,0.971790015697479,2324.42690067589,1329.85871358337,3654.28561425927,,,44.3699998855591,0,24412.6795420106,25394.9391550203
2011-06-01T05:02:01Z,1306904521,2D08,55.5740365,25.541116,1307.56,0,-13.5,226.9,-67510.31,-69297.29,227.6,Weapon+Missile,Red,Allies,R-27ER,,xu,,208.270724051914,196.669189453125,0.62102935958314,1307.55993652344,1307.55993652344,202.540475826795,-48.5185546875,0.0373883987834254,NaN,0,0.0171320104161963,5000,0.971997678279877,0.971997678279877,0.971997678279877,2168.83472485542,1282.27826515076,3451.11299000618,,,45.3699998855591,0,24615.6477583177,25603.6670953995
2011-06-01T05:02:02Z,1306904522,2D08,55.5725895,25.5398897,1259.89,0,-13.5,226.9,-67657.18,-69431.55,227.6,Weapon+Missile,Red,Allies,R-27ER,,xu,,204.62077585267,193.596755981445,0.609808620130687,1259.88989257812,1259.88989257812,198.990524449786,-47.6700439453125,0.0387689200520116,NaN,0,0.0171320104161963,5000,0.972179293632507,0.972179293632507,0.972179293632507,2093.48309552744,1235.52992150513,3329.01301703257,,,46.3699998855591,0,24815.045111251,25808.7225604157
2011-06-01T05:02:03Z,1306904523,2D08,55.5711884,25.5387023,1213.74,0,-13.5,226.9,-67799.38,-69561.54,227.6,Weapon+Missile,Red,Allies,R-27ER,,xu,,198.104330418049,187.757141113281,0.590072849745336,1213.7392578125,1213.7392578125,192.653690961563,-46.150634765625,0.0406834679633253,NaN,0,0.0171320104161963,5000,0.97208297252655,0.97208297252655,0.97208297252655,1962.26628651917,1190.2716092627,3152.53789578186,,,47.3699998855591,0,25008.1133321119,26007.26645196
2011-06-01T05:02:04Z,1306904524,2D08,55.5698247,25.5375466,1168.81,0,-13.5,226.9,-67937.79,-69688.08,227.6,Weapon+Missile,Red,Allies,R-27ER,,xu,,192.84418568514,183.09521484375,0.574106476172485,1168.81384277344,1168.81384277344,187.5382281993,-44.9254150390625,0.0366770681767756,NaN,0,0.0171320104161963,5000,0.972223222255707,0.972223222255707,0.972223222255707,1859.44399762824,1146.21482712341,3005.65882475165,,,48.3699998855591,0,25196.0329534339,26200.5156943635
2011-06-01T05:02:05Z,1306904525,2D08,55.5684976,25.536422,1125.1,0,-13.5,226.9,-68072.48,-69811.21,227.6,Weapon+Missile,Red,Allies,R-27ER,,xu,,187.65825771275,178.481674194336,0.55838547363731,1125.09765625,1125.09765625,182.495251235841,-43.7161865234375,0.0403031714182544,NaN,0,0.0171320104161963,5000,0.972203016281128,0.972203016281128,0.972203016281128,1760.78108438924,1103.34389306641,2864.12497745565,,,49.3699998855591,0,25378.9074236007,26388.574742966
2011-06-01T05:02:06Z,1306904526,2D08,55.5672025,25.5353243,1082.44,0,-13.5,226.9,-68203.93,-69931.38,227.6,Weapon+Missile,Red,Allies,R-27ER,,xu,,183.137178439361,174.484405517578,0.544664399574052,1082.43530273438,1082.43530273438,178.098707797778,-42.662353515625,0.0382184337441257,NaN,0,0.0171320104161963,5000,0.971654951572418,0.971654951572418,0.971654951572418,1676.96130633652,1061.50641615601,2738.46772249253,,,50.3699998855591,0,25557.3815562627,26572.1070780396
2011-06-01T05:02:07Z,1306904527,2D08,55.5659333,25.5342486,1040.62,0,-13.5,226.9,-68332.76,-70049.15,227.6,Weapon+Missile,Red,Allies,R-27ER,,xu,,179.482615947074,171.302185058594,0.533537991746886,1040.61926269531,1040.61926269531,174.543485191101,-41.8160400390625,0.0389148430163679,NaN,0,0.0171320104161963,5000,0.973495125770569,0.973495125770569,0.973495125770569,1610.70047136024,1020.4988892511,2631.19936061134,,,51.3699998855591,0,25732.2877856312,26751.9707880352
2011-06-01T05:02:08Z,1306904528,2D08,55.5647014,25.5332045,1000.04,0,-13.5,226.9,-68457.81,-70163.45,227.6,Weapon+Missile,Red,Allies,R-27ER,,xu,,174.214243783364,166.547500610352,0.517634859950975,1000.04382324219,1000.04382324219,169.423246487002,-40.575439453125,0.0386743383984355,NaN,0,0.0171320104161963,5000,0.97039806842804,0.97039806842804,0.97039806842804,1517.53013685048,980.7079759198,2498.23811277028,,,52.3699998855591,0,25902.0561034277,26926.5470465074
2011-06-01T05:02:09Z,1306904529,2D08,55.5635009,25.5321869,960.49,0,-13.5,226.9,-68579.66,-70274.86,227.6,Weapon+Missile,Red,Allies,R-27ER,,xu,,169.770430539261,162.566528320312,0.504201442757053,960.486938476562,958.890869140625,165.097704263642,-39.556884765625,0.0363087768544382,NaN,0,0.0171320104161963,5000,0.904073357582092,0.904073357582092,0.904073357582092,1441.0999542743,941.915923521118,2383.01587779541,,,53.3699998855591,1.5960693359375,26067.5036077822,27096.6823997767
2011-06-01T05:02:10Z,1306904530,2D08,55.5623311,25.5311955,921.25,-0.7,-14.7,226.9,-68698.41,-70383.4,227.6,Weapon+Missile,Red,Allies,R-27ER,,xu,,165.594463057379,158.830139160156,0.49157730071457,921.253845214844,919.253845214844,160.879739521106,-39.2330932617188,0,NaN,1.49231437137775,1.36933414732902,3749.94661914652,0.230260372161865,0.230260372161865,0.230260372161865,1371.07630976308,903.441402117615,2274.5177118807,,,54.3699998855591,2,26228.713824685,27262.6210560876
2011-06-01T05:02:11Z,1306904531,2D08,55.5611962,25.5302347,875.83,-2.4,-17.8,227,-68813.6,-70488.58,227.6,Weapon+Missile,Red,Allies,R-27ER,,xu,,162.468205414549,156.140853881836,0.482045090933608,875.831481933594,873.831481933594,155.989508251582,-45.42236328125,0.0397890454986462,NaN,1.53843180865367,2.91579879205516,3014.97937600873,0.0696224868297577,0.0696224868297577,0.0696224868297577,1319.79588853121,858.897280230408,2178.69316876162,,,55.3699998855591,2,26385.0297440253,27425.4238289466
2011-06-01T05:02:12Z,1306904532,2D08,55.5600956,25.5293055,822.86,-3.8,-20.8,227.1,-68925.31,-70590.3,227.7,Weapon+Missile,Red,Allies,R-27ER,,xu,,160.100284730146,154.228515625,0.474730647869609,822.859191894531,820.859191894531,151.082883407391,-52.9722900390625,0.0249452515098082,NaN,1.36920704177744,3.05148540911593,3070.71970411035,0.0973055213689804,0.0973055213689804,0.0973055213689804,1281.6050585337,806.949209419251,2088.55426795295,,,56.3699998855591,2,26536.4282604324,27585.8410330715
2011-06-01T05:02:13Z,1306904533,2D08,55.5590379,25.5284159,763.39,-4.8,-23.8,227.2,-69032.67,-70687.67,227.9,Weapon+Missile,Red,Allies,R-27ER,,xu,,156.665436513396,151.318252563477,0.46422898357703,763.393798828125,761.393798828125,144.941112267674,-59.4653930664062,0.0627714860945493,NaN,0.969231163981489,2.9594042138204,3093.64297557949,0.115311197936535,0.115311197936535,0.115311197936535,1227.20294989664,748.633579727783,1975.83652962442,,,57.3699998855591,2,26681.6730119318,27742.8041426073
2011-06-01T05:02:14Z,1306904534,2D08,55.5580049,25.5275518,696.93,-5.8,-26.7,227.4,-69137.52,-70782.26,228,Weapon+Missile,Red,Allies,R-27ER,,xu,,156.069815338206,151.201889038086,0.462112266199596,696.929992675781,694.536743164062,141.210303205699,-66.4638061523438,0.0844843446045338,NaN,0.969231163981489,2.8553285660121,3163.53662876381,0.124795682728291,0.124795682728291,0.124795682728291,1217.88936298508,683.454851267395,1901.34421425248,,,58.3699998855591,2.39324951171875,26823.1632439897,27899.1419408965
2011-06-01T05:02:15Z,1306904535,2D08,55.5570073,25.526723,624.57,-6.5,-29.4,227.6,-69238.78,-70872.96,228.3,Weapon+Missile,Red,Allies,R-27ER,,xu,,154.000921383078,149.686721801758,0.455609394001657,624.569213867188,621.569213867188,135.941904786754,-72.3607788085938,0.0800895809593643,NaN,0.569200644672183,2.48454577050243,3981.80011087513,0.27209198474884,0.27209198474884,0.27209198474884,1185.81418934185,612.493168117065,1798.30735745892,,,59.3699998855591,3,26959.3811770751,28053.3990390092
2011-06-01T05:02:16Z,1306904536,2D08,55.5560333,25.52592,547.48,-6.5,-31.2,227.8,-69337.62,-70960.84,228.4,Weapon+Missile,Red,Allies,R-27ER,,xu,,153.08664148408,149.322219848633,0.452506287744842,547.484558105469,544.484558105469,132.262903517852,-77.0846557617188,0.0783802781177782,NaN,0.184633673643785,2.21869218300391,4216.47432509538,0.301413893699646,0.301413893699646,0.301413893699646,1171.77599004377,536.8989441745,1708.67493421827,,,60.3699998855591,3,27091.9072582679,28206.7236421386
