ISOTime,UnixTime,Id,Longitude,Latitude,Altitude,Roll,Pitch,Yaw,U,V,Heading,Type,Color,Coalition,Name,Group,Country,Pilot,TAS,CAS,M,ASL,AGL,GS,VS,AOA,AOS,RRT,TRT,TRD,G,LatG,LonG,Ek,Ep,Em,FFW,FFV,RelativeTime,Elev,GroundDistance,AirDistance
2011-06-01T05:01:18Z,1306904478,2D09,55.5512576,25.9362722,6844.38,-0.8,-5.5,217,-69318.52,-25504.27,217.7,Weapon+Missile,Red,Allies,R-27ER,,xu,,416.767779640891,317.304290771484,1.33118981447127,6844.375,6844.375,NaN,NaN,0.138204211535197,NaN,0.199987938897973,0.715816705843884,NaN,NaN,NaN,NaN,NaN,6712.039009375,NaN,,,0.509999990463257,0,NaN,NaN
2011-06-01T05:01:19Z,1306904479,2D09,55.547628,25.9319313,6780.84,-0.7,-5.5,216.9,-69687.36,-25981.06,217.6,Weapon+Missile,Red,Allies,R-27ER,,xu,,606.143590230398,450.299652099609,1.9344358793313,6780.84130859375,6780.84130859375,602.804713015493,-63.53369140625,0.709080708998248,NaN,0,1.30754516116762,5000,4.54325199127197,4.54325199127197,4.54325199127197,18370.5025988698,6649.73374189209,25020.2363407619,,,1.50999999046326,0,604.597626470671,608.568906169213
2011-06-01T05:01:20Z,1306904480,2D09,55.5428139,25.9255314,6696.51,-0.3,-5.4,211.1,-70177.39,-26684.6,211.7,Weapon+Missile,Red,Allies,R-27ER,,xu,,861.512567600057,622.040832519531,2.74633953293013,6696.51123046875,6696.51123046875,857.375263263569,-84.330078125,0.174637659038641,NaN,0.399975877795947,4.96001037761651,5000,12.4883337020874,12.4883337020874,12.4883337020874,37110.1952066422,6567.03418582764,43677.2293924698,,,2.50999999046326,0,1464.74537561608,1473.74512554609
2011-06-01T05:01:21Z,1306904481,2D09,55.5379608,25.9169547,6601.22,0.1,-4.8,202.8,-70674.08,-27629.18,203.5,Weapon+Missile,Red,Allies,R-27ER,,xu,,1071.45422540272,766.908874511719,3.41128599138725,6601.2197265625,6601.2197265625,1067.20836129438,-95.29150390625,0.126661804387012,NaN,0.369220629860864,7.93661749007864,5000,16.1065368652344,16.1065368652344,16.1065368652344,57400.707856667,6473.58514314941,63874.2929998165,,,3.50999999046326,0,2536.02815223012,2550.37004891462
2011-06-01T05:01:22Z,1306904482,2D09,55.5345779,25.9078759,6511.68,0.2,-5.1,194.2,-71024.2,-28631,194.9,Weapon+Missile,Red,Allies,R-27ER,,xu,,1065.00672010889,766.028015136719,3.3867496888729,6511.6806640625,6511.6806640625,1061.23610481538,-89.5390625,0.126045621195677,NaN,0,8.51571080998994,5000,15.7881288528442,15.7881288528442,15.7881288528442,56711.9656938553,6385.77731842285,63097.7430122781,,,4.50999999046326,0,3601.92799668008,3621.11592619116
2011-06-01T05:01:23Z,1306904483,2D09,55.5327848,25.8987946,6404.71,0,-7.5,186.1,-71215.08,-29634.89,186.8,Weapon+Missile,Red,Allies,R-27ER,,xu,,1027.46496483736,744.422424316406,3.26276321934822,6404.705078125,6404.705078125,1021.88085312407,-106.9755859375,0.620671593787445,NaN,0.292332096476546,6.93543555493348,5000,9.69444274902344,9.69444274902344,9.69444274902344,52784.2126984119,6280.87010543945,59065.0828038514,,,5.50999999046326,0,4628.67600033305,4654.45575740919
2011-06-01T05:01:24Z,1306904484,2D09,55.5318446,25.8896536,6246.67,-0.1,-9.9,185.2,-71320.59,-30646.34,185.9,Weapon+Missile,Red,Allies,R-27ER,,xu,,1029.14239760075,751.565124511719,3.26131485855698,6246.67041015625,6246.67041015625,1016.93614266552,-158.03466796875,0.042246966918321,NaN,0.0154089067675488,3.34549666491124,5000,2.8685781955719,2.8685781955719,2.8685781955719,52956.7037269712,6125.89103777588,59082.594764747,,,6.50999999046326,0,5650.59324649301,5689.52208168062
2011-06-01T05:01:25Z,1306904485,2D09,55.5308382,25.8804239,6049.05,-0.3,-11.8,186.1,-71432.87,-31667.53,186.7,Weapon+Missile,Red,Allies,R-27ER,,xu,,1046.17929470658,771.062866210938,3.30675166360465,6049.0498046875,6049.0498046875,1027.3447391051,-197.62060546875,0.057295608513008,NaN,0.200042580411333,1.93441373333245,5000,2.69142127037048,2.69142127037048,2.69142127037048,54724.5558336377,5932.09142671387,60656.6472603516,,,7.50999999046326,0,6682.97471586264,6741.62523948285
2011-06-01T05:01:26Z,1306904486,2D09,55.5296343,25.8710594,5818.52,-0.4,-13,187.3,-71565.12,-32703.43,187.9,Weapon+Missile,Red,Allies,R-27ER,,xu,,1069.45218752396,796.669494628906,3.37019848325847,5818.51513671875,5818.51513671875,1044.30922061634,-230.53466796875,0.00910548321829402,NaN,0.0769352508110236,1.72353911322771,5000,2.77502799034119,2.77502799034119,2.77502799034119,57186.3990699887,5706.01414655029,62892.413216539,,,8.50999999046326,0,7732.3755284263,7817.00344827173
2011-06-01T05:01:27Z,1306904487,2D09,55.5281731,25.8616646,5565.98,-0.5,-13.9,188.7,-71723.21,-33742.41,189.4,Weapon+Missile,Red,Allies,R-27ER,,xu,,1080.84778207378,815.13525390625,3.39501741204035,5565.98291015625,5565.98291015625,1050.93263464467,-252.5322265625,0.0730797764221441,NaN,0,1.60596498390706,5000,2.65714836120605,2.65714836120605,2.65714836120605,58411.5964006901,5458.36463058838,63869.9610312785,,,9.50999999046326,0,8788.39383243989,8903.71342572915
2011-06-01T05:01:28Z,1306904488,2D09,55.5264503,25.8522757,5301.57,-0.5,-14.3,190,-71907.52,-34780.42,190.6,Weapon+Missile,Red,Allies,R-27ER,,xu,,1086.8997763356,830.504455566406,3.40246409760777,5301.57470703125,5301.57470703125,1054.24827527418,-264.408203125,0,NaN,0,1.26447132021887,5000,1.74851965904236,1.74851965904236,1.74851965904236,59067.5561899185,5199.0687600708,64266.6249499893,,,10.5099999904633,0,9847.70872367138,9996.40393647978
2011-06-01T05:01:29Z,1306904489,2D09,55.5246556,25.8434081,5042.94,-0.5,-14.7,190.9,-72098.42,-35760.62,191.5,Weapon+Missile,Red,Allies,R-27ER,,xu,,1031.5646727975,800.046020507812,3.21861376600387,5042.93798828125,5042.93798828125,998.615402383746,-258.63671875,0.0263821177608208,NaN,0,0.939547161848614,5000,1.7568724155426,1.7568724155426,1.7568724155426,53206.2837081909,4945.43278227783,58151.7164904688,,,11.5099999904633,0,10851.0895780188,11033.3704781482
2011-06-01T05:01:30Z,1306904490,2D09,55.522803,25.8350381,4794.66,-0.5,-14.7,191.8,-72294.53,-36685.62,192.5,Weapon+Missile,Red,Allies,R-27ER,,xu,,977.613147448649,769.173400878906,3.04070251407466,4794.65673828125,4794.65673828125,945.560091672069,-248.28125,0,NaN,0,1.00521057281671,5000,2.23918700218201,2.23918700218201,2.23918700218201,47786.3733032227,4701.95205024658,52488.3253534692,,,12.5099999904633,0,11801.1419093283,12016.0381284605
2011-06-01T05:01:31Z,1306904491,2D09,55.5208804,25.8271858,4562.82,-0.4,-14.4,193.2,-72497.04,-37553.21,193.9,Weapon+Missile,Red,Allies,R-27ER,,xu,,920.585460183562,734.360778808594,2.85498376897751,4562.81787109375,4562.81787109375,890.914322010034,-231.8388671875,0.0438744866178689,NaN,0,1.3462318862351,5000,2.89003014564514,2.89003014564514,2.89003014564514,42373.8794750691,4474.59578755615,46848.4752626252,,,13.5099999904633,0,12696.2320766751,12941.3010820327
2011-06-01T05:01:32Z,1306904492,2D09,55.5188475,25.8198085,4351.01,-0.3,-13.7,194.9,-72710.02,-38368.05,195.5,Weapon+Missile,Red,Allies,R-27ER,,xu,,868.435693740888,701.6435546875,2.686122328265,4351.0146484375,4351.0146484375,842.211344637226,-211.80322265625,0.0263922811905836,NaN,0.199987938897973,1.78231844056438,5000,3.48741030693054,3.48741030693054,3.48741030693054,37709.0277081609,4266.88778020996,41975.9154883708,,,14.5099999904633,0,13542.3461330246,13814.0957182513
2011-06-01T05:01:33Z,1306904493,2D09,55.5166577,25.8128329,4160.99,-0.1,-12.7,196.9,-72938.27,-39138.23,197.6,Weapon+Missile,Red,Allies,R-27ER,,xu,,825.461861301253,674.536560058594,2.54716617008494,4160.98828125,4160.98828125,803.29151883762,-190.0263671875,0.229992361760574,NaN,0.199987938897973,3.04334766560668,5000,6.3623685836792,6.3623685836792,6.3623685836792,34069.3642231464,4080.53557283203,38149.8997959785,,,15.5099999904633,0,14349.2867025944,14643.6331769145
2011-06-01T05:01:34Z,1306904494,2D09,55.5142737,25.8063759,4024.97,1.1,-7.4,200,-73185.36,-39850.73,200.6,Weapon+Missile,Red,Allies,R-27ER,,xu,,766.297952557025,632.542785644531,2.36061510373461,4024.96997070312,4024.96997070312,754.129678032275,-136.018310546875,0.480063252318455,NaN,1.3076924371216,3.78699240889805,5000,5.69165134429932,5.69165134429932,5.69165134429932,29360.6276046544,3947.14717631958,33307.774780974,,,16.5099999904633,0,15106.7378125933,15413.6784691319
2011-06-01T05:01:35Z,1306904495,2D09,55.5118485,25.8003821,3937.2,1,-7,200.2,-73436.02,-40511.89,200.8,Weapon+Missile,Red,Allies,R-27ER,,xu,,712.504611367855,592.897277832031,2.19252069191677,3937.20458984375,3937.20458984375,707.078538171727,-87.765380859375,0.0292067359552852,NaN,0.199987938897973,1.69914210439925,5000,1.11883568763733,1.11883568763733,1.11883568763733,25383.1410610229,3861.07873909912,29244.219800122,,,17.5099999904633,0,15816.859539812,16129.6430891884
2011-06-01T05:01:36Z,1306904496,2D09,55.5095294,25.794665,3854.65,0.8,-7,200.2,-73675.73,-41142.5,200.8,Weapon+Missile,Red,Allies,R-27ER,,xu,,679.661888393179,569.253845214844,2.08932689256008,3854.65454101562,3854.65454101562,674.630100108686,-82.550048828125,0.038810078979069,NaN,0.199987938897973,0.0197823405926261,5000,0.994057416915894,0.994057416915894,0.994057416915894,23097.0141267091,3780.12479546509,26877.1389221742,,,18.5099999904633,0,16494.3911329827,16812.5958982651
2011-06-01T05:01:37Z,1306904497,2D09,55.5073164,25.7892092,3775.9,0.6,-7,200.2,-73904.48,-41744.29,200.8,Weapon+Missile,Red,Allies,R-27ER,,xu,,648.607194992881,546.713195800781,1.99192921105708,3775.90380859375,3775.90380859375,643.80867929809,-78.750732421875,0.0393136621365547,NaN,0.199987938897973,0.0197823405926261,5000,0.992335498332977,0.992335498332977,0.992335498332977,21034.5646698266,3702.89670845459,24737.4613782812,,,19.5099999904633,0,17140.9658302285,17464.3326672921
2011-06-01T05:01:38Z,1306904498,2D09,55.5052105,25.7840174,3700.98,0.5,-7,200.2,-74122.18,-42316.96,200.8,Weapon+Missile,Red,Allies,R-27ER,,xu,,617.214636199116,523.610168457031,1.8937743590812,3700.97680664062,3700.97680664062,612.649860455973,-74.927001953125,0.0403661445394381,NaN,0.199987938897973,0.0197823405926261,5000,0.992112815380096,0.992112815380096,0.992112815380096,19047.6953569204,3629.41842008423,22677.1137770046,,,20.5099999904633,0,17756.2622421121,18084.5323677091
2011-06-01T05:01:39Z,1306904499,2D09,55.5031983,25.7790561,3629.38,0.4,-7,200.2,-74330.22,-42864.21,200.8,Weapon+Missile,Red,Allies,R-27ER,,xu,,589.816915613995,503.400421142578,1.8081215101953,3629.38452148438,3629.38452148438,585.455838343519,-71.59228515625,0.0408211689177557,NaN,0.199987938897973,0.0197823405926261,5000,0.991540431976318,0.991540431976318,0.991540431976318,17394.1996972203,3559.21037176147,20953.4100689818,,,21.5099999904633,0,18344.2317145249,18677.1798097376
2011-06-01T05:01:40Z,1306904500,2D09,55.5012799,25.7743257,3561.13,0.4,-7,200.2,-74528.56,-43385.96,200.8,Weapon+Missile,Red,Allies,R-27ER,,xu,,562.343359334163,482.8642578125,1.72245844008784,3561.13061523438,3561.13061523438,558.18586337245,-68.25390625,0.041304028702197,NaN,0.0307631720217374,0.0197823405926261,5000,0.992970049381256,0.992970049381256,0.992970049381256,15811.5026893616,3492.27615478882,19303.7788441504,,,22.5099999904633,0,18904.8256391876,19242.2271858309
2011-06-01T05:01:41Z,1306904501,2D09,55.4994469,25.7698056,3495.93,0.3,-7,200.2,-74718.09,-43884.55,200.8,Weapon+Missile,Red,Allies,R-27ER,,xu,,537.361954983512,464.063201904297,1.6446279909535,3495.92529296875,3495.92529296875,533.391166604715,-65.205322265625,0.0420790493527445,NaN,0,0.0197823405926261,5000,0.990602672100067,0.990602672100067,0.990602672100067,14437.8935331851,3428.3315774292,17866.2251106143,,,23.5099999904633,0,19440.5083085482,19782.157963785
2011-06-01T05:01:42Z,1306904502,2D09,55.4977014,25.765501,3433.83,0.2,-7,200.1,-74898.59,-44359.34,200.8,Weapon+Missile,Red,Allies,R-27ER,,xu,,511.724715769754,444.461242675781,1.56497624038071,3433.82543945312,3433.82543945312,507.942706338986,-62.099853515625,0.0414143679620392,NaN,0.199987938897973,0.0197823405926261,5000,0.992432594299316,0.992432594299316,0.992432594299316,13093.1092364818,3367.4324245813,16460.5416610631,,,24.5099999904633,0,19950.6376004313,20296.3282673885
2011-06-01T05:01:43Z,1306904503,2D09,55.4960258,25.7613685,3374.22,0.2,-7,200.1,-75071.88,-44815.15,200.8,Weapon+Missile,Red,Allies,R-27ER,,xu,,491.273887267604,428.817352294922,1.50134088745477,3374.216796875,3374.216796875,487.644175645537,-59.608642578125,0.0420242399934069,NaN,0,0.0197823405926261,5000,0.99050235748291,0.99050235748291,0.99050235748291,12067.5016155511,3308.97631510742,15376.4779306585,,,25.5099999904633,0,20440.3807360237,20789.945135279
2011-06-01T05:01:44Z,1306904504,2D09,55.4944354,25.757446,3317.63,0.2,-7,200.1,-75236.34,-45247.81,200.8,Weapon+Missile,Red,Allies,R-27ER,,xu,,466.309132145532,409.178527832031,1.42406647323451,3317.63061523438,3317.63061523438,462.863058333297,-56.586181640625,0.0434163452003936,NaN,0,0.0197823405926261,5000,0.99249655008316,0.99249655008316,0.99249655008316,10872.210336116,3253.48422728882,14125.6945634048,,,26.5099999904633,0,20905.235732111,21258.4736204589
2011-06-01T05:01:45Z,1306904505,2D09,55.4929055,25.7536725,3263.2,0.1,-7,200.1,-75394.59,-45664.02,200.8,Weapon+Missile,Red,Allies,R-27ER,,xu,,448.591669664771,395.257873535156,1.36905237051861,3263.203125,3263.203125,445.277592518885,-54.427490234375,0.0429746316370727,NaN,0,0.0197823405926261,5000,0.991420984268188,0.991420984268188,0.991420984268188,10061.7243046314,3200.10909257813,13261.8333972095,,,27.5099999904633,0,21352.4261997753,21709.1931051999
2011-06-01T05:01:46Z,1306904506,2D09,55.4914494,25.7500807,3211.4,0.1,-7,200.1,-75545.2,-46060.2,200.8,Weapon+Missile,Red,Allies,R-27ER,,xu,,426.992167267272,377.768402099609,1.30231331313196,3211.39697265625,3211.39697265625,423.837744292481,-51.80615234375,0.0426500319014832,NaN,0,0.0197823405926261,5000,0.991908311843872,0.991908311843872,0.991908311843872,9116.11554538012,3149.30461218994,12265.4201575701,,,28.5099999904633,0,21778.0880518581,22138.210429696
2011-06-01T05:01:47Z,1306904507,2D09,55.4900568,25.7466452,3161.85,0.1,-7,200.1,-75689.25,-46439.13,200.8,Weapon+Missile,Red,Allies,R-27ER,,xu,,408.404674403594,362.4833984375,1.2448735193936,3161.84985351562,3161.84985351562,405.388037637484,-49.547119140625,0.0440678533503977,NaN,0,0.0197823405926261,5000,0.990777134895325,0.990777134895325,0.990777134895325,8339.71890373528,3100.7154865979,11440.4343903332,,,29.5099999904633,0,22185.2157652518,22548.5439029731
2011-06-01T05:01:48Z,1306904508,2D09,55.4887232,25.7433553,3114.39,0.1,-7,200.1,-75827.2,-46802,200.8,Weapon+Missile,Red,Allies,R-27ER,,xu,,391.099096122608,347.957214355469,1.19143843116293,3114.39453125,3114.39453125,388.209344782666,-47.455322265625,0.042619064028464,NaN,0,0.0197823405926261,5000,0.992255866527557,0.992255866527557,0.992255866527557,7647.92514939606,3054.17771298828,10702.1028623843,,,30.5099999904633,0,22575.0956370089,22941.4916562128
2011-06-01T05:01:49Z,1306904509,2D09,55.4874536,25.740223,3069.22,0.1,-7,200.1,-75958.54,-47147.48,200.8,Weapon+Missile,Red,Allies,R-27ER,,xu,,372.349019457852,331.731628417969,1.13369844589376,3069.22143554688,3069.22143554688,369.598679266878,-45.173095703125,0.0430435173815141,NaN,0,0.0197823405926261,5000,0.991300582885742,0.991300582885742,0.991300582885742,6932.1896145612,3009.87803909058,9942.06765365178,,,31.5099999904633,0,22946.2884466572,23315.6016999624
2011-06-01T05:01:50Z,1306904510,2D09,55.4862421,25.737234,3026.11,0,-7,200.1,-76083.88,-47477.16,200.8,Weapon+Missile,Red,Allies,R-27ER,,xu,,355.325649286651,316.668060302734,1.08130328664939,3026.11083984375,3026.11083984375,352.700713890831,-43.110595703125,0.0438176580895855,NaN,0.153870501622047,0.0197823405926261,5000,0.99236935377121,0.99236935377121,0.99236935377121,6312.81585204899,2967.60098675537,9280.41683880437,,,32.5099999904633,0,23300.5096184371,23672.6046409371
2011-06-01T05:01:51Z,1306904511,2D09,55.4850886,25.7343879,2985.07,0,-7,200.1,-76203.22,-47791.07,200.8,Weapon+Missile,Red,Allies,R-27ER,,xu,,338.329546189057,301.357604980469,1.02907162941028,2985.06982421875,2985.06982421875,335.831083821855,-41.041015625,0.0434025854999324,NaN,0,0.0197823405926261,5000,0.990401208400726,0.990401208400726,0.990401208400726,5723.34409122467,2927.35349916748,8650.69759039215,,,33.5099999904633,0,23637.7868660478,24012.5274897528
2011-06-01T05:01:52Z,1306904512,2D09,55.4839899,25.7316768,2945.96,0,-7,200.1,-76316.9,-48090.1,200.8,Weapon+Missile,Red,Allies,R-27ER,,xu,,322.292026386582,286.872650146484,0.979829014817909,2945.96240234375,2945.96240234375,319.910549727045,-39.107421875,0.0436997355877701,NaN,0,0.0197823405926261,5000,0.99303525686264,0.99303525686264,0.99303525686264,5193.60751361847,2889.00221929443,8082.6097329129,,,34.5099999904633,0,23959.0754636701,24336.335713798
2011-06-01T05:01:53Z,1306904513,2D09,55.4829434,25.7290944,2908.73,0,-7,200.1,-76425.17,-48374.93,200.8,Weapon+Missile,Red,Allies,R-27ER,,xu,,306.983748710317,273.050537109375,0.932870064037156,2908.72534179688,2908.72534179688,304.716956033082,-37.237060546875,0.0433175298950983,NaN,0,0.0197823405926261,5000,0.9913729429245,0.9913729429245,0.9913729429245,4711.95109861195,2852.48513731323,7564.43623592518,,,35.5099999904633,0,24265.0977804641,24644.7546507602
2011-06-01T05:01:54Z,1306904514,2D09,55.4819404,25.7266195,2873.03,0,-7,200.1,-76528.95,-48647.91,200.8,Weapon+Missile,Red,Allies,R-27ER,,xu,,294.20914994692,261.6005859375,0.893666008106863,2873.03369140625,2873.03369140625,292.036179273875,-35.691650390625,0.0432586784256224,NaN,0,0.0197823405926261,5000,0.991678833961487,0.991678833961487,0.991678833961487,4327.95119562447,2817.48358498291,7145.43478060738,,,36.5099999904633,0,24558.3891041113,24940.3416747573
2011-06-01T05:01:55Z,1306904515,2D09,55.4809763,25.7242404,2838.72,0,-7,200.1,-76628.72,-48910.32,200.8,Weapon+Missile,Red,Allies,R-27ER,,xu,,282.827173550395,251.447494506836,0.858738339572097,2838.720703125,2838.720703125,280.73800764007,-34.31298828125,0.0440376493163932,NaN,0,0.0197823405926261,5000,0.992325782775879,0.992325782775879,0.992325782775879,3999.56050492525,2783.83403833008,6783.39454325533,,,37.5099999904633,0,24840.3327977438,25224.490984877
2011-06-01T05:01:56Z,1306904516,2D09,55.4800481,25.7219497,2805.69,0,-7,200.1,-76724.77,-49162.96,200.8,Weapon+Missile,Red,Allies,R-27ER,,xu,,272.30013433734,242.086318969727,0.826447109058732,2805.6884765625,2805.6884765625,270.289169535993,-33.0322265625,0.0432396651951433,NaN,0,0.0197823405926261,5000,0.991816759109497,0.991816759109497,0.991816759109497,3707.36815800667,2751.44048986816,6458.80864787483,,,38.5099999904633,0,25111.7902177243,25498.0700143463
2011-06-01T05:01:57Z,1306904517,2D09,55.4791586,25.7197542,2774.03,0,-7,200.1,-76816.82,-49405.11,200.8,Weapon+Missile,Red,Allies,R-27ER,,xu,,260.983326609553,231.997634887695,0.79179864741914,2774.0283203125,2774.0283203125,259.055845860336,-31.66015625,0.0436107003609063,NaN,0,0.0197823405926261,5000,0.991876006126404,0.991876006126404,0.991876006126404,3405.61483840942,2720.39248273926,6126.00732114868,,,39.5099999904633,0,25371.9617580417,25760.2737989771
2011-06-01T05:01:58Z,1306904518,2D09,55.4782941,25.7176208,2743.26,0,-7,200.1,-76906.28,-49640.43,200.8,Weapon+Missile,Red,Allies,R-27ER,,xu,,253.617755687258,225.542633056641,0.769167990418455,2743.25927734375,2743.25927734375,251.744378278104,-30.76904296875,0.0436075939673041,NaN,0,0.0197823405926261,5000,0.992102682590485,0.992102682590485,0.992102682590485,3216.09829999208,2690.21835921631,5906.31665920839,,,40.5099999904633,0,25624.7856659827,26015.0716936347
2011-06-01T05:01:59Z,1306904519,2D09,55.4774587,25.7155591,2713.53,0,-7,200.1,-76992.73,-49867.82,200.8,Weapon+Missile,Red,Allies,R-27ER,,xu,,245.088343703062,218.012023925781,0.743034995974604,2713.525390625,2713.525390625,243.278014213589,-29.73388671875,0.0445166143235505,NaN,0,0.0197823405926261,5000,0.992417335510254,0.992417335510254,0.992417335510254,3003.41481095552,2661.05937719727,5664.47418815279,,,41.5099999904633,0,25869.106520727,26261.2989561231
2011-06-01T05:02:00Z,1306904520,2D09,55.4766511,25.7135657,2684.78,0,-7,200.1,-77076.31,-50087.69,200.8,Weapon+Missile,Red,Allies,R-27ER,,xu,,236.966619834019,210.850326538086,0.718164786017758,2684.78002929688,2684.78002929688,235.216672703437,-28.745361328125,0.0427581164912634,NaN,0,0.0197823405926261,5000,0.991558611392975,0.991558611392975,0.991558611392975,2807.65894577801,2632.86980743042,5440.52875320843,,,42.5099999904633,0,26105.330413703,26499.3646249544
2011-06-01T05:02:01Z,1306904521,2D09,55.4758725,25.7116437,2657.06,0,-7,200.1,-77156.9,-50299.66,200.8,Weapon+Missile,Red,Allies,R-27ER,,xu,,228.46184777225,203.332138061523,0.692159817087672,2657.0615234375,2657.0615234375,226.774117395338,-27.718505859375,0.0441858406569748,NaN,0,0.0197823405926261,5000,0.992446303367615,0.992446303367615,0.992446303367615,2609.74079437554,2605.68723888184,5215.42803325737,,,43.5099999904633,0,26333.0916369333,26728.900997159
2011-06-01T05:02:02Z,1306904522,2D09,55.475115,25.7097738,2630.09,0,-7,200.1,-77235.31,-50505.91,200.8,Weapon+Missile,Red,Allies,R-27ER,,xu,,222.287710869669,197.939437866211,0.673236911371085,2630.09448242188,2630.09448242188,220.645881680441,-26.967041015625,0.0438260267700554,NaN,0,0.0197823405926261,5000,0.991901040077209,0.991901040077209,0.991901040077209,2470.59132018387,2579.24160560425,5049.83292578812,,,44.5099999904633,0,26554.6813317095,26952.2167504298
2011-06-01T05:02:03Z,1306904523,2D09,55.4743807,25.7079613,2603.95,0,-7,200.1,-77311.31,-50705.82,200.8,Weapon+Missile,Red,Allies,R-27ER,,xu,,215.460996794681,191.943054199219,0.652356926011988,2603.953125,2603.953125,213.869283843892,-26.141357421875,0.0426002313177639,NaN,0,0.0197823405926261,5000,0.992805957794189,0.992805957794189,0.992805957794189,2321.17205698788,2553.60569132812,4874.77774831601,,,45.5099999904633,0,26769.4725468329,27168.680382714
2011-06-01T05:02:04Z,1306904524,2D09,55.4736693,25.7062052,2578.63,0,-7,200.1,-77384.95,-50899.51,200.8,Weapon+Missile,Red,Allies,R-27ER,,xu,,208.756662982548,186.051559448242,0.631866668488213,2578.63134765625,2578.63134765625,207.215230935766,-25.32177734375,0.0451400345828218,NaN,0,0.0197823405926261,5000,0.991643130779266,0.991643130779266,0.991643130779266,2178.96721698046,2528.77351054932,4707.74072752977,,,46.5099999904633,0,26977.5784938593,27378.4051426429
2011-06-01T05:02:05Z,1306904525,2D09,55.4729787,25.7045005,2554.05,0,-7,200.1,-77456.42,-51087.52,200.8,Weapon+Missile,Red,Allies,R-27ER,,xu,,202.640584631239,180.689163208008,0.613174265769651,2554.04614257812,2554.04614257812,201.143665649597,-24.585205078125,0.0431770917049662,NaN,0,0.0197823405926261,5000,0.992875814437866,0.992875814437866,0.992875814437866,2053.16032698452,2504.66366041138,4557.8239873959,,,47.5099999904633,0,27179.5886077329,27581.9864888151
2011-06-01T05:02:06Z,1306904526,2D09,55.47231,25.7028495,2530.24,0,-7,200.1,-77525.65,-51269.61,200.8,Weapon+Missile,Red,Allies,R-27ER,,xu,,196.250347769484,175.070083618164,0.593669099773223,2530.24291992188,2530.24291992188,194.801451716409,-23.80322265625,0.0422284415848839,NaN,0,0.0197823405926261,5000,0.991710722446442,0.991710722446442,0.991710722446442,1925.70994998217,2481.32067306519,4407.03062304735,,,48.5099999904633,0,27375.2273972755,27779.1454240726
2011-06-01T05:02:07Z,1306904527,2D09,55.4716562,25.7012357,2506.97,0,-7,200.1,-77593.32,-51447.61,200.8,Weapon+Missile,Red,Allies,R-27ER,,xu,,191.850477586436,171.256057739258,0.580197991793701,2506.9677734375,2506.9677734375,190.433382856773,-23.275146484375,0.0449834980018776,NaN,0,0.0197823405926261,5000,0.992067813873291,0.992067813873291,0.992067813873291,1840.33028750718,2458.49555153809,4298.82583904526,,,49.5099999904633,0,27566.4771812359,27971.8812659096
2011-06-01T05:02:08Z,1306904528,2D09,55.4710275,25.6996834,2484.58,0,-7,200.1,-77658.41,-51618.82,200.8,Weapon+Missile,Red,Allies,R-27ER,,xu,,184.524261053008,164.772125244141,0.557892864198638,2484.58081054688,2484.58081054688,183.161204433942,-22.386962890625,0.0345108448898304,NaN,0,0.127822201180242,5000,0.835946261882782,0.835946261882782,0.835946261882782,1702.46014585793,2436.54144057495,4139.00158643288,,,50.5099999904633,0,27750.4215516003,28157.254382791
2011-06-01T05:02:09Z,1306904529,2D09,55.4704141,25.6981691,2461.2,-0.5,-8.7,200.1,-77721.91,-51785.84,200.8,Weapon+Missile,Red,Allies,R-27ER,,xu,,180.209914629693,161.031631469727,0.544696899838046,2461.19604492188,2461.19604492188,178.686222377398,-23.384765625,0.0404612695096489,NaN,0.969231163981489,1.61931885750808,3713.19877395283,0.109110437333584,0.109110437333584,0.109110437333584,1623.78066654205,2413.60881939331,4037.38948593536,,,51.5099999904633,0,27929.8737860084,28338.2928529582
2011-06-01T05:02:10Z,1306904530,2D09,55.4698202,25.6967042,2429.98,-1.2,-11.8,200.2,-77783.38,-51947.39,200.8,Weapon+Missile,Red,Allies,R-27ER,,xu,,175.649427080211,157.12287902832,0.530715047928421,2429.98071289062,2429.98071289062,172.853476331213,-31.21533203125,0.0487681638115357,NaN,0.584609551439731,3.07734706663453,3226.14826879042,0.0173211600631475,0.0173211600631475,0.0173211600631475,1542.63606168032,2382.99703580688,3925.6330974872,,,52.5099999904633,0,28103.4807246066,28514.7493160685
2011-06-01T05:02:11Z,1306904531,2D09,55.4692445,25.6952867,2390.26,-1.8,-14.9,200.2,-77842.98,-52103.74,200.9,Weapon+Missile,Red,Allies,R-27ER,,xu,,171.971240138603,154.072692871094,0.519355886319219,2390.25537109375,2390.25537109375,167.320066501094,-39.725341796875,0.0266073139994245,NaN,0.60001845820728,3.12349246499737,3167.10476059233,0.0278729554265738,0.0278729554265738,0.0278729554265738,1478.70537174046,2344.03978349365,3822.74515523411,,,53.5099999904633,0,28271.516262771,28687.478549351
2011-06-01T05:02:12Z,1306904532,2D09,55.4686869,25.6939174,2342.47,-2.3,-18,200.3,-77900.7,-52254.76,200.9,Weapon+Missile,Red,Allies,R-27ER,,xu,,168.588277796198,151.341506958008,0.508849961014318,2342.4677734375,2342.4677734375,161.673599949195,-47.78759765625,0.0135311116015728,NaN,0.507674300628708,3.11962977957832,3111.57887082816,0.0344468243420124,0.0344468243420124,0.0344468243420124,1421.10037051439,2297.17615903809,3718.27652955248,,,54.5099999904633,0,28433.8796734955,28856.7862466788
2011-06-01T05:02:13Z,1306904533,2D09,55.4681459,25.6925944,2286.91,-2.7,-21.2,200.4,-77956.68,-52400.67,201,Weapon+Missile,Red,Allies,R-27ER,,xu,,165.863497781746,149.255874633789,0.500295434501151,2286.90991210938,2286.90991210938,156.281873360413,-55.557861328125,0.0786114967486993,NaN,0.369212705774209,3.12068226904074,3074.44173202686,0.0361035503447056,0.0361035503447056,0.0361035503447056,1375.53499481976,2242.69250895874,3618.2275037785,,,55.5099999904633,0,28590.8411091085,29023.343904599
2011-06-01T05:02:14Z,1306904534,2D09,55.4676169,25.6913074,2223.4,-3.1,-24.2,200.5,-78011.43,-52542.61,201.2,Weapon+Missile,Red,Allies,R-27ER,,xu,,164.852424634875,148.782730102539,0.496871214890381,2223.39916992188,2223.39916992188,152.12727413186,-63.5107421875,0.0426639467483608,NaN,0.338504175265832,3.03604384550641,3121.67453428641,0.0476040318608284,0.0476040318608284,0.0476040318608284,1358.81609539986,2180.40974697144,3539.22584237129,,,56.5099999904633,0,28743.6197281275,29188.8474681849
2011-06-01T05:02:15Z,1306904535,2D09,55.4671061,25.6900734,2153.19,-3.3,-27.2,200.6,-78064.28,-52678.7,201.3,Weapon+Missile,Red,Allies,R-27ER,,xu,,161.996809086898,146.662124633789,0.487858416450138,2153.19067382812,2153.19067382812,145.992236884674,-70.20849609375,0,NaN,0.276923189708997,2.98770104722153,3142.52990946256,0.055633619427681,0.055633619427681,0.055633619427681,1312.14830771685,2111.55873214966,3423.7070398665,,,57.5099999904633,0,28890.2385969808,29351.4545995375
2011-06-01T05:02:16Z,1306904536,2D09,55.4666052,25.6888731,2075.58,-3.6,-30.1,200.8,-78116.09,-52811.06,201.5,Weapon+Missile,Red,Allies,R-27ER,,xu,,161.948786723894,147.159912109375,0.487266465036088,2075.58374023438,2075.58374023438,142.142792217955,-77.60693359375,0.0502564159385682,NaN,0.199987938897973,2.93200512340831,3205.05161750853,0.0556178875267506,0.0556178875267506,0.0556178875267506,1311.37047606707,2035.45232861694,3346.82280468401,,,58.5099999904633,0,29032.9924141592,29513.9815264401
2011-06-01T05:02:17Z,1306904537,2D09,55.4661152,25.6877101,1991,-3.8,-32.9,201,-78166.77,-52939.31,201.7,Weapon+Missile,Red,Allies,R-27ER,,xu,,161.776541609147,147.592437744141,0.486262571959848,1990.99682617188,1990.99682617188,137.901063753691,-84.5869140625,0.156136142225653,NaN,0.199987938897973,2.34584319803628,4425.04051560142,0.242341384291649,0.242341384291649,0.242341384291649,1308.58247075081,1952.50090253784,3261.08337328865,,,59.5099999904633,0,29171.475999693,29676.2925820864
2011-06-01T05:02:18Z,1306904538,2D09,55.4656328,25.686576,1901.5,-3.6,-34.6,201.1,-78216.64,-53064.36,201.8,Weapon+Missile,Red,Allies,R-27ER,,xu,,161.660811829122,148.111083984375,0.485402845529728,1901.50378417969,1901.50378417969,134.629913155418,-89.4930419921875,0,NaN,0.215396845665522,2.21608646583555,4012.08071228228,0.169584766030312,0.169584766030312,0.169584766030312,1306.71090406254,1864.73820851257,3171.44911257511,,,60.5099999904633,0,29306.6728142563,29838.4602110625
2011-06-01T05:02:19Z,1306904539,2D09,55.4651616,25.68548,1807.13,-3.8,-37.3,201.3,-78265.34,-53185.21,202.1,Weapon+Missile,Red,Allies,R-27ER,,xu,,160.87556440382,148.042098999023,0.482509662873793,1807.13452148438,1807.13452148438,130.289636888706,-94.3692626953125,0.0279034255042682,NaN,0.138461594854498,2.6193463839618,3496.74168992332,0.0704200938344002,0.0704200938344002,0.0704200938344002,1294.04736111239,1772.19357551147,3066.24093662386,,,61.5099999904633,0,29437.5196433104,29999.8182198313
2011-06-01T05:02:20Z,1306904540,2D09,55.4646977,25.6844146,1706.05,-4,-39.9,201.7,-78313.27,-53302.69,202.3,Weapon+Missile,Red,Allies,R-27ER,,xu,,162.225577769103,150.008911132812,0.485982389357584,1706.04846191406,1706.04846191406,126.880836390159,-101.086059570312,0.0237771579697606,NaN,0.199987938897973,2.56635393439943,3664.73037770286,0.0724457204341888,0.0724457204341888,0.0724457204341888,1315.85690412596,1673.06201490295,2988.91891902891,,,62.5099999904633,0,29564.9251904672,30162.4820051826
2011-06-01T05:02:21Z,1306904541,2D09,55.4642435,25.6833862,1599.12,-4.1,-42.3,202,-78360.19,-53416.06,202.7,Weapon+Missile,Red,Allies,R-27ER,,xu,,162.748205948947,151.253463745117,0.486938679533502,1599.123046875,1599.123046875,122.694474848402,-106.925415039062,0.0377464404795758,NaN,0.0615263440434749,2.46808992380117,3866.7771256195,0.0786084607243538,0.0786084607243538,0.0786084607243538,1324.34892698005,1568.20400276367,2892.55292974372,,,63.5099999904633,0,29688.1393977419,30325.64650347
2011-06-01T05:02:22Z,1306904542,2D09,55.4637972,25.6823917,1486.38,-4.2,-44.7,202.3,-78406.25,-53525.7,202.9,Weapon+Missile,Red,Allies,R-27ER,,xu,,163.867124675971,153.107162475586,0.489642026684895,1486.38232421875,1486.38232421875,118.919989928172,-112.74072265625,0.0412392140318272,NaN,0,2.36902678107,4083.10498775802,0.0840754434466362,0.0840754434466362,0.0840754434466362,1342.6217274785,1457.64312197998,2800.26484945848,,,64.5099999904633,0,29807.5618285494,30489.8996241299
2011-06-01T05:02:23Z,1306904543,2D09,55.4633601,25.681434,1368.5,-4.3,-46.9,202.6,-78451.36,-53631.26,203.3,Weapon+Missile,Red,Allies,R-27ER,,xu,,164.543747123221,154.590377807617,0.49098994012177,1368.50305175781,1368.50305175781,114.800356451671,-117.879272460938,0.00459875155229257,NaN,0,2.23264070994954,4295.11579723334,0.0863247141242027,0.0863247141242027,0.0863247141242027,1353.73223586753,1342.04304525208,2695.77528111961,,,65.5099999904633,0,29922.8336300035,30654.7906770713
2011-06-01T05:02:24Z,1306904544,2D09,55.4629286,25.680506,1244.88,-4.4,-49,203.1,-78495.87,-53733.55,203.7,Weapon+Missile,Red,Allies,R-27ER,,xu,,166.517984838159,157.359024047852,0.496168770374524,1244.87683105469,1244.87683105469,111.556249619748,-123.626220703125,0,NaN,0,2.10145454722158,4595.56717213129,0.0922069996595383,0.0922069996595383,0.0922069996595383,1386.41196372807,1220.80713752625,2607.21910125432,,,66.5099999904633,0,30034.8462303517,30821.6301404687
2011-06-01T05:02:25Z,1306904545,2D09,55.462507,25.6796171,1117.18,-4.5,-51,203.4,-78539.33,-53831.51,204.1,Weapon+Missile,Red,Allies,R-27ER,,xu,,166.707244275146,158.470336914062,0.495999423757529,1117.17846679688,1117.17846679688,107.165447135224,-127.698364257812,0.0143210065523365,NaN,0,2.01705133832679,4867.90374338055,0.0960776507854462,0.0960776507854462,0.0960776507854462,1389.56526469067,1095.57782114136,2485.14308583202,,,67.5099999904633,0,30142.4541817609,30988.6350270276
2011-06-01T05:02:26Z,1306904546,2D09,55.4620911,25.6787584,984.51,-4.6,-52.9,203.9,-78582.18,-53926.14,204.6,Weapon+Missile,Red,Allies,R-27ER,,xu,,168.498729943875,161.164016723633,0.500563042977162,984.509948730469,984.509948730469,103.879190922738,-132.668518066406,0.0179335834933782,NaN,0.169224766876236,1.90881076922866,5000,0.0994959846138954,0.0994959846138954,0.0994959846138954,1419.59109963495,965.474448871765,2385.06554850672,,,68.5099999904633,0,30246.7539939252,31157.4040153058
2011-06-01T05:02:27Z,1306904547,2D09,55.4616808,25.6779303,847.19,-4.7,-54.7,204.4,-78624.43,-54017.39,205.1,Weapon+Missile,Red,Allies,R-27ER,,xu,,170.196479541559,163.822479248047,0.50480892544594,847.193054199219,847.193054199219,100.553031404497,-137.31689453125,0.0391065644584294,NaN,0.199987938897973,1.80298872742695,5000,0.10221890360117,0.10221890360117,0.10221890360117,1448.34208241701,830.812576496277,2279.15465891329,,,69.5099999904633,0,30347.7157878332,31327.850901216
2011-06-01T05:02:28Z,1306904548,2D09,55.4612779,25.6771361,706.18,-4.7,-56.4,204.9,-78665.89,-54104.89,205.6,Weapon+Missile,Red,Allies,R-27ER,,xu,,171.054861963901,165.712417602539,0.506535609483881,706.183044433594,706.183044433594,96.8294528921221,-141.010009765625,0.0137492069097342,NaN,0.0769352508110236,1.71819182215954,5000,0.109499514102936,0.109499514102936,0.109499514102936,1462.98829007447,692.52899526947,2155.51728534394,,,70.5099999904633,0,30444.9266265047,31499.1286629204
2011-06-01T05:02:29Z,1306904549,2D09,55.4608815,25.6763741,561.64,-4.8,-57.9,205.5,-78706.66,-54188.82,206.2,Weapon+Missile,Red,Allies,R-27ER,,xu,,172.043386392671,167.768310546875,0.508622308588065,561.639221191406,561.639221191406,93.3060017576,-144.543823242188,0.0134598500116067,NaN,0,1.61829091403799,5000,0.11053378880024,0.11053378880024,0.11053378880024,1479.9463400729,550.77992684967,2030.72626692257,,,71.5099999904633,0,30538.6062033708,31671.3800039254
2011-06-01T05:02:30Z,1306904550,2D09,55.46049,25.6756412,413.27,-4.9,-59.5,206.1,-78746.91,-54269.55,206.8,Weapon+Missile,Red,Allies,R-27ER,,xu,,173.638847133356,170.464889526367,0.512472614918858,413.271514892578,413.271514892578,90.2079428954334,-148.367706298828,0.0132832407067308,NaN,0,1.54168618034977,5000,0.113928914070129,0.113928914070129,0.113928914070129,1507.52246169006,405.28091015213,1912.80337184219,,,72.5099999904633,0,30629.1597378901,31845.2022473536
2011-06-01T05:02:31Z,1306904551,2D09,55.4601053,25.6749406,262.21,-5,-60.9,206.7,-78786.41,-54346.7,207.4,Weapon+Missile,Red,Allies,R-27ER,,xu,,174.162054775404,172.141464233398,0.513136446172609,262.207702636719,262.207702636719,86.6726366872347,-151.063812255859,0.0419155476975812,NaN,0,1.47650141623211,5000,0.118988342583179,0.118988342583179,0.118988342583179,1516.62106617955,257.137916706238,1773.75898288578,,,73.5099999904633,0,30716.1688879447,32019.5343136906
2011-06-01T05:02:32Z,1306904552,2D09,55.4597239,25.6742657,107.4,-5.1,-62.2,207.5,-78825.57,-54420.99,208.1,Weapon+Missile,Red,Allies,R-27ER,,xu,,176.11980216449,175.284622192383,0.517997018854255,107.401542663574,107.401542663574,83.9835552285573,-154.806159973145,0.0417176124396215,NaN,0,1.35734545778836,5000,0.121524572372437,0.121524572372437,0.121524572372437,1550.90923572295,105.324933836174,1656.23416955912,,,74.5099999904633,0,30800.4840180001,32195.8136383203
2011-06-01T05:02:33Z,1306904553,2D09,55.4593463,25.6736178,-50.6,-5.2,-63.5,208.2,-78864.31,-54492.32,208.9,Weapon+Missile,Red,Allies,R-27ER,,xu,,177.632934094119,178.033676147461,0.521518064544236,-50.5992279052734,-50.5992279052734,81.1739845919623,-158.000770568848,0.0464900659346085,NaN,0,1.28130933734854,5000,0.124838009476662,0.124838009476662,0.124838009476662,1577.67296374429,-49.620891833725,1528.05207191056,,,75.5099999904633,0,30881.9545059484,32373.5824292173
2011-06-01T05:02:34Z,1306904554,2D09,55.4589756,25.6730019,-210.08,-5.4,-64.6,209,-78902.3,-54560.11,209.7,Weapon+Missile,Red,Allies,R-27ER,,xu,,177.401013647319,179.056777954102,0.519905387118993,-210.076141357422,-210.076141357422,77.7060725997143,-159.476913452148,0,NaN,0.199987938897973,1.23767894270415,5000,0.130836233496666,0.130836233496666,0.130836233496666,1573.55598215481,-206.014319164276,1367.54166299053,,,76.5099999904633,0,30959.9543992378,32551.1116398448
2011-06-01T05:02:35Z,1306904555,2D09,55.4586091,25.6724127,-371.89,-5.5,-65.7,209.8,-78939.86,-54624.95,210.5,Weapon+Missile,Red,Allies,R-27ER,,xu,,178.317960046983,181.26335144043,0.521647492846995,-371.885375976562,-371.885375976562,74.933747185665,-161.809234619141,0.0345442366714216,NaN,0.199987938897973,1.14206685977284,5000,0.135608598589897,0.135608598589897,0.135608598589897,1589.86474376586,-364.694972232056,1225.16977153381,,,77.5099999904633,0,31035.1533231244,32729.5397503083
2011-06-01T05:02:36Z,1306904556,2D09,55.4582457,25.6718486,-536.01,-5.7,-66.7,210.7,-78977.06,-54687,211.4,Weapon+Missile,Red,Allies,R-27ER,,xu,,179.364176460561,183.634628295898,0.523748998581434,-536.0107421875,-536.0107421875,72.3489596573508,-164.125366210938,0.0306994473512127,NaN,0.184633673643785,1.06390238835463,5000,0.139880567789078,0.139880567789078,0.139880567789078,1608.57538986877,-525.646974487305,1082.92841538146,,,78.5099999904633,0,31107.7616082412,32909.0065954057
2011-06-01T05:02:37Z,1306904557,2D09,55.4578834,25.6713063,-703.12,-5.8,-67.7,211.7,-79014.14,-54746.64,212.4,Weapon+Missile,Red,Allies,R-27ER,,xu,,181.265931633048,186.92448425293,0.528320751369373,-703.121520996094,-703.121520996094,70.223397644818,-167.110778808594,0.0189374416703619,NaN,0.199987938897973,1.0353269045797,5000,0.144400328397751,0.144400328397751,0.144400328397751,1642.86689853985,-689.526666387634,953.340232152215,,,79.5099999904633,0,31178.2273919331,33090.3639069149
2011-06-01T05:02:38Z,1306904558,2D09,55.4575258,25.6707913,-871.07,-6,-68.6,212.7,-79050.7,-54803.27,213.3,Weapon+Missile,Red,Allies,R-27ER,,xu,,180.966092661463,187.975021362305,0.52646760471802,-871.06689453125,-871.06689453125,67.4023605023885,-167.945373535156,0.061152901689281,NaN,0.199987938897973,0.994641495406347,5000,0.151128113269806,0.151128113269806,0.151128113269806,1637.43633465786,-854.224816125488,783.211518532367,,,80.5099999904633,0,31245.8575862046,33271.4118642836
