ISOTime,UnixTime,Id,Longitude,Latitude,Altitude,Roll,Pitch,Yaw,U,V,Heading,Type,Color,Coalition,Name,Group,Country,Pilot,TAS,CAS,M,ASL,AGL,GS,VS,AOA,AOS,RRT,TRT,TRD,G,LatG,LonG,Ek,Ep,Em,FFW,FFV,RelativeTime,Elev,GroundDistance,AirDistance
2011-06-01T05:01:29Z,1306904489,3709,55.5262649,25.9078764,6394.5,4.8,-1.9,221.4,-71856.95,-28621.62,222,Weapon+Missile,Red,Allies,R-27ER,,xu,,413.031193517535,320.782745361328,1.31142391018184,6394.50390625,6394.50390625,NaN,NaN,NaN,NaN,NaN,NaN,NaN,NaN,NaN,NaN,NaN,6270.86617322266,NaN,,,0.309999942779541,0,NaN,NaN
2011-06-01T05:01:30Z,1306904490,3709,55.5224935,25.9040117,6360.5,3.8,-2.1,221.4,-72239.58,-29045.44,222,Weapon+Missile,Red,Allies,R-27ER,,xu,,572.00505222827,435.449768066406,1.81537308687222,6360.4951171875,6360.4951171875,570.993154110597,-34.0087890625,1.27249652873858,NaN,0.969231163981489,4.84772163288899,5000,3.34886288642883,3.34886288642883,3.34886288642883,16359.4889887333,6237.51494409668,22597.00393283,,,1.30999994277954,0,572.453132993152,574.033844397528
2011-06-01T05:01:31Z,1306904491,3709,55.517212,25.8983271,6333.81,4.6,0.7,217.9,-72775.8,-29669.12,218.5,Weapon+Missile,Red,Allies,R-27ER,,xu,,822.938302343404,606.812927246094,2.6108446094304,6333.80859375,6333.80859375,822.505488693336,-26.6865234375,0.489057306975447,NaN,1.16923020193686,2.97194593524042,5000,7.63905954360962,7.63905954360962,7.63905954360962,33861.3724731922,6211.34440458984,40072.7168777821,,,2.30999994277954,0,1397.16419772181,1399.99684157023
2011-06-01T05:01:32Z,1306904492,3709,55.5108819,25.8905483,6345.78,3.4,-0.2,215.8,-73419.76,-30523.55,216.4,Weapon+Missile,Red,Allies,R-27ER,,xu,,1069.99180364767,775.987487792969,3.39517774853267,6345.783203125,6345.783203125,1069.92479577002,11.974609375,0.0136931102986932,NaN,1.83081854664358,2.4852947434336,5000,3.58364057540894,3.58364057540894,3.58364057540894,57244.12299366,6223.08748489258,63467.2104785526,,,3.30999994277954,0,2470.32489187125,2474.29098479499
2011-06-01T05:01:33Z,1306904493,3709,55.5043206,25.8821805,6318.22,1.7,-2.7,215,-74087.7,-31442.94,215.6,Weapon+Missile,Red,Allies,R-27ER,,xu,,1136.74200331782,823.328247070312,3.60567664223291,6318.22412109375,6318.22412109375,1136.40788412639,-27.55908203125,0.0760726065125629,NaN,1.73847438906501,2.55219068338177,5000,4.64772033691406,4.64772033691406,4.64772033691406,64609.119105351,6196.0612577124,70805.1803630634,,,4.30999994277954,0,3610.28259615663,3615.71315022471
2011-06-01T05:01:34Z,1306904494,3709,55.4978354,25.8737126,6236.75,0.1,-5.5,214.4,-74748.26,-32373.47,215.1,Weapon+Missile,Red,Allies,R-27ER,,xu,,1144.0523142574,831.890441894531,3.62498886713929,6236.74755859375,6236.74755859375,1141.14734698062,-81.4765625,0.0503886167487452,NaN,1.53848645016703,2.81098612414673,5000,4.81586313247681,4.81586313247681,4.81586313247681,65442.7848878861,6116.16004454834,71558.9449324344,,,5.30999994277954,0,4755.04171128053,4764.49194437779
2011-06-01T05:01:35Z,1306904495,3709,55.4914175,25.865142,6099.01,-1,-8.2,213.7,-75402.29,-33315.42,214.4,Weapon+Missile,Red,Allies,R-27ER,,xu,,1154.98989687223,845.505004882812,3.65305890792406,6099.005859375,6099.005859375,1146.74708901887,-137.74169921875,0.077866477327303,NaN,1.03075750802496,2.64263860969201,5000,4.16598510742188,4.16598510742188,4.16598510742188,66700.0830938459,5981.08158108398,72681.1646749298,,,6.30999994277954,0,5905.48273678522,5924.25413298378
2011-06-01T05:01:36Z,1306904496,3709,55.4851553,25.8565439,5913.79,-1.6,-10.3,213,-76040.82,-34260.57,213.7,Weapon+Missile,Red,Allies,R-27ER,,xu,,1155.56967611311,854.005737304688,3.64608760358713,5913.78662109375,5913.78662109375,1140.62926059377,-185.21923828125,0.0520721191281226,NaN,0.569255286185543,2.21992780691345,5000,3.20128989219666,3.20128989219666,3.20128989219666,66767.0638176084,5799.4435567749,72566.5073743833,,,7.30999994277954,0,7049.86061438459,7084.58796385224
2011-06-01T05:01:37Z,1306904497,3709,55.4789909,25.8478652,5689.32,-2,-11.9,212.4,-76669.74,-35214.73,213.1,Weapon+Missile,Red,Allies,R-27ER,,xu,,1164.61739073961,870.406066894531,3.66396643129971,5689.322265625,5689.322265625,1142.7814401438,-224.46435546875,0.0387843600901305,NaN,0.384566971028398,1.76040516599456,5000,2.10554170608521,2.10554170608521,2.10554170608521,67816.6833406568,5579.31921961914,73396.0025602759,,,8.30999994277954,0,8196.46944052106,8253.98475644706
2011-06-01T05:01:38Z,1306904498,3709,55.472906,25.8391544,5436.1,-2.1,-13.1,212.2,-77290.84,-36172.51,212.8,Weapon+Missile,Red,Allies,R-27ER,,xu,,1169.28667065553,885.150085449219,3.66668368439212,5436.10009765625,5436.10009765625,1141.53837071817,-253.22216796875,0.139539571349154,NaN,0,0.498799910545304,5000,3.11052870750427,3.11052870750427,3.11052870750427,68361.5659086347,5330.99310226807,73692.5590109027,,,9.30999994277954,0,9341.86164583654,9428.00952764323
2011-06-01T05:01:39Z,1306904499,3709,55.4668044,25.8305691,5205.54,0.2,-8.2,213.8,-77913.53,-37116.36,214.5,Weapon+Missile,Red,Allies,R-27ER,,xu,,1154.01463083824,884.25341796875,3.60813402784869,5205.537109375,5205.537109375,1130.74775110258,-230.56298828125,0.773150359966937,NaN,3.50770191831141,2.15223935157815,5000,6.91339159011841,6.91339159011841,6.91339159011841,66587.4884094358,5104.88804936523,71692.376458801,,,10.3099999427795,0,10476.3778273881,10586.6443566806
2011-06-01T05:01:40Z,1306904500,3709,55.4609973,25.8226985,5042.57,-0.3,-9.5,213.7,-78505.86,-37981.35,214.3,Weapon+Missile,Red,Allies,R-27ER,,xu,,1060.95673139859,821.983703613281,3.31030526706171,5042.56982421875,5042.56982421875,1048.36579964666,-162.96728515625,0.0353654663803277,NaN,0.815415303872802,1.66377463782499,5000,0.428531110286713,0.428531110286713,0.428531110286713,56281.4592949986,4945.07173666748,61226.5310316661,,,11.3099999427795,0,11528.1499454091,11651.8021245976
2011-06-01T05:01:41Z,1306904501,3709,55.4555974,25.8154014,4886.49,-0.1,-9,213.8,-79056.69,-38783.28,214.5,Weapon+Missile,Red,Allies,R-27ER,,xu,,985.323611009103,771.514526367188,3.06824387883829,4886.49365234375,4886.49365234375,972.88377876541,-156.076171875,0.00957716500684025,NaN,0,0.244694782027733,5000,1.22123384475708,1.22123384475708,1.22123384475708,48543.1309206009,4792.01329757568,53335.1442181766,,,12.3099999427795,0,12504.1859462932,12640.988477329
2011-06-01T05:01:42Z,1306904502,3709,55.4504902,25.8085118,4741.23,-0.1,-9,213.8,-79577.7,-39540.39,214.5,Weapon+Missile,Red,Allies,R-27ER,,xu,,930.469005624526,735.540710449219,2.89211866444424,4741.23291015625,4741.23291015625,919.060328382762,-145.2607421875,0.0302242640960786,NaN,0,0.0171320104161963,5000,0.988487660884857,0.988487660884857,0.988487660884857,43288.6285213947,4649.56117183838,47938.1896932331,,,13.3099999427795,0,13426.2238456635,13575.0860916417
2011-06-01T05:01:43Z,1306904503,3709,55.4456608,25.8019963,4603.89,0,-9,213.8,-80070.44,-40256.37,214.5,Weapon+Missile,Red,Allies,R-27ER,,xu,,879.931497610551,702.008911132812,2.73031250822369,4603.8857421875,4603.8857421875,869.146245425999,-137.34716796875,0.0304413351184134,NaN,0,0.0139882274201861,5000,0.986555635929108,0.986555635929108,0.986555635929108,38713.9720243573,4514.8696113623,43228.8416357196,,,14.3099999427795,0,14298.1791149141,14458.4233031307
2011-06-01T05:01:44Z,1306904504,3709,55.4410695,25.7958012,4473.3,0,-9,213.8,-80538.92,-40937.13,214.5,Weapon+Missile,Red,Allies,R-27ER,,xu,,836.640194114142,673.294677734375,2.59173665984854,4473.2998046875,4473.2998046875,826.386185348348,-130.5859375,0.0303787048968798,NaN,0,0.0139882274201861,5000,0.985503315925598,0.985503315925598,0.985503315925598,34998.3407203674,4386.80855296387,39385.1492733313,,,15.3099999427795,0,15127.2406776362,15298.2889573837
2011-06-01T05:01:45Z,1306904505,3709,55.4367515,25.7899743,4350.47,0,-9,213.8,-80979.57,-41577.43,214.5,Weapon+Missile,Red,Allies,R-27ER,,xu,,786.913514684362,638.993591308594,2.43395296789409,4350.4716796875,4350.4716796875,777.268377911954,-122.828125,0.0296245554014675,NaN,0,0.0139882274201861,5000,0.986867606639862,0.986867606639862,0.986867606639862,30961.6439796448,4266.35530976074,35227.9992894055,,,16.3099999427795,0,15907.0196706536,16088.2152357635
2011-06-01T05:01:46Z,1306904506,3709,55.432623,25.7844024,4233.03,0,-9,213.8,-81400.92,-42189.69,214.5,Weapon+Missile,Red,Allies,R-27ER,,xu,,752.459422349437,615.875061035156,2.32398022427649,4233.025390625,4233.025390625,743.237210766452,-117.4462890625,0.0307862765951137,NaN,0,0.0139882274201861,5000,0.985585272312164,0.985585272312164,0.985585272312164,28309.7591141224,4151.17984469727,32460.9389588197,,,17.3099999427795,0,16652.6494870006,16843.5336482389
2011-06-01T05:01:47Z,1306904507,3709,55.428667,25.7790628,4120.47,0,-9,213.8,-81804.7,-42776.41,214.5,Weapon+Missile,Red,Allies,R-27ER,,xu,,721.069183825351,594.689392089844,2.22391744159151,4120.46923828125,4120.46923828125,712.2302158938,-112.55615234375,0.0297717577815894,NaN,0,0.0139882274201861,5000,0.986545503139496,0.986545503139496,0.986545503139496,25997.0383931279,4040.79996555908,30037.838358687,,,18.3099999427795,0,17367.1879353162,17567.3450819594
2011-06-01T05:01:48Z,1306904508,3709,55.424947,25.7740411,4014.62,0,-9,213.8,-82184.43,-43328.18,214.5,Weapon+Missile,Red,Allies,R-27ER,,xu,,678.130279375788,564.05615234375,2.08874292904687,4014.619140625,4014.619140625,669.818208645037,-105.85009765625,0.0293398781966435,NaN,0,0.0139882274201861,5000,0.986298263072968,0.986298263072968,0.986298263072968,22993.0337903142,3936.99647954102,26930.0302698552,,,19.3099999427795,0,18039.167115979,18248.033255636
2011-06-01T05:01:49Z,1306904509,3709,55.4213786,25.7692236,3913.07,0,-9,213.8,-82548.7,-43857.51,214.5,Weapon+Missile,Red,Allies,R-27ER,,xu,,650.531232836565,544.969665527344,2.0012194384217,3913.07299804688,3913.07299804688,642.556819140039,-101.546142578125,0.0298881247709743,NaN,0,0.0139882274201861,5000,0.987139165401459,0.987139165401459,0.987139165401459,21159.5442447931,3837.41373162964,24996.9579764227,,,20.3099999427795,0,18683.8038362808,18901.0147222936
2011-06-01T05:01:50Z,1306904510,3709,55.4179743,25.7646273,3816.19,0,-9,213.8,-82896.26,-44362.54,214.5,Weapon+Missile,Red,Allies,R-27ER,,xu,,620.677666245029,523.763244628906,1.90710105249879,3816.19165039062,3816.19165039062,613.069955104378,-96.88134765625,0.0316704232217266,NaN,0,0.0139882274201861,5000,0.986531138420105,0.986531138420105,0.986531138420105,19262.0382687688,3742.40558483032,23004.4438535991,,,21.3099999427795,0,19298.846257498,19524.0088833367
2011-06-01T05:01:51Z,1306904511,3709,55.4147182,25.7602307,3723.52,0,-9,213.8,-83228.68,-44845.61,214.5,Weapon+Missile,Red,Allies,R-27ER,,xu,,593.667329885567,504.4580078125,1.82202988629425,3723.5244140625,3723.5244140625,586.390383520028,-92.667236328125,0.0293200235834657,NaN,0,0.0139882274201861,5000,0.986384093761444,0.986384093761444,0.986384093761444,17622.0449286729,3651.5300695166,21273.5749981895,,,22.3099999427795,0,19887.1393587231,20119.8991656815
2011-06-01T05:01:52Z,1306904512,3709,55.4116245,25.756053,3635.47,0,-9,213.8,-83544.57,-45304.62,214.5,Weapon+Missile,Red,Allies,R-27ER,,xu,,564.124546437184,482.798095703125,1.72948889746176,3635.46606445312,3635.46606445312,557.209324183499,-88.058349609375,0.0284439938646043,NaN,0,0.0139882274201861,5000,0.987752556800842,0.987752556800842,0.987752556800842,15911.8251946479,3565.17432809692,19476.9995227448,,,23.3099999427795,0,20446.1415251825,20686.1132040991
2011-06-01T05:01:53Z,1306904513,3709,55.4086391,25.7520212,3550.49,0,-9,213.8,-83849.43,-45747.61,214.5,Weapon+Missile,Red,Allies,R-27ER,,xu,,544.425191408195,468.703582763672,1.66735787426802,3550.48999023438,3550.48999023438,537.752597251022,-84.97607421875,0.0302659884040782,NaN,0,0.0139882274201861,5000,0.985783934593201,0.985783934593201,0.985783934593201,14819.9394519925,3481.84126627319,18301.7807182657,,,24.3099999427795,0,20985.6212992417,21232.5446745275
2011-06-01T05:01:54Z,1306904514,3709,55.4058103,25.7482006,3469.96,0,-9,213.8,-84138.3,-46167.37,214.5,Weapon+Missile,Red,Allies,R-27ER,,xu,,515.881414482181,447.184478759766,1.57838467201527,3469.96069335938,3469.96069335938,509.557323716335,-80.529296875,0.0308756790520323,NaN,0,0.0139882274201861,5000,0.98727148771286,0.98727148771286,0.98727148771286,13306.6816904068,3402.86900335327,16709.5506937601,,,25.3099999427795,0,21496.8339989454,21750.3391586508
2011-06-01T05:01:55Z,1306904515,3709,55.4031025,25.7445431,3392.87,0,-9,213.8,-84414.85,-46569.21,214.5,Weapon+Missile,Red,Allies,R-27ER,,xu,,493.855039438973,430.611175537109,1.50957219139203,3392.873046875,3392.873046875,487.801491119871,-77.087646484375,0.0284566649845228,NaN,0,0.0139882274201861,5000,0.986854374408722,0.986854374408722,0.986854374408722,12194.6399989635,3327.27184651367,15521.9118454771,,,26.3099999427795,0,21986.2054822874,22246.0050813841
2011-06-01T05:01:56Z,1306904516,3709,55.4005173,25.7410511,3319.27,0,-9,213.8,-84678.87,-46952.87,214.5,Weapon+Missile,Red,Allies,R-27ER,,xu,,471.507477709173,413.458801269531,1.43997054275284,3319.27319335938,3319.27319335938,465.727777889772,-73.599853515625,0.0298210302767555,NaN,0,0.0139882274201861,5000,0.986926078796387,0.986926078796387,0.986926078796387,11115.9650767833,3255.09504616577,14371.0601229491,,,27.3099999427795,0,22453.4281000316,22719.2319847999
2011-06-01T05:01:57Z,1306904517,3709,55.3980368,25.7377002,3248.65,0,-9,213.8,-84932.22,-47321.02,214.5,Weapon+Missile,Red,Allies,R-27ER,,xu,,452.443698967588,398.713684082031,1.38056413602009,3248.64819335938,3248.64819335938,446.897538716061,-70.625,0.0301304287225205,NaN,0,0.0139882274201861,5000,0.986895799636841,0.986895799636841,0.986895799636841,10235.2650367737,3185.83558054077,13421.1006173145,,,28.3099999427795,0,22901.7726216487,23173.3330176208
2011-06-01T05:01:58Z,1306904518,3709,55.3956576,25.734486,3180.9,0,-9,213.8,-85175.24,-47674.14,214.5,Weapon+Missile,Red,Allies,R-27ER,,xu,,433.989812021679,384.178771972656,1.323166214729,3180.90234375,3180.90234375,428.669635966109,-67.745849609375,0.0293026640075675,NaN,0,0.0139882274201861,5000,0.987082064151764,0.987082064151764,0.987082064151764,9417.35784693062,3119.39959693359,12536.7574438642,,,29.3099999427795,0,23331.828205964,23608.9059637188
2011-06-01T05:01:59Z,1306904519,3709,55.3934049,25.7314423,3116.75,0,-9,213.8,-85405.37,-48008.54,214.5,Weapon+Missile,Red,Allies,R-27ER,,xu,,410.965239558798,365.344604492188,1.2519941043755,3116.75244140625,3116.75244140625,405.927602110163,-64.14990234375,0.0298092827531181,NaN,0,0.0139882274201861,5000,0.987076699733734,0.987076699733734,0.987076699733734,8444.62140628099,3056.49003295166,11501.1114392327,,,30.3099999427795,0,23739.0559679264,24021.3540724239
2011-06-01T05:02:00Z,1306904520,3709,55.3912321,25.7285067,3054.88,0,-9,213.8,-85627.32,-48331.05,214.5,Weapon+Missile,Red,Allies,R-27ER,,xu,,396.364884042706,353.429718017578,1.20661071791895,3054.88061523438,3054.88061523438,391.506064357048,-61.871826171875,0.0286011918198824,NaN,0,0.0139882274201861,5000,0.986921012401581,0.986921012401581,0.986921012401581,7855.25606510937,2995.81449853882,10851.0705636482,,,31.3099999427795,0,24131.8257633526,24419.154958015
2011-06-01T05:02:01Z,1306904521,3709,55.3891627,25.7257105,2995.95,0,-9,213.8,-85838.72,-48638.24,214.5,Weapon+Missile,Red,Allies,R-27ER,,xu,,377.530053897188,337.3974609375,1.14845570597343,2995.94775390625,2995.94775390625,372.901943480178,-58.932861328125,0.0301677951709932,NaN,0,0.0139882274201861,5000,0.987269043922424,0.987269043922424,0.987269043922424,7126.4470797807,2938.02110408447,10064.4681838652,,,32.3099999427795,0,24505.9268513732,24798.0447934241
2011-06-01T05:02:02Z,1306904522,3709,55.3871945,25.7230509,2939.89,0,-9,213.8,-86039.8,-48930.43,214.5,Weapon+Missile,Red,Allies,R-27ER,,xu,,359.100846596756,321.261260986328,1.09165492428176,2939.89379882812,2939.89379882812,354.698988082298,-56.053955078125,0.0300624080337688,NaN,0,0.0139882274201861,5000,0.987120449542999,0.987120449542999,0.987120449542999,6447.67090132535,2883.05095222778,9330.72185355313,,,33.3099999427795,0,24861.7674881195,25158.4369047449
2011-06-01T05:02:03Z,1306904523,3709,55.3853086,25.7205022,2886.18,0,-9,213.8,-86232.48,-49210.42,214.5,Weapon+Missile,Red,Allies,R-27ER,,xu,,344.102002148321,307.980255126953,1.04538200116724,2886.1806640625,2886.1806640625,339.883931712184,-53.713134765625,0.0318597774357528,NaN,0,0.0139882274201861,5000,0.987202048301697,0.987202048301697,0.987202048301697,5920.30939412415,2830.37636092285,8750.685755047,,,34.3099999427795,0,25202.7420031731,25503.7699981222
2011-06-01T05:02:04Z,1306904524,3709,55.3835152,25.7180786,2835.1,0,-9,213.8,-86415.71,-49476.67,214.5,Weapon+Missile,Red,Allies,R-27ER,,xu,,327.215236562986,292.806335449219,0.993469058111953,2835.1044921875,2835.1044921875,323.204325010614,-51.076171875,0.0284406840819305,NaN,0,0.0139882274201861,5000,0.986915767192841,0.986915767192841,0.986915767192841,5353.49055194855,2780.28774683105,8133.7782987796,,,35.3099999427795,0,25526.9959879249,25832.1657286923
2011-06-01T05:02:05Z,1306904525,3709,55.3817981,25.715758,2786.2,0,-9,213.8,-86591.16,-49731.61,214.5,Weapon+Missile,Red,Allies,R-27ER,,xu,,313.315008325769,280.377166748047,0.950706951665625,2786.1953125,2786.1953125,309.474048321459,-48.9091796875,0.0298234230742965,NaN,0,0.0139882274201861,5000,0.987401962280273,0.987401962280273,0.987401962280273,4908.31472210884,2732.32422613281,7640.63894824165,,,36.3099999427795,0,25837.4675488687,26146.6012089771
2011-06-01T05:02:06Z,1306904526,3709,55.3801598,25.7135437,2739.53,0,-9,213.8,-86758.56,-49974.86,214.5,Weapon+Missile,Red,Allies,R-27ER,,xu,,298.953280121644,267.515319824219,0.906620285342822,2739.53002929688,2739.53002929688,295.288697784156,-46.665283203125,0.0292269672750687,NaN,0,0.0139882274201861,5000,0.987539708614349,0.987539708614349,0.987539708614349,4468.65318477452,2686.56121618042,7155.21440095494,,,37.3099999427795,0,26133.7061362633,26446.6195328907
2011-06-01T05:02:07Z,1306904527,3709,55.3785946,25.7114282,2694.95,0,-9,213.8,-86918.5,-50207.26,214.5,Weapon+Missile,Red,Allies,R-27ER,,xu,,285.619155442627,255.609771728516,0.865719506784191,2694.94921875,2694.94921875,282.118509294841,-44.580810546875,0.0291792830541138,NaN,0,0.0139882274201861,5000,0.98711371421814,0.98711371421814,0.98711371421814,4078.91509778798,2642.84237560547,6721.75747339345,,,38.3099999427795,0,26416.7314295984,26733.2535011312
2011-06-01T05:02:08Z,1306904528,3709,55.3770776,25.7093779,2651.74,0,-9,213.8,-87073.51,-50432.51,214.5,Weapon+Missile,Red,Allies,R-27ER,,xu,,276.825122517146,247.916885375977,0.838630226016163,2651.73852539062,2651.73852539062,273.431864339245,-43.210693359375,0.0298822241475643,NaN,0,0.0139882274201861,5000,0.986987471580505,0.986987471580505,0.986987471580505,3831.60742283165,2600.4671610022,6432.07458383385,,,39.3099999427795,0,26691.0389807188,27011.0571839418
2011-06-01T05:02:09Z,1306904529,3709,55.3756224,25.7074108,2610.28,0,-9,213.8,-87222.22,-50648.59,214.5,Weapon+Missile,Red,Allies,R-27ER,,xu,,265.562164138093,237.919677734375,0.804110437599063,2610.28295898438,2610.28295898438,262.306498271859,-41.45556640625,0.0300308577408703,NaN,0,0.0139882274201861,5000,0.987449049949646,0.987449049949646,0.987449049949646,3526.16315108538,2559.81313797241,6085.97628905779,,,40.3099999427795,0,26954.196217886,27277.5669221425
2011-06-01T05:02:10Z,1306904530,3709,55.3742183,25.7055127,2570.28,0,-9,213.8,-87365.71,-50857.11,214.5,Weapon+Missile,Red,Allies,R-27ER,,xu,,256.262866413724,229.730331420898,0.775581466720313,2570.27978515625,2570.27978515625,253.121320291782,-40.003173828125,0.0313806896904744,NaN,0,0.0139882274201861,5000,0.987950503826141,0.987950503826141,0.987950503826141,3283.5328351289,2520.58342551025,5804.11626063916,,,41.3099999427795,0,27208.1309499194,27534.7351318389
2011-06-01T05:02:11Z,1306904531,3709,55.372856,25.7036712,2531.48,0,-9,213.8,-87504.92,-51059.39,214.5,Weapon+Missile,Red,Allies,R-27ER,,xu,,248.605353429271,223.046127319336,0.752057222573434,2531.47705078125,2531.47705078125,245.558485006558,-38.802734375,0.0280804113941576,NaN,0,0.0139882274201861,5000,0.986351311206818,0.986351311206818,0.986351311206818,3090.23108768463,2482.53094200439,5572.76202968903,,,42.3099999427795,0,27454.4860426219,27784.2246889444
2011-06-01T05:02:12Z,1306904532,3709,55.3715462,25.7019005,2494.16,0,-9,213.8,-87638.78,-51253.91,214.5,Weapon+Missile,Red,Allies,R-27ER,,xu,,239.055591251549,214.599914550781,0.722846101291595,2494.1552734375,2494.1552734375,236.124248319674,-37.32177734375,0.0292639029240367,NaN,0,0.0139882274201861,5000,0.988084673881531,0.988084673881531,0.988084673881531,2857.37878543139,2445.93078122559,5303.30956665697,,,43.3099999427795,0,27691.3720332563,28024.1249014134
2011-06-01T05:02:13Z,1306904533,3709,55.370265,25.7001684,2457.65,0,-9,213.8,-87769.73,-51444.19,214.5,Weapon+Missile,Red,Allies,R-27ER,,xu,,233.85192678986,210.151565551758,0.706803714488389,2457.6513671875,2457.6513671875,230.985256005273,-36.50390625,0.027528426613062,NaN,0,0.0139882274201861,5000,0.988163471221924,0.988163471221924,0.988163471221924,2734.3361831665,2410.13267800293,5144.46886116943,,,44.3099999427795,0,27923.0884123928,28258.7878702812
2011-06-01T05:02:14Z,1306904534,3709,55.3690328,25.6985025,2422.55,0,-9,213.8,-87895.67,-51627.19,214.5,Weapon+Missile,Red,Allies,R-27ER,,xu,,224.905943287026,202.237503051758,0.679480759291026,2422.55151367188,2422.55151367188,222.150137539928,-35.099853515625,0.0323291399421777,NaN,0,0.0139882274201861,5000,0.986431419849396,0.986431419849396,0.986431419849396,2529.13416629136,2375.71148015503,4904.84564644639,,,45.3099999427795,0,28145.9595582502,28484.4902420091
2011-06-01T05:02:15Z,1306904535,3709,55.3678377,25.6968867,2388.5,0,-9,213.8,-88017.82,-51804.68,214.5,Weapon+Missile,Red,Allies,R-27ER,,xu,,218.136018926293,196.31510925293,0.658760480131621,2388.49853515625,2388.49853515625,215.461637901568,-34.052978515625,0.0302065515298918,NaN,0,0.0139882274201861,5000,0.987731337547302,0.987731337547302,0.987731337547302,2379.16613765061,2342.316915979,4721.48305362961,,,46.3099999427795,0,28362.1116474948,28703.3888030593
2011-06-01T05:02:16Z,1306904536,3709,55.3666751,25.6953149,2355.37,0,-9,213.8,-88136.64,-51977.35,214.5,Weapon+Missile,Red,Allies,R-27ER,,xu,,212.198798056232,191.146682739258,0.640577881662327,2355.37475585938,2355.37475585938,209.597579045183,-33.123779296875,0.0299216362825792,NaN,0,0.0139882274201861,5000,0.987570464611053,0.987570464611053,0.987570464611053,2251.41649482548,2309.83358495483,4561.25007978032,,,47.3099999427795,0,28572.382691638,28916.3300811143
2011-06-01T05:02:17Z,1306904537,3709,55.3655399,25.69378,2323.03,0,-9,213.8,-88252.68,-52145.96,214.5,Weapon+Missile,Red,Allies,R-27ER,,xu,,207.220803642538,186.848770141602,0.625310016128098,2323.02856445312,2323.02856445312,204.680691233368,-32.34619140625,0.0338626043232402,NaN,0,0.0139882274201861,5000,0.987548172473907,0.987548172473907,0.987548172473907,2147.02307311296,2278.11280715942,4425.13588027239,,,48.3099999427795,0,28777.7182780437,29124.2721678113
2011-06-01T05:02:18Z,1306904538,3709,55.3644429,25.6922971,2291.78,0,-9,213.8,-88364.8,-52308.85,214.5,Weapon+Missile,Red,Allies,R-27ER,,xu,,200.20472980899,180.662231445312,0.603914084250044,2291.77856445312,2291.77856445312,197.750780878081,-31.25,0.0405375301820917,NaN,0,0.0139882274201861,5000,0.988107860088348,0.988107860088348,0.988107860088348,2004.09669189453,2247.46702590942,4251.56371780396,,,49.3099999427795,0,28976.1126497197,29325.1835237595
2011-06-01T05:02:19Z,1306904539,3709,55.3633704,25.6908473,2261.23,0,-9,213.8,-88474.44,-52468.11,214.5,Weapon+Missile,Red,Allies,R-27ER,,xu,,195.746940255307,176.817199707031,0.590253178158599,2261.22998046875,2261.22998046875,193.348515990851,-30.548583984375,0.036919410932706,NaN,0,0.0139882274201861,5000,0.987413823604584,0.987413823604584,0.987413823604584,1915.84323096573,2217.50909879639,4133.35232976212,,,50.3099999427795,0,29170.0785043772,29521.608650478
2011-06-01T05:02:20Z,1306904540,3709,55.362332,25.6894436,2231.65,0,-9,213.8,-88580.59,-52622.3,214.5,Weapon+Missile,Red,Allies,R-27ER,,xu,,189.518531581559,171.33122253418,0.571271659365307,2231.65307617188,2231.65307617188,187.196368941932,-29.576904296875,0.0377911873094442,NaN,0,0.0139882274201861,5000,0.986876428127289,0.986876428127289,0.986876428127289,1795.86369064152,2188.50406394409,3984.36775458561,,,51.3099999427795,0,29357.8764966666,29711.7867961003
2011-06-01T05:02:21Z,1306904541,3709,55.3613254,25.6880829,2202.98,0,-9,213.8,-88683.48,-52771.77,214.5,Weapon+Missile,Red,Allies,R-27ER,,xu,,183.710958774054,166.220397949219,0.553577520810109,2202.97680664062,2202.97680664062,181.459053065569,-28.67626953125,0.040455005832458,NaN,0,0.0139882274201861,5000,0.984618425369263,0.984618425369263,0.984618425369263,1687.4858186841,2160.38225008423,3847.86806876833,,,52.3099999427795,0,29539.9255224632,29896.1430362937
2011-06-01T05:02:22Z,1306904542,3709,55.3603428,25.6867545,2174.95,-0.1,-9.2,213.8,-88783.92,-52917.69,214.5,Weapon+Missile,Red,Allies,R-27ER,,xu,,179.353902077108,162.432312011719,0.540269002282357,2174.95239257812,2174.95239257812,177.150936793285,-28.0244140625,0.263667460374517,NaN,0.230751110919711,0.886109736133991,5000,0.432288020849228,0.432288020849228,0.432288020849228,1608.39110951424,2132.89968806763,3741.29079758186,,,53.3099999427795,0,29717.6380901225,30076.1119386248
2011-06-01T05:02:23Z,1306904543,3709,55.3593852,25.6854606,2142.16,-1.4,-12.3,213.8,-88881.81,-53059.82,214.6,Weapon+Missile,Red,Allies,R-27ER,,xu,,175.66601045736,159.290130615234,0.528954591617735,2142.15991210938,2142.15991210938,172.578099580196,-32.79248046875,0.0319380107103127,NaN,1.16921910287946,2.42359508333994,3300.64554650635,0.0407009236514568,0.0407009236514568,0.0407009236514568,1542.92736150026,2100.74125020874,3643.668611709,,,54.3099999427795,0,29890.7791281209,30252.3885963668
2011-06-01T05:02:24Z,1306904544,3709,55.3584682,25.6842233,2101.58,-2.4,-15.4,213.9,-88975.55,-53195.73,214.6,Weapon+Missile,Red,Allies,R-27ER,,xu,,170.016801789892,154.394241333008,0.511698436084771,2101.58227539062,2101.58227539062,165.103507803997,-40.57763671875,0.0742438209045963,NaN,0.969231163981489,3.06197145703919,3220.19642312665,0.0568380616605282,0.0568380616605282,0.0568380616605282,1445.28564454317,2060.94818209595,3506.23382663912,,,55.3099999427795,0,30056.408319302,30422.9694551538
2011-06-01T05:02:25Z,1306904545,3709,55.3575708,25.6830158,2052.8,-3.3,-18.4,214,-89067.27,-53328.36,214.7,Weapon+Missile,Red,Allies,R-27ER,,xu,,168.471587761486,153.325866699219,0.50675567956788,2052.7978515625,2052.7978515625,161.253700344004,-48.784423828125,0.0500806919270716,NaN,0.769243225083516,2.97850142273976,3209.55275302763,0.0645927935838699,0.0645927935838699,0.0645927935838699,1419.1337941438,2013.10700510254,3432.24079924633,,,56.3099999427795,0,30218.1841598386,30591.991323684
2011-06-01T05:02:26Z,1306904546,3709,55.3567055,25.6818557,1996.83,-4.1,-21.3,214.1,-89155.74,-53455.78,214.8,Weapon+Missile,Red,Allies,R-27ER,,xu,,164.909132702609,150.441955566406,0.495712524645,1996.83386230469,1996.83386230469,155.122706123501,-55.9639892578125,0.0435701558067956,NaN,0.769243225083516,2.94383095562595,3211.5475602068,0.0837460458278656,0.0837460458278656,0.0837460458278656,1359.75110243633,1958.22507957703,3317.97618201336,,,57.3099999427795,0,30373.7953117369,30757.4064853343
2011-06-01T05:02:27Z,1306904547,3709,55.3558684,25.6807392,1934.05,-4.7,-24.3,214.3,-89241.3,-53578.41,215,Weapon+Missile,Red,Allies,R-27ER,,xu,,162.175817645913,148.359970092773,0.487135742832853,1934.046875,1934.046875,149.52855932671,-62.7869873046875,0.086302859847849,NaN,0.569200644672183,2.9301996055899,3217.15157001602,0.0903201699256897,0.0903201699256897,0.0903201699256897,1315.04979145601,1896.65207867187,3211.70187012789,,,58.3099999427795,0,30523.7965581392,30920.0608702632
2011-06-01T05:02:28Z,1306904548,3709,55.3550461,25.6796495,1863.79,-5.1,-27.1,214.4,-89325.33,-53698.09,215.2,Weapon+Missile,Red,Allies,R-27ER,,xu,,162.227747350748,148.901214599609,0.486889162624918,1863.79296875,1863.79296875,146.226641440998,-70.25390625,0.031574241605782,NaN,0.369212705774209,2.88256992174305,3305.93987235924,0.102433502674103,0.102433502674103,0.102433502674103,1315.8921005249,1827.75653169922,3143.64863222412,,,59.3099999427795,0,30670.4963474722,31082.7546192032
2011-06-01T05:02:29Z,1306904549,3709,55.3542518,25.6786051,1787.61,-5.6,-29.9,214.7,-89406.5,-53812.78,215.4,Weapon+Missile,Red,Allies,R-27ER,,xu,,159.838450176394,147.213607788086,0.479289216187055,1787.60607910156,1787.60607910156,140.512946024515,-76.1868896484375,0,NaN,0.384566971028398,2.79402761821123,3337.26889808226,0.106929592788219,0.106929592788219,0.106929592788219,1277.41650773957,1753.04271556213,3030.45922330171,,,60.3099999427795,0,30811.442826531,31243.0098116654
2011-06-01T05:02:30Z,1306904550,3709,55.35347,25.6775866,1704.36,-5.9,-32.6,215,-89486.39,-53924.62,215.7,Weapon+Missile,Red,Allies,R-27ER,,xu,,160.687817638889,148.584976196289,0.481366172554368,1704.35998535156,1704.35998535156,137.443306904756,-83.24609375,0.0413228229992844,NaN,0.399975877795947,2.6854474606453,3468.8677419175,0.109907813370228,0.109907813370228,0.109907813370228,1291.02873687744,1671.40618503479,2962.43492191223,,,61.3099999427795,0,30949.3155030598,31404.097351996
2011-06-01T05:02:31Z,1306904551,3709,55.3527058,25.6766015,1614.92,-6.1,-35.2,215.2,-89564.45,-54032.77,216,Weapon+Missile,Red,Allies,R-27ER,,xu,,160.587280770801,149.11637878418,0.480561927371335,1614.91918945312,1614.91918945312,133.373980874885,-89.4407958984375,0.0744886113347558,NaN,0.261514282941448,2.62018777789018,3612.94536933227,0.121977068483829,0.121977068483829,0.121977068483829,1289.413737268,1583.69472692505,2873.10846419305,,,62.3099999427795,0,31083.1106832523,31565.0635703617
2011-06-01T05:02:32Z,1306904552,3709,55.35196,25.6756517,1519.78,-6.4,-37.7,215.6,-89640.63,-54137.05,216.3,Weapon+Missile,Red,Allies,R-27ER,,xu,,160.407597327552,149.613388061523,0.479491422258136,1519.77990722656,1519.77990722656,129.147645188801,-95.1392822265625,0.0946127287296187,NaN,0.199987938897973,2.50054121976495,3750.68685235603,0.124218039214611,0.124218039214611,0.124218039214611,1286.5298640199,1490.39496272034,2776.92482674024,,,63.3099999427795,0,31212.6434046781,31725.8070190314
2011-06-01T05:02:33Z,1306904553,3709,55.3512298,25.6747341,1418.98,-6.5,-40,216,-89715.18,-54237.78,216.7,Weapon+Missile,Red,Allies,R-27ER,,xu,,160.824940253279,150.714248657227,0.480174911041206,1418.97912597656,1418.97912597656,125.315058579807,-100.80078125,0.0220513826419431,NaN,0.0307631720217374,2.37740507530408,3964.52487854233,0.13844259083271,0.13844259083271,0.13844259083271,1293.23307037354,1391.54316457581,2684.77623494934,,,64.3099999427795,0,31338.3427038712,31886.9541326608
2011-06-01T05:02:34Z,1306904554,3709,55.3505144,25.6738481,1312.83,-6.7,-42.2,216.4,-89788.22,-54335.02,217.1,Weapon+Missile,Red,Allies,R-27ER,,xu,,161.423772308902,152.029525756836,0.481368818158679,1312.82995605469,1312.82995605469,121.614094542257,-106.149169921875,0.0185320076209685,NaN,0.199987938897973,2.27892207176555,4161.5935824054,0.137575253844261,0.137575253844261,0.137575253844261,1302.88171332181,1287.44638885437,2590.32810217617,,,65.3099999427795,0,31460.3227477108,32048.6734911388
2011-06-01T05:02:35Z,1306904555,3709,55.3498039,25.672982,1200.11,-6.8,-44.4,216.8,-89860.73,-54430.07,217.6,Weapon+Missile,Red,Allies,R-27ER,,xu,,164.31400171899,155.582855224609,0.489347875862156,1200.10766601562,1200.10766601562,119.552400600146,-112.722290039062,0.06540647934668,NaN,0.199987938897973,2.13678199315618,4453.5982494346,0.144295796751976,0.144295796751976,0.144295796751976,1349.95455804542,1176.90358429321,2526.85814233863,,,66.3099999427795,0,31580.2324856911,32213.2648804952
2011-06-01T05:02:36Z,1306904556,3709,55.3491105,25.672151,1083.07,-6.9,-46.4,217.3,-89931.48,-54521.25,218.1,Weapon+Missile,Red,Allies,R-27ER,,xu,,164.372761590751,156.482635498047,0.488861104940562,1083.06616210938,1083.06616210938,115.410966187503,-117.04150390625,0.0377309507526354,NaN,0.153815860108687,2.03678524894284,4720.48371550678,0.150581121444702,0.150581121444702,0.150581121444702,1350.92023764849,1062.12507786499,2413.04531551348,,,67.3099999427795,0,31695.9772482507,32377.8867495729
2011-06-01T05:02:37Z,1306904557,3709,55.3484267,25.6713462,960.84,-6.9,-48.3,217.8,-90001.24,-54609.54,218.6,Weapon+Missile,Red,Allies,R-27ER,,xu,,166.132958979747,159.060302734375,0.493400520149712,960.840759277344,960.840759277344,112.521602201151,-122.225402832031,0.0209631958725024,NaN,0,1.96967501180947,5000,0.15692064166069,0.15692064166069,0.15692064166069,1380.00800296832,942.262903196716,2322.27090616503,,,68.3099999427795,0,31808.8261190006,32544.25380763
2011-06-01T05:02:38Z,1306904558,3709,55.3477521,25.6705673,833.72,-7,-50.1,218.4,-90070.03,-54694.97,219.1,Weapon+Missile,Red,Allies,R-27ER,,xu,,167.902664783596,161.702331542969,0.49792836169372,833.716918945312,833.716918945312,109.685158798577,-127.123840332031,0.0227099505951024,NaN,0.199987938897973,1.84305120200366,5000,0.157136633992195,0.157136633992195,0.157136633992195,1409.56524207164,817.597002317505,2227.16224438914,,,69.3099999427795,0,31918.8159940322,32712.3658163246
2011-06-01T05:02:39Z,1306904559,3709,55.3470797,25.6698065,700.55,-7,-51.9,219,-90138.58,-54778.39,219.7,Weapon+Missile,Red,Allies,R-27ER,,xu,,171.436436650231,166.126129150391,0.507632830656823,700.55078125,700.55078125,107.968660187304,-133.166137695312,0.0599030941390251,NaN,0,1.72609317709048,5000,0.161295846104622,0.161295846104622,0.161295846104622,1469.52259056643,687.005631894531,2156.52822246096,,,70.3099999427795,0,32027.0915379614,32884.0039063082
2011-06-01T05:02:40Z,1306904560,3709,55.3464215,25.6690774,564.02,-7,-53.4,219.6,-90205.66,-54858.33,220.4,Weapon+Missile,Red,Allies,R-27ER,,xu,,171.848820194376,167.559997558594,0.508060891874209,564.019226074219,564.019226074219,104.360679585184,-136.531555175781,0.0333384224052258,NaN,0,1.63235384665222,5000,0.168330818414688,0.168330818414688,0.168330818414688,1476.60085010994,553.113914338074,2029.71476444802,,,71.3099999427795,0,32131.7265614023,33056.0257785004
2011-06-01T05:02:41Z,1306904561,3709,55.3457693,25.6683706,422.77,-7,-54.9,220.2,-90272.13,-54935.81,220.9,Weapon+Missile,Red,Allies,R-27ER,,xu,,174.273791312003,171.01708984375,0.514402138730222,422.774627685547,422.774627685547,102.084855704861,-141.244598388672,0.0664634026854476,NaN,0,1.53920799561982,5000,0.166375622153282,0.166375622153282,0.166375622153282,1518.56771691297,414.600280259247,1933.16799717222,,,72.3099999427795,0,32234.0694960879,33230.4555162528
2011-06-01T05:02:42Z,1306904562,3709,55.3451201,25.6676831,276.43,-7,-56.3,220.9,-90338.23,-55011.14,221.6,Weapon+Missile,Red,Allies,R-27ER,,xu,,177.371695830739,175.208206176758,0.52267727214294,276.429229736328,276.429229736328,100.218476245436,-146.345397949219,0,NaN,0,1.45014777164985,5000,0.173027038574219,0.173027038574219,0.173027038574219,1573.03592409361,271.084470579376,1844.12039467299,,,73.3099999427795,0,32334.5654892841,33407.9872805409
2011-06-01T05:02:43Z,1306904563,3709,55.3444837,25.6670249,127.41,-7,-57.6,221.6,-90403.03,-55083.25,222.3,Weapon+Missile,Red,Allies,R-27ER,,xu,,177.773506574747,176.774444580078,0.522978988500131,127.413841247559,127.413841247559,96.9424243219802,-149.01538848877,0.0278505700338728,NaN,0,1.36511063582272,5000,0.177227392792702,0.177227392792702,0.177227392792702,1580.17098199409,124.950294627037,1705.12127662112,,,74.3099999427795,0,32431.7541533028,33585.896865711
2011-06-01T05:02:44Z,1306904564,3709,55.3438498,25.6663852,-26.34,-7,-58.9,222.2,-90467.55,-55153.31,223,Weapon+Missile,Red,Allies,R-27ER,,xu,,180.862070743253,181.075164794922,0.531143563026159,-26.3361530303955,-26.3361530303955,95.2471936230481,-153.749994277954,0.0306815179394849,NaN,0,1.27648818428986,5000,0.177534013986588,0.177534013986588,0.177534013986588,1635.55443167687,-25.8269435115528,1609.72748816531,,,75.3099999427795,0,32527.2284257683,33766.8790247717
2011-06-01T05:02:45Z,1306904565,3709,55.3432233,25.6657687,-183.43,-7,-60,223,-90531.3,-55220.81,223.7,Weapon+Missile,Red,Allies,R-27ER,,xu,,182.476822971618,183.957046508789,0.534940735722835,-183.429992675781,-183.429992675781,92.8402739509377,-157.093839645386,0.0132964925466801,NaN,0,1.21779081922324,5000,0.181234627962112,0.181234627962112,0.181234627962112,1664.88954609077,-179.883373767395,1485.00617232337,,,76.3099999427795,0,32620.2987810771,33949.4722355202
2011-06-01T05:02:46Z,1306904566,3709,55.3426039,25.6651748,-343.69,-7,-61.1,223.8,-90594.3,-55285.81,224.5,Weapon+Missile,Red,Allies,R-27ER,,xu,,184.062458919404,186.85725402832,0.53862193283434,-343.692291259766,-343.692291259766,90.5261533261806,-160.262298583984,0,NaN,0,1.15234597430859,5000,0.182652622461319,0.182652622461319,0.182652622461319,1693.94943917287,-337.047000808258,1356.90243836461,,,77.3099999427795,0,32711.0365157876,34133.636999834
2011-06-01T05:02:47Z,1306904567,3709,55.3419929,25.6646045,-506.54,-7.1,-62.1,224.5,-90656.44,-55348.21,225.2,Weapon+Missile,Red,Allies,R-27ER,,xu,,185.132807645314,189.27571105957,0.540770929677327,-506.540740966797,-506.540740966797,88.0598597242428,-162.848449707031,0.0328732416958843,NaN,0.200042580411333,1.09016073045362,5000,0.182048708200455,0.182048708200455,0.182048708200455,1713.70782333184,-496.746775740204,1216.96104759164,,,78.3099999427795,0,32799.2879871897,34318.8582232213
2011-06-01T05:02:48Z,1306904568,3709,55.3413935,25.6640603,-670.89,-7.1,-63.1,225.3,-90717.36,-55407.75,226.1,Weapon+Missile,Red,Allies,R-27ER,,xu,,185.11162192931,190.604263305664,0.539722346287205,-670.88916015625,-670.88916015625,85.1816276155107,-164.348419189453,0.0281303737862103,NaN,0,1.06150819360713,5000,0.18443737924099,0.18443737924099,0.18443737924099,1713.31562866499,-657.917518244629,1055.39811042036,,,79.3099999427795,0,32884.655302218,34504.0517331231
2011-06-01T05:02:49Z,1306904569,3709,55.3408081,25.6635435,-835.84,-7.1,-64,226.2,-90776.84,-55464.25,226.9,Weapon+Missile,Red,Allies,R-27ER,,xu,,184.22859255937,191.052795410156,0.536167513256121,-835.84228515625,-835.84228515625,82.0404831113312,-164.953125,0.0369418001194412,NaN,0,0.994149401620988,5000,0.190289303660393,0.190289303660393,0.190289303660393,1697.00871582031,-819.681274572754,877.327441247559,,,80.3099999427795,0,32966.8749499835,34688.3558488176
