ISOTime,UnixTime,Id,Longitude,Latitude,Altitude,Roll,Pitch,Yaw,U,V,Heading,Type,Color,Coalition,Name,Group,Country,Pilot,TAS,CAS,M,ASL,AGL,GS,VS,AOA,AOS,RRT,TRT,TRD,G,LatG,LonG,Ek,Ep,Em,FFW,FFV,RelativeTime,Elev,GroundDistance,AirDistance
2011-06-01T05:00:07Z,1306904407,706,55.6025673,25.9370076,8804.56,4.9,-1,224.6,-64178.93,-25478.65,225.2,Weapon+Missile,Red,Allies,R-27ER,,xu,,358.916478762296,247.005233764648,1.17754930174818,8804.5615234375,8804.5615234375,NaN,NaN,3.83441565856993,NaN,1.16921910287946,2.56629988160268,NaN,NaN,NaN,NaN,NaN,8634.32532638184,NaN,,,0.869999885559082,0,NaN,NaN
2011-06-01T05:00:08Z,1306904408,706,55.599079,25.9338089,8766.91,4.1,-1,225.7,-64532.06,-25829.22,226.3,Weapon+Missile,Red,Allies,R-27ER,,xu,,499.015095094468,345.750427246094,1.63632591264689,8766.9072265625,8766.9072265625,497.592422630199,-37.654296875,1.64007440066662,NaN,0.769243225083516,1.40896557293608,5000,5.25172662734985,5.25172662734985,5.25172662734985,12450.8032566071,8597.39907533691,21048.202331944,,,1.86999988555908,0,498.739991765324,500.844455727863
2011-06-01T05:00:09Z,1306904409,706,55.5935994,25.9292491,8755.73,4.1,0.1,228.5,-65086.28,-26328.4,229.2,Weapon+Missile,Red,Allies,R-27ER,,xu,,745.965006225519,493.915557861328,2.4457184423062,8755.7265625,8755.7265625,745.881212569508,-11.1806640625,0.319148543322732,NaN,0.400000637231688,1.9109637729211,5000,2.78900790214539,2.78900790214539,2.78900790214539,27823.1895256519,8586.43458941406,36409.624115066,,,2.86999988555908,0,1246.12034344525,1249.33495603385
2011-06-01T05:00:10Z,1306904410,706,55.5860258,25.9230906,8761.97,3.5,0.3,227.4,-65852.2,-27002.37,228,Weapon+Missile,Red,Allies,R-27ER,,xu,,1020.24884143998,654.729736328125,3.3452773611021,8761.966796875,8761.966796875,1020.22975742456,6.240234375,0.0777665029812131,NaN,0.769243225083516,0.373778980719054,5000,1.67316150665283,1.67316150665283,1.67316150665283,52045.3849229813,8592.55416885742,60637.9390918387,,,3.86999988555908,0,2268.34318327439,2272.98059529105
2011-06-01T05:00:11Z,1306904411,706,55.5776057,25.9160325,8763.25,2.7,-0.2,227.1,-66704.05,-27775.01,227.7,Weapon+Missile,Red,Allies,R-27ER,,xu,,1150.0535861115,731.681274414062,3.77095996995992,8763.2509765625,8763.2509765625,1150.05286913709,1.2841796875,0.0183287966887287,NaN,0.769243225083516,0.826932923804148,5000,1.09761381149292,1.09761381149292,1.09761381149292,66131.1625463963,8593.81351893066,74724.9760653269,,,4.86999988555908,0,3420.73896033062,3426.96030679057
2011-06-01T05:00:12Z,1306904412,706,55.5690371,25.9087775,8745.51,1.3,-1.7,226.6,-67571.12,-28569.26,227.2,Weapon+Missile,Red,Allies,R-27ER,,xu,,1175.99842173323,747.855895996094,3.8550721678559,8745.509765625,8745.509765625,1175.86459141923,-17.7412109375,0.0538247112370274,NaN,1.53848645016703,1.59936862199441,5000,3.65999436378479,3.65999436378479,3.65999436378479,69148.6143959522,8576.41533430664,77725.0297302589,,,5.86999988555908,0,4599.01957729758,4606.99155834805
2011-06-01T05:00:13Z,1306904413,706,55.5604513,25.9013217,8684.77,-0.1,-4,225.8,-68440.27,-29385.69,226.4,Weapon+Missile,Red,Allies,R-27ER,,xu,,1194.0124364845,761.119750976562,3.91079483168794,8684.7705078125,8684.7705078125,1192.46653665419,-60.7392578125,0.0676801443737607,NaN,1.16921910287946,2.09977624167646,5000,3.26780438423157,3.26780438423157,3.26780438423157,71283.2849239826,8516.85047004394,79800.1353940266,,,6.86999988555908,0,5794.00452349231,5805.14988580687
2011-06-01T05:00:14Z,1306904414,706,55.5518687,25.8936991,8584.14,-1.1,-5.7,225.1,-69309.4,-30220.53,225.8,Weapon+Missile,Red,Allies,R-27ER,,xu,,1209.32025739238,774.530944824219,3.9553650868241,8584.1416015625,8584.1416015625,1205.12626233375,-100.62890625,0.0471620382659012,NaN,0.969231163981489,1.85522857552015,5000,3.02992653846741,3.02992653846741,3.02992653846741,73122.7742469788,8418.16722369629,81540.9414706751,,,7.86999988555908,0,7001.77517678707,7018.73477465486
2011-06-01T05:00:15Z,1306904415,706,55.5432533,25.8858726,8445.33,-1.6,-7.2,224.6,-70182.19,-31077.88,225.2,Weapon+Missile,Red,Allies,R-27ER,,xu,,1231.29152674516,793.787109375,4.01944582068719,8445.326171875,8445.326171875,1223.44149852582,-138.8154296875,0.0593469960054293,NaN,0.446202598098593,1.63795118667705,5000,2.22459721565247,2.22459721565247,2.22459721565247,75803.941191721,8282.0357903418,84085.9769820628,,,8.86999988555908,0,8227.95504020266,8254.37380513168
2011-06-01T05:00:16Z,1306904416,706,55.5345959,25.8778739,8275.2,-2,-8.4,224.2,-71059.5,-31954.19,224.9,Weapon+Missile,Red,Allies,R-27ER,,xu,,1251.61752415128,813.696105957031,4.07616663164187,8275.2021484375,8275.2021484375,1240.00171105205,-170.1240234375,0.0213723609179003,NaN,0.384566971028398,1.24920926251848,5000,1.50411295890808,1.50411295890808,1.50411295890808,78327.321338129,8115.20111489746,86442.5224530265,,,9.86999988555908,0,9470.79090985084,9510.41328335637
2011-06-01T05:00:17Z,1306904417,706,55.5259511,25.8698159,8080.81,-2.2,-9.4,224,-71935.75,-32837.02,224.7,Weapon+Missile,Red,Allies,R-27ER,,xu,,1258.96612014816,826.916870117188,4.08911200447616,8080.8076171875,8080.8076171875,1243.86754033579,-194.39453125,0.0446429016955744,NaN,0.199987938897973,1.14813452235504,5000,1.6146205663681,1.6146205663681,1.6146205663681,79249.7845840454,7924.56520190918,87174.3497859546,,,10.8699998855591,0,10717.5277873369,10773.793903859
2011-06-01T05:00:18Z,1306904418,706,55.5174956,25.8619035,7864.81,-2.6,-10.9,224,-72792.95,-33703.9,224.7,Weapon+Missile,Red,Allies,R-27ER,,xu,,1238.11606558706,823.422119140625,4.00948671181339,7864.8095703125,7864.8095703125,1219.12929405005,-215.998046875,0.0540539870423005,NaN,0.461556863352782,1.37788447695282,5000,2.34067368507385,2.34067368507385,2.34067368507385,76646.5695932388,7712.74347727051,84359.3130705093,,,11.8699998855591,0,11939.4784788874,12016.1923723835
2011-06-01T05:00:19Z,1306904419,706,55.5095511,25.8544711,7629.79,-3,-12.4,224,-73598.46,-34518.14,224.7,Weapon+Missile,Red,Allies,R-27ER,,xu,,1169.21383618244,789.657836914062,3.77423601678255,7629.7900390625,7629.7900390625,1145.3500838833,-235.01953125,0.0346279884069731,NaN,0.369267347287569,1.53930340482479,5000,2.2696168422699,2.2696168422699,2.2696168422699,68353.0497360229,7482.26804865723,75835.3177846802,,,12.8699998855591,0,13087.4732877811,13189.363203968
2011-06-01T05:00:20Z,1306904420,706,55.5020086,25.8474006,7374.69,-3.4,-14,224,-74363.31,-35292.7,224.6,Weapon+Missile,Red,Allies,R-27ER,,xu,,1118.04158268808,767.115173339844,3.59659722806369,7374.68603515625,7374.68603515625,1088.54900110683,-255.10400390625,0.0596243743642183,NaN,0.400030519309307,1.58852964539013,5000,2.12244653701782,2.12244653701782,2.12244653701782,62500.8490309835,7232.0964806665,69732.94551165,,,13.8699998855591,0,14178.5467079755,14311.1124645146
2011-06-01T05:00:21Z,1306904421,706,55.4948588,25.8407023,7102.57,-3.7,-15.6,224,-75088.43,-36026.45,224.7,Weapon+Missile,Red,Allies,R-27ER,,xu,,1066.87751118834,744.343688964844,3.41946663471246,7102.56591796875,7102.56591796875,1031.59016363151,-272.1201171875,0.0357794286638167,NaN,0.292277454963186,1.58926890664608,5000,1.80788600444794,1.80788600444794,1.80788600444794,56911.3811939716,6965.23780594482,63876.6189999165,,,14.8699998855591,0,15212.5124981928,15381.4220580437
2011-06-01T05:00:22Z,1306904422,706,55.4881274,25.8344047,6819.27,-3.8,-16.9,224.1,-75771.16,-36716.25,224.7,Weapon+Missile,Red,Allies,R-27ER,,xu,,1011.04872229784,717.903930664062,3.22829209574332,6819.2685546875,6819.2685546875,970.547331570178,-283.29736328125,0.0661170397071895,NaN,0,1.28854506900052,5000,0.978133380413055,0.978133380413055,0.978133380413055,51110.9759430051,6687.41799718262,57798.3939401877,,,15.8699998855591,0,16185.3035458662,16395.6441855368
2011-06-01T05:00:23Z,1306904423,706,55.4816765,25.8283711,6528.46,-3.7,-18,223.9,-76425.52,-37377.12,224.6,Weapon+Missile,Red,Allies,R-27ER,,xu,,974.414641778269,703.658935546875,3.09935095223929,6528.46337890625,6528.46337890625,930.008733212064,-290.80517578125,0.0308015849533032,NaN,0,1.09785344444976,5000,1.06799793243408,1.06799793243408,1.06799793243408,47474.1947055936,6402.2355394751,53876.4302450687,,,16.8699998855591,0,17117.4531927086,17373.0335380334
2011-06-01T05:00:24Z,1306904424,706,55.4756518,25.8226747,6236.37,-3.7,-19,223.6,-77036.78,-38001.09,224.3,Weapon+Missile,Red,Allies,R-27ER,,xu,,921.038715060363,677.159729003906,2.91834423148506,6236.36767578125,6236.36767578125,873.494370248576,-292.095703125,0.0311819911797335,NaN,0,1.14868840800805,5000,0.869713068008423,0.869713068008423,0.869713068008423,42415.6157320023,6115.78750677002,48531.4032387723,,,17.8699998855591,0,17992.9752749296,18296.8266369719
2011-06-01T05:00:25Z,1306904425,706,55.4698936,25.8171859,5938.3,-3.6,-20.1,223.4,-77621.11,-38602.36,224.1,Weapon+Missile,Red,Allies,R-27ER,,xu,,889.832149596656,665.271484375,2.80851941122136,5938.3046875,5938.3046875,838.426925541312,-298.06298828125,0.0459854249973967,NaN,0,1.00628088480399,5000,0.628237128257751,0.628237128257751,0.628237128257751,39590.0627227902,5823.48756636719,45413.5502891574,,,18.8699998855591,0,18833.3771022525,19189.2758326232
2011-06-01T05:00:26Z,1306904426,706,55.4644811,25.8119864,5642.01,-3.4,-21,223.2,-78170.45,-39171.97,223.9,Weapon+Missile,Red,Allies,R-27ER,,xu,,844.99893989962,642.953979492188,2.65680182272184,5642.01123046875,5642.01123046875,791.349098534871,-296.29345703125,0.0463628898778009,NaN,0.169220498008005,0.923156948996405,5000,0.474293798208237,0.474293798208237,0.474293798208237,35701.1604215741,5532.92294332764,41234.0833649018,,,19.8699998855591,0,19626.5985007755,20036.7030629049
2011-06-01T05:00:27Z,1306904427,706,55.4593369,25.8070122,5345.71,-3.4,-22,223,-78692.66,-39716.92,223.7,Weapon+Missile,Red,Allies,R-27ER,,xu,,810.844581471114,627.384338378906,2.53972629557971,5345.708984375,5345.708984375,754.767457075929,-296.30224609375,0.0431713759351517,NaN,0,1.02873705269111,5000,0.59931343793869,0.59931343793869,0.59931343793869,32873.4467650533,5242.34970116211,38115.7964662154,,,20.8699998855591,0,20383.1592954769,20849.8240484323
2011-06-01T05:00:28Z,1306904428,706,55.4544425,25.8022598,5047.64,-3.4,-23,222.9,-79189.57,-40237.55,223.6,Weapon+Missile,Red,Allies,R-27ER,,xu,,778.988550018762,612.802307128906,2.43068916237493,5047.640625,5047.640625,719.707172536046,-298.068359375,0,NaN,0,1.14223814811062,5000,0.695904731750488,0.695904731750488,0.695904731750488,30341.1580530167,4950.04449351563,35291.2025465323,,,21.8699998855591,0,21104.6000644939,21630.9578439616
2011-06-01T05:00:29Z,1306904429,706,55.44982,25.7977585,4748.96,-3.6,-24.5,222.9,-79658.93,-40730.7,223.6,Weapon+Missile,Red,Allies,R-27ER,,xu,,743.437101555646,594.756103515625,2.3110042804444,4748.9619140625,4748.9619140625,680.800816393586,-298.6787109375,0.0455433623159065,NaN,0.369212705774209,1.35857072969243,5000,1.05128443241119,1.05128443241119,1.05128443241119,27634.936198473,4657.1407354541,32292.0769339271,,,22.8699998855591,0,21787.0356120109,22376.3723936013
2011-06-01T05:00:30Z,1306904430,706,55.4454379,25.7934863,4445.09,-3.6,-25.8,222.8,-80103.91,-41198.73,223.5,Weapon+Missile,Red,Allies,R-27ER,,xu,,713.723819021509,580.459899902344,2.21018680103772,4445.09130859375,4445.09130859375,645.80519119213,-303.87060546875,0.256168559961042,NaN,0.123069763559875,0.651781420358192,5000,1.11756777763367,1.11756777763367,1.11756777763367,25470.0844919324,4359.14546814209,29829.2299600745,,,23.8699998855591,0,22434.3905020118,23091.9211347186
2011-06-01T05:00:31Z,1306904431,706,55.4412548,25.7893977,4157.31,-2,-23.8,222.7,-80528.75,-41646.65,223.4,Weapon+Missile,Red,Allies,R-27ER,,xu,,681.128432483114,562.82666015625,2.1016938011597,4157.31298828125,4157.31298828125,617.348831613877,-287.7783203125,0.176164051667563,NaN,1.84614335670697,1.00150455486174,5000,2.90436434745789,2.90436434745789,2.90436434745789,23196.7970768452,4076.93134165283,27273.728418498,,,24.8699998855591,0,23053.2189723681,23774.7693659281
2011-06-01T05:00:32Z,1306904432,706,55.4372412,25.7854361,3900.37,-1.1,-22.8,222.4,-80936.43,-42080.68,223,Weapon+Missile,Red,Allies,R-27ER,,xu,,648.538531769026,543.70947265625,1.99477641891688,3900.36987304688,3900.36987304688,595.468271801931,-256.943115234375,0.0823338381753572,NaN,0.769239169658696,1.66595015979734,5000,2.6201798915863,2.6201798915863,2.6201798915863,21030.1113594562,3824.95622155151,24855.0675810077,,,25.8699998855591,0,23650.1495216686,24424.9971291857
2011-06-01T05:00:33Z,1306904433,706,55.4333877,25.7815775,3669.2,0.1,-21,221.9,-81327.96,-42503.5,222.6,Weapon+Missile,Red,Allies,R-27ER,,xu,,620.900717694181,527.249084472656,1.90434089417697,3669.19750976562,3669.19750976562,576.261259923058,-231.17236328125,0.0943460836298302,NaN,0.800014774759157,1.35864276684384,5000,2.24072861671448,2.24072861671448,2.24072861671448,19275.8850616574,3598.25357591431,22874.1386375717,,,26.8699998855591,0,24227.8206915096,25047.5248787651
2011-06-01T05:00:34Z,1306904434,706,55.4296952,25.7778389,3459.48,0.5,-20.3,221.7,-81703.2,-42913.2,222.4,Weapon+Missile,Red,Allies,R-27ER,,xu,,593.828443372009,510.236389160156,1.81663793106813,3459.48071289062,3459.48071289062,555.56375445678,-209.716796875,0.0316774330910115,NaN,0.492307762378354,0.974716339493539,5000,1.81793856620789,1.81793856620789,1.81793856620789,17631.6110078812,3392.59165330688,21024.2026611881,,,27.8699998855591,0,24784.7786435362,25642.9491786677
2011-06-01T05:00:35Z,1306904435,706,55.4261709,25.7742462,3267.46,0.9,-19.3,221.5,-82061.4,-43306.92,222.2,Weapon+Missile,Red,Allies,R-27ER,,xu,,565.862347993542,491.631622314453,1.72703885472248,3267.45678710938,3267.45678710938,532.284706528678,-192.02392578125,0.0287182828734148,NaN,0.415384571120084,0.889471416505254,5000,1.84268665313721,1.84268665313721,1.84268665313721,16010.0098438382,3204.28051013062,19214.2903539688,,,28.8699998855591,0,25318.4112452465,26210.3444178133
2011-06-01T05:00:36Z,1306904436,706,55.4227806,25.7707675,3091.1,1.1,-18.6,221.3,-82406.04,-43688.2,222,Weapon+Missile,Red,Allies,R-27ER,,xu,,543.368848188464,476.728424072266,1.65484404137459,3091.1044921875,3091.1044921875,513.954835814827,-176.352294921875,0.0833375774149083,NaN,0,1.11632771877247,5000,2.15507340431213,2.15507340431213,2.15507340431213,14762.4852590829,3031.33798683105,17793.823245914,,,29.8699998855591,0,25833.6523665288,26755.1730785131
2011-06-01T05:00:37Z,1306904437,706,55.4195511,25.7674304,2934.74,2.1,-16.3,221.1,-82734.37,-44053.94,221.8,Weapon+Missile,Red,Allies,R-27ER,,xu,,515.767194925933,456.819763183594,1.56781814765584,2934.74243164062,2934.74243164062,491.494359462345,-156.362060546875,0.0938392933982313,NaN,1.04615360818782,1.85991920793265,5000,3.10967612266541,3.10967612266541,3.10967612266541,13300.7899680883,2877.99918672485,16178.7891548131,,,30.8699998855591,0,26326.411179687,27272.3672353623
2011-06-01T05:00:38Z,1306904438,706,55.4164636,25.7642123,2805.92,3,-14,220.8,-83048.33,-44406.69,221.5,Weapon+Missile,Red,Allies,R-27ER,,xu,,489.486999209574,437.078002929688,1.48562622952823,2805.916015625,2805.916015625,472.230110149451,-128.826416015625,0.278264039585543,NaN,0.999999885531927,2.98226699140655,5000,3.71230053901672,3.71230053901672,3.71230053901672,11979.8761197597,2751.66362946289,14731.5397492226,,,31.8699998855591,0,26799.8481703592,27763.224256372
2011-06-01T05:00:39Z,1306904439,706,55.4136609,25.7610245,2704.32,3.4,-13.1,215.2,-83333.69,-44756.41,215.9,Weapon+Missile,Red,Allies,R-27ER,,xu,,462.664714309953,415.999816894531,1.40250694773949,2704.31518554688,2704.31518554688,451.371143511574,-101.600830078125,0.837418036118003,NaN,1.07692958681425,2.7437401370036,5000,2.56614470481873,2.56614470481873,2.56614470481873,10702.9318933755,2652.02725143433,13354.9591448098,,,32.8699998855591,0,27252.4828093045,28227.3124835037
2011-06-01T05:00:40Z,1306904440,706,55.4112513,25.758021,2586.98,0.8,-16.9,218.9,-83579.38,-45086.18,219.6,Weapon+Missile,Red,Allies,R-27ER,,xu,,427.643928461551,387.548736572266,1.29452602591007,2586.98461914062,2586.98461914062,411.233349494927,-117.33056640625,0.442945061396316,NaN,1.27691752571222,1.97109120884519,5000,3.73290753364563,3.73290753364563,3.73290753364563,9143.96647750139,2536.96527152954,11680.9317490309,,,33.8699998855591,0,27664.9778681331,28656.334420945
2011-06-01T05:00:41Z,1306904441,706,55.4087373,25.7554031,2479.11,1.1,-15.2,222.6,-83835.05,-45373.12,223.3,Weapon+Missile,Red,Allies,R-27ER,,xu,,399.177687935208,363.888427734375,1.20679981507569,2479.10693359375,2479.10693359375,384.324383179558,-107.877685546875,0.116455082747076,NaN,0.399975877795947,4.09525165274542,5000,2.44119453430176,2.44119453430176,2.44119453430176,7967.14132726491,2431.17340103271,10398.3147282976,,,34.8699998855591,0,28050.2806359848,29056.6015320912
2011-06-01T05:00:42Z,1306904442,706,55.4062218,25.7529904,2384.84,2.3,-12.7,222.8,-84090.61,-45637.32,223.5,Weapon+Missile,Red,Allies,R-27ER,,xu,,379.467605587288,347.285003662109,1.14592436438476,2384.84008789062,2384.84008789062,367.572340487329,-94.266845703125,0.0418813907702912,NaN,1.93846168763274,2.45407971170959,5000,3.60550403594971,3.60550403594971,3.60550403594971,7199.78318450749,2338.72920479126,9538.51238929875,,,35.8699998855591,0,28418.7115843093,29437.0369898797
2011-06-01T05:00:43Z,1306904443,706,55.4039092,25.7506334,2319.46,4.1,-8.8,219.8,-84325.75,-45895.59,220.5,Weapon+Missile,Red,Allies,R-27ER,,xu,,355.342396521295,325.6787109375,1.07223669858079,2319.46459960938,2319.46459960938,349.276773200689,-65.37548828125,0.275600610004582,NaN,1.26153850102229,4.49448047860089,4080.31551101997,3.5985631942749,3.5985631942749,3.5985631942749,6313.41093827486,2274.61775157593,8588.02868985079,,,36.8699998855591,0,28768.8730411854,29793.3759470307
2011-06-01T05:00:44Z,1306904444,706,55.4019364,25.7482683,2270.81,3.9,-8.1,214.2,-84526.82,-46155.17,214.9,Weapon+Missile,Red,Allies,R-27ER,,xu,,331.929503612363,304.064758300781,1.00101039476006,2270.8115234375,2270.8115234375,328.344443454375,-48.653076171875,0.1675141256214,NaN,0.307686361730734,5.20818530110892,3514.7898669289,3.42230129241943,3.42230129241943,3.42230129241943,5508.85976841748,2226.90538263184,7735.76515104931,,,37.8699998855591,0,29098.1778373549,30126.3726871379
2011-06-01T05:00:45Z,1306904445,706,55.4003234,25.7459031,2230.7,4,-6.6,209.1,-84691.8,-46415.19,209.8,Weapon+Missile,Red,Allies,R-27ER,,xu,,310.545314653519,284.273895263672,0.936075912451761,2230.69995117188,2230.69995117188,307.943914087668,-40.111572265625,0.827162443507736,NaN,0,3.38975714450657,5000,1.96256673336029,1.96256673336029,1.96256673336029,4821.91962266266,2187.56936761597,7009.48899027863,,,38.8699998855591,0,29407.1757596523,30438.0713445421
2011-06-01T05:00:46Z,1306904446,706,55.3988543,25.7436479,2201,3.8,-5.1,212.8,-84842.21,-46663.21,213.6,Weapon+Missile,Red,Allies,R-27ER,,xu,,291.582399504886,266.682189941406,0.878606687903401,2200.99780273438,2200.99780273438,290.06564443109,-29.7021484375,0.11960644274161,NaN,0.199987938897973,2.3482636463234,3545.44852785713,2.88252949714661,2.88252949714661,2.88252949714661,4251.01478505135,2158.44151021851,6409.45629526985,,,39.8699998855591,0,29698.253442509,30730.7611382045
2011-06-01T05:00:47Z,1306904447,706,55.397278,25.7416076,2180.59,3.8,-3.3,217.1,-85003.09,-46887.27,217.8,Weapon+Missile,Red,Allies,R-27ER,,xu,,276.593415575706,252.782974243164,0.833239849283838,2180.58618164062,2180.58618164062,275.839234453984,-20.41162109375,0.0896293914733488,NaN,0,4.43008972397424,3945.01670980504,2.54951739311218,2.54951739311218,2.54951739311218,3825.19587699175,2138.4245478186,5963.62042481035,,,40.8699998855591,0,29974.9568053873,31008.3111192288
2011-06-01T05:00:48Z,1306904448,706,55.3956546,25.7397626,2169.74,4,-1.5,219.3,-85168.45,-47089.67,220,Weapon+Missile,Red,Allies,R-27ER,,xu,,261.57651350066,238.793914794922,0.787900139995559,2169.74243164062,2169.74243164062,261.35165103955,-10.84375,0.20020631854852,NaN,0.138463302401791,2.40423960789259,5000,1.51347243785858,1.51347243785858,1.51347243785858,3421.11362075806,2127.79046172485,5548.90408248291,,,41.8699998855591,0,30237.0286710395,31270.6965290586
2011-06-01T05:00:49Z,1306904449,706,55.3940785,25.7379966,2164.08,3.5,-1.1,218.4,-85328.94,-47283.36,219.1,Weapon+Missile,Red,Allies,R-27ER,,xu,,251.604262096727,229.512710571289,0.757811668054134,2164.07543945312,2164.07543945312,251.540433936147,-5.6669921875,0.041492433529583,NaN,0.369212705774209,0.817830789600607,5000,1.23321521282196,1.23321521282196,1.23321521282196,3165.23523526192,2122.2330408313,5287.46827609322,,,42.8699998855591,0,30489.2676522952,31523.0848358403
2011-06-01T05:00:50Z,1306904450,706,55.3926131,25.7362983,2160.26,3.1,-0.7,217.5,-85478.25,-47469.68,218.2,Weapon+Missile,Red,Allies,R-27ER,,xu,,238.79714074632,217.588012695312,0.71920513266718,2160.25537109375,2160.25537109375,238.766583730529,-3.820068359375,0.0432576720274054,NaN,0.399975877795947,1.00705845915231,5000,1.22573924064636,1.22573924064636,1.22573924064636,2851.2037214309,2118.48683349365,4969.69055492455,,,43.8699998855591,0,30728.7127052103,31762.6415198828
2011-06-01T05:00:51Z,1306904451,706,55.3912366,25.7346462,2158.09,2.7,-0.4,216.5,-85618.58,-47651,217.3,Weapon+Missile,Red,Allies,R-27ER,,xu,,229.28959272476,208.751861572266,0.69055278194492,2158.09228515625,2158.09228515625,229.279389372689,-2.1630859375,0.0487346267014241,NaN,0.399975877795947,1.04870927287617,5000,1.21564757823944,1.21564757823944,1.21564757823944,2628.68586659431,2116.36557082275,4745.05143741707,,,44.8699998855591,0,30958.6677364033,31992.6845670747
2011-06-01T05:00:52Z,1306904452,706,55.3899397,25.7330332,2157.47,2.4,0,215.5,-85750.88,-47828.08,216.2,Weapon+Missile,Red,Allies,R-27ER,,xu,,221.048142936399,201.096389770508,0.665727045182354,2157.46850585938,2157.46850585938,221.04726280825,-0.623779296875,0.063404949064444,NaN,0.369212705774209,1.06077042645506,5000,1.20840227603912,1.20840227603912,1.20840227603912,2443.11407478154,2115.75385229858,4558.86792708012,,,45.8699998855591,0,31180.374797026,32214.4675103771
2011-06-01T05:00:53Z,1306904453,706,55.3887226,25.7314643,2158.3,2.2,0.4,214.5,-85875.09,-48000.37,215.3,Weapon+Missile,Red,Allies,R-27ER,,xu,,212.401775019584,193.067657470703,0.63969323419447,2158.30224609375,2158.30224609375,212.400138673899,0.833740234375,0.0248286998600321,NaN,0.199987938897973,1.00262758737168,5000,1.19482433795929,1.19482433795929,1.19482433795929,2255.72570157349,2116.57147216553,4372.29717373902,,,46.8699998855591,0,31393.4452441643,32427.6116752936
2011-06-01T05:00:54Z,1306904454,706,55.3875842,25.7299437,2160.47,2,0.8,213.7,-85991.38,-48167.41,214.4,Weapon+Missile,Red,Allies,R-27ER,,xu,,203.535650381878,184.841522216797,0.613006720217212,2160.46752929688,2160.46752929688,203.524132537211,2.165283203125,0,NaN,0.169224766876236,1.01668091503239,5000,1.17970430850983,1.17970430850983,1.17970430850983,2071.33804881871,2118.69488961792,4190.03293843663,,,47.8699998855591,0,31597.6197554289,32631.8667892436
2011-06-01T05:00:55Z,1306904455,706,55.3865205,25.7284719,2163.81,1.8,1.2,212.7,-86100.09,-48329.12,213.4,Weapon+Missile,Red,Allies,R-27ER,,xu,,194.891378430308,176.828720092773,0.586995230105865,2163.81298828125,2163.81298828125,194.862662638714,3.345458984375,0.0428179042585626,NaN,0.184633673643785,0.997882740332635,5000,1.17270994186401,1.17270994186401,1.17270994186401,1899.13246932328,2121.97566415283,4021.10813347611,,,48.8699998855591,0,31793.1199539689,32827.4618733372
2011-06-01T05:00:56Z,1306904456,706,55.3855139,25.7270305,2168.33,1.6,1.6,211.8,-86203.03,-48487.55,212.5,Weapon+Missile,Red,Allies,R-27ER,,xu,,188.988051082345,171.349136352539,0.569245369446398,2168.32836914062,2168.32836914062,188.934101706382,4.515380859375,0.0591578132184609,NaN,0.199987938897973,0.966550314732259,5000,1.15779626369476,1.15779626369476,1.15779626369476,1785.82417259514,2126.40374012329,3912.22791271843,,,49.8699998855591,0,31982.6897070195,33017.1497562004
2011-06-01T05:00:57Z,1306904457,706,55.3845737,25.7256408,2173.86,1.2,1.4,211.2,-86299.25,-48640.33,211.9,Weapon+Missile,Red,Allies,R-27ER,,xu,,180.639828189452,163.622634887695,0.544135562525241,2173.85913085938,2173.85913085938,180.555138955182,5.53076171875,0.153134093979659,NaN,0.630781630229018,0.952476816669154,5000,0.418146848678589,0.418146848678589,0.418146848678589,1631.53737641573,2131.82756456421,3763.36494097994,,,50.8699998855591,0,32163.8567025389,33198.4627949199
2011-06-01T05:00:58Z,1306904458,706,55.3836738,25.7242963,2173.44,-0.2,-1.8,211.2,-86391.36,-48788.14,211.9,Weapon+Missile,Red,Allies,R-27ER,,xu,,174.159964024574,157.672790527344,0.524613871579372,2173.43994140625,2173.43994140625,174.159459545679,-0.419189453125,0.0656901342475173,NaN,1.3384438697557,2.60311934859773,3103.51353880452,0.0190033614635468,0.0190033614635468,0.0190033614635468,1516.58465345204,2131.41648013916,3648.0011335912,,,51.8699998855591,0,32338.6294104028,33373.2955673243
2011-06-01T05:00:59Z,1306904459,706,55.3828052,25.7229988,2163.59,-1.5,-5,211.2,-86480.27,-48930.8,211.9,Weapon+Missile,Red,Allies,R-27ER,,xu,,168.388348402874,152.448440551758,0.507169163459457,2163.5908203125,2163.5908203125,168.100061545284,-9.84912109375,0.0436031822319691,NaN,1.16921910287946,3.22707697951567,2975.90224398874,0.0374090261757374,0.0374090261757374,0.0374090261757374,1417.73179389238,2121.75779180176,3539.48958569414,,,52.8699998855591,0,32507.2996397434,33542.3103597049
2011-06-01T05:01:00Z,1306904460,706,55.3819623,25.7217406,2144.74,-2.5,-8.3,211.3,-86566.55,-49069.14,212,Weapon+Missile,Red,Allies,R-27ER,,xu,,164.123770024992,148.671600341797,0.494214404621989,2144.74072265625,2144.74072265625,163.037681857804,-18.85009765625,0.0529119207936939,NaN,1.06157532156006,3.26963503446038,2881.22370285249,0.051620077341795,0.051620077341795,0.051620077341795,1346.83059436083,2103.27216078369,3450.10275514452,,,53.8699998855591,0,32670.9008468169,33707.0488305254
2011-06-01T05:01:01Z,1306904461,706,55.3811499,25.7205296,2117.46,-3.4,-11.5,211.3,-86649.73,-49202.27,212,Weapon+Missile,Red,Allies,R-27ER,,xu,,159.333570318648,144.467880249023,0.479635211828659,2117.4599609375,2117.4599609375,156.980720696945,-27.28076171875,0.0409463036655567,NaN,0.96928580549485,3.27766178739561,2782.90156161155,0.0592289417982101,0.0592289417982101,0.0592289417982101,1269.35933152437,2076.51887259277,3345.87820411715,,,54.8699998855591,0,32828.4115117343,33866.9564018135
2011-06-01T05:01:02Z,1306904462,706,55.3803578,25.7193519,2081.8,-4.1,-14.8,211.4,-86730.8,-49331.75,212.1,Weapon+Missile,Red,Allies,R-27ER,,xu,,156.877121458869,142.457046508789,0.472041665761678,2081.80078125,2081.80078125,152.770593182181,-35.6591796875,0.0373194708414996,NaN,0.769243225083516,3.27790105745997,2757.90952050107,0.0701680853962898,0.0701680853962898,0.0701680853962898,1230.52156186104,2041.54916314453,3272.07072500557,,,55.8699998855591,0,32981.7054349931,34024.3923504534
2011-06-01T05:01:03Z,1306904463,706,55.3795896,25.718214,2038.33,-4.6,-18.1,211.5,-86809.42,-49456.84,212.2,Weapon+Missile,Red,Allies,R-27ER,,xu,,154.0066410102,140.112045288086,0.463166584988135,2038.32763671875,2038.32763671875,147.743464084912,-43.47314453125,0.0627330798319117,NaN,0.569200644672183,3.2438495762397,2736.08540624075,0.0787090659141541,0.0787090659141541,0.0787090659141541,1185.90227376223,1998.91657186279,3184.81884562502,,,56.8699998855591,0,33129.9628891324,34178.9380978617
2011-06-01T05:01:04Z,1306904464,706,55.3788384,25.717107,1987.02,-5.2,-21.3,211.6,-86886.3,-49578.53,212.4,Weapon+Missile,Red,Allies,R-27ER,,xu,,152.807099657061,139.349853515625,0.459280991554662,1987.02075195312,1987.02075195312,143.936143067855,-51.306884765625,0.0553503441064766,NaN,0.538437472650445,3.17892969539578,2746.4651674755,0.0802828073501587,0.0802828073501587,0.0802828073501587,1167.50048528016,1948.60170571411,3116.10219099427,,,57.8699998855591,0,33274.395249063,34332.2556462225
2011-06-01T05:01:05Z,1306904465,706,55.378104,25.7160315,1928.12,-5.6,-24.4,211.8,-86961.46,-49696.75,212.6,Weapon+Missile,Red,Allies,R-27ER,,xu,,151.971290254993,138.969436645508,0.456452046492099,1928.12219238281,1928.12219238281,140.093657038103,-58.8985595703125,0.0750594842409874,NaN,0.369212705774209,3.15078803535486,2799.63999368354,0.0906703248620033,0.0906703248620033,0.0906703248620033,1154.76365308836,1890.84194979309,3045.60560288145,,,58.8699998855591,0,33414.9609080639,34484.7019492755
2011-06-01T05:01:06Z,1306904466,706,55.3773909,25.7149958,1862.44,-5.9,-27.5,212.1,-87034.42,-49810.61,212.8,Weapon+Missile,Red,Allies,R-27ER,,xu,,150.332069076062,137.886428833008,0.451179848927209,1862.43920898438,1862.43920898438,135.223802211631,-65.6829833984375,0.0472291595133694,NaN,0.261514282941448,3.08515717450703,2867.60469684779,0.103858605027199,0.103858605027199,0.103858605027199,1129.98654963449,1826.42894687866,2956.41549651315,,,59.8699998855591,0,33550.6385165248,34635.4786370974
2011-06-01T05:01:07Z,1306904467,706,55.3766933,25.7139919,1789.89,-6.2,-30.4,212.3,-87105.79,-49920.94,213,Weapon+Missile,Red,Allies,R-27ER,,xu,,150.102586347564,138.149719238281,0.450107456974876,1789.88928222656,1789.88928222656,131.405078119775,-72.5499267578125,0.0175981636617916,NaN,0.323095268498283,2.95146177103273,2950.7752480244,0.107116401195526,0.107116401195526,0.107116401195526,1126.5393214114,1755.28177295471,2881.82109436611,,,60.8699998855591,0,33682.4907253997,34786.005888787
2011-06-01T05:01:08Z,1306904468,706,55.3760052,25.7130126,1710.13,-6.4,-33.3,212.6,-87176.18,-50028.57,213.3,Weapon+Missile,Red,Allies,R-27ER,,xu,,151.333112805812,139.820114135742,0.453373269620262,1710.12683105469,1710.12683105469,128.606618859804,-79.762451171875,0.0627513239947244,NaN,0.199987938897973,2.84990070005605,3089.04344609604,0.110768593847752,0.110768593847752,0.110768593847752,1145.08555157483,1677.06152877625,2822.14708035107,,,61.8699998855591,0,33811.5192118448,34937.7277922852
2011-06-01T05:01:09Z,1306904469,706,55.3753344,25.7120696,1624.4,-6.6,-36,213,-87244.77,-50132.19,213.7,Weapon+Missile,Red,Allies,R-27ER,,xu,,150.967238582343,140.046035766602,0.451823731237719,1624.39770507812,1624.39770507812,124.264331505355,-85.7291259765625,0.0412857071033738,NaN,0.200042580411333,2.73984479474258,3229.41586439104,0.120889157056808,0.120889157056808,0.120889157056808,1139.5553562589,1592.98997545044,2732.54533170934,,,62.8699998855591,0,33936.1991184982,35089.0641404529
2011-06-01T05:01:10Z,1306904470,706,55.3746746,25.7111549,1532.31,-6.7,-38.6,213.3,-87312.23,-50232.7,214,Weapon+Missile,Red,Allies,R-27ER,,xu,,152.089172399471,141.709396362305,0.45469236831387,1532.30993652344,1532.30993652344,121.041146903747,-92.0877685546875,0.0419563793617012,NaN,0.107698422832761,2.6270587347518,3403.7329495572,0.123503066599369,0.123503066599369,0.123503066599369,1156.55581805781,1502.68272390076,2659.23854195856,,,63.8699998855591,0,34057.6342750984,35241.4910203248
2011-06-01T05:01:11Z,1306904471,706,55.3740224,25.7102643,1433.65,-6.8,-41.1,213.8,-87378.89,-50330.54,214.5,Weapon+Missile,Red,Allies,R-27ER,,xu,,154.114486342122,144.278564453125,0.460218061623963,1433.65002441406,1433.65002441406,118.39550938725,-98.659912109375,0.0711349109905413,NaN,0,2.50617612583021,3611.45183278162,0.127848565578461,0.127848565578461,0.127848565578461,1187.5637450248,1405.93040119202,2593.49414621682,,,64.8699998855591,0,34176.4153821144,35395.9231780674
2011-06-01T05:01:12Z,1306904472,706,55.3733858,25.7094095,1329.99,-6.9,-43.4,214.2,-87443.93,-50424.43,215,Weapon+Missile,Red,Allies,R-27ER,,xu,,154.245144169452,145.104553222656,0.46005361077775,1329.98693847656,1329.98693847656,114.217026374221,-103.6630859375,0.0382068080493705,NaN,0,2.35592583791169,3848.29778795505,0.13793221116066,0.13793221116066,0.13793221116066,1189.57822499275,1304.27164102112,2493.84986601387,,,65.8699998855591,0,34291.0056793451,35550.4633405989
2011-06-01T05:01:13Z,1306904473,706,55.3727582,25.7085816,1220.66,-7,-45.6,214.7,-87508.04,-50515.36,215.4,Weapon+Missile,Red,Allies,R-27ER,,xu,,155.983916308059,147.502151489258,0.464650374151473,1220.66149902344,1220.66149902344,111.260641896318,-109.325439453125,0.0339491588421392,NaN,0.199987938897973,2.23634438002698,4097.3128721552,0.141206830739975,0.141206830739975,0.141206830739975,1216.54910733998,1197.06000893982,2413.6091162798,,,66.8699998855591,0,34402.6182998436,35706.7144558904
2011-06-01T05:01:14Z,1306904474,706,55.3721398,25.7077813,1106.01,-7,-47.7,215.2,-87571.2,-50603.26,216,Weapon+Missile,Red,Allies,R-27ER,,xu,,157.664481976641,149.897979736328,0.469034261743805,1106.01452636719,1106.01452636719,108.231975578938,-114.64697265625,0.0480352168471262,NaN,0,2.11529507180096,4364.29241266531,0.142525777220726,0.142525777220726,0.142525777220726,1242.90444384813,1084.62973549988,2327.53417934801,,,67.8699998855591,0,34511.1738264648,35864.6148354898
2011-06-01T05:01:15Z,1306904475,706,55.3715307,25.7070087,986.38,-7.1,-49.7,215.8,-87633.36,-50688.07,216.5,Weapon+Missile,Red,Allies,R-27ER,,xu,,159.276243921982,152.279937744141,0.473175790896892,986.381530761719,986.381530761719,105.151644021178,-119.632995605469,0.0254442348945115,NaN,0.200042580411333,2.01374766120262,4705.03449727867,0.152605280280113,0.152605280280113,0.152605280280113,1268.44609389473,967.309843864441,2235.75593775917,,,68.8699998855591,0,34616.663962551,36024.1261937913
2011-06-01T05:01:16Z,1306904476,706,55.3709319,25.7062655,862.33,-7.1,-51.5,216.4,-87694.48,-50769.66,217.1,Weapon+Missile,Red,Allies,R-27ER,,xu,,160.562856754551,154.396026611328,0.476318041085391,862.332275390625,862.332275390625,101.942205249149,-124.049255371094,0.0398537200943681,NaN,0,1.89454954768509,5000,0.153284937143326,0.153284937143326,0.153284937143326,1289.02154845912,845.659080845947,2134.68062930507,,,69.8699998855591,0,34718.8985044183,36184.8842387814
2011-06-01T05:01:17Z,1306904477,706,55.3703419,25.7055493,733.89,-7.1,-53.2,217,-87754.66,-50848.25,217.8,Weapon+Missile,Red,Allies,R-27ER,,xu,,162.165166015415,156.865249633789,0.480363350708549,733.890014648438,733.890014648438,98.995589418131,-128.442260742188,0.0199727267917087,NaN,0,1.77899224516028,5000,0.156256482005119,0.156256482005119,0.156256482005119,1314.87705344036,719.70025121521,2034.57730465557,,,70.8699998855591,0,34818.1893411361,36347.2374094636
2011-06-01T05:01:18Z,1306904478,706,55.3697575,25.7048565,600.64,-7.1,-54.9,217.7,-87814.25,-50924.27,218.5,Weapon+Missile,Red,Allies,R-27ER,,xu,,164.575974130218,160.17724609375,0.486762492006206,600.636901855469,600.636901855469,96.5860196503331,-133.253112792969,0.0264098339096752,NaN,0,1.66997025973242,5000,0.161636993288994,0.161636993288994,0.161636993288994,1354.26256304551,589.023587358093,1943.2861504036,,,71.8699998855591,0,34915.0622496436,36511.9878756435
2011-06-01T05:01:19Z,1306904479,706,55.3691834,25.7041926,463.96,-7.2,-56.4,218.5,-87872.77,-50997.1,219.2,Weapon+Missile,Red,Allies,R-27ER,,xu,,165.563688734072,162.144577026367,0.488921581121621,463.955383300781,463.955383300781,93.4317799938403,-136.681518554688,0.0145343558756473,NaN,0,1.59105404061868,5000,0.162506833672523,0.162506833672523,0.162506833672523,1370.56675136164,454.984805964661,1825.5515573263,,,72.8699998855591,0,35008.7475699777,36677.6991963294
2011-06-01T05:01:20Z,1306904480,706,55.3686164,25.7035533,323.38,-7.2,-57.8,219.1,-87930.55,-51067.21,219.9,Weapon+Missile,Red,Allies,R-27ER,,xu,,167.380286788535,164.972473144531,0.493497278945202,323.376159667969,323.376159667969,90.8495585471278,-140.579223632812,0.0134646271979694,NaN,0,1.49052166016403,5000,0.167246103286743,0.167246103286743,0.167246103286743,1400.80802027062,317.123681620789,1717.9317018914,,,73.8699998855591,0,35099.8510106905,36845.2204773902
2011-06-01T05:01:21Z,1306904481,706,55.3680586,25.7029408,179.76,-7.2,-59.2,219.9,-87987.36,-51134.36,220.6,Weapon+Missile,Red,Allies,R-27ER,,xu,,168.409841318499,167.063705444336,0.495725836447083,179.759216308594,179.759216308594,87.9548079017414,-143.616943359375,0.0158438220174027,NaN,0,1.3956696492213,5000,0.170746684074402,0.170746684074402,0.170746684074402,1418.09373264611,176.283571861267,1594.37730450737,,,74.8699998855591,0,35188.0487922921,37013.7591635724
2011-06-01T05:01:22Z,1306904482,706,55.3675082,25.702353,32.94,-7.2,-60.5,220.7,-88043.41,-51198.79,221.4,Weapon+Missile,Red,Allies,R-27ER,,xu,,169.849772697273,169.603073120117,0.499136453478057,32.9361534118652,32.9361534118652,85.3928187082408,-146.823062896729,0.0216901175121319,NaN,0,1.33080376956051,5000,0.1706283390522,0.1706283390522,0.1706283390522,1442.44726426576,32.2993328856468,1474.74659715141,,,75.8699998855591,0,35273.6634353183,37183.7212868032
2011-06-01T05:01:23Z,1306904483,706,55.3669619,25.7017859,-117.74,-7.3,-61.6,221.5,-88099.01,-51260.93,222.2,Weapon+Missile,Red,Allies,R-27ER,,xu,,172.210762926882,173.116073608398,0.505217549397181,-117.739227294922,-117.739227294922,83.387508157539,-150.675380706787,0.0135580433844668,NaN,0,1.24091666581414,5000,0.175411716103554,0.175411716103554,0.175411716103554,1482.82734339294,-115.462739335175,1367.36460405777,,,76.8699998855591,0,35357.2614797435,37356.033823962
2011-06-01T05:01:24Z,1306904484,706,55.3664283,25.7012481,-269.52,-7.3,-62.7,222.4,-88153.28,-51319.84,223.1,Weapon+Missile,Red,Allies,R-27ER,,xu,,171.619964326385,173.685485839844,0.502628229882536,-269.519989013672,-269.519989013672,80.1000157769386,-151.78076171875,0.0275790737683221,NaN,0,1.18273049771822,5000,0.177830383181572,0.177830383181572,0.177830383181572,1472.67060776949,-264.308820026093,1208.3617877434,,,77.8699998855591,0,35437.5626923113,37527.7466448429
2011-06-01T05:01:25Z,1306904485,706,55.3658984,25.7007299,-424.78,-7.3,-63.8,223.3,-88207.17,-51376.58,224,Weapon+Missile,Red,Allies,R-27ER,,xu,,173.863795439627,177.158233642578,0.508317214392139,-424.778442382812,-424.778442382812,78.2523611279221,-155.258453369141,0.0044469202591326,NaN,0,1.09869985429831,5000,0.180486723780632,0.180486723780632,0.180486723780632,1511.43096823362,-416.565351199341,1094.86561703428,,,78.8699998855591,0,35516.0033106553,37701.6933268533
2011-06-01T05:01:26Z,1306904486,706,55.3653743,25.7002332,-582.59,-7.4,-64.7,224.1,-88260.45,-51430.95,224.8,Weapon+Missile,Red,Allies,R-27ER,,xu,,175.215219832918,179.768112182617,0.511368936840073,-582.593811035156,-582.593811035156,76.1228131260443,-157.815368652344,0.0242130596983613,NaN,0,1.04819594147136,5000,0.182858750224113,0.182858750224113,0.182858750224113,1535.01866305489,-571.329359698791,963.6893033561,,,79.8699998855591,0,35592.3018259214,37876.9823299296
2011-06-01T05:01:27Z,1306904487,706,55.3648574,25.6997588,-742.26,-7.4,-65.6,225.1,-88312.98,-51482.86,225.8,Weapon+Missile,Red,Allies,R-27ER,,xu,,175.915218429787,181.742309570312,0.512503172908301,-742.258422851562,-742.258422851562,73.8469756233512,-159.664611816406,0.0229974514829972,NaN,0,0.996901647691386,5000,0.185111343860626,0.185111343860626,0.185111343860626,1547.30820375998,-727.906856245728,819.401347514248,,,80.8699998855591,0,35666.3064946179,38052.9605720728
2011-06-01T05:01:28Z,1306904488,706,55.3643447,25.6993036,-904.49,-7.5,-66.5,226.1,-88365.05,-51532.64,226.8,Weapon+Missile,Red,Allies,R-27ER,,xu,,177.508162536828,184.671356201172,0.516217261385238,-904.4892578125,-904.4892578125,72.043764165111,-162.230834960938,0.0223408172198596,NaN,0.200042580411333,0.981170334650672,5000,0.186496630311012,0.186496630311012,0.186496630311012,1575.45738836005,-887.000958012695,688.456430347358,,,81.8699998855591,0,35738.5074526524,38230.5288021131
