ISOTime,UnixTime,Id,Longitude,Latitude,Altitude,Roll,Pitch,Yaw,U,V,Heading,Type,Color,Coalition,Name,Group,Country,Pilot,TAS,CAS,M,ASL,AGL,GS,VS,AOA,AOS,RRT,TRT,TRD,G,LatG,LonG,Ek,Ep,Em,FFW,FFV,RelativeTime,Elev,GroundDistance,AirDistance
2011-06-01T05:01:53Z,1306904513,7D0C,55.810473,25.6228536,6455.85,-19.3,-0.3,216.7,-43672.05,-60478.48,217.3,Weapon+Missile,Red,Allies,R-27ER,,xu,,261.425874376114,195.427780151367,0.830729439333238,6455.85205078125,6415.47412490845,NaN,NaN,6.31506059966803,NaN,3.33847010780259,4.34330648771121,NaN,NaN,NaN,NaN,NaN,6331.02815137939,NaN,,,0.950000047683716,40.3779258728027,NaN,NaN
2011-06-01T05:01:54Z,1306904514,7D0C,55.8079343,25.6199005,6421.28,-16.2,-0.7,215.8,-43929.89,-60803.26,216.3,Weapon+Missile,Red,Allies,R-27ER,,xu,,416.123736378753,322.807250976562,1.32170876044835,6421.27978515625,6386.63818359375,414.685088262609,-34.572265625,2.12953704339763,NaN,2.44616053425378,1.70913744591933,5000,4.08817720413208,4.08817720413208,4.08817720413208,8657.94819889069,6297.12434051025,14955.0725394009,,,1.95000004768372,34.6416015625,415.931521768192,417.784304183262
2011-06-01T05:01:55Z,1306904515,7D0C,55.8041897,25.6148991,6394.39,-14.7,-3.9,212.6,-44310.89,-61353.79,213.1,Weapon+Missile,Red,Allies,R-27ER,,xu,,670.047986621592,501.436584472656,2.12748013183448,6394.39208984375,6360.00714111328,669.508294359697,-26.8876953125,0.192870565735846,NaN,1.26151544913385,4.32949042901006,5000,6.73901319503784,6.73901319503784,6.73901319503784,22448.2152187824,6270.75651878662,28718.971737569,,,2.95000004768372,34.3849487304688,1087.6833412772,1090.74835524583
2011-06-01T05:01:56Z,1306904516,7D0C,55.7993985,25.6078131,6284.99,-14.2,-9.4,211,-44799.11,-62134.23,211.6,Weapon+Missile,Red,Allies,R-27ER,,xu,,927.051843586442,679.671691894531,2.93926994569219,6284.98974609375,6264.08624267578,920.573868779159,-109.40234375,0.261646613831683,NaN,0.553834426586946,4.66951261381893,5000,5.70769739151001,5.70769739151001,5.70769739151001,42971.2560348511,6163.46946935303,49134.7255042041,,,3.95000004768372,20.9035034179688,2011.5560420456,2021.98799941054
2011-06-01T05:01:57Z,1306904517,7D0C,55.7942283,25.599983,6095.08,-12.7,-11.9,210.7,-45326.21,-62996.73,211.3,Weapon+Missile,Red,Allies,R-27ER,,xu,,1028.49428540732,756.888000488281,3.25280558490154,6095.078125,6075.05755615234,1010.80862248452,-189.91162109375,0.0824687414036687,NaN,1.53846425205223,3.16458800568605,5000,3.2755229473114,3.2755229473114,3.2755229473114,52890.0247557759,5977.22978945313,58867.2545452291,,,4.95000004768372,20.0205688476562,3026.02800261999,3055.05060892598
2011-06-01T05:01:58Z,1306904518,7D0C,55.7890261,25.592036,5860.06,-11.2,-14,210.7,-45856.69,-63872.12,211.2,Weapon+Missile,Red,Allies,R-27ER,,xu,,1050.21444883892,781.320739746094,3.3113573777458,5860.06298828125,5837.23083496094,1023.5811028263,-235.01513671875,0.0638711388407664,NaN,1.3845903353356,2.03524632194547,5000,2.40872287750244,2.40872287750244,2.40872287750244,55147.5194275022,5746.75867040283,60894.278097905,,,5.95000004768372,22.8321533203125,4053.34520220885,4109.84531345325
2011-06-01T05:01:59Z,1306904519,7D0C,55.7837885,25.5840544,5589.65,-9.8,-15.4,210.9,-46390.83,-64751.3,211.4,Weapon+Missile,Red,Allies,R-27ER,,xu,,1063.6652323477,801.740844726562,3.3420645584486,5589.65478515625,5567.10772705078,1028.71916973875,-270.408203125,0.0531818337619119,NaN,1.4615307087885,1.48956916893993,5000,1.32055735588074,1.32055735588074,1.32055735588074,56569.186325264,5481.57880988525,62050.7651351492,,,6.95000004768372,22.5470581054688,5085.81242453146,5178.03238978569
2011-06-01T05:02:00Z,1306904520,7D0C,55.7784683,25.5760495,5295.68,-8.5,-16.2,211.3,-46933.37,-65632.96,211.8,Weapon+Missile,Red,Allies,R-27ER,,xu,,1076.14775182277,822.837585449219,3.36855156051307,5295.67626953125,5275.89323997498,1035.21525109715,-293.978515625,0.0734076355978468,NaN,1.3384438697557,0.88306779399325,5000,1.02801108360291,1.02801108360291,1.02801108360291,57904.6991876602,5193.28436885986,63097.9835565201,,,7.95000004768372,19.7830295562744,6124.76563653071,6258.62951292457
2011-06-01T05:02:01Z,1306904521,7D0C,55.7729799,25.5679638,4989.38,-7,-16.2,212,-47492.94,-66523.39,212.5,Weapon+Missile,Red,Allies,R-27ER,,xu,,1095.35366198906,849.93408203125,3.4153207502486,4989.3828125,4968.12698554993,1051.65772141543,-306.29345703125,0.0359706332964354,NaN,1.33848143579613,0.610305576870966,5000,2.03036761283875,2.03036761283875,2.03036761283875,59989.9822416425,4892.91309582031,64882.8953374628,,,8.95000004768372,21.2558269500732,7180.17157553597,7358.39962085786
2011-06-01T05:02:02Z,1306904522,7D0C,55.7673353,25.5598666,4686.5,-5.6,-15.5,212.7,-48068.3,-67414.91,213.3,Weapon+Missile,Red,Allies,R-27ER,,xu,,1103.44371113343,869.049194335938,3.42740081722694,4686.49658203125,4662.49658203125,1061.059826321,-302.88623046875,0.0193085706470062,NaN,1.40000009587679,0.941939542327117,5000,3.1498339176178,3.1498339176178,3.1498339176178,60879.4011819959,4595.88317061768,65475.2843526135,,,9.95000004768372,24,8244.96810290685,8466.21385193372
2011-06-01T05:02:03Z,1306904523,7D0C,55.761547,25.5518163,4400.85,-4.3,-14.4,213.5,-48658.12,-68301.11,214.1,Weapon+Missile,Red,Allies,R-27ER,,xu,,1102.19215164782,880.499084472656,3.41126779873226,4400.85205078125,4376.85205078125,1064.53498811501,-285.64453125,0.0875369536392084,NaN,1.3384899735326,1.29059423247323,5000,3.46771264076233,3.46771264076233,3.46771264076233,60741.3769577026,4315.76157637939,65057.138534082,,,10.9500000476837,24,9313.15789178781,9572.67148826066
2011-06-01T05:02:04Z,1306904524,7D0C,55.7558132,25.5440959,4145.09,-3.1,-13.4,214.4,-49242.21,-69150.79,215,Weapon+Missile,Red,Allies,R-27ER,,xu,,1062.32213843708,860.328735351562,3.27740981000808,4145.0947265625,4120.0947265625,1031.07541766934,-255.75732421875,0.0576167124551448,NaN,1.15383111356625,1.47958065760902,5000,3.66466093063354,3.66466093063354,3.66466093063354,56426.4162906766,4064.94932002441,60491.365610701,,,11.9500000476837,25,10347.6881524802,10639.0200058394
2011-06-01T05:02:05Z,1306904525,7D0C,55.7502906,25.5369086,3927.1,-1.9,-11.8,215.4,-49804.58,-69941.59,215.9,Weapon+Missile,Red,Allies,R-27ER,,xu,,994.561398367924,815.68017578125,3.06008422556596,3927.09594726562,3900.19737243652,970.375652697775,-217.998779296875,0.0397695364651922,NaN,1.16926947552459,1.80970942012683,5000,4.48125457763672,4.48125457763672,4.48125457763672,49457.618756178,3851.16554712524,53308.7843033033,,,12.9500000476837,26.8985748291016,11321.2498674564,11637.2914253439
2011-06-01T05:02:06Z,1306904526,7D0C,55.7449593,25.5302297,3752.57,-0.7,-9.7,216.5,-50347.27,-70676.25,217.1,Weapon+Missile,Red,Allies,R-27ER,,xu,,929.886175520516,770.777526855469,2.85494175483555,3752.57153320312,3724.79901123047,913.361663482934,-174.5244140625,0,NaN,1.23076647109898,2.40639794767032,5000,5.19336414337158,5.19336414337158,5.19336414337158,43234.4149712086,3680.01556260864,46914.4305338172,,,13.9500000476837,27.7725219726562,12237.523893778,12570.580258394
2011-06-01T05:02:07Z,1306904527,7D0C,55.7398031,25.5240743,3625.34,0.6,-7,218.1,-50871.86,-71353.09,218.6,Weapon+Missile,Red,Allies,R-27ER,,xu,,865.738971777418,723.847961425781,2.65384660538494,3625.33984375,3592.36597824097,856.338755664559,-127.231689453125,0.0915297025007059,NaN,1.36922070215578,3.06577864717124,5000,5.87156677246094,5.87156677246094,5.87156677246094,37475.1983627111,3555.24389787109,41030.4422605822,,,14.9500000476837,32.9738655090332,13096.474282195,13439.3940271118
2011-06-01T05:02:08Z,1306904528,7D0C,55.7347351,25.5184121,3545.62,1.8,-4.1,220.2,-51387.12,-71975.35,220.8,Weapon+Missile,Red,Allies,R-27ER,,xu,,811.821766755876,683.097595214844,2.48613908826557,3545.62060546875,3513.00210952759,807.89815201329,-79.71923828125,0.0702509496729024,NaN,1.33846137211545,3.68106343194714,5000,6.22857141494751,6.22857141494751,6.22857141494751,32952.7290489316,3477.06603106201,36429.7950799936,,,15.9500000476837,32.6184959411621,13906.7153777847,14254.0007370964
2011-06-01T05:02:09Z,1306904529,7D0C,55.7297684,25.5132827,3512.86,3,-1.1,222.2,-51891.68,-72538.7,222.8,Weapon+Missile,Red,Allies,R-27ER,,xu,,756.976033511073,639.958740234375,2.31724957677046,3512.86059570312,3482.81655502319,756.266816057873,-32.760009765625,0.202592912592621,NaN,0.984615311313297,3.01280690161979,5000,3.83984375,3.83984375,3.83984375,28650.6357655078,3444.93943608521,32095.575201593,,,16.9500000476837,30.0440406799316,14665.0073322877,15013.4192147183
2011-06-01T05:02:10Z,1306904530,7D0C,55.7249591,25.5085619,3503.82,3,-0.2,223.3,-52380.05,-73056.92,223.9,Weapon+Missile,Red,Allies,R-27ER,,xu,,712.137056232917,604.172973632812,2.17974787656337,3503.82055664062,3470.14282226562,712.07967570619,-9.0400390625,0.059408093343806,NaN,0.199999891729021,2.06583190904879,5000,3.22377562522888,3.22377562522888,3.22377562522888,25356.9593430042,3436.07418617798,28793.0335291822,,,17.9500000476837,33.677734375,15378.8883532863,15727.7501154437
2011-06-01T05:02:11Z,1306904531,7D0C,55.720299,25.5041965,3512.27,3.4,1.7,224.8,-52853.07,-73535.91,225.4,Weapon+Missile,Red,Allies,R-27ER,,xu,,673.237360607226,572.7392578125,2.06089439171788,3512.26684570312,3475.96563339233,673.18437587221,8.4462890625,0.102472768991738,NaN,0.400000210344865,2.01814331482035,5000,3.22639513015747,3.22639513015747,3.22639513015747,22662.4271858692,3444.35716624146,26106.7843521107,,,18.9500000476837,36.301212310791,16053.6969164782,16402.98265874
2011-06-01T05:02:12Z,1306904532,7D0C,55.71582,25.5001731,3538.23,3.7,3.1,225.7,-53307.56,-73977.18,226.2,Weapon+Missile,Red,Allies,R-27ER,,xu,,634.00013382802,540.68994140625,1.94139911425909,3538.23461914062,3502.66497802734,633.468108460596,25.9677734375,0.0479192092548088,NaN,0.199999891729021,1.78750159364906,5000,2.60064601898193,2.60064601898193,2.60064601898193,20097.8084846973,3469.82285277954,23567.6313374769,,,19.9500000476837,35.5696411132812,16688.6157246161,17038.7829097222
2011-06-01T05:02:13Z,1306904533,7D0C,55.7115244,25.4964226,3576.52,3.7,4.1,226.4,-53743.34,-74388.39,227,Weapon+Missile,Red,Allies,R-27ER,,xu,,600.390770799945,512.967529296875,1.83934434254656,3576.52221679688,3539.22610473633,599.168705397291,38.28759765625,0.0606382826161673,NaN,0.0307631720217374,1.17721522668514,5000,1.7006710767746,1.7006710767746,1.7006710767746,18023.4538830876,3507.37015973511,21530.8240428227,,,20.9500000476837,37.2961120605469,17289.1084000286,17640.8292054386
2011-06-01T05:02:14Z,1306904534,7D0C,55.7074245,25.4929096,3618.45,3.1,4.3,226.8,-54159.23,-74773.47,227.4,Weapon+Missile,Red,Allies,R-27ER,,xu,,568.335399433201,486.500701904297,1.74203503464405,3618.453125,3578.54284667969,566.78648994675,41.930908203125,0.0392612285484564,NaN,0.569255286185543,0.518704415808044,5000,1.06899309158325,1.06899309158325,1.06899309158325,16150.2563124448,3548.49033382813,19698.7466462729,,,21.9500000476837,39.9102783203125,17857.1227236636,18210.7086101197
2011-06-01T05:02:15Z,1306904535,7D0C,55.7034798,25.4895707,3658.67,2.5,4.1,227.2,-54559.35,-75139.41,227.7,Weapon+Missile,Red,Allies,R-27ER,,xu,,543.719017489821,466.060363769531,1.66740441400482,3658.67138671875,3619.58578491211,542.229528340553,40.21826171875,0.0150757667556924,NaN,0.707662239526681,0.400198605995913,5000,1.06831812858582,1.06831812858582,1.06831812858582,14781.5184990048,3587.93097545654,18369.4494744614,,,22.9500000476837,39.0856018066406,18400.5066999397,18755.8880610733
2011-06-01T05:02:16Z,1306904536,7D0C,55.6997011,25.4864342,3696.26,2.4,4.5,228.5,-54942.59,-75483.09,229.1,Weapon+Missile,Red,Allies,R-27ER,,xu,,516.139988490352,443.314331054688,1.5835594763753,3696.263671875,3652.16307449341,514.76917916242,37.59228515625,0.173768763873067,NaN,0.123072324880814,2.00902565260862,5000,3.40411949157715,3.40411949157715,3.40411949157715,13320.024385941,3624.7964137793,16944.8207997203,,,23.9500000476837,44.1005973815918,18916.3433870231,19273.3893599288
2011-06-01T05:02:17Z,1306904537,7D0C,55.6959406,25.4836689,3737.2,2.3,4.7,233.7,-55323.61,-75785.66,234.3,Weapon+Missile,Red,Allies,R-27ER,,xu,,488.262487075111,420.215545654297,1.49878282387609,3737.19750976562,3699.66540527344,486.543602568482,40.933837890625,0.108344870995842,NaN,0.584609551439731,4.43308220060436,5000,4.42304420471191,4.42304420471191,4.42304420471191,11920.0128142387,3664.93879591431,15584.951610153,,,24.9500000476837,37.5321044921875,19403.7352410566,19762.7801393846
2011-06-01T05:02:18Z,1306904538,7D0C,55.6921794,25.4813881,3767.77,0.9,2.7,238.9,-55704.21,-76034.55,239.5,Weapon+Missile,Red,Allies,R-27ER,,xu,,455.775833188256,393.376098632812,1.39958711173866,3767.76513671875,3732.73888397217,454.749634745212,30.567626953125,0.0838408029835286,NaN,1.53848645016703,5.6772976343442,4393.08268461399,4.38355731964111,4.38355731964111,4.38355731964111,10386.5805059224,3694.91539780029,14081.4959037227,,,25.9500000476837,35.026252746582,19859.0578252812,20219.3949145846
2011-06-01T05:02:19Z,1306904539,7D0C,55.6884358,25.4795627,3779.49,-1,0.2,244.8,-56082.52,-76233.02,245.4,Weapon+Missile,Red,Allies,R-27ER,,xu,,427.380019675034,369.770782470703,1.31257918638448,3779.48828125,3749.83947753906,427.219204975305,11.72314453125,0.144909083457607,NaN,1.93846232796298,6.26864644806062,3798.21246106863,4.4102029800415,4.4102029800415,4.4102029800415,9132.6840608716,3706.41187533203,12839.0959362036,,,26.9500000476837,29.6488037109375,20286.6292809398,20647.3799303137
2011-06-01T05:02:20Z,1306904540,7D0C,55.6847441,25.4781765,3770.42,-3.6,-3.4,249.9,-56455.18,-76382.88,250.5,Weapon+Missile,Red,Allies,R-27ER,,xu,,401.762054058378,348.246917724609,1.23376300724388,3770.419921875,3742.6684589386,401.659697927802,-9.068359375,0.335262352192011,NaN,3.1077360723558,5.78016796720741,4204.31147834311,3.0022554397583,3.0022554397583,3.0022554397583,8070.63740406036,3697.51885268555,11768.1562567459,,,27.9500000476837,27.7514629364014,20688.4342898102,21049.5250094784
2011-06-01T05:02:21Z,1306904541,7D0C,55.6812471,25.4770458,3731.44,-7,-8.6,250.1,-56807.98,-76504.64,250.7,Weapon+Missile,Red,Allies,R-27ER,,xu,,375.246485119953,325.615783691406,1.1517845430269,3731.44140625,3702.66995811462,373.216559003685,-38.978515625,0.111412814442991,NaN,3.1077360723558,4.89022078533778,4345.59486274603,2.26793217658997,2.26793217658997,2.26793217658997,7040.49622974396,3659.29398666016,10699.7902164041,,,28.9500000476837,28.771448135376,21061.7211939511,21425.0597998571
2011-06-01T05:02:22Z,1306904542,7D0C,55.6780049,25.4759291,3665.11,-8.9,-12.9,248,-57135.16,-76625.09,248.6,Weapon+Missile,Red,Allies,R-27ER,,xu,,354.906256868605,308.168579101562,1.08846476852459,3665.10595703125,3638.03632736206,348.651773753455,-66.33544921875,0.128910943517901,NaN,1.53843180865367,4.7065949914834,4434.87898506492,2.10960102081299,2.10960102081299,2.10960102081299,6297.9225582242,3594.24113335205,9892.16369157625,,,29.9500000476837,27.0696296691895,21410.4528879348,21780.2432161607
2011-06-01T05:02:23Z,1306904543,7D0C,55.6750551,25.4747599,3581.72,-9.1,-15.8,244.5,-57433.01,-76751.65,245.1,Weapon+Missile,Red,Allies,R-27ER,,xu,,334.19230764686,290.22314453125,1.02388962561696,3581.72216796875,3554.70286178589,323.622684946396,-83.3837890625,0.0653619415951068,NaN,0.199987938897973,4.44940464517339,4235.34877983484,2.27856731414795,2.27856731414795,2.27856731414795,5584.22492451668,3512.46956985107,9096.69449436775,,,30.9500000476837,27.0193061828613,21734.2170517801,22114.7506508616
2011-06-01T05:02:24Z,1306904544,7D0C,55.6723904,25.4734934,3490.72,-8.2,-17.5,240,-57702.31,-76889.23,240.6,Weapon+Missile,Red,Allies,R-27ER,,xu,,315.801401091243,274.426513671875,0.966467305976294,3490.716796875,3461.58612060547,302.404608700465,-91.00537109375,0.371254920899813,NaN,1.16921910287946,4.13846156386903,4355.0695596677,2.53839707374573,2.53839707374573,2.53839707374573,4986.52624655962,3423.22378760742,8409.75003416704,,,31.9500000476837,29.1306762695312,22036.8545372028,22430.935743582
2011-06-01T05:02:25Z,1306904545,7D0C,55.6699474,25.4721103,3405.46,-4.7,-15.1,236,-57949.45,-77039.98,236.5,Weapon+Missile,Red,Allies,R-27ER,,xu,,301.783565309023,262.564239501953,0.922606744916228,3405.45678710938,3374.39453125,289.489293455545,-85.260009765625,0.107856778672631,NaN,3.3538542551344,4.29390215522654,3762.04014205242,3.04551291465759,3.04551291465759,3.04551291465759,4553.66601453126,3339.61228013062,7893.27829466187,,,32.9500000476837,31.062255859375,22326.6575424045,22733.1705575834
2011-06-01T05:02:26Z,1306904546,7D0C,55.6676967,25.4706274,3336.04,-2.1,-12.8,231.9,-58177.36,-77201.95,232.5,Weapon+Missile,Red,Allies,R-27ER,,xu,,288.091954141459,250.832672119141,0.880004332586896,3336.04296875,3303.46857833862,279.604534766188,-69.413818359375,0.12233034465547,NaN,2.50769669669419,4.49425081349005,3788.81849122408,2.78693914413452,2.78693914413452,2.78693914413452,4149.84870205224,3271.54057794922,7421.38928000145,,,33.9500000476837,32.574390411377,22606.6734750988,23021.8054454977
2011-06-01T05:02:27Z,1306904547,7D0C,55.6656499,25.4690744,3279.78,-0.2,-10.9,228.1,-58384.87,-77371.9,228.7,Weapon+Missile,Red,Allies,R-27ER,,xu,,274.059898666859,238.665390014648,0.836569216849938,3279.7822265625,3246.7822265625,268.222961257609,-56.2607421875,0.0703718982428981,NaN,1.73845752703549,4.26810794582598,3794.1193458296,2.55015635490417,2.55015635490417,2.55015635490417,3755.44140286446,3216.36763721191,6971.80904007637,,,34.9500000476837,33,22875.3802088953,23296.4752351765
2011-06-01T05:02:28Z,1306904548,7D0C,55.6637831,25.4674531,3233.33,0.9,-9.4,224.3,-58574.36,-77549.58,224.9,Weapon+Missile,Red,Allies,R-27ER,,xu,,263.878497800431,229.909210205078,0.805035908937843,3233.33374023438,3200.33374023438,259.758348699783,-46.448486328125,0.0852192817036745,NaN,0.969230843816372,4.02002608366101,3830.04330667841,2.33037710189819,2.33037710189819,2.33037710189819,3481.59308007062,3170.81723236694,6652.41031243756,,,35.9500000476837,33,23135.711619566,23561.048721426
2011-06-01T05:02:29Z,1306904549,7D0C,55.662106,25.4657903,3194.38,1.5,-8.4,220.6,-58744.83,-77732.05,221.1,Weapon+Missile,Red,Allies,R-27ER,,xu,,252.737669810143,220.217239379883,0.77068309992788,3194.3759765625,3161.3759765625,249.717084699359,-38.957763671875,0.104833920332899,NaN,0.52307680409391,3.81475712787415,3830.65622065166,2.08515644073486,2.08515644073486,2.08515644073486,3193.81648705304,3132.61271705566,6326.4292041087,,,36.9500000476837,33,23386.0611390591,23814.5359344815
2011-06-01T05:02:30Z,1306904550,7D0C,55.6606062,25.4640914,3159.56,1.5,-8.2,216.8,-58897.52,-77918.7,217.4,Weapon+Missile,Red,Allies,R-27ER,,xu,,243.641916738866,212.344650268555,0.742633416003321,3159.56225585938,3126.38110351562,241.141842994934,-34.813720703125,0.0500556446164425,NaN,0,3.53281801799342,4299.67236438045,1.64628684520721,1.64628684520721,1.64628684520721,2968.06917960942,3098.47211964233,6066.54129925175,,,37.9500000476837,33.18115234375,23627.9043710859,24058.9912980573
2011-06-01T05:02:31Z,1306904551,7D0C,55.6592754,25.4623937,3125.34,1.1,-8.7,214.4,-59033.21,-78105.38,215,Weapon+Missile,Red,Allies,R-27ER,,xu,,233.310194634105,203.360473632812,0.71084692019192,3125.34057617188,3092.71047210693,230.786749098752,-34.2216796875,0.0546521536299978,NaN,0.399975877795947,2.52382085233388,5000,1.08877670764923,1.08877670764923,1.08877670764923,2721.68234601021,3064.91211613159,5786.5944621418,,,38.9500000476837,32.6301040649414,23859.4325439191,24293.147769018
2011-06-01T05:02:32Z,1306904552,7D0C,55.6580386,25.4607039,3090.12,0.8,-9.1,212.7,-59159.45,-78291.27,213.2,Weapon+Missile,Red,Allies,R-27ER,,xu,,227.452692802277,198.417449951172,0.692704883096213,3090.12133789062,3059.37740898132,224.709440651468,-35.21923828125,0.063467341661963,NaN,0.307686361730734,1.77563221897546,5000,1.11989855766296,1.11989855766296,1.11989855766296,2586.73637315035,3030.37384182251,5617.11021497286,,,39.9500000476837,30.7439289093018,24084.8996542019,24521.4575661965
2011-06-01T05:02:33Z,1306904553,7D0C,55.6569037,25.4590414,3054.96,0.7,-9.3,210.8,-59275.43,-78474.27,211.3,Weapon+Missile,Red,Allies,R-27ER,,xu,,219.490057812549,191.579864501953,0.668170468711893,3054.9599609375,3025.9599609375,216.65540161583,-35.161376953125,0.0701041883201835,NaN,0,1.91694893962473,5000,1.21787297725677,1.21787297725677,1.21787297725677,2408.79427392781,2995.89231009277,5404.68658402058,,,40.9500000476837,29,24302.3024036682,24741.7887392376
2011-06-01T05:02:34Z,1306904554,7D0C,55.6558588,25.4573826,3020.18,0.7,-9.3,208.7,-59382.34,-78656.93,209.3,Weapon+Missile,Red,Allies,R-27ER,,xu,,214.485068469685,187.393402099609,0.652659830143317,3020.17602539062,2991.17602539062,211.645747475153,-34.783935546875,0,NaN,0,2.03112878509301,5000,1.28870296478271,1.28870296478271,1.28870296478271,2300.19222982228,2961.7809219397,5261.97315176197,,,41.9500000476837,29,24514.7381515508,24957.1532312707
2011-06-01T05:02:35Z,1306904555,7D0C,55.6549143,25.455746,2986.91,0.7,-9.1,206.6,-59479.13,-78837.23,207.2,Weapon+Missile,Red,Allies,R-27ER,,xu,,207.320802078448,181.252685546875,0.630606135448366,2986.90698242188,2956.80200195312,204.634028828039,-33.26904296875,0.0129401498765213,NaN,0,2.09080329409777,5000,1.33233916759491,1.33233916759491,1.33233916759491,2149.09574872255,2929.15513591675,5078.2508846393,,,42.9500000476837,30.10498046875,24720.173641292,25165.3606459389
2011-06-01T05:02:36Z,1306904556,7D0C,55.6540646,25.4541319,2955.79,0.8,-8.7,204.5,-59566.39,-79015.12,205.1,Weapon+Missile,Red,Allies,R-27ER,,xu,,200.573230260226,175.466049194336,0.609853001836255,2955.78588867188,2924.62741470337,198.144134964488,-31.12109375,0.0338473174023188,NaN,0.153846275794835,2.16358450923295,5000,1.35725259780884,1.35725259780884,1.35725259780884,2011.48103485107,2898.6357685144,4910.11680336548,,,43.9500000476837,31.1584739685059,24919.1204577482,25366.8184442747
2011-06-01T05:02:37Z,1306904557,7D0C,55.6533008,25.4525294,2926.81,0.8,-8.3,202.3,-59644.98,-79191.84,202.9,Weapon+Missile,Red,Allies,R-27ER,,xu,,195.556802618638,171.210311889648,0.59439259078275,2926.814453125,2894.814453125,193.398859802167,-28.971435546875,0.0254274227494847,NaN,0,2.1899029356523,5000,1.34979343414307,1.34979343414307,1.34979343414307,1912.12315252125,2870.22449567383,4782.34764819508,,,44.9500000476837,32,25113.3258734055,25563.2615176133
2011-06-01T05:02:38Z,1306904558,7D0C,55.6526301,25.4509603,2900.25,0.9,-7.9,200.1,-59714.18,-79364.95,200.7,Weapon+Missile,Red,Allies,R-27ER,,xu,,188.313156368765,164.939208984375,0.572192366837164,2900.24536132812,2867.37364578247,186.429418876572,-26.569091796875,0.0296800731097493,NaN,0,2.18439566874716,5000,1.18262231349945,1.18262231349945,1.18262231349945,1773.09224307835,2844.16911726685,4617.2613603452,,,45.9500000476837,32.8717155456543,25300.5600238521,25752.4560702519
2011-06-01T05:02:39Z,1306904559,7D0C,55.6520284,25.4493963,2874.09,0.4,-9.2,198.9,-59776.43,-79537.55,199.5,Weapon+Missile,Red,Allies,R-27ER,,xu,,185.347600229117,162.490280151367,0.563004085436588,2874.08837890625,2841.65350341797,183.492629773717,-26.156982421875,0.0865284653402263,NaN,0.969231163981489,1.71796386459599,4096.09954739879,0.181781575083733,0.181781575083733,0.181781575083733,1717.68664553463,2818.5178801001,4536.20452563473,,,46.9500000476837,32.4348754882812,25484.86831491,25938.6938069523
2011-06-01T05:02:40Z,1306904560,7D0C,55.6514593,25.4478919,2840.84,-0.4,-12.2,199,-59835.34,-79703.59,199.5,Weapon+Missile,Red,Allies,R-27ER,,xu,,179.289403296974,157.325256347656,0.544384046009171,2840.83520507812,2807.55322265625,176.178649571795,-33.253173828125,0.0394950070137392,NaN,0.769243225083516,2.99233959944161,3365.17310094734,0.0139802228659391,0.0139802228659391,0.0139802228659391,1607.23450672925,2785.90765638794,4393.14216311719,,,47.9500000476837,33.281982421875,25661.8376707049,26118.8381778465
2011-06-01T05:02:41Z,1306904561,7D0C,55.6509074,25.4464344,2799.09,-1.1,-15.3,199,-59892.47,-79864.45,199.6,Weapon+Missile,Red,Allies,R-27ER,,xu,,175.732529197972,154.45524597168,0.533316397336251,2799.09228515625,2764.46979904175,170.702813259512,-41.742919921875,0.0555876807180292,NaN,0.661490160737395,3.07731526356621,3294.42042176516,0.0197404399514198,0.0197404399514198,0.0197404399514198,1544.0960909158,2744.97183582275,4289.06792673855,,,48.9500000476837,34.622486114502,25833.3025502068,26295.3847139783
2011-06-01T05:02:42Z,1306904562,7D0C,55.6503697,25.4450175,2748.98,-1.6,-18.4,199,-59948.14,-80020.84,199.6,Weapon+Missile,Red,Allies,R-27ER,,xu,,173.402657199226,152.737731933594,0.525929007582873,2748.9814453125,2712.99300765991,166.004172399088,-50.11083984375,0.0757171341713271,NaN,0.446202598098593,3.03140742772044,3262.10517966067,0.0257372874766588,0.0257372874766588,0.0257372874766588,1503.42407618761,2695.82988906738,4199.25396525499,,,49.9500000476837,35.9884376525879,26000.0394167575,26469.5583838537
2011-06-01T05:02:43Z,1306904563,7D0C,55.6498518,25.4436576,2691.47,-2.1,-21.4,199.1,-60001.74,-80170.93,199.7,Weapon+Missile,Red,Allies,R-27ER,,xu,,169.429387536335,149.591461181641,0.51352371809328,2691.47143554688,2655.47143554688,159.370374090341,-57.510009765625,0.0177210625182677,NaN,0.384621612541758,3.02729821516103,3217.87681910253,0.034118764102459,0.034118764102459,0.034118764102459,1435.31586804688,2639.43183534058,4074.74770338746,,,50.9500000476837,36,26160.125567207,26639.7254822546
2011-06-01T05:02:44Z,1306904564,7D0C,55.6493462,25.442336,2626.15,-2.5,-24.4,199.2,-60054.07,-80316.78,199.8,Weapon+Missile,Red,Allies,R-27ER,,xu,,168.158867894311,148.917663574219,0.509274270648831,2626.14990234375,2589.16925048828,154.953225689204,-65.321533203125,0.0364731440426034,NaN,0.400030519309307,3.02384811585653,3243.31581957471,0.0380073748528957,0.0380073748528957,0.0380073748528957,1413.87024257481,2575.37329398193,3989.24353655674,,,51.9500000476837,36.9806518554688,26315.7731513137,26808.5842260197
2011-06-01T05:02:45Z,1306904565,7D0C,55.6488506,25.4410485,2553.03,-2.8,-27.3,199.3,-60105.35,-80458.88,199.9,Weapon+Missile,Red,Allies,R-27ER,,xu,,167.829619979628,149.143676757812,0.507832916759963,2553.03369140625,2514.7529258728,151.065552131018,-73.1162109375,0.0390726758817489,NaN,0.199987938897973,2.93004891454133,3315.03863813535,0.0470401011407375,0.0470401011407375,0.0470401011407375,1408.33906712532,2503.67078498291,3912.00985210823,,,52.9500000476837,38.2807655334473,26467.5109974499,26977.0747430543
2011-06-01T05:02:46Z,1306904566,7D0C,55.6483734,25.4398183,2473.86,-3.1,-30.1,199.5,-60154.72,-80594.64,200.1,Weapon+Missile,Red,Allies,R-27ER,,xu,,164.735907419323,146.909713745117,0.498000836524754,2473.85986328125,2434.91949462891,144.462535396901,-79.173828125,0.07173915132332,NaN,0.199987938897973,2.87910018564468,3330.21478570639,0.0506677404046059,0.0506677404046059,0.0506677404046059,1356.89595966339,2426.02778282471,3782.9237424881,,,53.9500000476837,38.9403686523438,26612.6139879159,27142.4227713369
2011-06-01T05:02:47Z,1306904567,7D0C,55.6479009,25.4386107,2386.68,-3.2,-32.8,199.5,-60203.59,-80727.91,200.1,Weapon+Missile,Red,Allies,R-27ER,,xu,,166.577765126524,149.196426391602,0.503046123343187,2386.68383789062,2347.16583251953,141.945385383395,-87.176025390625,0.32171675146849,NaN,0.0615263440434749,1.91357503961816,5000,0.583201110363007,0.583201110363007,0.583201110363007,1387.40759172738,2340.53730588501,3727.94489761239,,,54.9500000476837,39.5180053710938,26755.1876092938,27309.5825467204
2011-06-01T05:02:48Z,1306904568,7D0C,55.6474558,25.4374209,2297.89,-2.3,-32.2,197.8,-60249.69,-80859.23,198.4,Weapon+Missile,Red,Allies,R-27ER,,xu,,165.088227849941,148.471130371094,0.498021915676676,2297.89135742188,2257.83917236328,139.176213437645,-88.79248046875,0.070116933668548,NaN,0.861541278885191,1.03829995785936,5000,1.07747316360474,1.07747316360474,1.07747316360474,1362.70614873171,2253.46162802612,3616.16777675783,,,55.9500000476837,40.0521850585938,26894.9866309584,27475.2395057279
2011-06-01T05:02:49Z,1306904569,7D0C,55.6470432,25.4362116,2210.3,-1.6,-31.8,196.8,-60292.55,-80992.73,197.4,Weapon+Missile,Red,Allies,R-27ER,,xu,,165.329127957156,149.311584472656,0.498230636340133,2210.296875,2170.29583740234,140.217428304464,-87.594482421875,0.0773681425959834,NaN,0.415363653665751,0.865891789221372,5000,0.905743777751923,0.905743777751923,0.905743777751923,1366.68602755368,2167.56078492187,3534.24681247555,,,56.9500000476837,40.0010375976562,27035.857167281,27641.1651827841
2011-06-01T05:02:50Z,1306904570,7D0C,55.6466392,25.4350055,2123.66,-1.4,-31.9,197.1,-60334.54,-81125.92,197.7,Weapon+Missile,Red,Allies,R-27ER,,xu,,164.339870810402,149.018676757812,0.494741752140975,2123.66162109375,2085.61669921875,139.649296162133,-86.63525390625,0.00696705279928739,NaN,0.199987938897973,0.130848001662984,5000,0.796025156974792,0.796025156974792,0.796025156974792,1350.37965689898,2082.6006236499,3432.98028054888,,,57.9500000476837,38.044921875,27176.1297726932,27806.0755932487
2011-06-01T05:02:51Z,1306904571,7D0C,55.6462213,25.4337946,2035.75,-1.3,-32.2,197.7,-60377.92,-81259.6,198.3,Weapon+Missile,Red,Allies,R-27ER,,xu,,165.771273329902,150.959991455078,0.498532931519144,2035.75378417969,1999.11352539062,140.542973038526,-87.9078369140625,0.0214218238670131,NaN,0,0.588181633653942,5000,0.776394963264465,0.776394963264465,0.776394963264465,1374.00575307086,1996.39248476257,3370.39823783343,,,58.9500000476837,36.6402587890625,27317.3158006644,27972.4314881286
2011-06-01T05:02:52Z,1306904572,7D0C,55.6457922,25.4326072,1948.1,-1.3,-32.5,198.6,-60422.41,-81390.66,199.2,Weapon+Missile,Red,Allies,R-27ER,,xu,,163.827467280838,149.788360595703,0.49217835066649,1948.10388183594,1913.79827880859,138.408575076782,-87.64990234375,0.216611173973793,NaN,0,1.06100105206125,5000,0.460499823093414,0.460499823093414,0.460499823093414,1341.9719517827,1910.43729328064,3252.40924506334,,,59.9500000476837,34.3056030273438,27456.3534723525,28136.8275223721
2011-06-01T05:02:53Z,1306904573,7D0C,55.6453543,25.4314352,1856.59,-1.8,-35.1,198.8,-60467.77,-81520.02,199.4,Weapon+Missile,Red,Allies,R-27ER,,xu,,164.820658657421,151.358154296875,0.494629319745411,1856.59143066406,1822.86932373047,137.081438571315,-91.512451171875,0.0380418763643358,NaN,0.569255286185543,2.09534131447101,3454.90994123124,0.034115843474865,0.034115843474865,0.034115843474865,1358.2924760133,1820.69423535217,3178.98671136548,,,60.9500000476837,33.7221069335938,27594.0460570955,28302.191024681
2011-06-01T05:02:54Z,1306904574,7D0C,55.6449263,25.430298,1758.25,-2.2,-37.8,198.9,-60512.09,-81645.54,199.5,Weapon+Missile,Red,Allies,R-27ER,,xu,,165.501026491082,152.694091796875,0.496098063933284,1758.24621582031,1725.97631835938,133.112014810604,-98.34521484375,0.0463940197258576,NaN,0.369267347287569,2.66043018526284,3624.60567893741,0.0445209294557571,0.0445209294557571,0.0445209294557571,1369.52948848009,1724.25052523743,3093.78001371752,,,61.9500000476837,32.2698974609375,27727.75671908,28468.2044475973
2011-06-01T05:02:55Z,1306904575,7D0C,55.6445126,25.4292091,1654.68,-2.5,-40.4,199.1,-60554.92,-81765.71,199.7,Weapon+Missile,Red,Allies,R-27ER,,xu,,164.322802636177,152.333877563477,0.491969209607289,1654.67761230469,1624.21081542969,127.575576941793,-103.568603515625,0.0329868852461063,NaN,0.323095268498283,2.5762788395937,3752.86044895892,0.0501933582127094,0.0501933582127094,0.0501933582127094,1350.0991733104,1622.68442067078,2972.78359398118,,,62.9500000476837,30.466796875,27855.9052015853,28632.9991009178
2011-06-01T05:02:56Z,1306904576,7D0C,55.6441042,25.4281456,1544.02,-2.8,-42.8,199.3,-60597.2,-81883.08,199.9,Weapon+Missile,Red,Allies,R-27ER,,xu,,166.758924952442,155.415512084961,0.498617782842793,1544.01696777344,1513.79156494141,124.750794799964,-110.66064453125,0.0121793175853991,NaN,0.369212705774209,2.46220891748237,3974.66579670868,0.0542526468634605,0.0542526468634605,0.0542526468634605,1390.42695256472,1514.16339970154,2904.59035226625,,,63.9500000476837,30.2254028320312,27981.2122229068,28800.1980944828
2011-06-01T05:02:57Z,1306904577,7D0C,55.6437078,25.4271268,1428.55,-3,-45.2,199.6,-60638.21,-81995.52,200.2,Weapon+Missile,Red,Allies,R-27ER,,xu,,166.301835565794,155.820907592773,0.496582567199514,1428.55065917969,1397.55065917969,119.682212931936,-115.46630859375,0.0637469078602892,NaN,0.200042580411333,2.31467725829692,4197.4942677599,0.0634431019425392,0.0634431019425392,0.0634431019425392,1382.81502562761,1400.92963218445,2783.74465781206,,,64.9500000476837,31,28101.4221991398,28966.9003509168
2011-06-01T05:02:58Z,1306904578,7D0C,55.6433179,25.4261387,1307.16,-3.2,-47.4,199.8,-60678.55,-82104.56,200.4,Weapon+Missile,Red,Allies,R-27ER,,xu,,168.090617631733,158.399978637695,0.501216490865576,1307.15771484375,1275.5128326416,116.267832186162,-121.392944335938,0.0300763110778389,NaN,0.199987938897973,2.20973567056791,4455.12795581166,0.0684448704123497,0.0684448704123497,0.0684448704123497,1412.72278679088,1281.88382042725,2694.60660721812,,,65.9500000476837,31.6448822021484,28218.1942988789,29135.3575249028
2011-06-01T05:02:59Z,1306904579,7D0C,55.6429358,25.4251861,1180.74,-3.3,-49.4,200.2,-60718.05,-82209.67,200.8,Weapon+Missile,Red,Allies,R-27ER,,xu,,169.085719140651,160.277618408203,0.503445816120536,1180.73999023438,1146.71008300781,112.287752323659,-126.417724609375,0.0400818190754983,NaN,0,2.11707668395728,4724.72069142053,0.0716993734240532,0.0716993734240532,0.0716993734240532,1429.49902086556,1157.91038252319,2587.40940338875,,,66.9500000476837,34.0299072265625,28330.9834712072,29304.7912912063
2011-06-01T05:03:00Z,1306904580,7D0C,55.6425589,25.4242627,1048.77,-3.5,-51.4,200.5,-60757,-82311.55,201.1,Weapon+Missile,Red,Allies,R-27ER,,xu,,171.213733001523,163.295822143555,0.509005358382717,1048.76538085938,1012.88872146606,109.072658575066,-131.974609375,0.0240657186267609,NaN,0.199987938897973,1.97800869637053,5000,0.077010840177536,0.077010840177536,0.077010840177536,1465.70711841583,1028.48750222046,2494.19462063629,,,67.9500000476837,35.8766593933105,28440.5353805855,29476.3229616124
2011-06-01T05:03:01Z,1306904581,7D0C,55.6421861,25.4233669,911.24,-3.6,-53.3,200.9,-60795.5,-82410.39,201.5,Weapon+Missile,Red,Allies,R-27ER,,xu,,173.675995413275,166.703262329102,0.515508492223565,911.24462890625,873.309856414795,106.072589131401,-137.520751953125,0.0374457133089187,NaN,0.0922895160652123,1.87366005443884,5000,0.0800015553832054,0.0800015553832054,0.0800015553832054,1508.1675691396,893.625714006348,2401.79328314595,,,68.9500000476837,37.9347724914551,28547.0646988676,29650.288304557
2011-06-01T05:03:02Z,1306904582,7D0C,55.6418197,25.4225046,769.43,-3.7,-55,201.3,-60833.32,-82505.52,201.9,Weapon+Missile,Red,Allies,R-27ER,,xu,,174.903767501216,168.973754882812,0.518308394356867,769.426147460938,730.431488037109,102.366235676931,-141.818481445312,0.0156786844578222,NaN,0,1.77709270551908,5000,0.0852164924144745,0.0852164924144745,0.0852164924144745,1529.56639430597,754.54929289978,2284.11568720575,,,69.9500000476837,38.9946594238281,28649.8857506716,29825.4666033688
2011-06-01T05:03:03Z,1306904583,7D0C,55.6414594,25.421675,623.58,-3.8,-56.7,201.8,-60870.49,-82597.03,202.4,Weapon+Missile,Red,Allies,R-27ER,,xu,,176.146921668028,171.306243896484,0.521122117179677,623.580749511719,583.590606689453,98.7768085643399,-145.845397949219,0.0299510530303646,NaN,0,1.69426684343574,5000,0.091252975165844,0.091252975165844,0.091252975165844,1551.38690065611,611.52381571991,2162.91071637602,,,70.9500000476837,39.9901428222656,28749.0848129207,30001.856748668
2011-06-01T05:03:04Z,1306904584,7D0C,55.6411027,25.4208726,473.14,-3.9,-58.3,202.2,-60907.29,-82685.54,202.8,Weapon+Missile,Red,Allies,R-27ER,,xu,,178.382925135122,174.66667175293,0.526832769105802,473.1376953125,432.184661865234,95.8506933880691,-150.443054199219,0.0264290863593556,NaN,0,1.61098559983384,5000,0.0935283303260803,0.0935283303260803,0.0935283303260803,1591.02339898814,463.989577973633,2055.01297696177,,,71.9500000476837,40.9530334472656,28845.3399785064,30180.4617952074
2011-06-01T05:03:05Z,1306904585,7D0C,55.640749,25.4200967,318.25,-4,-59.7,202.7,-60943.73,-82771.1,203.3,Weapon+Missile,Red,Allies,R-27ER,,xu,,180.661922688181,178.132705688477,0.53262536604179,318.253082275391,277.253082275391,93.0026179939863,-154.884613037109,0,NaN,0.0307631720217374,1.51226353967435,5000,0.0971677526831627,0.0971677526831627,0.0971677526831627,1631.93651546952,312.099658929596,1944.03617439912,,,72.9500000476837,41,28938.7467890011,30361.3351160721
2011-06-01T05:03:06Z,1306904586,7D0C,55.6404002,25.4193515,160.08,-4.2,-61.2,203.3,-60979.66,-82853.29,203.9,Weapon+Missile,Red,Allies,R-27ER,,xu,,181.836127247542,180.556762695312,0.535127958033619,160.078460693359,119.078460693359,89.6948507985025,-158.174621582031,0.0415034021064925,NaN,0.169224766876236,1.41323123951616,5000,0.102011851966381,0.102011851966381,0.102011851966381,1653.21885861922,156.983343655853,1810.20220227507,,,73.9500000476837,41,29028.816375565,30543.3580534998
2011-06-01T05:03:07Z,1306904587,7D0C,55.6400551,25.4186345,-1.46,-4.3,-62.5,203.9,-61015.17,-82932.34,204.5,Weapon+Missile,Red,Allies,R-27ER,,xu,,183.321146360379,183.335754394531,0.538515972383322,-1.46384620666504,-42.5066547393799,86.6644435988702,-161.542306900024,0.0315522543921393,NaN,0.199987938897973,1.32124577359072,5000,0.104301281273365,0.104301281273365,0.104301281273365,1680.33213514417,-1.43554274025917,1678.89659240391,,,74.9500000476837,41.0428085327148,29115.841668708,30726.8505789717
2011-06-01T05:03:08Z,1306904588,7D0C,55.6397153,25.4179488,-165.38,-4.4,-63.7,204.5,-61050.12,-83007.95,205.1,Weapon+Missile,Red,Allies,R-27ER,,xu,,183.864268930357,185.207305908203,0.539117245085261,-165.380752563477,-206.197345733643,83.2905588869893,-163.916906356812,0.0532799922667751,NaN,0.200042580411333,1.27122552353437,5000,0.109220713376999,0.109220713376999,0.109220713376999,1690.30346946474,-162.183115712662,1528.12035375208,,,75.9500000476837,40.816593170166,29199.4738355718,30910.8693512757
2011-06-01T05:03:09Z,1306904589,7D0C,55.6393824,25.4172972,-330.44,-4.5,-64.9,205.2,-61084.35,-83079.77,205.8,Weapon+Missile,Red,Allies,R-27ER,,xu,,183.229825320381,185.906631469727,0.536264839683335,-330.436157226562,-371.436157226562,79.5605573034929,-165.055404663086,0.0411106102700507,NaN,0,1.18620066070341,5000,0.112588733434677,0.112588733434677,0.112588733434677,1678.65844434687,-324.047174126587,1354.61127022028,,,76.9500000476837,41,29279.3563695873,31094.2378594803
