ISOTime,UnixTime,Id,Longitude,Latitude,Altitude,Roll,Pitch,Yaw,U,V,Heading,Type,Color,Coalition,Name,Group,Country,Pilot,TAS,CAS,M,ASL,AGL,GS,VS,AOA,AOS,RRT,TRT,TRD,G,LatG,LonG,Ek,Ep,Em,FFW,FFV,RelativeTime,Elev,GroundDistance,AirDistance
2011-06-01T05:02:59Z,1306904579,AA08,55.8115047,25.6611563,4042.8,98.8,-5.8,208.8,-43530.37,-56237.27,209.3,Weapon+Missile,Red,Allies,R-27ER,,xu,,335.613243958133,285.918273925781,1.03409990515432,4042.79614257812,4024.98968505859,NaN,NaN,NaN,NaN,NaN,NaN,NaN,NaN,NaN,NaN,NaN,3964.62867916138,NaN,,,0.490000009536743,17.8064575195312,NaN,NaN
2011-06-01T05:03:00Z,1306904580,AA08,55.8095007,25.6569221,3970.09,79.9,-9,208,-43735.73,-56704.42,208.5,Weapon+Missile,Red,Allies,R-27ER,,xu,,515.449472637836,437.861602783203,1.5867870956457,3970.08837890625,3945.70104980469,510.295737729072,-72.707763671875,4.54226121364901,NaN,17.7230841413758,3.52320719213359,5000,1.99296951293945,1.99296951293945,1.99296951293945,13284.4079421312,3893.3267201001,17177.7346622313,,,1.49000000953674,24.3873291015625,512.455092858539,517.906037041751
2011-06-01T05:03:01Z,1306904581,AA08,55.8065062,25.6506293,3851.95,67,-6.5,202.2,-44042.62,-57398.66,202.8,Weapon+Missile,Red,Allies,R-27ER,,xu,,768.184148880964,639.043884277344,2.36137147724595,3851.94604492188,3826.052734375,759.044975948524,-118.142333984375,0.27358990615666,NaN,11.8769339854651,3.84733798398875,5000,8.49669456481934,8.49669456481934,8.49669456481934,29505.3443295985,3777.46866814331,33282.8129977419,,,2.49000000953674,25.893310546875,1274.69874650685,1289.71285485066
2011-06-01T05:03:02Z,1306904582,AA08,55.8028573,25.6424411,3780.8,56.3,-3.4,202.9,-44417.11,-58302.22,203.4,Weapon+Missile,Red,Allies,R-27ER,,xu,,980.674231576319,810.3408203125,3.01191736590706,3780.7958984375,3742.69459152222,978.089773555095,-71.150146484375,0.0968422971704504,NaN,10.7692412266291,2.65794335607472,5000,3.56739068031311,3.56739068031311,3.56739068031311,48086.0974238902,3707.69420974121,51793.7916336314,,,3.49000000953674,38.1013069152832,2257.00140866859,2275.17514773894
2011-06-01T05:03:03Z,1306904583,AA08,55.7988446,25.6340889,3720.67,46.3,-3.2,204.2,-44828.35,-59223.6,204.7,Weapon+Missile,Red,Allies,R-27ER,,xu,,1010.78427863137,836.876159667969,3.10209849919494,3720.66918945312,3699.73260498047,1008.99436906013,-60.126708984375,0.0238426631051525,NaN,9.89229957871287,1.61402087186797,5000,2.90474414825439,2.90474414825439,2.90474414825439,51084.2428964168,3648.73005067505,54732.9729470918,,,4.49000000953674,20.9365844726562,3270.22822385212,3290.77920210906
2011-06-01T05:03:04Z,1306904584,AA08,55.7945987,25.6257828,3666.59,37.9,-3,205.4,-45263.01,-60139.66,205.9,Weapon+Missile,Red,Allies,R-27ER,,xu,,1015.39385925213,842.779724121094,3.1141760139686,3666.58837890625,3645.48901367188,1013.95263959296,-54.080810546875,0.157263853299197,NaN,8.01536359479336,1.53564274359478,5000,3.16571164131165,3.16571164131165,3.16571164131165,51551.2344703466,3595.6948926001,55146.9293629467,,,5.49000000953674,21.099365234375,4288.33991035258,4310.91499593166
2011-06-01T05:03:05Z,1306904585,AA08,55.7900665,25.6175651,3595.42,30,-5.9,207.8,-45726.38,-61045.64,208.4,Weapon+Missile,Red,Allies,R-27ER,,xu,,1020.08574050803,849.47705078125,3.12583638408596,3595.41845703125,3580.41845703125,1017.60000010227,-71.169921875,0.157606229979703,NaN,8.09229884560439,2.95131236064464,5000,6.62744998931885,6.62744998931885,6.62744998931885,52028.7458993912,3525.90104116455,55554.6469405557,,,6.49000000953674,15,5309.99679357284,5335.62798562039
2011-06-01T05:03:06Z,1306904586,AA08,55.7852524,25.6095725,3461.45,23.4,-9,209.6,-46217.9,-61926.43,210.1,Weapon+Missile,Red,Allies,R-27ER,,xu,,1017.50710890373,852.872680664062,3.11282922019804,3461.45288085938,3446.63604736328,1008.64956306467,-133.965576171875,0.0350815816141843,NaN,6.18459968966315,3.77819854034165,5000,5.05842018127441,5.05842018127441,5.05842018127441,51766.035833481,3394.52568940796,55160.5615228889,,,7.49000000953674,14.8168334960938,6322.49007578001,6357.50076132228
2011-06-01T05:03:07Z,1306904587,AA08,55.780147,25.6017267,3280.62,18.2,-11.4,211.4,-46738.59,-62790.68,212,Weapon+Missile,Red,Allies,R-27ER,,xu,,1025.06090425331,866.539367675781,3.12903525029659,3280.615234375,3258.68707275391,1008.98345033137,-180.837646484375,0.0641826372459109,NaN,5.01538058678368,2.99032448019305,5000,4.28960847854614,4.28960847854614,4.28960847854614,52537.4928714305,3217.18453881836,55754.6774102489,,,8.49000000953674,21.9281616210938,7335.1551354506,7386.71262865995
2011-06-01T05:03:08Z,1306904588,AA08,55.7748777,25.5940973,3059.12,14,-13.6,212.7,-47275.57,-63630.78,213.2,Weapon+Missile,Red,Allies,R-27ER,,xu,,1021.36127507547,872.695617675781,3.10937899382805,3059.11987304688,3046.11987304688,997.05499303394,-221.495361328125,0.020999204022552,NaN,4.04614942280219,2.53219103571832,5000,3.45724606513977,3.45724606513977,3.45724606513977,52158.9427111894,2999.97179030151,55158.9145014909,,,9.49000000953674,13,8335.72925228796,8411.9950902969
2011-06-01T05:03:09Z,1306904589,AA08,55.7694562,25.5866323,2803.69,10.8,-15.3,214.2,-47827.75,-64452.5,214.7,Weapon+Missile,Red,Allies,R-27ER,,xu,,1022.43544184088,884.299255371094,3.10307790838154,2803.69140625,2787.69140625,990.015419618378,-255.428466796875,0.0467032787785269,NaN,3.2153798536752,1.89328297448087,5000,1.16059052944183,1.16059052944183,1.16059052944183,52268.7116366178,2749.48203291016,55018.1936695279,,,10.4900000095367,16,9329.12604329027,9438.14722283655
2011-06-01T05:03:10Z,1306904590,AA08,55.764405,25.5798003,2567.71,10.9,-11.2,211.6,-48342.13,-65204.46,212.2,Weapon+Missile,Red,Allies,R-27ER,,xu,,941.120311626868,824.610961914062,2.84822004535201,2567.70776367188,2548.12610435486,911.053874033919,-235.983642578125,0.966979170434434,NaN,2.36923040608464,2.29890421706925,5000,8.66436672210693,8.66436672210693,8.66436672210693,44285.3720478326,2518.06113406128,46803.4331818939,,,11.4900000095367,19.5816593170166,10243.2520447182,10382.6145347904
2011-06-01T05:03:11Z,1306904591,AA08,55.7600689,25.5733042,2411.21,9.4,-10.3,211,-48784.4,-65919.87,211.6,Weapon+Missile,Red,Allies,R-27ER,,xu,,855.517411189703,756.922485351562,2.58432071168954,2411.20678710938,2391.29034423828,841.081140665819,-156.5009765625,0.0230157798803261,NaN,1.75382865431919,3.09426267044431,5000,1.38121402263641,1.38121402263641,1.38121402263641,36595.5020424366,2364.58610388062,38960.0881463172,,,12.4900000095367,19.9164428710938,11087.3532430637,11241.4251633434
2011-06-01T05:03:12Z,1306904592,AA08,55.7560393,25.5672343,2268.75,7.7,-10.3,211,-49195.48,-66588.34,211.6,Weapon+Missile,Red,Allies,R-27ER,,xu,,797.581231446055,711.714538574219,2.40523242696724,2268.75366210938,2246.92263031006,784.756604261945,-142.453125,0.0240836130261195,NaN,1.53848645016703,0.0633344031725043,5000,1.01398015022278,1.01398015022278,1.01398015022278,31806.7910377502,2224.88731005249,34031.6783478027,,,13.4900000095367,21.8310317993164,11874.9425723398,12042.0780662596
2011-06-01T05:03:13Z,1306904593,AA08,55.7522498,25.5615262,2135.1,6.4,-10.3,211,-49582.1,-67216.97,211.6,Weapon+Missile,Red,Allies,R-27ER,,xu,,750.008269913061,674.603942871094,2.25818966589058,2135.09692382812,2111.09692382812,738.002900570181,-133.65673828125,0.0424966706398726,NaN,1.24615435369049,0.0504352774299245,5000,1.00146079063416,1.00146079063416,1.00146079063416,28125.6202468991,2093.81482480591,30219.435071705,,,14.4900000095367,24,12615.6058850739,12794.95594882
2011-06-01T05:03:14Z,1306904594,AA08,55.7486875,25.5561608,2009.66,5.3,-10.2,211.1,-49945.58,-67807.83,211.6,Weapon+Missile,Red,Allies,R-27ER,,xu,,704.958248690148,638.953979492188,2.11940665953323,2009.66455078125,1985.66455078125,693.709486880575,-125.432373046875,0.0425712818451578,NaN,0.999994336003227,0.0504352774299245,5000,1.00451242923737,1.00451242923737,1.00451242923737,24848.306619814,1970.80768669189,26819.1143065059,,,15.4900000095367,24,13311.8271608008,13502.6086805031
2011-06-01T05:03:15Z,1306904595,AA08,55.7453226,25.5510933,1891.36,4.3,-10.2,211.1,-50288.93,-68365.89,211.6,Weapon+Missile,Red,Allies,R-27ER,,xu,,665.823095919497,607.848266601562,1.99896222946961,1891.3583984375,1865.86094856262,655.228242200717,-118.30615234375,0.0310511715153119,NaN,0.969231163981489,0.00989117029631303,5000,0.999404072761536,0.999404072761536,0.999404072761536,22166.0197529912,1854.78898380371,24020.8087367949,,,16.4900000095367,25.4974498748779,13969.4164801008,14170.953336913
2011-06-01T05:03:16Z,1306904596,AA08,55.7421704,25.546346,1780.65,3.5,-10.2,211.1,-50610.62,-68888.68,211.6,Weapon+Missile,Red,Allies,R-27ER,,xu,,623.738554576235,573.559753417969,1.87018061768786,1780.65148925781,1749.42816543579,613.835291201745,-110.706909179688,0.0225212747580228,NaN,0.769243225083516,0.00989117029631303,5000,0.99524861574173,0.99524861574173,0.99524861574173,19452.4892232426,1746.22259271301,21198.7118159556,,,17.4900000095367,31.2233238220215,14585.4580859555,14797.0378364489
2011-06-01T05:03:17Z,1306904597,AA08,55.7391869,25.541853,1675.97,2.9,-10.2,211.1,-50915.1,-69383.45,211.6,Weapon+Missile,Red,Allies,R-27ER,,xu,,590.302240841533,546.398193359375,1.76775763586229,1675.97229003906,1648.97229003906,580.946641950409,-104.67919921875,0.0176361072780459,NaN,0.72307114629423,0.00989117029631303,5000,0.992049336433411,0.992049336433411,0.992049336433411,17422.8367771268,1643.56736581116,19066.404142938,,,18.4900000095367,27,15168.5137015516,15389.5712516687
2011-06-01T05:03:18Z,1306904598,AA08,55.736358,25.5375929,1576.79,2.4,-10.2,211.1,-51203.83,-69852.57,211.6,Weapon+Missile,Red,Allies,R-27ER,,xu,,559.715653259126,521.334533691406,1.67421882563557,1576.78527832031,1549.89660644531,550.857104165495,-99.18701171875,0.0156376535933898,NaN,0.569200644672183,0.00989117029631303,5000,0.991303503513336,0.991303503513336,0.991303503513336,15664.0806251645,1546.29813496399,17210.3787601285,,,19.4900000095367,26.888671875,15721.351380592,15951.3749977723
2011-06-01T05:03:19Z,1306904599,AA08,55.7336958,25.5335836,1483.5,2,-10.2,211.1,-51475.57,-70294.07,211.6,Weapon+Missile,Red,Allies,R-27ER,,xu,,526.74967606058,493.712677001953,1.57389795222476,1483.50463867188,1456.8994884491,518.424481961167,-93.2806396484375,0.0157882354177557,NaN,0.399975877795947,0.00989117029631303,5000,0.988783657550812,0.988783657550812,0.988783657550812,13873.2610614963,1454.82107648315,15328.0821379794,,,20.4900000095367,26.6051502227783,16241.6439670236,16480.0862188486
2011-06-01T05:03:20Z,1306904600,AA08,55.731186,25.529804,1395.61,1.7,-10.2,211.1,-51731.76,-70710.27,211.6,Weapon+Missile,Red,Allies,R-27ER,,xu,,496.563569124354,468.157684326172,1.48218669444068,1395.61376953125,1365.61376953125,488.723411863216,-87.890869140625,0.0190833618844232,NaN,0.261514282941448,0.00989117029631303,5000,0.986959874629974,0.986959874629974,0.986959874629974,12328.7689090759,1368.62957729736,13697.3984863732,,,21.4900000095367,30,16732.1355522524,16978.4991119875
2011-06-01T05:03:21Z,1306904601,AA08,55.7287965,25.5262054,1311.96,1.3,-10.2,211.1,-51975.69,-71106.53,211.6,Weapon+Missile,Red,Allies,R-27ER,,xu,,472.78748228847,448.035217285156,1.4098472040637,1311.9599609375,1282.9599609375,465.327888393153,-83.65380859375,0.0203389830984509,NaN,0.399975877795947,0.00989117029631303,5000,0.986931502819061,0.986931502819061,0.986931502819061,11176.4001704335,1286.59321509277,12462.9933855263,,,22.4900000095367,29,17199.1352211269,17453.0296597417
2011-06-01T05:03:22Z,1306904602,AA08,55.7265525,25.5228258,1233.43,1.1,-10.2,211.1,-52204.78,-71478.68,211.6,Weapon+Missile,Red,Allies,R-27ER,,xu,,444.00665178584,422.948760986328,1.32281820503373,1233.42919921875,1202.56530761719,437.006666189368,-78.53076171875,0.0242861777782553,NaN,0.230805752433071,0.00989117029631303,5000,0.985815703868866,0.985815703868866,0.985815703868866,9857.09534150362,1209.58084565186,11066.6761871555,,,23.4900000095367,30.8638916015625,17637.7134458469,17898.6693245328
2011-06-01T05:03:23Z,1306904603,AA08,55.724425,25.5196216,1159,0.9,-10.2,211.1,-52421.98,-71831.51,211.6,Weapon+Missile,Red,Allies,R-27ER,,xu,,420.955429477217,402.731628417969,1.25306242006451,1158.99609375,1127.37217330933,414.322563248281,-74.43310546875,0.0258257065817236,NaN,0.199987938897973,0.00989117029631303,5000,0.98531174659729,0.98531174659729,0.98531174659729,8860.1736803174,1136.58690427734,9996.76058459475,,,24.4900000095367,31.6239204406738,18053.5360985345,18321.1780573987
2011-06-01T05:03:24Z,1306904604,AA08,55.7224135,25.5165919,1088.63,0.8,-10.2,211.1,-52627.36,-72165.12,211.6,Weapon+Missile,Red,Allies,R-27ER,,xu,,398.032506609746,382.242797851562,1.18386473106424,1088.63305664062,1054.64611816406,391.763856585549,-70.363037109375,0.0281199850071471,NaN,0.0154089067675488,0.00989117029631303,5000,0.984058678150177,0.984058678150177,0.984058678150177,7921.49381590188,1067.58433649048,8989.07815239235,,,25.4900000095367,33.9869384765625,18446.7057538941,18720.6624924809
2011-06-01T05:03:25Z,1306904605,AA08,55.7205175,25.5137362,1022.32,0.6,-10.2,211.1,-52820.95,-72479.56,211.6,Weapon+Missile,Red,Allies,R-27ER,,xu,,375.163271469148,361.374206542969,1.1149917244646,1022.31848144531,989.135726928711,369.255815629353,-66.3145751953125,0.0284031330910871,NaN,0.199987938897973,0.00989117029631303,5000,0.984817981719971,0.984817981719971,0.984817981719971,7037.37401297167,1002.55195360657,8039.92596657824,,,26.4900000095367,33.1827545166016,18817.2918483174,19097.195536225
2011-06-01T05:03:26Z,1306904606,AA08,55.7187248,25.5110359,959.62,0.5,-10.2,211.1,-53004,-72776.9,211.6,Weapon+Missile,Red,Allies,R-27ER,,xu,,354.750894119623,342.447113037109,1.05356472765421,959.624633789062,926.095275878906,349.167120938851,-62.69384765625,0.0305223784696323,NaN,0.199987938897973,0.00989117029631303,5000,0.985161781311035,0.985161781311035,0.985161781311035,6292.40984393358,941.070291494751,7233.48013542833,,,27.4900000095367,33.5293579101562,19167.7153779549,19453.2367269119
2011-06-01T05:03:27Z,1306904607,AA08,55.7170377,25.5084948,900.64,0.4,-10.2,211.1,-53176.27,-73056.71,211.6,Weapon+Missile,Red,Allies,R-27ER,,xu,,333.840240240484,322.739898681641,0.990790387112416,900.64306640625,868.535842895508,328.58861926867,-58.9815673828125,0.0319127060449056,NaN,0.199987938897973,0.00989117029631303,5000,0.983144402503967,0.983144402503967,0.983144402503967,5572.46530019119,883.229132717285,6455.69443290848,,,28.4900000095367,32.1072235107422,19497.4833444205,19788.2851663622
2011-06-01T05:03:28Z,1306904608,AA08,55.7154449,25.5060953,844.95,0.3,-10.2,211.1,-53338.93,-73320.91,211.6,Weapon+Missile,Red,Allies,R-27ER,,xu,,315.217124964652,305.139709472656,0.934921332254035,844.94921875,813.94921875,310.258007478008,-55.69384765625,0.0318901203087311,NaN,0.169224766876236,0.00989117029631303,5000,0.983703792095184,0.983703792095184,0.983703792095184,4968.09179354906,828.612125605469,5796.70391915453,,,29.4900000095367,31,19808.863428573,20104.6487214577
2011-06-01T05:03:29Z,1306904609,AA08,55.7139328,25.5038176,792.08,0.3,-10.2,211.1,-53493.35,-73571.71,211.6,Weapon+Missile,Red,Allies,R-27ER,,xu,,299.235307090132,290.081726074219,0.886981760948448,792.080749511719,763.896179199219,294.527917131342,-52.8684692382812,0.0338122660317164,NaN,0,0.00989117029631303,5000,0.984493434429169,0.984493434429169,0.984493434429169,4477.08845046628,776.76586821991,5253.85431868619,,,30.4900000095367,28.1845703125,20104.4513706972,20404.9647769729
2011-06-01T05:03:30Z,1306904610,AA08,55.7124995,25.5016584,741.98,0.2,-10.2,211.1,-53639.71,-73809.45,211.6,Weapon+Missile,Red,Allies,R-27ER,,xu,,283.639523854024,275.3525390625,0.840270777133199,741.976928710938,713.95654296875,279.179130010287,-50.1038208007812,0.0334465251823133,NaN,0.199987938897973,0.00989117029631303,5000,0.983780443668365,0.983780443668365,0.983780443668365,4022.56897460688,727.630804794312,4750.19977940119,,,31.4900000095367,28.0203857421875,20384.6449432312,20689.6360168028
2011-06-01T05:03:31Z,1306904611,AA08,55.7111219,25.4995831,693.82,0.2,-10.2,211.1,-53780.4,-74037.95,211.6,Weapon+Missile,Red,Allies,R-27ER,,xu,,272.631683689812,265.082885742188,0.80721541390524,693.818420410156,664.296962738037,268.34454164336,-48.1585083007812,0.0343585328991993,NaN,0,0.00989117029631303,5000,0.983823299407959,0.983823299407959,0.983823299407959,3716.40174757708,680.403441251526,4396.8051888286,,,32.4900000095367,29.5214576721191,20653.9594525382,20963.2523087279
2011-06-01T05:03:32Z,1306904612,AA08,55.7098102,25.4976069,647.96,0.2,-10.2,211.1,-53914.38,-74255.55,211.6,Weapon+Missile,Red,Allies,R-27ER,,xu,,259.614363425833,252.797164916992,0.768270453846715,647.961486816406,616.444641113281,255.53230586049,-45.85693359375,0.0353465228080417,NaN,0,0.00989117029631303,5000,0.984374225139618,0.984374225139618,0.984374225139618,3369.98088485003,635.433151468811,4005.41403631884,,,33.4900000095367,31.516845703125,20910.4092666163,21223.7963580593
2011-06-01T05:03:33Z,1306904613,AA08,55.7085432,25.4956981,603.68,0.1,-10.2,211.1,-54043.78,-74465.72,211.6,Weapon+Missile,Red,Allies,R-27ER,,xu,,250.753732231334,244.556243896484,0.741674147720793,603.675354003906,568.723667144775,246.812018889796,-44.2861328125,0.0340338294473809,NaN,0,0.00989117029631303,5000,0.983342468738556,0.983342468738556,0.983342468738556,3143.87171139717,592.003291034241,3735.87500243141,,,34.4900000095367,34.9516868591309,21158.1087567829,21475.4475845739
2011-06-01T05:03:34Z,1306904614,AA08,55.7073222,25.4938585,560.99,0.1,-10.2,211.1,-54168.49,-74668.27,211.6,Weapon+Missile,Red,Allies,R-27ER,,xu,,241.667663621943,236.05989074707,0.714451496319229,560.989990234375,522.59631729126,237.868071334409,-42.6853637695312,0.0351042450771632,NaN,0,0.00989117029631303,5000,0.984330952167511,0.984330952167511,0.984330952167511,2920.16298202444,550.143248773193,3470.30623079763,,,35.4900000095367,38.3936729431152,21396.8338054915,21717.9802547485
2011-06-01T05:03:35Z,1306904615,AA08,55.7061543,25.4920989,520.17,0.1,-10.2,211.1,-54287.78,-74862.02,211.6,Weapon+Missile,Red,Allies,R-27ER,,xu,,231.154446211537,226.123352050781,0.683052923202431,520.167663574219,481.300109863281,227.521242193809,-40.8223266601562,0.0366342158378216,NaN,0,0.00989117029631303,5000,0.983081698417664,0.983081698417664,0.983081698417664,2671.61890016813,510.110221799011,3181.72912196714,,,36.4900000095367,38.8675537109375,21625.1773092203,21949.9631351514
2011-06-01T05:03:36Z,1306904616,AA08,55.705027,25.4904002,480.75,0.1,-10.2,211.1,-54402.94,-75049.05,211.6,Weapon+Missile,Red,Allies,R-27ER,,xu,,223.157264152557,218.629806518555,0.659125575943442,480.750762939453,440.750762939453,219.648520341939,-39.4169006347656,0.0353365541721873,NaN,0,0.00989117029631303,5000,0.985283493995667,0.985283493995667,0.985283493995667,2489.95822720272,471.455446938019,2961.41367414073,,,37.4900000095367,40,21845.6090092162,22173.9083336871
2011-06-01T05:03:37Z,1306904617,AA08,55.7039335,25.4887527,442.54,0.1,-10.2,211.1,-54514.62,-75230.45,211.6,Weapon+Missile,Red,Allies,R-27ER,,xu,,216.423006831021,212.352447509766,0.638957117139691,442.536895751953,403.895259857178,213.022576832496,-38.2138671875,0.0353800487998245,NaN,0,0.00989117029631303,5000,0.982584953308105,0.982584953308105,0.982584953308105,2341.94589428902,433.980444872589,2775.92633916161,,,38.4900000095367,38.6416358947754,22059.3984778098,22391.1014576007
2011-06-01T05:03:38Z,1306904618,AA08,55.7028781,25.4871623,405.64,0.1,-10.2,211.1,-54622.44,-75405.56,211.6,Weapon+Missile,Red,Allies,R-27ER,,xu,,208.924371080277,205.294921875,0.616559764719616,405.635375976562,364.868740081787,205.639662199576,-36.9015197753906,0.0368707308251019,NaN,0,0.00989117029631303,5000,0.984422028064728,0.984422028064728,0.984422028064728,2182.46964156446,397.792415982056,2580.26205754652,,,39.4900000095367,40.7666358947754,22265.7805369142,22600.7701028755
2011-06-01T05:03:39Z,1306904619,AA08,55.7018584,25.4856258,369.99,0,-10.2,211.1,-54726.59,-75574.73,211.6,Weapon+Missile,Red,Allies,R-27ER,,xu,,201.830207447762,198.60920715332,0.595382949975704,369.992309570312,326.472473144531,198.658008787883,-35.64306640625,0.0362045557758438,NaN,0,0.00989117029631303,5000,0.983734428882599,0.983734428882599,0.983734428882599,2036.77163192034,362.838508264771,2399.61014018511,,,40.4900000095367,43.5198364257812,22465.1609870975,22803.323371042
2011-06-01T05:03:40Z,1306904620,AA08,55.7008699,25.4841362,335.43,0,-10.2,211.1,-54827.59,-75738.75,211.6,Weapon+Missile,Red,Allies,R-27ER,,xu,,195.697754195446,192.84944152832,0.577066270613242,335.430755615234,294.430755615234,192.621675793124,-34.5615539550781,0.0367518409150427,NaN,0,0.00989117029631303,5000,0.983599662780762,0.983599662780762,0.983599662780762,1914.88054985707,328.945201955414,2243.82575181248,,,41.4900000095367,41,22658.4650721202,22999.7033678598
2011-06-01T05:03:41Z,1306904621,AA08,55.6999097,25.4826892,301.86,0,-10.2,211.1,-54925.67,-75898.05,211.6,Weapon+Missile,Red,Allies,R-27ER,,xu,,190.065808751593,187.562942504883,0.560245639173885,301.860778808594,261.658294677734,187.077706618396,-33.5699768066406,0.03677739735053,NaN,0,0.00989117029631303,5000,0.985084056854248,0.985084056854248,0.985084056854248,1806.25058281985,296.02430065033,2102.27488347018,,,42.4900000095367,40.2024841308594,22846.2274502601,23190.4523564814
2011-06-01T05:03:42Z,1306904622,AA08,55.6989807,25.4812891,269.39,0,-10.2,211.1,-55020.58,-76052.21,211.6,Weapon+Missile,Red,Allies,R-27ER,,xu,,183.92005960527,181.746322631836,0.541930690642049,269.3876953125,230.3876953125,181.030624960148,-32.4730834960938,0.0352918088570466,NaN,0,0.00989117029631303,5000,0.9832643866539,0.9832643866539,0.9832643866539,1691.32941626031,264.179084223633,1955.50850048394,,,43.4900000095367,39,23027.9083646395,23375.0205340646
2011-06-01T05:03:43Z,1306904623,AA08,55.6980803,25.4799324,237.91,0,-10.2,211.1,-55112.56,-76201.59,211.6,Weapon+Missile,Red,Allies,R-27ER,,xu,,178.230982990382,176.361251831055,0.524980337476424,237.913070678711,198.191192626953,175.429847237806,-31.4746246337891,0.0370973357288058,NaN,0,0.00989117029631303,5000,0.983971297740936,0.983971297740936,0.983971297740936,1588.31416488589,233.313021457138,1821.62718634303,,,44.4900000095367,39.7218780517578,23203.9639690983,23553.8743660481
2011-06-01T05:03:44Z,1306904624,AA08,55.6972072,25.4786165,207.39,0,-10.2,211.1,-55201.76,-76346.48,211.6,Weapon+Missile,Red,Allies,R-27ER,,xu,,172.858399681602,171.270156860352,0.508979493661726,207.387680053711,167.738143920898,170.14178460236,-30.525390625,0.0353617558361501,NaN,0,0.00989117029631303,5000,0.983977556228638,0.983977556228638,0.983977556228638,1494.00131702423,203.377839259872,1697.3791562841,,,45.4900000095367,39.6495361328125,23374.713422656,23727.3367854125
2011-06-01T05:03:45Z,1306904625,AA08,55.6963556,25.4773331,177.61,0,-10.2,211,-55288.77,-76487.79,211.6,Weapon+Missile,Red,Allies,R-27ER,,xu,,168.598155781706,167.266662597656,0.496268119357141,177.614608764648,137.987045288086,165.948493090503,-29.7730712890625,0.0374664186084497,NaN,0,0.00989117029631303,5000,0.98349541425705,0.98349541425705,0.98349541425705,1421.26690664962,174.180430304184,1595.4473369538,,,46.4900000095367,39.6275634765625,23541.2565998385,23896.5252599791
2011-06-01T05:03:46Z,1306904626,AA08,55.6955304,25.4760893,148.76,0,-10.2,211,-55373.07,-76624.71,211.6,Weapon+Missile,Red,Allies,R-27ER,,xu,,163.364741183932,162.279678344727,0.480706791918095,148.761535644531,109.872901916504,160.796575938725,-28.8530731201172,0.148463886584836,NaN,0,0.538509242997583,5000,0.659618973731995,0.659618973731995,0.659618973731995,1334.40193310465,145.885231352844,1480.28716445749,,,47.4900000095367,38.8886337280273,23702.6459988898,24060.4776030581
2011-06-01T05:03:47Z,1306904627,AA08,55.6947295,25.4748826,117.53,-1.1,-13,211.1,-55454.91,-76757.57,211.6,Weapon+Missile,Red,Allies,R-27ER,,xu,,159.135612252126,158.297775268555,0.468097272013947,117.529998779297,78.7126770019531,156.040809379773,-31.2315368652344,0.0716773377516086,NaN,1.3384438697557,2.26207775805524,2733.31670484408,0.0452681817114353,0.0452681817114353,0.0452681817114353,1266.20715434295,115.257556252899,1381.46471059585,,,48.4900000095367,38.8173217773438,23859.2451487123,24220.163940904
2011-06-01T05:03:48Z,1306904628,AA08,55.6939628,25.4737294,78.52,-2.3,-16.4,211.1,-55533.23,-76884.55,211.7,Weapon+Missile,Red,Allies,R-27ER,,xu,,154.206259467327,153.662460327148,0.453397924437737,78.5192337036133,39.2381057739258,149.190249906334,-39.0107650756836,0.0460656959793556,NaN,1.16921910287946,3.39651988555853,2638.00693269428,0.0518376342952251,0.0518376342952251,0.0518376342952251,1188.97852294522,77.0010643199539,1265.97958726518,,,49.4900000095367,39.2811279296875,24008.9677354243,24374.8875066945
2011-06-01T05:03:49Z,1306904629,AA08,55.6932201,25.4726153,31.65,-3.2,-19.7,211.2,-55609.12,-77007.2,211.8,Weapon+Missile,Red,Allies,R-27ER,,xu,,151.656039224398,151.441345214844,0.445664180644568,31.6492290496826,-8.07763862609863,144.231608522448,-46.8700046539307,0.0244732530109922,NaN,0.84617847589454,3.33513420072327,2622.31699950546,0.0609533414244652,0.0609533414244652,0.0609533414244652,1149.97771166161,31.037291206007,1181.01500286761,,,50.4900000095367,39.7268676757812,24153.7205697283,24527.0405293422
2011-06-01T05:03:50Z,1306904630,AA08,55.6925017,25.4715424,-22.61,-4,-23,211.3,-55682.5,-77125.33,211.9,Weapon+Missile,Red,Allies,R-27ER,,xu,,149.275550276023,149.430572509766,0.438400779186252,-22.6099987030029,-62.9110736846924,139.065186563322,-54.2592277526855,0.0712202320830106,NaN,0.753834318315967,3.3029618752984,2618.17818266111,0.0682101845741272,0.0682101845741272,0.0682101845741272,1114.15949551047,-22.1728343780804,1091.98666113239,,,51.4900000095367,40.3010749816895,24293.2772843757,24676.7741862169
2011-06-01T05:03:51Z,1306904631,AA08,55.6918043,25.4705069,-84.1,-4.6,-26.2,211.5,-55753.75,-77239.33,212.1,Weapon+Missile,Red,Allies,R-27ER,,xu,,147.825770144164,148.392303466797,0.433842856511226,-84.0953826904297,-125.653305053711,134.432160864258,-61.4853839874268,0.020695978493725,NaN,0.569255286185543,3.23147924987916,2652.48070321066,0.0748840421438217,0.0748840421438217,0.0748840421438217,1092.62291593576,-82.4693984661102,1010.15351746964,,,52.4900000095367,41.5579223632812,24428.1878839072,24825.0341532093
2011-06-01T05:03:52Z,1306904632,AA08,55.6911236,25.4695038,-152.79,-5.1,-29.4,211.7,-55823.27,-77349.74,212.3,Weapon+Missile,Red,Allies,R-27ER,,xu,,147.458247726427,148.483901977539,0.432430484135535,-152.791534423828,-194.736358642578,130.479015782502,-68.6961517333984,0.0595444802974849,NaN,0.569200644672183,3.11738222045456,2738.65106907879,0.0868995934724808,0.0868995934724808,0.0868995934724808,1087.19674112742,-149.837310105743,937.359431021677,,,53.4900000095367,41.94482421875,24559.1315918096,24972.9015907607
2011-06-01T05:03:53Z,1306904633,AA08,55.6904671,25.4685453,-227.44,-5.5,-32.4,212,-55890.32,-77455.25,212.6,Weapon+Missile,Red,Allies,R-27ER,,xu,,145.600115568384,147.109954833984,0.42662414087196,-227.442291259766,-269.749420166016,125.006632453437,-74.6507568359375,0.0294523024517048,NaN,0.369212705774209,3.03451004115092,3063.64011701946,0.151854038238525,0.151854038238525,0.151854038238525,1059.96968267635,-223.044694558258,836.924988118087,,,54.4900000095367,42.30712890625,24684.5850797102,25118.8823253721
2011-06-01T05:03:54Z,1306904634,AA08,55.6898206,25.4676113,-308.48,-5.3,-34,212.2,-55956.33,-77558.05,212.8,Weapon+Missile,Red,Allies,R-27ER,,xu,,146.609036872392,148.670196533203,0.429190879498932,-308.484619140625,-351.351196289062,122.173445495745,-81.0423278808594,0,NaN,0.769238956215285,1.53213298685675,5000,0.731508910655975,0.731508910655975,0.731508910655975,1074.71048463252,-302.520069029541,772.190415602983,,,55.4900000095367,42.8665771484375,24807.1911253698,25265.8477576113
2011-06-01T05:03:55Z,1306904635,AA08,55.689178,25.4666887,-389.84,-4.3,-33.9,212.4,-56021.96,-77659.6,212.9,Weapon+Missile,Red,Allies,R-27ER,,xu,,145.7304713578,148.322982788086,0.426231314285174,-389.838470458984,-433.812164306641,120.908730693184,-81.3538513183594,0.0196806136659708,NaN,1.03079165897081,0.125894153503381,5000,0.867244958877563,0.867244958877563,0.867244958877563,1061.86851410833,-382.30094363266,679.567570475672,,,56.4900000095367,43.9736938476562,24928.5147745629,25411.9171432995
2011-06-01T05:03:56Z,1306904636,AA08,55.6885312,25.4657636,-471.07,-3.6,-33.7,212.4,-56087.99,-77761.43,213,Weapon+Missile,Red,Allies,R-27ER,,xu,,146.03994583415,149.180252075195,0.426749685786861,-471.06689453125,-514.982971191406,121.365600159096,-81.2284240722656,0.0312999909683278,NaN,0.846157131553383,0.122746290069651,5000,0.86086094379425,0.86086094379425,0.86086094379425,1066.38328896207,-461.958816125488,604.42447283658,,,57.4900000095367,43.9160766601562,25050.3008430294,25558.2998658122
2011-06-01T05:03:57Z,1306904637,AA08,55.6878817,25.4648366,-552.16,-3,-33.6,212.5,-56154.3,-77863.45,213,Weapon+Missile,Red,Allies,R-27ER,,xu,,146.216754352862,149.904205322266,0.426880800356964,-552.158447265625,-594.962219238281,121.669631907939,-81.091552734375,0.0387521892720384,NaN,0.569196375803951,0.146041544028266,5000,0.858400702476501,0.858400702476501,0.858400702476501,1068.96696267426,-541.482463687744,527.484498986516,,,58.4900000095367,42.8037719726562,25172.4033951774,25704.8688988653
2011-06-01T05:03:58Z,1306904638,AA08,55.6872276,25.4639038,-633.48,-2.4,-33.5,212.5,-56221.09,-77966.1,213.1,Weapon+Missile,Red,Allies,R-27ER,,xu,,147.017258870073,151.271240234375,0.428830153088532,-633.484619140625,-675.169067382812,122.475010405503,-81.326171875,0.0343902459557901,NaN,0.523078938528025,0.0873564853083433,5000,0.771015763282776,0.771015763282776,0.771015763282776,1080.70372028351,-621.236194029541,459.467526253967,,,59.4900000095367,41.6844482421875,25295.3014002279,25852.2291998724
2011-06-01T05:03:59Z,1306904639,AA08,55.6865758,25.4629754,-715.19,-2.6,-34.9,212.6,-56287.63,-78068.28,213.1,Weapon+Missile,Red,Allies,R-27ER,,xu,,146.774918023964,151.573928833008,0.427735454258636,-715.186889648438,-756.186889648438,121.932832144626,-81.7022705078125,0.0558018404544296,NaN,0.861532741148728,1.35120266312528,3377.35760267577,0.174020737409592,0.174020737409592,0.174020737409592,1077.14382804707,-701.358751137085,375.785076909982,,,60.4900000095367,41,25417.6600273468,25999.3472783587
2011-06-01T05:04:00Z,1306904640,AA08,55.6859404,25.4620757,-802.18,-3.5,-37.8,212.8,-56352.51,-78167.3,213.3,Weapon+Missile,Red,Allies,R-27ER,,xu,,146.907022726542,152.298294067383,0.427708286470203,-802.179992675781,-842.670654296875,118.380206757932,-86.9931030273438,0.0789114006354634,NaN,0.769243225083516,2.80812598243178,2970.89487831145,0.0686153620481491,0.0686153620481491,0.0686153620481491,1079.08366631884,-786.669842517395,292.413823801446,,,61.4900000095367,40.4906616210938,25536.4490030825,26146.5724934119
2011-06-01T05:04:01Z,1306904641,AA08,55.6853224,25.4612087,-895.27,-4.2,-40.5,213.1,-56415.59,-78262.72,213.6,Weapon+Missile,Red,Allies,R-27ER,,xu,,147.475671130263,153.517974853516,0.428922460786907,-895.265380859375,-935.541046142578,114.386118397432,-93.0853881835938,0.0227037636763127,NaN,0.569200644672183,2.7770721004835,3180.33823791294,0.0887022316455841,0.0887022316455841,0.0887022316455841,1087.45367876608,-877.955424720459,209.49825404562,,,62.4900000095367,40.2756652832031,25651.2230173346,26294.3373683233
2011-06-01T05:04:02Z,1306904642,AA08,55.6847244,25.460379,-993.4,-4.7,-43.1,213.4,-56476.62,-78354.02,214,Weapon+Missile,Red,Allies,R-27ER,,xu,,147.281323658941,153.984176635742,0.42789392999237,-993.404968261719,-1033.77040100098,109.81989657265,-98.1395874023438,0.0186180230696191,NaN,0.492265393861159,2.65418077561569,3180.23607466735,0.0874926447868347,0.0874926447868347,0.0874926447868347,1084.58941493649,-974.197483200378,110.391931736112,,,63.4900000095367,40.3654327392578,25761.4142837062,26441.8836274667
