ISOTime,UnixTime,Id,Longitude,Latitude,Altitude,Roll,Pitch,Yaw,U,V,Heading,Type,Color,Coalition,Name,Group,Country,Pilot,TAS,CAS,M,ASL,AGL,GS,VS,AOA,AOS,RRT,TRT,TRD,G,LatG,LonG,Ek,Ep,Em,FFW,FFV,RelativeTime,Elev,GroundDistance,AirDistance
2011-06-01T05:03:00Z,1306904580,B005,55.6950989,25.5810687,197.09,-21.4,-1,186.3,-55302.32,-64997.34,186.9,Weapon+Missile,Red,Allies,R-27ET,,xu,,328.434304850941,326.028106689453,0.966958189111439,197.085388183594,187.085388183594,NaN,NaN,NaN,NaN,NaN,NaN,NaN,NaN,NaN,NaN,NaN,193.274742203064,NaN,,,0.0299999713897705,10,NaN,NaN
2011-06-01T05:03:01Z,1306904581,B005,55.6946641,25.5771776,195.52,-17.3,-0.7,186.2,-55350.23,-65427.86,186.8,Weapon+Missile,Red,Allies,R-27ET,,xu,,433.188171509523,429.069000244141,1.27534621604964,195.523071289062,186.91015625,433.185354209586,-1.56231689453125,1.21156243828585,NaN,4.03079174245342,8.61895482726207,5000,5.75199460983276,5.75199460983276,5.75199460983276,9382.59959678818,191.742632705688,9574.34222949386,,,1.02999997138977,8.6129150390625,435.347240661238,435.363442860733
2011-06-01T05:03:02Z,1306904582,B005,55.6943427,25.5712731,225.21,-13.8,5.9,179.4,-55388.95,-66081.51,180,Weapon+Missile,Red,Allies,R-27ET,,xu,,655.463142037011,642.157043457031,1.93039267190752,225.209991455078,215.209991455078,654.790514088352,29.6869201660156,0.328018535200652,NaN,3.00002911178658,7.65536396043585,3898.22381699414,13.7366228103638,13.7366228103638,13.7366228103638,21481.5965284516,220.855556270294,21702.4520847219,,,2.02999997138977,10,1093.42402620367,1094.13118376305
2011-06-01T05:03:03Z,1306904583,B005,55.6949561,25.5636039,364.42,-11.5,10.9,174.1,-55335.68,-66931.52,174.7,Weapon+Missile,Red,Allies,R-27ET,,xu,,862.98528473234,837.158569335938,2.54557632509886,364.416900634766,353.416900634766,851.6836490747,139.206909179688,0.235646324343119,NaN,2.369215038159,6.24831937820384,5000,4.62828397750854,4.62828397750854,4.62828397750854,37237.1800832279,357.370899860992,37594.5509830889,,,3.02999997138977,11,1949.37593963793,1961.3681602137
2011-06-01T05:03:04Z,1306904584,B005,55.6959138,25.5553722,542.84,-9.3,11,173.9,-55248.42,-67844.16,174.5,Weapon+Missile,Red,Allies,R-27ET,,xu,,933.995013261714,898.207092285156,2.76063432447304,542.839965820312,525.839965820312,916.794357861971,178.423065185547,0.0475409071061676,NaN,2.1076666042717,0.946602747261237,5000,1.04410707950592,1.04410707950592,1.04410707950592,43617.3342398875,532.344155081177,44149.6783949687,,,4.02999997138977,17,2870.75592931929,2899.92909971962
2011-06-01T05:03:05Z,1306904585,B005,55.6968371,25.5474738,714.67,-7.6,11.1,173.9,-55164.24,-68719.86,174.5,Weapon+Missile,Red,Allies,R-27ET,,xu,,896.364570998338,855.714477539062,2.65461434719596,714.673034667969,695.641357421875,879.740211989557,171.833068847656,0.0491684981842527,NaN,1.73846585132854,0.0484566469995765,5000,0.990438520908356,0.990438520908356,0.990438520908356,40173.4722070517,700.854831542664,40874.3270385944,,,5.02999997138977,19.0316772460938,3754.88343549823,3800.68554540313
2011-06-01T05:03:06Z,1306904586,B005,55.6977423,25.5397192,883.45,-6.1,11.1,174,-55081.71,-69579.61,174.5,Weapon+Missile,Red,Allies,R-27ET,,xu,,880.037413059262,833.968627929688,2.61130998004155,883.450012207031,864.271997451782,863.701441608625,168.776977539062,0.0481649909891157,NaN,1.33845667636039,0,5000,0.988095104694366,0.988095104694366,0.988095104694366,38723.2924192019,866.368506221008,39589.6609254229,,,6.02999997138977,19.178014755249,4622.89282538674,4685.05807142953
2011-06-01T05:03:07Z,1306904587,B005,55.6986203,25.5321871,1047.43,-5,11.1,174,-55001.66,-70414.69,174.5,Weapon+Missile,Red,Allies,R-27ET,,xu,,854.783193153893,804.440124511719,2.5411660467056,1047.43005371094,1031.05438232422,838.906939586712,163.980041503906,0.0488142122790138,NaN,1.13844739312126,0,5000,0.987677693367004,0.987677693367004,0.987677693367004,36532.7153649183,1027.17799362244,37559.8933585407,,,7.02999997138977,16.3756713867188,5465.98584064727,5544.07523527462
2011-06-01T05:03:08Z,1306904588,B005,55.6994753,25.5248442,1207.34,-4,11.1,174,-54923.7,-71228.79,174.5,Weapon+Missile,Red,Allies,R-27ET,,xu,,833.312486446361,778.983642578125,2.48191765304136,1207.33764648438,1185.70892333984,817.825936150731,159.907592773438,0.0493761412422658,NaN,0.784623103547092,0,5000,0.984423041343689,0.984423041343689,0.984423041343689,34720.4850033708,1183.9937730896,35904.4787764604,,,8.02999997138977,21.6287231445312,6287.89079458589,6381.53390398176
2011-06-01T05:03:09Z,1306904589,B005,55.7003221,25.5175653,1365.88,-3.3,11.1,174,-54846.48,-72035.8,174.5,Weapon+Missile,Red,Allies,R-27ET,,xu,,826.049909679471,766.874755859375,2.46481454305942,1365.876953125,1340.48956298828,810.693370844595,158.539306640625,0.0511204138479349,NaN,0.769238956215285,0,5000,0.985202789306641,0.985202789306641,0.985202789306641,34117.9226640731,1339.46772223633,35457.3903863094,,,9.02999997138977,25.3873901367188,7102.63149431062,7211.71759020268
2011-06-01T05:03:10Z,1306904590,B005,55.70116,25.5103568,1522.91,-2.7,11.1,174,-54770.06,-72834.99,174.5,Weapon+Missile,Red,Allies,R-27ET,,xu,,818.054802899839,754.296447753906,2.44542406316759,1522.91455078125,1501.30749511719,802.840490676603,157.03759765625,0.0525434622285183,NaN,0.56923436873121,0,5000,0.986418902873993,0.986418902873993,0.986418902873993,33460.6830273747,1493.46899794189,34954.1520253166,,,10.0299999713898,21.6070556640625,7909.47555407145,8033.88121590685
2011-06-01T05:03:11Z,1306904591,B005,55.7019424,25.5036219,1669.65,-2.1,11.1,174,-54698.71,-73581.66,174.5,Weapon+Missile,Red,Allies,R-27ET,,xu,,764.291103661234,701.32470703125,2.2886267427804,1669.65075683594,1638.01129150391,750.072914434579,146.736206054688,0.0542356770415784,NaN,0.569196375803951,0,5000,0.987144231796265,0.987144231796265,0.987144231796265,29207.0445567854,1637.36805945251,30844.4126162379,,,11.0299999713898,31.6394653320312,8663.31014754467,8802.04954957629
2011-06-01T05:03:12Z,1306904592,B005,55.7026582,25.4974567,1804,-1.7,11.1,174,-54633.43,-74265.19,174.5,Weapon+Missile,Red,Allies,R-27ET,,xu,,699.654538777952,639.991088867188,2.09837742001451,1803.99926757812,1779.75653076172,686.634510707076,134.348510742188,0.0545357824975541,NaN,0.36920865034939,0,5000,0.984353244304657,0.984353244304657,0.984353244304657,24475.8236816295,1769.1189417395,26244.942623369,,,12.0299999713898,24.2427368164062,9353.37435123937,9505.25471440299
2011-06-01T05:03:13Z,1306904593,B005,55.7033086,25.4918509,1926.16,-1.4,11.1,174,-54574.1,-74886.7,174.5,Weapon+Missile,Red,Allies,R-27ET,,xu,,636.171264033567,580.966491699219,1.91072242278635,1926.1552734375,1890.65466308594,624.333074099515,122.156005859375,0.0563997517825428,NaN,0.323090999630052,0,5000,0.98598837852478,0.98598837852478,0.98598837852478,20235.6938591033,1888.91306122559,22124.6069203289,,,13.0299999713898,35.5006103515625,9980.82506615476,10144.6659819837
2011-06-01T05:03:14Z,1306904594,B005,55.703906,25.4867013,2038.39,-1.1,11.1,174,-54519.6,-75457.61,174.5,Weapon+Missile,Red,Allies,R-27ET,,xu,,584.387384969478,533.169494628906,1.75751446019511,2038.38684082031,1999.07489013672,573.509102799827,112.231567382812,0.0568915121463237,NaN,0.369258809551107,0,5000,0.98380047082901,0.98380047082901,0.98380047082901,17075.4307855733,1998.97463125305,19074.4054168263,,,14.0299999713898,39.3119506835938,10557.207236685,10732.0490455683
2011-06-01T05:03:15Z,1306904595,B005,55.7044582,25.4819389,2142.19,-0.9,11.1,174,-54469.23,-75985.62,174.6,Weapon+Missile,Red,Allies,R-27ET,,xu,,540.466392980668,492.882049560547,1.62741938680038,2142.18676757812,2103.18676757812,530.405031222939,103.799926757812,0.0616134154557891,NaN,0.199987938897973,0.0494558589854351,5000,0.983772575855255,0.983772575855255,0.983772575855255,14605.1960970767,2100.767586427,16705.9636835037,,,15.0299999713898,39,11090.255777912,11275.2814486032
2011-06-01T05:03:16Z,1306904596,B005,55.7049705,25.4775193,2238.52,-0.8,11.1,174,-54422.48,-76475.61,174.6,Weapon+Missile,Red,Allies,R-27ET,,xu,,501.555441232845,457.371551513672,1.51197740923572,2238.51928710938,2201.46185302734,492.217336459247,96.33251953125,0.0604856518758365,NaN,0.0615347750582316,0.0494558589854351,5000,0.983203232288361,0.983203232288361,0.983203232288361,12577.8930315137,2195.23751669312,14773.1305482068,,,16.0299999713898,37.0574340820312,11584.9322818217,11779.4172415255
2011-06-01T05:03:17Z,1306904597,B005,55.705445,25.4734251,2327.76,-0.6,11.1,174,-54379.19,-76929.52,174.6,Weapon+Missile,Red,Allies,R-27ET,,xu,,464.624392006697,423.807220458984,1.40213056152579,2327.76000976562,2293.40478515625,455.973594704104,89.24072265625,0.060303804412903,NaN,0.200042580411333,0.0139882274201861,5000,0.983265399932861,0.983265399932861,0.983265399932861,10793.7912823796,2282.75276997681,13076.5440523564,,,17.0299999713898,34.355224609375,12043.1824721547,12246.4370593136
2011-06-01T05:03:18Z,1306904598,B005,55.705887,25.4696104,2410.91,-0.5,11.1,174,-54338.86,-77352.45,174.6,Weapon+Missile,Red,Allies,R-27ET,,xu,,432.901717909949,394.789398193359,1.30769162471346,2410.91235351562,2374.91235351562,424.840658480643,83.15234375,0.058278336986174,NaN,0.0307673341682629,0.0139882274201861,5000,0.982959985733032,0.982959985733032,0.982959985733032,9370.19486846924,2364.2973631604,11734.4922316296,,,18.0299999713898,36,12470.1532515543,12681.58511192
2011-06-01T05:03:19Z,1306904599,B005,55.7063003,25.4660428,2488.68,-0.4,11.1,174,-54301.15,-77747.97,174.6,Weapon+Missile,Red,Allies,R-27ET,,xu,,404.856676446395,368.837951660156,1.22410840835706,2488.68139648438,2454.10157775879,397.317133306563,77.76904296875,0.0587657414075381,NaN,0.0923021092264945,0.0139882274201861,5000,0.982923984527588,0.982923984527588,0.982923984527588,8195.44642316103,2440.56274168335,10636.0091648444,,,19.0299999713898,34.5798187255859,12869.4549166377,13088.5400826816
2011-06-01T05:03:20Z,1306904600,B005,55.7066842,25.462728,2560.95,-0.3,11.1,174,-54266.11,-78115.48,174.6,Weapon+Missile,Red,Allies,R-27ET,,xu,,376.180544030825,341.930877685547,1.13838620166701,2560.9453125,2528.19671630859,369.174387179574,72.263916015625,0.058153555977512,NaN,0.199987938897973,0.0139882274201861,5000,0.982378602027893,0.982378602027893,0.982378602027893,7075.59008536637,2511.42943488281,9587.01952024918,,,20.0299999713898,32.7485961914062,13240.4787501803,13466.6799586045
2011-06-01T05:03:21Z,1306904601,B005,55.7070418,25.4596401,2628.26,-0.3,11.1,174,-54233.47,-78457.83,174.6,Weapon+Missile,Red,Allies,R-27ET,,xu,,350.430545238159,317.14306640625,1.06131644827401,2628.26220703125,2590.18420410156,343.904060381063,67.31689453125,0.0568260217895764,NaN,0,0.0139882274201861,5000,0.982346057891846,0.982346057891846,0.982346057891846,6140.07835179567,2577.4447572583,8717.52310905397,,,21.0299999713898,38.0780029296875,13586.0940127791,13818.9279925285
2011-06-01T05:03:22Z,1306904602,B005,55.7073768,25.4567464,2691.34,-0.2,11.1,174,-54202.89,-78778.63,174.6,Weapon+Missile,Red,Allies,R-27ET,,xu,,328.374933295158,295.630218505859,0.995270416414467,2691.34301757812,2647.73236083984,322.259069938068,63.080810546875,0.0570741258524481,NaN,0,0.0139882274201861,5000,0.982069194316864,0.982069194316864,0.982069194316864,5391.50484082997,2639.30590033325,8030.81074116322,,,22.0299999713898,43.6106567382812,13909.970436214,14149.0228753992
2011-06-01T05:03:23Z,1306904603,B005,55.7076915,25.4540291,2750.58,-0.2,11.1,174,-54174.17,-79079.88,174.6,Weapon+Missile,Red,Allies,R-27ET,,xu,,308.35830596292,276.161529541016,0.935266436744367,2750.57763671875,2702.30886077881,302.615440372078,59.234619140625,0.058098277445933,NaN,0,0.0139882274201861,5000,0.982207179069519,0.982207179069519,0.982207179069519,4754.24224281609,2697.39521811279,7451.63746092888,,,23.0299999713898,48.2687759399414,14214.1133883092,14459.007741348
2011-06-01T05:03:24Z,1306904604,B005,55.707986,25.4514844,2806.05,-0.1,11.1,174,-54147.28,-79362.01,174.6,Weapon+Missile,Red,Allies,R-27ET,,xu,,288.782381251811,257.318084716797,0.876475541655202,2806.05224609375,2756.46813964844,283.404007445479,55.474609375,0.0553890978539287,NaN,0.199987938897973,0.0139882274201861,5000,0.98259025812149,0.98259025812149,0.98259025812149,4169.7631860733,2751.79722591553,6921.56041198883,,,24.0299999713898,49.5841064453125,14498.928648572,14749.2969964473
2011-06-01T05:03:25Z,1306904605,B005,55.7082627,25.4490946,2858.15,-0.1,11.1,174,-54122.03,-79626.95,174.6,Weapon+Missile,Red,Allies,R-27ET,,xu,,271.189715111102,240.507461547852,0.823596476639665,2858.15234375,2808.15234375,266.138011952915,52.10009765625,0.0555957133381205,NaN,0,0.0139882274201861,5000,0.981184840202332,0.981184840202332,0.981184840202332,3677.19307910204,2802.88996818359,6480.08304728563,,,25.0299999713898,50,14766.4061043232,15021.9179045878
2011-06-01T05:03:26Z,1306904606,B005,55.708526,25.4468196,2907.75,-0.1,11.1,174,-54097.99,-79879.18,174.6,Weapon+Missile,Red,Allies,R-27ET,,xu,,258.185526335986,228.062789916992,0.784571536381553,2907.74780273438,2857.74780273438,253.377300596402,49.595458984375,0.0571798106362593,NaN,0,0.0139882274201861,5000,0.982545137405396,0.982545137405396,0.982545137405396,3332.98830046952,2851.52649896851,6184.51479943802,,,26.0299999713898,50,15021.0423404103,15281.4520086864
2011-06-01T05:03:27Z,1306904607,B005,55.7087771,25.44465,2955.05,-0.1,11.1,174,-54075.07,-80119.7,174.6,Weapon+Missile,Red,Allies,R-27ET,,xu,,246.191251088948,216.649551391602,0.748550209964677,2955.04614257812,2907.46624755859,241.605047879316,47.29833984375,0.0547841705026195,NaN,0,0.0139882274201861,5000,0.98228520154953,0.98228520154953,0.98228520154953,3030.50660563707,2897.91032541138,5928.41693104845,,,27.0299999713898,47.5798950195312,15263.8677971528,15528.9505901767
2011-06-01T05:03:28Z,1306904608,B005,55.7090133,25.4426093,2999.54,-0.1,11.1,174,-54053.51,-80345.95,174.6,Weapon+Missile,Red,Allies,R-27ET,,xu,,231.597643738174,202.993240356445,0.704556327554552,2999.54443359375,2957.15148925781,227.282578922721,44.498291015625,0.0558892518410394,NaN,0,0.0139882274201861,5000,0.982912182807922,0.982912182807922,0.982912182807922,2681.8734292537,2941.54824197021,5623.42167122391,,,28.0299999713898,42.3929443359375,15492.2799517127,15761.7615203194
2011-06-01T05:03:29Z,1306904609,B005,55.7092394,25.4406563,3042.14,0,11.1,174,-54032.87,-80562.48,174.6,Weapon+Missile,Red,Allies,R-27ET,,xu,,221.636797282231,193.624038696289,0.674600990947421,3042.140625,3004.26513671875,217.505021521819,42.59619140625,0.0555468066779595,NaN,0.199987938897973,0.0139882274201861,5000,0.981269240379333,0.981269240379333,0.981269240379333,2456.14349547625,2983.32083601562,5439.46433149187,,,29.0299999713898,37.87548828125,15710.8758453831,15984.5705741768
2011-06-01T05:03:30Z,1306904610,B005,55.7094553,25.438791,3082.82,0,11.1,174,-54013.15,-80769.27,174.6,Weapon+Missile,Red,Allies,R-27ET,,xu,,211.68072167394,184.334487915039,0.644614540823599,3082.81982421875,3046.11421585083,207.735241784636,40.67919921875,0.0552831281385597,NaN,0,0.0139882274201861,5000,0.982599496841431,0.982599496841431,0.982599496841431,2240.43639642,3023.21350291748,5263.64989933748,,,30.0299999713898,36.7056083679199,15919.6465544662,16197.3659486265
2011-06-01T05:03:31Z,1306904611,B005,55.7096591,25.4370307,3121.22,0,11.1,174,-53994.54,-80964.43,174.6,Weapon+Missile,Red,Allies,R-27ET,,xu,,199.76618303826,173.379013061523,0.608615002198898,3121.2177734375,3085.44776916504,196.041131861326,38.39794921875,0.0575459926879509,NaN,0,0.0139882274201861,5000,0.980584740638733,0.980584740638733,0.980584740638733,1995.32639428377,3060.86902778809,5056.19542207186,,,31.0299999713898,35.7700042724609,16116.6726526646,16398.1928759018
2011-06-01T05:03:32Z,1306904612,B005,55.7098553,25.4353363,3158.17,0,11.1,174,-53976.62,-81152.28,174.6,Weapon+Missile,Red,Allies,R-27ET,,xu,,192.287987881139,166.438674926758,0.586094033136955,3158.16918945312,3122.83551025391,188.704168310659,36.951416015625,0.062134379606208,NaN,0,0.14637611657589,5000,0.826393783092499,0.826393783092499,0.826393783092499,1848.73351416886,3097.10598817505,4945.83950234391,,,32.0299999713898,35.3336791992188,16306.3184419108,16591.4966521848
2011-06-01T05:03:33Z,1306904613,B005,55.7100409,25.4337334,3191.57,0.1,9.4,174,-53959.69,-81329.98,174.6,Weapon+Missile,Red,Allies,R-27ET,,xu,,181.606841938182,156.736038208008,0.553762178831238,3191.572265625,3155.00219726562,178.508485907577,33.403076171875,0.0516709695272009,NaN,0.20000001179094,1.68464833625878,3696.4652782307,0.0968687981367111,0.0968687981367111,0.0968687981367111,1649.05225193799,3129.86321586914,4778.91546780713,,,33.0299999713898,36.570068359375,16485.7294239782,16774.0784666056
2011-06-01T05:03:34Z,1306904614,B005,55.7102205,25.4321808,3215.21,0.3,6.2,174,-53943.28,-81502.11,174.6,Weapon+Missile,Red,Allies,R-27ET,,xu,,174.51345398299,150.314590454102,0.532285427793516,3215.20776367188,3176.55914306641,172.905491101785,23.635498046875,0.0456429717289652,NaN,0.200000025131153,3.17693997591319,3058.16262847476,0.00356786721386015,0.00356786721386015,0.00356786721386015,1522.74728105366,3153.04172156128,4675.78900261494,,,34.0299999713898,38.6486206054688,16659.4994932828,16949.5350510149
2011-06-01T05:03:35Z,1306904615,B005,55.7103936,25.4306834,3228.37,0.5,2.8,174,-53927.48,-81668.12,174.6,Weapon+Missile,Red,Allies,R-27ET,,xu,,167.276654193699,143.867752075195,0.510293953579844,3228.37377929688,3187.54040527344,166.757713677061,13.166015625,0.0427662299797365,NaN,0.20000005181158,3.32693583928514,2812.67946591422,0.00354812713339925,0.00354812713339925,0.00354812713339925,1399.07395191193,3165.95317227417,4565.0271241861,,,35.0299999713898,40.8333740234375,16827.0986268808,17117.734927372
2011-06-01T05:03:36Z,1306904616,B005,55.7105607,25.4292378,3231.48,0.6,-0.7,174,-53912.23,-81828.38,174.6,Weapon+Missile,Red,Allies,R-27ET,,xu,,161.012176220758,138.361145019531,0.49120209725587,3231.48388671875,3186.98077392578,160.982136037415,3.110107421875,0.0563453804446858,NaN,0.138461488132793,3.47696243850835,2606.11473552964,0.000800262787379324,0.000800262787379324,0.000800262787379324,1296.24604456723,3169.00314576904,4465.24919033627,,,36.0299999713898,44.5031127929688,16988.8895021816,17279.637609517
2011-06-01T05:03:37Z,1306904617,B005,55.7107226,25.4278367,3224.85,0.8,-4.3,174,-53897.44,-81983.73,174.6,Weapon+Missile,Red,Allies,R-27ET,,xu,,156.194726661534,134.193771362305,0.476467068068564,3224.85302734375,3177.73950195312,156.053914852593,-6.630859375,0.094543390459961,NaN,0.16923074329176,3.59619192820739,2459.7771299128,0.00131279020570219,0.00131279020570219,0.00131279020570219,1219.83963184357,3162.50049406006,4382.34012590363,,,37.0299999713898,47.113525390625,17145.7104995311,17436.6780315561
2011-06-01T05:03:38Z,1306904618,B005,55.7108795,25.4264793,3208.78,0.9,-8,174,-53883.1,-82134.2,174.6,Weapon+Missile,Red,Allies,R-27ET,,xu,,152.010543608923,130.644332885742,0.463612848918862,3208.775390625,3158.494140625,151.157914003271,-16.07763671875,0.0857234075977309,NaN,0.199999998450727,3.64652188465392,2359.26366803514,0.00484628975391388,0.00484628975391388,0.00484628975391388,1155.36026841402,3146.73371844727,4302.09398686129,,,38.0299999713898,50.28125,17297.6344560551,17589.5265400128
2011-06-01T05:03:39Z,1306904619,B005,55.7110316,25.4251668,3183.62,1,-11.6,174,-53869.2,-82279.71,174.5,Weapon+Missile,Red,Allies,R-27ET,,xu,,148.318051809584,127.580024719238,0.452213187309401,3183.62475585938,3130.97706604004,146.170072393348,-25.150634765625,0.0324560748067486,NaN,0.200000105172432,3.71187697661401,2282.03697262903,0.00638813804835081,0.00638813804835081,0.00638813804835081,1099.91222462952,3122.06937120483,4221.98159583436,,,39.0299999713898,52.6476898193359,17444.5390373161,17738.6410767302
2011-06-01T05:03:40Z,1306904620,B005,55.7111798,25.4238925,3149.59,1,-15.4,173.9,-53855.67,-82420.99,174.5,Weapon+Missile,Red,Allies,R-27ET,,xu,,145.952959726238,125.7265625,0.444818521637669,3149.58544921875,3094.83963012695,141.928122851937,-34.039306640625,0.0157276115349181,NaN,0,3.70768537489774,2245.14117963118,0.0088065005838871,0.0088065005838871,0.0088065005838871,1065.11332264245,3088.68821455811,4153.80153720055,,,40.0299999713898,54.7458190917969,17587.1804020184,17885.3565891211
2011-06-01T05:03:41Z,1306904621,B005,55.7113239,25.4226591,3107.03,1.1,-19.1,173.9,-53842.49,-82557.73,174.5,Weapon+Missile,Red,Allies,R-27ET,,xu,,143.815605836278,124.119819641113,0.438078643437968,3107.03076171875,3050.63198852539,137.375496555365,-42.5546875,0.0452333013696158,NaN,0,3.69614406274771,2236.12473661734,0.00894561223685741,0.00894561223685741,0.00894561223685741,1034.14642410278,3046.95632194092,4081.1027460437,,,41.0299999713898,56.3987731933594,17725.2387490126,18029.8893194929
2011-06-01T05:03:42Z,1306904622,B005,55.7114653,25.4214558,3055.86,1.2,-22.8,173.9,-53829.55,-82691.14,174.4,Weapon+Missile,Red,Allies,R-27ET,,xu,,143.468262170142,124.129264831543,0.436750071085006,3055.85913085938,3001.1123046875,134.032109754762,-51.171630859375,0.0613272925293826,NaN,0.200000105172432,3.67725005195616,2272.22619650452,0.0109629472717643,0.0109629472717643,0.0109629472717643,1029.15711250603,2996.77409456421,4025.93120707024,,,42.0299999713898,54.746826171875,17859.9412609191,18174.0449270039
2011-06-01T05:03:43Z,1306904623,B005,55.7116033,25.4202904,2996.66,1.2,-26.3,173.8,-53816.92,-82820.34,174.4,Weapon+Missile,Red,Allies,R-27ET,,xu,,142.680001969569,123.799087524414,0.434039806615504,2996.65991210938,2943.96325683594,129.81924149149,-59.19921875,0.026422128863456,NaN,0,3.59645104850902,2311.30123986154,0.0129024488851428,0.0129024488851428,0.0129024488851428,1017.87914810181,2938.71949270874,3956.59864081055,,,43.0299999713898,52.6966552734375,17990.415139055,18317.3771932861
2011-06-01T05:03:44Z,1306904624,B005,55.7117382,25.4191626,2929.71,1.3,-29.8,173.8,-53804.57,-82945.38,174.3,Weapon+Missile,Red,Allies,R-27ET,,xu,,142.371086033315,123.935623168945,0.432750343761706,2929.71069335938,2878.80737304688,125.647635262548,-66.94921875,0.023391853093508,NaN,0.199999891729021,3.45418140974883,2403.98383491754,0.0153766935691237,0.0153766935691237,0.0153766935691237,1013.47630691528,2873.06473710327,3886.54104401855,,,44.0299999713898,50.9033203125,18116.687868834,18460.3520828392
2011-06-01T05:03:45Z,1306904625,B005,55.7118704,25.4180674,2855.1,1.3,-33.1,173.7,-53792.44,-83066.81,174.3,Weapon+Missile,Red,Allies,R-27ET,,xu,,143.037579003857,124.980735778809,0.434385617113474,2855.09521484375,2806.97912597656,122.033927139828,-74.615478515625,0.0328894603865324,NaN,0,3.29727211427636,2507.46613913868,0.0176092945039272,0.0176092945039272,0.0176092945039272,1022.98745036423,2799.89194886475,3822.87939922898,,,45.0299999713898,48.1160888671875,18239.3307035631,18603.9570259191
2011-06-01T05:03:46Z,1306904626,B005,55.7120008,25.4170009,2772.76,1.3,-36.3,173.6,-53780.46,-83185.06,174.2,Weapon+Missile,Red,Allies,R-27ET,,xu,,144.586622185935,126.862510681152,0.438655424423064,2772.76293945312,2726.76391601562,118.855743420924,-82.332275390625,0.0512557443670262,NaN,0,3.20105737387251,2648.92894250346,0.0163017269223928,0.0163017269223928,0.0163017269223928,1045.26456575692,2719.1515680188,3764.41613377572,,,46.0299999713898,45.9990234375,18358.7799688627,18749.075333014
2011-06-01T05:03:47Z,1306904627,B005,55.7121279,25.415976,2684.04,1.3,-39.3,173.5,-53768.78,-83298.7,174.1,Weapon+Missile,Red,Allies,R-27ET,,xu,,144.641128973502,127.462562561035,0.438353892503756,2684.03686523438,2640.24914550781,114.231081341542,-88.72607421875,0.0203563991632867,NaN,0,3.06640211537641,2799.45781810865,0.0218237470835447,0.0218237470835447,0.0218237470835447,1046.05280953646,2632.14101244507,3678.19382198153,,,47.0299999713898,43.7877197265625,18473.5815430753,18894.2062935424
2011-06-01T05:03:48Z,1306904628,B005,55.7122539,25.4149756,2587.78,1.4,-42.3,173.4,-53757.18,-83409.62,174,Weapon+Missile,Red,Allies,R-27ET,,xu,,147.321372252751,130.464050292969,0.445962525004301,2587.78076171875,2544.78076171875,111.527347580864,-96.256103515625,0.0645344317403279,NaN,0,2.87794268202377,3009.96598233465,0.020782295614481,0.020782295614481,0.020782295614481,1085.17933612168,2537.74602069092,3622.9253568126,,,48.0299999713898,43,18585.662733641,19041.9825301521
2011-06-01T05:03:49Z,1306904629,B005,55.712377,25.4140133,2485.61,1.4,-45,173.3,-53745.81,-83516.3,173.9,Weapon+Missile,Red,Allies,R-27ET,,xu,,148.156131511803,131.864624023438,0.4479425236051,2485.60986328125,2442.79406738281,107.290944711176,-102.1708984375,0.0600367571977816,NaN,0,2.80486136545193,3028.51745556902,0.0203431490808725,0.0203431490808725,0.0203431490808725,1097.51196522713,2437.55059657471,3535.06256180183,,,49.0299999713898,42.8157958984375,18693.4981362518,19190.5645548808
