ISOTime,UnixTime,Id,Longitude,Latitude,Altitude,Roll,Pitch,Yaw,U,V,Heading,Type,Color,Coalition,Name,Group,Country,Pilot,TAS,CAS,M,ASL,AGL,GS,VS,AOA,AOS,RRT,TRT,TRD,G,LatG,LonG,Ek,Ep,Em,FFW,FFV,RelativeTime,Elev,GroundDistance,AirDistance
2011-06-01T05:03:42Z,1306904622,D709,55.4888358,25.9753286,3027.34,-0.2,-6.9,228.5,-75520.25,-21107.47,229.1,Weapon+Missile,Red,Allies,R-27ER,,xu,,300.359466838325,265.550811767578,0.914047481438941,3027.34301757812,3027.34301757812,NaN,NaN,NaN,NaN,NaN,NaN,NaN,NaN,NaN,NaN,NaN,2968.80934033325,NaN,,,0.279999971389771,0,NaN,NaN
2011-06-01T05:03:43Z,1306904623,D709,55.4863892,25.9733867,2975.04,-0.2,-6.9,228.5,-75767.69,-21319.74,229.1,Weapon+Missile,Red,Allies,R-27ER,,xu,,330.180144686408,293.858276367188,1.00416256794357,2975.03540039062,2975.03540039062,326.010492360757,-52.3076171875,2.05240095870683,NaN,0,4.95949240213305,5000,1.98871970176697,1.98871970176697,1.98871970176697,5450.94639725685,2917.51309092407,8368.45948818092,,,1.27999997138977,0,326.609380171573,330.923234016822
2011-06-01T05:03:44Z,1306904624,D709,55.4825296,25.9701149,2899.01,-0.1,-7.2,223.9,-76158.33,-21677.67,224.6,Weapon+Missile,Red,Allies,R-27ER,,xu,,535.251125736291,473.715148925781,1.62634439691132,2899.00903320312,2899.00903320312,529.82427189988,-76.0263671875,0.361017456879838,NaN,0.199987938897973,4.16221183916046,4343.08371869291,8.62901592254639,8.62901592254639,8.62901592254639,14324.6883800983,2842.95669354614,17167.6450736445,,,2.27999997138977,0,857.508973908229,867.480803216775
2011-06-01T05:03:45Z,1306904625,D709,55.4776258,25.9647933,2803.43,0.4,-6.9,215.3,-76656.18,-22261.42,216,Weapon+Missile,Red,Allies,R-27ER,,xu,,773.151287261829,674.257019042969,2.34649638552238,2803.42749023438,2803.42749023438,767.220360547305,-95.58154296875,0.209604443210973,NaN,0.646153824729778,8.32734785305933,5000,13.4403305053711,13.4403305053711,13.4403305053711,29888.1456497312,2749.22321971069,32637.3688694419,,,3.27999997138977,0,1626.79031192837,1643.01856870286
2011-06-01T05:03:46Z,1306904626,D709,55.472567,25.9572432,2693.74,0.8,-6.1,209.1,-77172.48,-23091.82,209.7,Weapon+Missile,Red,Allies,R-27ER,,xu,,983.949222298628,856.170654296875,2.98233377654222,2693.73681640625,2693.73681640625,977.81594798674,-109.690673828125,0.182272930029943,NaN,0,5.75981058838619,5000,4.92630290985107,4.92630290985107,4.92630290985107,48407.8036031038,2641.65341506104,51049.4570181648,,,4.27999997138977,0,2607.99008169566,2630.75081212524
2011-06-01T05:03:47Z,1306904627,D709,55.4677957,25.9492909,2583.84,0.6,-6.4,207.8,-77660.57,-23967.1,208.4,Weapon+Missile,Red,Allies,R-27ER,,xu,,1008.17801317457,881.36474609375,3.05175297033919,2583.84155273438,2583.84155273438,1002.17061285547,-109.895263671875,0.0518061921942964,NaN,0.24616001768726,1.84023353552762,5000,3.18124318122864,3.18124318122864,3.18124318122864,50821.1453124315,2533.88297631226,53355.0282887437,,,5.27999997138977,0,3613.8423118793,3643.00226926414
2011-06-01T05:03:48Z,1306904628,D709,55.4632663,25.9411607,2469.75,0.5,-6.5,205.7,-78124.72,-24862.34,206.4,Weapon+Missile,Red,Allies,R-27ER,,xu,,1014.84591164785,891.876770019531,3.06775472238275,2469.75219726562,2469.75219726562,1008.41253629509,-114.08935546875,0.038791049518068,NaN,0.199987938897973,1.73133129185364,5000,3.12638282775879,3.12638282775879,3.12638282775879,51495.6112194181,2421.99953853149,53917.6107579495,,,6.27999997138977,0,4626.10686022193,4662.07436810573
2011-06-01T05:03:49Z,1306904629,D709,55.4590588,25.933024,2356.53,0.5,-6.3,204.4,-78556.71,-25758.68,205.1,Weapon+Missile,Red,Allies,R-27ER,,xu,,1001.42629396006,885.016418457031,3.02311018255296,2356.53002929688,2356.53002929688,995.005207481367,-113.22216796875,0.0445346098192149,NaN,0,1.41758761954616,5000,2.62703466415405,2.62703466415405,2.62703466415405,50142.7311117291,2310.96652118042,52453.6976329096,,,7.27999997138977,0,5625.02591110675,5667.76504063864
2011-06-01T05:03:50Z,1306904630,D709,55.4550038,25.9247536,2249.07,0.6,-6,203.4,-78973.65,-26669.98,204.1,Weapon+Missile,Red,Allies,R-27ER,,xu,,1007.89743935632,895.144165039062,3.03876448430342,2249.06982421875,2249.06982421875,1002.15245975131,-107.460205078125,0.0547352138026557,NaN,0,0.929284482455553,5000,1.80309283733368,1.80309283733368,1.80309283733368,50792.8624130517,2205.58405916748,52998.4464722192,,,8.27999997138977,0,6631.21065235887,6680.03309423664
2011-06-01T05:03:51Z,1306904631,D709,55.4510591,25.916451,2145.42,0.5,-5.8,203.1,-79379.63,-27584.98,203.8,Weapon+Missile,Red,Allies,R-27ER,,xu,,1006.37378374862,898.176330566406,3.03044716272674,2145.41918945312,2145.41918945312,1001.02184717877,-103.650634765625,0.0237872328801205,NaN,0,0.471472910645465,5000,1.64907288551331,1.64907288551331,1.64907288551331,50639.4096308261,2103.93750942505,52743.3471402512,,,9.27999997138977,0,7636.30322618677,7690.80046797094
2011-06-01T05:03:52Z,1306904632,D709,55.4471566,25.9081929,2048.73,0.5,-5.5,203.2,-79781.38,-28495.08,203.9,Weapon+Missile,Red,Allies,R-27ER,,xu,,999.514828712951,896.208068847656,3.00635548805788,2048.728515625,2048.728515625,994.827023362224,-96.690673828125,0.0214665329699171,NaN,0.199987938897973,0.209123290232439,5000,1.05705785751343,1.05705785751343,1.05705785751343,49951.494640854,2009.11634977539,51960.6109906294,,,10.2799999713898,0,8635.18455467798,8694.67755912614
2011-06-01T05:03:53Z,1306904633,D709,55.4432647,25.9000796,1952.57,0.3,-5.8,203.6,-80181.95,-29389.16,204.3,Weapon+Missile,Red,Allies,R-27ER,,xu,,984.417957091167,886.8671875,2.95759144569485,1952.57385253906,1952.57385253906,979.710669029574,-96.1546630859375,0.035397240845036,NaN,0.199987938897973,0.33455163017051,5000,0.782874405384064,0.782874405384064,0.782874405384064,48453.9357121773,1914.82083710022,50368.7565492775,,,11.2799999713898,0,9618.85322814991,9683.34175724307
2011-06-01T05:03:54Z,1306904634,D709,55.4395606,25.8924618,1858.49,0.2,-5.9,203.9,-80563.08,-30228.54,204.6,Weapon+Missile,Red,Allies,R-27ER,,xu,,926.650609952479,839.366943359375,2.78095461665616,1858.48693847656,1858.48693847656,921.861706291945,-94.0869140625,0.0568420485979227,NaN,0.199987938897973,0.425898926975805,5000,1.40295398235321,1.40295398235321,1.40295398235321,42934.067646265,1822.55309352112,44756.6207397862,,,12.2799999713898,0,10544.4375085505,10613.9708899161
2011-06-01T05:03:55Z,1306904635,D709,55.4360795,25.8854928,1772.92,0.2,-5.6,204.8,-80921.08,-30996.34,205.5,Weapon+Missile,Red,Allies,R-27ER,,xu,,851.464244862987,775.630126953125,2.55274833655176,1772.92224121094,1772.92224121094,847.154084486369,-85.564697265625,0.0685661993146948,NaN,0,0.802370282888313,5000,1.91848301887512,1.91848301887512,1.91848301887512,36249.5680140048,1738.64278967712,37988.210803682,,,13.2799999713898,0,11394.962672956,11469.0301259041
2011-06-01T05:03:56Z,1306904636,D709,55.432678,25.8789817,1694.95,0.2,-5.6,205.9,-81270.49,-31713.48,206.6,Weapon+Missile,Red,Allies,R-27ER,,xu,,801.536814194666,733.762145996094,2.40086761553988,1694.9453125,1694.9453125,797.734832571666,-77.9769287109375,0.0712983706629731,NaN,0,1.23989096349988,5000,2.37413668632507,2.37413668632507,2.37413668632507,32123.0632254668,1662.17354488281,33785.2367703496,,,14.2799999713898,0,12195.8373947436,12273.908691671
2011-06-01T05:03:57Z,1306904637,D709,55.4293455,25.873024,1623.76,0.2,-5.4,208,-81612.33,-32369.41,208.7,Weapon+Missile,Red,Allies,R-27ER,,xu,,743.078013349379,683.773620605469,2.22391159906485,1623.76379394531,1623.76379394531,739.660817766838,-71.1815185546875,0.0559736877765016,NaN,0,1.91191146166844,5000,3.22469782829285,3.22469782829285,3.22469782829285,27608.246696163,1592.36832098938,29200.6150171523,,,15.2799999713898,0,12938.3033182096,13019.9712399273
2011-06-01T05:03:58Z,1306904638,D709,55.4260062,25.8676025,1561.5,0.2,-4.9,210.4,-81954.16,-32965.94,211.1,Weapon+Missile,Red,Allies,R-27ER,,xu,,690.339276396765,638.38134765625,2.0645711362358,1561.49841308594,1561.49841308594,687.52551871363,-62.265380859375,0.0403064191000626,NaN,0.0461537760167447,2.48105404973267,5000,3.43873691558838,3.43873691558838,3.43873691558838,23828.4158268005,1531.30684126892,25359.7226680694,,,16.2799999713898,0,13628.3097246541,13712.9529269542
2011-06-01T05:03:59Z,1306904639,D709,55.4226121,25.8626285,1508.6,0.4,-4.4,213.1,-82300.9,-33512.81,213.8,Weapon+Missile,Red,Allies,R-27ER,,xu,,649.689510420193,603.363464355469,1.94180293641695,1508.59924316406,1508.59924316406,647.532344961706,-52.899169921875,0.0687554375218372,NaN,0.184615370871243,2.69836868445109,5000,3.3692889213562,3.3692889213562,3.3692889213562,21104.8229975015,1479.43047679749,22584.253474299,,,17.2799999713898,0,14278.0536163304,14365.0025265325
2011-06-01T05:04:00Z,1306904640,D709,55.4192037,25.8581143,1464.94,0.2,-4.4,215.6,-82648.5,-34008.73,216.3,Weapon+Missile,Red,Allies,R-27ER,,xu,,607.186202302619,566.299072265625,1.81384550826051,1464.94311523438,1464.94311523438,605.61475110904,-43.6561279296875,0.195630193076761,NaN,0.47691112860697,2.08268518738238,5000,1.68654334545135,1.68654334545135,1.68654334545135,18433.7542133339,1436.61844010132,19870.3726534352,,,18.2799999713898,0,14885.5929873731,14974.2496393087
2011-06-01T05:04:01Z,1306904641,D709,55.4158824,25.8539615,1417.53,0,-4.9,216,-82986.92,-34464.72,216.7,Weapon+Missile,Red,Allies,R-27ER,,xu,,569.826763087328,533.786254882812,1.7013027165928,1417.53149414062,1417.53149414062,567.850929484002,-47.41162109375,0.0346737938939524,NaN,0,0.906902272710538,5000,0.874845743179321,0.874845743179321,0.874845743179321,16235.1269965291,1390.12352270142,17625.2505192305,,,19.2799999713898,0,15455.1647799397,15545.9195763799
2011-06-01T05:04:02Z,1306904642,D709,55.4127635,25.8500745,1371.94,0,-4.9,216,-83304.71,-34891.5,216.7,Weapon+Missile,Red,Allies,R-27ER,,xu,,534.048105570712,502.480773925781,1.59363527064124,1371.93994140625,1371.93994140625,532.098477147731,-45.591552734375,0.0135066605008205,NaN,0,0.0585169653632099,5000,0.993878841400146,0.993878841400146,0.993878841400146,14260.3689531833,1345.41348263916,15605.7824358225,,,20.2799999713898,0,15988.8745501331,16081.6893956538
2011-06-01T05:04:03Z,1306904643,D709,55.409803,25.8463847,1328.64,0,-4.9,216,-83606.38,-35296.62,216.7,Weapon+Missile,Red,Allies,R-27ER,,xu,,506.955660638569,478.800109863281,1.51202900106684,1328.63842773438,1328.63842773438,505.102980358671,-43.301513671875,0.0142024892538596,NaN,0,0,5000,0.99589204788208,0.99589204788208,0.99589204788208,12850.2020926744,1302.94920373413,14153.1512964085,,,21.2799999713898,0,16495.5088869775,16590.2777011581
2011-06-01T05:04:04Z,1306904644,D709,55.4070032,25.842895,1287.68,0,-4.9,216,-83891.7,-35679.77,216.7,Weapon+Missile,Red,Allies,R-27ER,,xu,,479.463179980947,454.540374755859,1.42935142934712,1287.68078613281,1287.68078613281,477.710594975535,-40.9576416015625,0.0152018361767256,NaN,0,0,5000,0.996559381484985,0.996559381484985,0.996559381484985,11494.2470478721,1262.78347813293,12757.030526005,,,22.2799999713898,0,16974.6632171871,17071.2772727197
2011-06-01T05:04:05Z,1306904645,D709,55.40438,25.8396252,1249.31,0,-4.9,216,-84159.03,-36038.77,216.7,Weapon+Missile,Red,Allies,R-27ER,,xu,,449.247758336639,427.520385742188,1.33867910788815,1249.30615234375,1249.30615234375,447.605781745556,-38.3746337890625,0.0122049621315626,NaN,0,0,5000,0.997070968151093,0.997070968151093,0.997070968151093,10091.1774185248,1225.15081788818,11316.328236413,,,23.2799999713898,0,17423.6209822204,17521.9610527773
2011-06-01T05:04:06Z,1306904646,D709,55.4018974,25.8365303,1212.99,0,-4.9,216,-84412.05,-36378.57,216.7,Weapon+Missile,Red,Allies,R-27ER,,xu,,425.204441078911,405.875518798828,1.26650147451015,1212.99230957031,1212.99230957031,423.650943037136,-36.3138427734375,0.0158899891331618,NaN,0,0,5000,0.995304703712463,0.995304703712463,0.995304703712463,9039.94083566144,1189.53910326477,10229.4799389262,,,24.2799999713898,0,17848.5500317627,17948.5206694525
2011-06-01T05:04:07Z,1306904647,D709,55.3995584,25.8336143,1178.77,0,-4.9,216,-84650.44,-36698.71,216.7,Weapon+Missile,Red,Allies,R-27ER,,xu,,400.609047192406,383.401916503906,1.19276986589656,1178.76916503906,1178.76916503906,399.144566630689,-34.22314453125,0.0125234620178985,NaN,0,0,5000,0.996330261230469,0.996330261230469,0.996330261230469,8024.38043462038,1155.97766323303,9180.35809785341,,,25.2799999713898,0,18248.909080635,18350.4145659347
2011-06-01T05:04:08Z,1306904648,D709,55.3973454,25.8308553,1146.39,0,-4.9,216,-84876.02,-37001.62,216.7,Weapon+Missile,Red,Allies,R-27ER,,xu,,379.062933678961,363.448974609375,1.12819610700614,1146.38623046875,1146.38623046875,377.677181251284,-32.3829345703125,0.016112181416156,NaN,0,0,5000,0.996670067310333,0.996670067310333,0.996670067310333,7184.43538446501,1124.22085270264,8308.65623716765,,,26.2799999713898,0,18627.7174885267,18730.6733996645
2011-06-01T05:04:09Z,1306904649,D709,55.3952607,25.8282561,1115.88,0,-4.9,216,-85088.51,-37286.98,216.7,Weapon+Missile,Red,Allies,R-27ER,,xu,,357.093231030624,342.726654052734,1.0624336528346,1115.88305664062,1115.88305664062,355.78804369217,-30.503173828125,0.0136217519223657,NaN,0,0,5000,0.996819198131561,0.996819198131561,0.996819198131561,6375.77878239453,1094.30745774048,7470.08624013501,,,27.2799999713898,0,18984.5798736423,19088.9001152062
2011-06-01T05:04:10Z,1306904650,D709,55.393313,25.8258274,1087.39,0,-4.9,216,-85287.05,-37553.6,216.7,Weapon+Missile,Red,Allies,R-27ER,,xu,,333.641353234346,320.2470703125,0.992332400047809,1087.3876953125,1087.3876953125,332.422272073977,-28.495361328125,0.0138784868610428,NaN,0,0,5000,0.995615422725677,0.995615422725677,0.995615422725677,5565.82762940228,1066.36305422363,6632.19068362591,,,28.2799999713898,0,19318.0227052302,19423.6156936275
2011-06-01T05:04:11Z,1306904651,D709,55.3914723,25.8235324,1060.45,0,-4.9,216,-85474.68,-37805.57,216.7,Weapon+Missile,Red,Allies,R-27ER,,xu,,315.31236551755,302.667877197266,0.937525953218823,1060.45080566406,1060.45080566406,314.159659766083,-26.9368896484375,0.0130993711507805,NaN,0,0,5000,0.99728924036026,0.99728924036026,0.99728924036026,4971.09439241365,1039.94698933655,6011.04138175019,,,29.2799999713898,0,19633.125540178,19739.9206592589
2011-06-01T05:04:12Z,1306904652,D709,55.3897345,25.8213653,1035.03,0,-4.9,216,-85651.83,-38043.48,216.7,Weapon+Missile,Red,Allies,R-27ER,,xu,,297.706537368799,285.79150390625,0.884918606266058,1035.02697753906,1035.02697753906,296.618966614731,-25.423828125,0.0119156507987998,NaN,0,0,5000,0.995251893997192,0.995251893997192,0.995251893997192,4431.45911960602,1015.01473092834,5446.47385053436,,,30.2799999713898,0,19930.6465127457,20038.5746137785
2011-06-01T05:04:13Z,1306904653,D709,55.3880719,25.8192919,1010.69,0,-4.9,216,-85821.34,-38271.11,216.7,Weapon+Missile,Red,Allies,R-27ER,,xu,,284.847834572041,273.537963867188,0.846459247507367,1010.69079589844,1010.69079589844,283.806340879719,-24.336181640625,0.0161707181801577,NaN,0,0,5000,0.996617555618286,0.996617555618286,0.996617555618286,4056.91444301903,991.149089359741,5048.06353237877,,,31.2799999713898,0,20215.3014073462,20324.313392767
2011-06-01T05:04:14Z,1306904654,D709,55.3864883,25.817317,987.51,0,-4.9,216,-85982.78,-38487.92,216.7,Weapon+Missile,Red,Allies,R-27ER,,xu,,271.3074378678,260.610717773438,0.806007113626609,987.513854980469,987.513854980469,270.315658540298,-23.1769409179688,0.0137384208194659,NaN,0,0,5000,0.996862232685089,0.996862232685089,0.996862232685089,3680.38629211951,968.420274594421,4648.80656671393,,,32.2799999713898,0,20486.4360383701,20596.4791358534
2011-06-01T05:04:15Z,1306904655,D709,55.3849832,25.8154399,965.49,0,-4.9,216,-86136.23,-38693.99,216.7,Weapon+Missile,Red,Allies,R-27ER,,xu,,257.867191089569,247.77165222168,0.765884241318306,965.489990234375,965.489990234375,256.924964964618,-22.0238647460938,0.0151274772730006,NaN,0,0,5000,0.995864808559418,0.995864808559418,0.995864808559418,3324.77441202123,946.822241273193,4271.59665329442,,,33.2799999713898,0,20744.1403210467,20855.1621172721
2011-06-01T05:04:16Z,1306904656,D709,55.3835304,25.813628,944.23,0,-4.9,216,-86284.35,-38892.9,216.7,Weapon+Missile,Red,Allies,R-27ER,,xu,,248.914478110515,239.287551879883,0.739113142821028,944.226135253906,944.226135253906,248.004568273247,-21.2638549804688,0.0152683245502247,NaN,0,0,5000,0.996338605880737,0.996338605880737,0.996338605880737,3097.92087065149,925.969522928772,4023.89039358026,,,34.2799999713898,0,20992.8895524542,21104.8556489426
2011-06-01T05:04:17Z,1306904657,D709,55.3821391,25.8118927,923.86,0,-4.9,216,-86426.21,-39083.41,216.7,Weapon+Missile,Red,Allies,R-27ER,,xu,,238.394749610956,229.269287109375,0.70771062426973,923.860778808594,923.860778808594,237.523280751437,-20.3653564453125,0.0144854243702819,NaN,0,0,5000,0.996102392673492,0.996102392673492,0.996102392673492,2841.60283210352,905.99793065033,3747.60076275385,,,35.2799999713898,0,21231.1251097997,21343.9948406522
2011-06-01T05:04:18Z,1306904658,D709,55.3807933,25.8102141,904.16,0,-4.9,216,-86563.44,-39267.68,216.7,Weapon+Missile,Red,Allies,R-27ER,,xu,,230.596059399525,221.885131835938,0.684403991885669,904.1591796875,904.1591796875,229.75288812692,-19.7015991210938,0.0113771871572855,NaN,0,0,5000,0.99690705537796,0.99690705537796,0.99690705537796,2658.72713052947,886.677261948242,3545.40439247771,,,36.2799999713898,0,21461.577983261,21575.3212383482
2011-06-01T05:04:19Z,1306904659,D709,55.3795083,25.8086113,885.35,0,-4.9,216,-86694.46,-39443.63,216.7,Weapon+Missile,Red,Allies,R-27ER,,xu,,220.185641982436,211.953079223633,0.653364871774263,885.352294921875,885.352294921875,219.380988284377,-18.806884765625,0.0148678306765432,NaN,0,0,5000,0.996438503265381,0.996438503265381,0.996438503265381,2424.08584676087,868.234008299561,3292.31985506043,,,37.2799999713898,0,21681.6176390353,21796.1939040315
2011-06-01T05:04:20Z,1306904660,D709,55.3782728,25.8070702,867.27,0,-4.9,216,-86820.44,-39612.81,216.7,Weapon+Missile,Red,Allies,R-27ER,,xu,,211.704518511166,203.884521484375,0.628068053476515,867.270751953125,867.270751953125,210.930938844718,-18.08154296875,0.01499906868253,NaN,0,0,5000,0.996240317821503,0.996240317821503,0.996240317821503,2240.94015790224,850.502071964111,3091.44222986635,,,38.2799999713898,0,21893.1853461657,22008.5618333682
2011-06-01T05:04:21Z,1306904661,D709,55.3770755,25.8055767,849.75,0,-4.9,216,-86942.53,-39776.77,216.7,Weapon+Missile,Red,Allies,R-27ER,,xu,,205.172867432593,197.699523925781,0.608567995912072,849.74609375,849.74609375,204.42307082464,-17.524658203125,0.0156359676235326,NaN,0,0,5000,0.995714783668518,0.995714783668518,0.995714783668518,2104.79527652562,833.316253027344,2938.11152955296,,,39.2799999713898,0,22098.2235640178,22214.3751047639
2011-06-01T05:04:22Z,1306904662,D709,55.3759202,25.8041356,832.83,0,-4.9,216,-87060.34,-39934.97,216.7,Weapon+Missile,Red,Allies,R-27ER,,xu,,197.967335893532,190.851257324219,0.587081502717371,832.830749511719,832.830749511719,197.243345160446,-16.9153442382812,0.0145484323644404,NaN,0,0,5000,0.997322678565979,0.997322678565979,0.997322678565979,1959.55330403913,816.72796696991,2776.28127100904,,,40.2799999713898,0,22296.0591053348,22412.9584775609
2011-06-01T05:04:23Z,1306904663,D709,55.3748086,25.8027488,816.56,0,-4.9,216,-87173.7,-40087.2,216.7,Weapon+Missile,Red,Allies,R-27ER,,xu,,190.496985765864,183.736831665039,0.564822388816138,816.563049316406,816.563049316406,189.801115687541,-16.2677001953125,0.0126038522959085,NaN,0,0,5000,0.995200455188751,0.995200455188751,0.995200455188751,1814.455079294,800.774802757874,2615.22988205187,,,41.2799999713898,0,22486.4357106282,22604.0533834747
2011-06-01T05:04:24Z,1306904664,D709,55.3737366,25.8014115,800.86,0,-4.9,216,-87283.01,-40234.01,216.7,Weapon+Missile,Red,Allies,R-27ER,,xu,,183.710637367193,177.277618408203,0.544602833930771,800.863830566406,800.863830566406,183.038610168729,-15.69921875,0.0129317083697411,NaN,0,0,5000,0.997150421142578,0.997150421142578,0.997150421142578,1687.47991409302,785.379128402405,2472.85904249542,,,42.2799999713898,0,22670.0280800977,22788.3389544173
2011-06-01T05:04:25Z,1306904665,D709,55.3726973,25.8001149,785.65,0,-4.9,216,-87388.99,-40376.34,216.7,Weapon+Missile,Red,Allies,R-27ER,,xu,,178.101893471283,171.953521728516,0.52788385561183,785.651550292969,785.651550292969,177.451038280813,-15.2122802734375,0.0183092173065526,NaN,0,0,5000,0.996257424354553,0.996257424354553,0.996257424354553,1586.0142229028,770.460977568054,2356.47520047086,,,43.2799999713898,0,22848.0218439331,22967.0036530532
2011-06-01T05:04:26Z,1306904666,D709,55.3716906,25.7988589,770.91,0,-4.9,216,-87491.66,-40514.21,216.7,Weapon+Missile,Red,Allies,R-27ER,,xu,,172.526883634079,166.654602050781,0.5112734770099,770.914611816406,770.914611816406,171.896329864326,-14.7369384765625,0.0148431308514731,NaN,0,0,5000,0.910964071750641,0.910964071750641,0.910964071750641,1488.27627882436,756.008977796936,2244.2852566213,,,44.2799999713898,0,23020.4347157142,23140.0661583746
2011-06-01T05:04:27Z,1306904667,D709,55.3707165,25.7976437,755.81,-0.7,-6.3,216,-87591,-40647.61,216.7,Weapon+Missile,Red,Allies,R-27ER,,xu,,167.013104539776,161.414154052734,0.494848087219781,755.814575195312,755.814575195312,166.329089404276,-15.1000366210938,0.0531377944094426,NaN,1.32308960450151,1.5308547809866,3528.28236145981,0.205816894769669,0.205816894769669,0.205816894769669,1394.6688544007,741.200900383911,2135.86975478461,,,45.2799999713898,0,23187.2629296611,23307.596234815
2011-06-01T05:04:28Z,1306904668,D709,55.3697844,25.7964815,733.74,-2,-9.6,216,-87686.05,-40775.19,216.7,Weapon+Missile,Red,Allies,R-27ER,,xu,,160.618711383012,155.364212036133,0.475781647471476,733.739990234375,733.739990234375,159.094572959424,-22.0745849609375,0.0446054944270708,NaN,1.16921910287946,3.16924683503023,2777.48894242832,0.0503756739199162,0.0503756739199162,0.0503756739199162,1289.91852231696,719.553127523193,2009.47164984016,,,46.2799999713898,0,23346.8450513087,23468.716341106
2011-06-01T05:04:29Z,1306904669,D709,55.3688792,25.7953544,703.14,-3.2,-12.9,216,-87778.38,-40898.91,216.8,Weapon+Missile,Red,Allies,R-27ER,,xu,,157.377709811562,152.430130004883,0.466017955288088,703.138427734375,703.138427734375,154.373857625217,-30.6015625,0.0345593089255385,NaN,0.999994336003227,3.27731771661617,2737.86807820494,0.0658733323216438,0.0658733323216438,0.0658733323216438,1238.38717727661,689.543246234131,1927.93042351074,,,47.2799999713898,0,23501.679529344,23626.5630146933
2011-06-01T05:04:30Z,1306904670,D709,55.3680058,25.7942697,664.67,-4.1,-16.2,216.1,-87867.45,-41017.98,216.8,Weapon+Missile,Red,Allies,R-27ER,,xu,,153.594464687897,149.015426635742,0.454615153214883,664.667663574219,664.667663574219,148.698553751189,-38.4707641601562,0.0123383587231237,NaN,0.969231163981489,3.2783795975887,2687.3953158436,0.0778853073716164,0.0778853073716164,0.0778853073716164,1179.56297913808,651.816314299011,1831.37929343709,,,48.2799999713898,0,23650.8193096481,23780.6001660959
2011-06-01T05:04:31Z,1306904671,D709,55.3671585,25.7932215,618.53,-4.9,-19.4,216.2,-87953.84,-41133.03,217,Weapon+Missile,Red,Allies,R-27ER,,xu,,151.093748738539,146.892547607422,0.446977753291905,618.533081054688,618.533081054688,143.878147067626,-46.1345825195312,0.0499524844860141,NaN,0.769243225083516,3.27831983343346,2674.79204777722,0.0877535119652748,0.0877535119652748,0.0877535119652748,1141.46604539324,606.573743932495,1748.03978932573,,,49.2799999713898,0,23795.133822148,23932.1233276852
2011-06-01T05:04:32Z,1306904672,D709,55.3663376,25.7922111,565.16,-5.6,-22.7,216.4,-88037.55,-41243.93,217.1,Weapon+Missile,Red,Allies,R-27ER,,xu,,148.838402583286,145.048889160156,0.44003769931086,565.164611816406,565.164611816406,138.94127023569,-53.3684692382812,0.0887058005194007,NaN,0.569200644672183,3.21078206914673,2686.48995721331,0.0969997271895409,0.0969997271895409,0.0969997271895409,1107.64350417722,554.237154046936,1661.88065822416,,,50.2799999713898,0,23934.4905571674,24081.3617189294
2011-06-01T05:04:33Z,1306904673,D709,55.3655362,25.7912313,504.52,-6.1,-25.8,216.6,-88119.27,-41351.45,217.3,Weapon+Missile,Red,Allies,R-27ER,,xu,,148.04333459461,144.674850463867,0.437384662949542,504.521514892578,504.521514892578,135.052744190479,-60.6430969238281,0.0615156026329498,NaN,0.47691112860697,3.13311257299993,2751.00799974985,0.1082568988204,0.1082568988204,0.1082568988204,1095.84144589459,494.76659140213,1590.60803729672,,,51.2799999713898,0,24069.9479208627,24229.7846282034
2011-06-01T05:04:34Z,1306904674,D709,55.3647603,25.7902907,437.51,-6.5,-28.8,216.9,-88198.37,-41454.69,217.6,Weapon+Missile,Red,Allies,R-27ER,,xu,,146.305614138077,143.413421630859,0.43192114100678,437.513061523438,437.513061523438,130.058448035472,-67.0084533691406,0,NaN,0.369212705774209,3.05427874304305,2795.3196618412,0.116278000175953,0.116278000175953,0.116278000175953,1070.26663641599,429.053746478882,1499.32038289487,,,52.2799999713898,0,24200.376948177,24376.4283347538
2011-06-01T05:04:35Z,1306904675,D709,55.364001,25.7893791,363.76,-6.9,-31.7,217.2,-88275.77,-41554.71,217.9,Weapon+Missile,Red,Allies,R-27ER,,xu,,146.404085133478,143.99674987793,0.431849784889071,363.763824462891,363.763824462891,126.472155736976,-73.7492370605469,0.0465491168268068,NaN,0.399975877795947,2.90544486560365,2907.65711901203,0.124094642698765,0.124094642698765,0.124094642698765,1071.70780718853,356.730450916901,1428.43825810543,,,53.2799999713898,0,24327.2262934868,24523.1652690822
2011-06-01T05:04:36Z,1306904676,D709,55.3632617,25.7885016,284,-7.2,-34.6,217.5,-88351.11,-41651,218.2,Weapon+Missile,Red,Allies,R-27ER,,xu,,145.974018425451,144.098342895508,0.430191812349946,284.003845214844,284.003845214844,122.256941584619,-79.7599792480469,0.0756477508463727,NaN,0.261514282941448,2.59746779394637,4035.21867989731,0.297376126050949,0.297376126050949,0.297376126050949,1065.42070276369,278.512630867615,1343.93333363131,,,54.2799999713898,0,24449.8327652155,24669.4373714541
2011-06-01T05:04:37Z,1306904677,D709,55.3625342,25.7876479,199.82,-6.3,-35,217.7,-88425.24,-41744.65,218.4,Weapon+Missile,Red,Allies,R-27ER,,xu,,146.126980621741,144.805755615234,0.430232322645741,199.821548461914,199.821548461914,119.442184252584,-84.1822967529297,0.0380589591806227,NaN,1.66153828448034,0.759777490028378,5000,1.00934243202209,1.00934243202209,1.00934243202209,1067.65472328133,195.957998822403,1263.61272210373,,,55.2799999713898,0,24569.620372329,24815.8505484566
2011-06-01T05:04:38Z,1306904678,D709,55.3617933,25.7867821,116.59,-4.8,-34.1,217.8,-88500.73,-41839.62,218.5,Weapon+Missile,Red,Allies,R-27ER,,xu,,147.128262167062,146.353057861328,0.432773079764629,116.592300415039,116.592300415039,121.324431990641,-83.229248046875,0.0825608954659968,NaN,1.35381947935104,0.920237470013047,5000,1.04723751544952,1.04723751544952,1.04723751544952,1082.33627641499,114.337988286514,1196.6742647015,,,56.2799999713898,0,24691.2926321284,24963.2682575825
