ISOTime,UnixTime,Id,Longitude,Latitude,Altitude,Roll,Pitch,Yaw,U,V,Heading,Type,Color,Coalition,Name,Group,Country,Pilot,TAS,CAS,M,ASL,AGL,GS,VS,AOA,AOS,RRT,TRT,TRD,G,LatG,LonG,Ek,Ep,Em,FFW,FFV,RelativeTime,Elev,GroundDistance,AirDistance
2011-06-01T05:04:25Z,1306904665,E50F,55.5110174,25.7041807,1313.38,38,2.4,230.9,-73639.7,-51166.53,231.6,Weapon+Missile,Red,Allies,R-27ER,,xu,,295.047925535775,280.02734375,0.879844287816572,1313.3837890625,1313.3837890625,NaN,NaN,NaN,NaN,NaN,NaN,NaN,NaN,NaN,NaN,NaN,1287.98951350098,NaN,,,0.0499999523162842,0,NaN,NaN
2011-06-01T05:04:26Z,1306904666,E50F,55.5087712,25.702423,1305.35,30.9,0.4,231,-73867.29,-51358.67,231.6,Weapon+Missile,Red,Allies,R-27ER,,xu,,297.964811837372,282.941955566406,0.888459699313024,1305.34680175781,1305.34680175781,297.856401523192,-8.0369873046875,3.99308436060634,NaN,6.8461444919139,5.14559331608639,5000,0.892321646213531,0.892321646213531,0.892321646213531,4439.15145466402,1280.10792134583,5719.25937600985,,,1.04999995231628,0,298.406287235685,298.575735360591
2011-06-01T05:04:27Z,1306904667,E50F,55.5051851,25.6997541,1282.6,25.6,-0.1,234.1,-74230.5,-51650.22,234.7,Weapon+Missile,Red,Allies,R-27ER,,xu,,466.303930621717,442.611968994141,1.39003977517763,1282.59619140625,1282.59619140625,465.748607557655,-22.7506103515625,0.844758019619443,NaN,4.2769005337219,2.69444431388609,3861.77383557,7.41252994537354,7.41252994537354,7.41252994537354,10871.9677856632,1257.79719404541,12129.7649797086,,,2.04999995231628,0,764.948367958329,765.766733719669
2011-06-01T05:04:28Z,1306904668,E50F,55.4994405,25.6962517,1300.15,23.5,2.6,236.8,-74811.39,-52031.62,237.4,Weapon+Missile,Red,Allies,R-27ER,,xu,,695.132997717703,649.92138671875,2.07259519535274,1300.15234375,1300.15234375,694.911264861121,17.55615234375,0.0644493809659494,NaN,2.50766297263516,3.37915242204648,5000,3.41992139816284,3.41992139816284,3.41992139816284,24160.4942258,1275.01389818359,25435.5081239836,,,3.04999995231628,0,1460.68652783966,1461.86718351841
2011-06-01T05:04:29Z,1306904669,E50F,55.4916957,25.6916531,1350.98,20.4,3.5,236.7,-75594.44,-52532.13,237.4,Weapon+Missile,Red,Allies,R-27ER,,xu,,930.72948066762,862.856628417969,2.77668269170356,1350.97534179688,1350.97534179688,929.340835782731,50.822998046875,0.0576396263368882,NaN,3.01539191477723,1.10154644235662,5000,1.88279485702515,1.88279485702515,1.88279485702515,43312.8683091909,1324.85423356323,44637.7225427541,,,4.04999995231628,0,2391.07854644231,2393.83935535474
2011-06-01T05:04:30Z,1306904670,E50F,55.4834457,25.6867864,1413.84,17.4,3.8,237.2,-76428.59,-53061.7,237.9,Weapon+Missile,Red,Allies,R-27ER,,xu,,990.05310928723,914.447143554688,2.95582420188776,1413.8408203125,1413.8408203125,988.055206362637,62.865478515625,0.040978992136317,NaN,2.90769349194447,0.509569998288504,5000,1.7145322561264,1.7145322561264,1.7145322561264,49010.2579604656,1386.50420805176,50396.7621685173,,,5.04999995231628,0,3380.24398508309,3385.21442078558
2011-06-01T05:04:31Z,1306904671,E50F,55.475262,25.6820569,1480.06,14.9,4.1,237.8,-77255.98,-53576.1,238.4,Weapon+Missile,Red,Allies,R-27ER,,xu,,976.509298108012,899.343078613281,2.91763704142267,1480.06311035156,1480.06311035156,974.261267624544,66.2222900390625,0.0311335944840433,NaN,2.36925601929402,0.721396682730519,5000,2.28057074546814,2.28057074546814,2.28057074546814,47678.5204645701,1451.44609011292,49129.966554683,,,6.04999995231628,0,4355.54498301816,4362.98180797641
2011-06-01T05:04:32Z,1306904672,E50F,55.4670254,25.6774348,1554.62,13.1,4.7,238.9,-78088.61,-54078.5,239.5,Weapon+Missile,Red,Allies,R-27ER,,xu,,975.310784049268,895.166625976562,2.9165903090131,1554.61926269531,1554.61926269531,972.456942815718,74.55615234375,0.153409303551461,NaN,1.78464646785429,1.17476030728705,5000,2.90168809890747,2.90168809890747,2.90168809890747,47561.5562741399,1524.5606992511,49086.116973391,,,7.04999995231628,0,5328.9751121679,5339.49383378952
2011-06-01T05:04:33Z,1306904673,E50F,55.4587634,25.6730981,1618.32,9.3,2,241.4,-78923.48,-54549.21,242.1,Weapon+Missile,Red,Allies,R-27ER,,xu,,960.535993988667,879.212463378906,2.87454495335084,1618.31689453125,1618.31689453125,958.421623006435,63.6976318359375,0.0783069965282875,NaN,4.61535006747438,3.34030465392497,5000,7.63128328323364,7.63128328323364,7.63128328323364,46131.4697873898,1587.02673737549,47718.4965247653,,,8.04999995231628,0,6288.22289923185,6301.09224944251
2011-06-01T05:04:34Z,1306904674,E50F,55.4502181,25.6691899,1621.91,5.7,-1.2,244.6,-79786.3,-54972.08,245.3,Weapon+Missile,Red,Allies,R-27ER,,xu,,960.886013430427,879.382080078125,2.8757131453386,1621.90844726562,1621.90844726562,960.879301241928,3.591552734375,0.139844529190101,NaN,3.00003764952304,4.11468268716045,5000,4.58249378204346,4.58249378204346,4.58249378204346,46165.096540311,1590.54884743774,47755.6453877487,,,9.04999995231628,0,7249.65668712836,7262.7769580644
2011-06-01T05:04:35Z,1306904675,E50F,55.4416482,25.6656286,1588.88,3.8,-2.7,245.9,-80651.2,-55356.43,246.6,Weapon+Missile,Red,Allies,R-27ER,,xu,,947.024737809409,868.210815429688,2.83313600794468,1588.87915039062,1588.87915039062,946.448582634536,-33.029296875,0.0923011595662602,NaN,1.67694804502153,2.16430850928497,5000,1.67323410511017,1.67323410511017,1.67323410511017,44842.792701149,1558.15817201782,46400.9508731668,,,10.0499999523163,0,8196.50863650568,8210.44299759947
2011-06-01T05:04:36Z,1306904676,E50F,55.4329734,25.6621643,1537.53,2.7,-3.4,246.3,-81526.55,-55729.86,247,Weapon+Missile,Red,Allies,R-27ER,,xu,,953.060290247624,875.7265625,2.84948375683562,1537.52990722656,1537.52990722656,951.675980611765,-51.3492431640625,0.0378165871670484,NaN,0.938467991959752,0.837222550427919,5000,0.294124931097031,0.294124931097031,0.294124931097031,45416.1958423443,1507.80176647034,46923.9976088147,,,11.0499999523163,0,9148.52195213498,9164.07312146502
2011-06-01T05:04:37Z,1306904677,E50F,55.4248552,25.6589223,1482.89,2.1,-3.7,245.9,-82345.77,-56079.29,246.5,Weapon+Missile,Red,Allies,R-27ER,,xu,,892.309678364676,822.833557128906,2.66615112908891,1482.88537597656,1482.88537597656,890.634906854509,-54.64453125,0.0747303454247625,NaN,0.569255286185543,0.891339633325811,5000,1.81429100036621,1.81429100036621,1.81429100036621,39810.8281051636,1454.21378723206,41265.0418923956,,,12.0499999523163,0,10039.4795866329,10056.9154862696
2011-06-01T05:04:38Z,1306904678,E50F,55.4174012,25.6557757,1420.39,0.9,-5.1,244.3,-83098.23,-56418.88,245,Weapon+Missile,Red,Allies,R-27ER,,xu,,827.906818900174,766.692321777344,2.47192137750127,1420.39001464844,1420.39001464844,825.544687218004,-62.495361328125,0.0781233751457332,NaN,1.26156326045804,1.62291164373321,5000,2.01378202438354,2.01378202438354,2.01378202438354,34271.4850390702,1392.92677371521,35664.4118127855,,,13.0499999523163,0,10865.3965354219,10885.3809446713
2011-06-01T05:04:39Z,1306904679,E50F,55.4105585,25.6527084,1346.9,0.6,-5.5,242.6,-83789.28,-56750.41,243.3,Weapon+Missile,Red,Allies,R-27ER,,xu,,769.971818234455,716.51806640625,2.2969792362709,1346.90234375,1346.90234375,766.456889264619,-73.4876708984375,1.17629437382889,NaN,0.153845848908012,3.66522507703553,5000,8.8762378692627,8.8762378692627,8.8762378692627,29642.8300437637,1320.85998693359,30963.6900306973,,,14.0499999523163,0,11632.2449068786,11655.9080572396
2011-06-01T05:04:40Z,1306904680,E50F,55.4046864,25.649457,1331.51,6.2,2.9,234.8,-84383.13,-57103.45,235.5,Weapon+Missile,Red,Allies,R-27ER,,xu,,691.037740889185,645.335998535156,2.06113478258138,1331.5107421875,1331.5107421875,690.866309740582,-15.3916015625,0.902819397677955,NaN,4.72307751861111,6.84891456050916,5000,9.0397367477417,9.0397367477417,9.0397367477417,23876.6579666615,1305.7659819873,25182.4239486488,,,15.0499999523163,0,12323.7789654587,12347.7585457571
2011-06-01T05:04:41Z,1306904681,E50F,55.3996669,25.6461456,1372.74,5.9,4,233.7,-84891.52,-57464.15,234.5,Weapon+Missile,Red,Allies,R-27ER,,xu,,624.707981255331,584.269470214844,1.86418783511365,1372.74462890625,1372.74462890625,623.345673306694,41.23388671875,0.0192466013892658,NaN,0.969231163981489,3.45041733518592,5000,1.26827394962311,1.26827394962311,1.26827394962311,19513.0030922055,1346.20261150635,20859.2057037119,,,16.0499999523163,0,12947.9664511805,12973.4385425081
2011-06-01T05:04:42Z,1306904682,E50F,55.3949694,25.6430236,1413.76,5,4,233.7,-85367.34,-57804.25,234.4,Weapon+Missile,Red,Allies,R-27ER,,xu,,586.309205862213,548.703369140625,1.75043672916772,1413.7607421875,1413.7607421875,584.872775336721,41.01611328125,0.0511619410864497,NaN,0.769243225083516,0.0713262647800548,5000,1.0180196762085,1.0180196762085,1.0180196762085,17187.9242439389,1386.4256782373,18574.3499221762,,,17.0499999523163,0,13533.6418895722,13560.676071191
2011-06-01T05:04:43Z,1306904683,E50F,55.3905584,25.6400914,1452.49,4.2,4,233.7,-85814.18,-58123.66,234.4,Weapon+Missile,Red,Allies,R-27ER,,xu,,550.626887110738,515.783142089844,1.64464750653045,1452.48767089844,1452.48767089844,549.263319184779,38.7269287109375,0.0591696323892485,NaN,0.569255286185543,0.0370093733476075,5000,1.01166951656342,1.01166951656342,1.01166951656342,15159.4984404631,1424.40382178162,16583.9022622447,,,18.0499999523163,0,14083.6508229483,14112.1700066897
2011-06-01T05:04:44Z,1306904684,E50F,55.3864329,25.6373483,1488.87,3.5,4.1,233.7,-86232.11,-58422.46,234.4,Weapon+Missile,Red,Allies,R-27ER,,xu,,515.039935717459,483.090087890625,1.53900611857053,1488.86999511719,1488.86999511719,513.753308376974,36.38232421875,0.0543718190116871,NaN,0.569255286185543,0.0523391626455858,5000,1.01326584815979,1.01326584815979,1.01326584815979,13263.3067691922,1460.0826937616,14723.3894629538,,,19.0499999523163,0,14598.1027578959,14628.0251535974
2011-06-01T05:04:45Z,1306904685,E50F,55.3825571,25.6347709,1523.18,3,4.1,233.7,-86624.75,-58703.2,234.4,Weapon+Missile,Red,Allies,R-27ER,,xu,,483.90087646764,454.459075927734,1.4465369744908,1523.1806640625,1523.1806640625,482.682956238022,34.3106689453125,0.0395980069462602,NaN,0.569255286185543,0.0197823405926261,5000,1.00892210006714,1.00892210006714,1.00892210006714,11708.0029123075,1493.72996592285,13201.7328782304,,,20.0499999523163,0,15081.4518551541,15112.7043402687
2011-06-01T05:04:46Z,1306904686,E50F,55.378887,25.6323294,1555.77,2.5,4.1,233.7,-86996.57,-58969.12,234.4,Weapon+Missile,Red,Allies,R-27ER,,xu,,458.289292075058,430.803283691406,1.37049657798884,1555.77221679688,1555.77221679688,457.128937960638,32.591552734375,0.0317254215774655,NaN,0.384621612541758,0.0139882274201861,5000,1.00399506092072,1.00399506092072,1.00399506092072,10501.4537615329,1525.69136098511,12027.145122518,,,21.0499999523163,0,15539.2093976631,15571.7308564716
2011-06-01T05:04:47Z,1306904687,E50F,55.3754332,25.630032,1586.5,2.1,4.1,233.7,-87346.51,-59219.35,234.4,Weapon+Missile,Red,Allies,R-27ER,,xu,,431.292986978307,405.825286865234,1.29022786769182,1586.49768066406,1586.49768066406,430.197148394566,30.7254638671875,0.0363740187493414,NaN,0.369212705774209,0.0139882274201861,5000,1.00017523765564,1.00017523765564,1.00017523765564,9300.68203083351,1555.82274800842,10856.5047788419,,,22.0499999523163,0,15969.9904938897,16003.7121556307
2011-06-01T05:04:48Z,1306904688,E50F,55.3721635,25.6278572,1615.61,1.8,4.1,233.7,-87677.8,-59456.21,234.4,Weapon+Missile,Red,Allies,R-27ER,,xu,,408.291639246258,384.337951660156,1.22183394253353,1615.60534667969,1615.60534667969,407.252755002983,29.107666015625,0.0339141478502252,NaN,0.307686361730734,0.0139882274201861,5000,1.00370407104492,1.00370407104492,1.00370407104492,8335.10313391984,1584.36761730164,9919.47075122147,,,23.0499999523163,0,16377.7979972433,16412.6592424771
2011-06-01T05:04:49Z,1306904689,E50F,55.3691128,25.6258279,1642.82,1.5,4.1,233.7,-87986.9,-59677.22,234.4,Weapon+Missile,Red,Allies,R-27ER,,xu,,380.957823857019,358.584777832031,1.14039882148238,1642.81994628906,1642.81994628906,379.984511692222,27.214599609375,0.0334508345677372,NaN,0.369212705774209,0.0139882274201861,5000,1.0017683506012,1.0017683506012,1.0017683506012,7256.44317789376,1611.05602262756,8867.49920052132,,,24.0499999523163,0,16758.3031180654,16794.2332946964
2011-06-01T05:04:50Z,1306904690,E50F,55.3662161,25.6239008,1668.7,1.3,4.1,233.7,-88280.42,-59887.09,234.4,Weapon+Missile,Red,Allies,R-27ER,,xu,,361.764479680869,340.111968994141,1.08327140381105,1668.70458984375,1668.70458984375,360.837254155965,25.8846435546875,0.0299048409194479,NaN,0.199987938897973,0.0139882274201861,5000,1.00426399707794,1.00426399707794,1.00426399707794,6543.67693793848,1636.44018659912,8180.1171245376,,,25.0499999523163,0,17119.62339354,17156.5731182439
2011-06-01T05:04:51Z,1306904691,E50F,55.3635235,25.6221089,1692.84,1.1,4.1,233.7,-88553.27,-60082.24,234.4,Weapon+Missile,Red,Allies,R-27ER,,xu,,336.314486327151,315.353363037109,1.00734814269002,1692.83618164062,1692.83618164062,335.447611395348,24.131591796875,0.0292624633577472,NaN,0.199987938897973,0.0139882274201861,5000,0.998875498771667,0.998875498771667,0.998875498771667,5655.37168567479,1660.1051940686,7315.47687974339,,,26.0499999523163,0,17455.526830783,17493.4305470687
2011-06-01T05:04:52Z,1306904692,E50F,55.3609786,25.6204153,1715.66,0.9,4.1,233.7,-88811.15,-60266.67,234.4,Weapon+Missile,Red,Allies,R-27ER,,xu,,317.868459387321,297.344085693359,0.952352100148362,1715.66296386719,1715.66296386719,317.047781077948,22.8267822265625,0.0319793799907512,NaN,0.199987938897973,0.0139882274201861,5000,1.00017189979553,1.00017189979553,1.00017189979553,5052.01787366346,1682.49062046082,6734.50849412427,,,27.0499999523163,0,17773.0110729866,17811.8189562525
2011-06-01T05:04:53Z,1306904693,E50F,55.3585708,25.6188126,1737.29,0.8,4.1,233.7,-89055.13,-60441.2,234.4,Weapon+Missile,Red,Allies,R-27ER,,xu,,300.75681636862,280.671905517578,0.901313026340821,1737.29296875,1737.29296875,299.978008328872,21.6300048828125,0.0337447933022223,NaN,0.0154089067675488,0.0139882274201861,5000,0.999423027038574,0.999423027038574,0.999423027038574,4522.73312960938,1703.70240919922,6226.4355388086,,,28.0499999523163,0,18073.4030824356,18113.0698054103
2011-06-01T05:04:54Z,1306904694,E50F,55.3562934,25.6172966,1757.78,0.7,4.1,233.7,-89285.92,-60606.29,234.4,Weapon+Missile,Red,Allies,R-27ER,,xu,,284.498246579542,264.8994140625,0.852793850489357,1757.77990722656,1757.77990722656,283.759647692711,20.4869384765625,0.0361436040434429,NaN,0,0.0139882274201861,5000,0.997616708278656,0.997616708278656,0.997616708278656,4046.96261534169,1723.79323272034,5770.75584806203,,,29.0499999523163,0,18357.5518183527,18398.0337834454
2011-06-01T05:04:55Z,1306904695,E50F,55.3541233,25.6158519,1777.31,0.6,4.1,233.7,-89505.84,-60763.61,234.4,Weapon+Missile,Red,Allies,R-27ER,,xu,,271.100596517686,251.925079345703,0.812820063318463,1777.31066894531,1777.31066894531,270.396158957428,19.53076171875,0.0329291959498394,NaN,0.0307631720217374,0.0139882274201861,5000,0.990338563919067,0.990338563919067,0.990338563919067,3674.77667161226,1742.94636716125,5417.72303877352,,,30.0499999523163,0,18628.3123931144,18669.5726904263
2011-06-01T05:04:56Z,1306904696,E50F,55.3520566,25.6144762,1795.85,0.5,4.1,233.7,-89715.3,-60913.4,234.4,Weapon+Missile,Red,Allies,R-27ER,,xu,,258.173072241017,239.45622253418,0.774228833726367,1795.84765625,1795.84765625,257.506728712147,18.5369873046875,0.030918827091049,NaN,0,0.0139882274201861,5000,0.998303651809692,0.998303651809692,0.998303651809692,3332.66676151827,1761.12494181641,5093.79170333468,,,31.0499999523163,0,18886.1715353681,18928.169310898
2011-06-01T05:04:57Z,1306904697,E50F,55.350075,25.6131572,1813.63,0.4,4.1,233.7,-89916.12,-61057.03,234.4,Weapon+Missile,Red,Allies,R-27ER,,xu,,247.542963884336,229.212844848633,0.742505457808817,1813.63305664062,1813.63305664062,246.903216871686,17.785400390625,0.03415248112872,NaN,0,0.0139882274201861,5000,0.996251881122589,0.996251881122589,0.996251881122589,3063.87594843209,1778.56646149048,4842.44240992257,,,32.0499999523163,0,19133.4112143464,19176.1176465294
2011-06-01T05:04:58Z,1306904698,E50F,55.3481875,25.6119008,1830.57,0.3,4.1,233.7,-90107.41,-61193.84,234.4,Weapon+Missile,Red,Allies,R-27ER,,xu,,235.78327735629,217.946975708008,0.707372902192417,1830.56604003906,1830.56604003906,235.174462801771,16.9329833984375,0.0340657676869241,NaN,0.199987938897973,0.0139882274201861,5000,0.996596455574036,0.996596455574036,0.996596455574036,2779.68769404367,1795.17204565491,4574.85973969857,,,33.0499999523163,0,19368.902135857,19412.2836681676
2011-06-01T05:04:59Z,1306904699,E50F,55.3463664,25.6106887,1846.9,0.3,4.1,233.7,-90291.99,-61325.82,234.4,Weapon+Missile,Red,Allies,R-27ER,,xu,,227.498805885829,209.992874145508,0.68264963954148,1846.8984375,1846.8984375,226.911787866246,16.3323974609375,0.0336960145287612,NaN,0,0.0139882274201861,5000,0.998287260532379,0.998287260532379,0.998287260532379,2587.78533397391,1811.18865621094,4398.97399018485,,,34.0499999523163,0,19596.1193631987,19640.1524616465
2011-06-01T05:05:00Z,1306904700,E50F,55.3446296,25.6095326,1862.49,0.2,4.1,233.7,-90468.02,-61451.7,234.4,Weapon+Missile,Red,Allies,R-27ER,,xu,,216.966567296633,199.95979309082,0.651165101307116,1862.48608398438,1862.48608398438,216.405907039439,15.587646484375,0.0357175443448774,NaN,0.199987938897973,0.0139882274201861,5000,0.997072398662567,0.997072398662567,0.997072398662567,2353.72456622422,1826.47491555054,4180.19948177475,,,35.0499999523163,0,19812.8159052606,19857.4717645712
2011-06-01T05:05:01Z,1306904701,E50F,55.342963,25.6084232,1877.44,0.2,4.1,233.7,-90636.95,-61572.49,234.4,Weapon+Missile,Red,Allies,R-27ER,,xu,,208.207155394201,191.622940063477,0.624986040785591,1877.44384765625,1877.44384765625,207.669171672835,14.957763671875,0.0366918625414257,NaN,0,0.0139882274201861,5000,0.99761950969696,0.99761950969696,0.99761950969696,2167.51097786725,1841.14347086182,4008.65444872906,,,36.0499999523163,0,20020.7641076949,20066.0180406371
2011-06-01T05:05:02Z,1306904702,E50F,55.341374,25.6073654,1891.71,0.2,4.1,233.7,-90798,-61687.66,234.4,Weapon+Missile,Red,Allies,R-27ER,,xu,,198.508930227023,182.439605712891,0.595974361677888,1891.7099609375,1891.7099609375,197.995639830082,14.26611328125,0.0348947816742255,NaN,0,0.0139882274201861,5000,0.99732518196106,0.99732518196106,0.99732518196106,1970.28976899385,1855.13374884277,3825.42351783663,,,37.0499999523163,0,20219.0289909517,20264.853950237
2011-06-01T05:05:03Z,1306904703,E50F,55.3398357,25.6063414,1905.52,0.1,4.1,233.7,-90953.91,-61799.15,234.4,Weapon+Missile,Red,Allies,R-27ER,,xu,,192.166659028725,176.412704467773,0.5770269947071,1905.521484375,1905.521484375,191.6696811251,13.8115234375,0.0345529128092232,NaN,0.199987938897973,0.0139882274201861,5000,0.997156143188477,0.997156143188477,0.997156143188477,1846.40124211311,1868.67822647461,3715.07946858772,,,38.0499999523163,0,20410.9657486326,20457.343983651
2011-06-01T05:05:04Z,1306904704,E50F,55.3383604,25.6053593,1918.77,0.1,4.1,233.7,-91103.44,-61906.09,234.4,Weapon+Missile,Red,Allies,R-27ER,,xu,,184.309169160364,168.99560546875,0.553519254845896,1918.76843261719,1918.76843261719,183.83250038786,13.2469482421875,0.0382126215010117,NaN,0,0.0139882274201861,5000,0.939124584197998,0.939124584197998,0.939124584197998,1698.49349182919,1881.66904497253,3580.16253680172,,,39.0499999523163,0,20595.0490807263,20641.9583819772
2011-06-01T05:05:05Z,1306904705,E50F,55.336935,25.6044103,1931,-0.6,3.1,233.7,-91247.93,-62009.41,234.4,Weapon+Missile,Red,Allies,R-27ER,,xu,,178.052325864571,163.090270996094,0.534805617028204,1930.99755859375,1930.99755859375,177.631864325162,12.2291259765625,0.0401546501588013,NaN,1.44614229258846,1.28470372792263,4263.16637435145,0.263361513614655,0.263361513614655,0.263361513614655,1585.13153728917,1893.66172079834,3478.79325808751,,,40.0499999523163,0,20772.9139908733,20820.2967562146
2011-06-01T05:05:06Z,1306904706,E50F,55.3355749,25.6035045,1935.57,-2.5,-0,233.7,-91385.8,-62108.03,234.4,Weapon+Missile,Red,Allies,R-27ER,,xu,,169.57120908106,155.193954467773,0.509358794221835,1935.57067871094,1935.57067871094,169.509532244079,4.5731201171875,0.0405152030465002,NaN,1.73847438906501,2.82309156723352,3182.44107904244,0.0916117206215858,0.0916117206215858,0.0916117206215858,1437.71974746063,1898.14641963806,3335.86616709869,,,41.0499999523163,0,20942.6469882241,20990.1427785278
2011-06-01T05:05:07Z,1306904707,E50F,55.3342532,25.6026244,1931.24,-4,-3.1,233.7,-91519.77,-62203.84,234.4,Weapon+Missile,Red,Allies,R-27ER,,xu,,164.761797284006,150.772171020508,0.494887003987775,1931.23608398438,1931.23608398438,164.704769611607,-4.3345947265625,0.0511333847259709,NaN,1.53848645016703,3.07694899467197,3080.8540325021,0.114647068083286,0.114647068083286,0.114647068083286,1357.3224922128,1893.89563430054,3251.21812651334,,,42.0499999523163,0,21107.5864222867,21155.1891399621
2011-06-01T05:05:08Z,1306904708,E50F,55.3329788,25.6017762,1918.54,-5.3,-6.2,233.7,-91648.95,-62296.19,234.5,Weapon+Missile,Red,Allies,R-27ER,,xu,,159.307029428582,145.814208984375,0.478431268197407,1918.53845214844,1918.53845214844,158.800188196104,-12.6976318359375,0.0622658364021429,NaN,1.30768069773396,3.0773630748904,2980.15716715331,0.137318581342697,0.137318581342697,0.137318581342697,1268.93648126796,1881.44351117615,3150.37999244411,,,43.0499999523163,0,21266.5910011267,21314.7477450767
2011-06-01T05:05:09Z,1306904709,E50F,55.3317437,25.6009553,1897.92,-6.4,-9.2,233.8,-91774.14,-62385.54,234.5,Weapon+Missile,Red,Allies,R-27ER,,xu,,155.181532104211,142.138366699219,0.465928528690686,1897.92297363281,1897.92297363281,153.806079046903,-20.615478515625,0.0586213339131134,NaN,0.969231163981489,3.06197145703919,2905.63516368898,0.150433927774429,0.150433927774429,0.150433927774429,1204.06539531052,1861.22663293762,3065.29202824814,,,44.0499999523163,0,21420.6170718708,21470.1929965454
2011-06-01T05:05:10Z,1306904710,E50F,55.3305411,25.6001578,1869.66,-7.4,-12.3,233.9,-91896.05,-62472.37,234.6,Weapon+Missile,Red,Allies,R-27ER,,xu,,152.309983575889,139.669967651367,0.45715481423858,1869.66076660156,1869.66076660156,149.664888168903,-28.26220703125,0.042210397767762,NaN,0.969231163981489,3.02737932365742,2878.84931816085,0.164919942617416,0.164919942617416,0.164919942617416,1159.91655484438,1833.51087567932,2993.4274305237,,,45.0499999523163,0,21570.4764786866,21622.7376196159
2011-06-01T05:05:11Z,1306904711,E50F,55.329372,25.5993853,1834.17,-8.1,-15.3,234,-92014.55,-62556.47,234.7,Weapon+Missile,Red,Allies,R-27ER,,xu,,149.581394682284,137.37614440918,0.448777840493153,1834.17456054688,1834.17456054688,145.311124195436,-35.4862060546875,0.0567456158185867,NaN,0.769243225083516,3.04199464782078,2861.99507835965,0.176706656813622,0.176706656813622,0.176706656813622,1118.72968175486,1798.7107954187,2917.44047717356,,,46.0499999523163,0,21715.9778334051,21772.544865077
2011-06-01T05:05:12Z,1306904712,E50F,55.3282344,25.5986368,1791.77,-8.8,-18.2,234.1,-92129.87,-62637.93,234.8,Weapon+Missile,Red,Allies,R-27ER,,xu,,147.417042723948,135.644378662109,0.442064188960942,1791.77453613281,1791.77453613281,141.187897552025,-42.4000244140625,0.0492199834069826,NaN,0.584554909926371,2.98040939339572,2856.16797579118,0.181630551815033,0.181630551815033,0.181630551815033,1086.58922427371,1757.13057547668,2843.7197997504,,,47.0499999523163,0,21857.3524185608,21920.1792087277
2011-06-01T05:05:13Z,1306904713,E50F,55.3271189,25.5979073,1742.39,-9.3,-21.1,234.3,-92242.93,-62717.31,235,Weapon+Missile,Red,Allies,R-27ER,,xu,,146.70975716263,135.305297851562,0.43968852806132,1742.39465332031,1742.39465332031,138.149846254499,-49.3798828125,0.0398220878940481,NaN,0.523083207396256,2.8842524961564,2922.9882651574,0.194864332675934,0.194864332675934,0.194864332675934,1076.18764233589,1708.70545269836,2784.89309503426,,,48.0499999523163,0,21995.6776939857,22067.0902645773
2011-06-01T05:05:14Z,1306904714,E50F,55.3260387,25.5972061,1687.01,-9.7,-24,234.5,-92352.41,-62793.62,235.2,Weapon+Missile,Red,Allies,R-27ER,,xu,,144.479991736259,133.583389282227,0.432725139746218,1687.0146484375,1687.0146484375,133.444831564542,-55.3800048828125,0.0433039390909984,NaN,0.399975877795947,2.82870918438244,2970.83203906232,0.206042617559433,0.206042617559433,0.206042617559433,1043.72340060547,1654.39622020996,2698.11962081543,,,49.0499999523163,0,22129.3020053431,22211.7692311684
2011-06-01T05:05:15Z,1306904715,E50F,55.3249776,25.596523,1625.18,-10,-26.7,234.7,-92459.94,-62867.93,235.5,Weapon+Missile,Red,Allies,R-27ER,,xu,,144.598926635581,134.087509155273,0.432768225295145,1625.17993164062,1625.17993164062,130.710815860098,-61.834716796875,0,NaN,0.199987938897973,2.74393650494224,3050.41364715113,0.206892415881157,0.206892415881157,0.206892415881157,1045.44247920811,1593.75707766235,2639.19955687047,,,50.0499999523163,0,22260.1813299868,22356.5512271023
2011-06-01T05:05:16Z,1306904716,E50F,55.3239386,25.5958608,1557.28,-10.3,-29.4,235,-92565.23,-62939.96,235.8,Weapon+Missile,Red,Allies,R-27ER,,xu,,144.515512246399,134.441711425781,0.432175728869927,1557.28381347656,1557.28381347656,127.57292196266,-67.8961181640625,0.027367872207385,NaN,0.199987938897973,2.66690392393554,3167.26834013251,0.210845977067947,0.210845977067947,0.210845977067947,1044.23666399196,1527.17373094299,2571.41039493495,,,51.0499999523163,0,22387.9047495096,22501.2277473612
2011-06-01T05:05:17Z,1306904717,E50F,55.3229125,25.5952142,1482.98,-10.5,-31.9,235.3,-92669.2,-63010.29,236.1,Weapon+Missile,Red,Allies,R-27ER,,xu,,145.86427957991,136.183197021484,0.435831481356771,1482.9814453125,1482.9814453125,125.521098396159,-74.3023681640625,0.0298943080799901,NaN,0.199987938897973,2.57171157747308,3341.93403467668,0.219120785593987,0.219120785593987,0.219120785593987,1063.8194028683,1454.30799906738,2518.12740193568,,,52.0499999523163,0,22513.5789003043,22647.2495385721
2011-06-01T05:05:18Z,1306904718,E50F,55.321919,25.5945958,1404.04,-10.6,-34.3,235.7,-92769.85,-63077.54,236.4,Weapon+Missile,Red,Allies,R-27ER,,xu,,144.513753640327,135.417495727539,0.431399672737957,1404.04455566406,1404.04455566406,121.050371514703,-78.9368896484375,0.0264343746680288,NaN,0.199987938897973,2.47514444199673,3462.7851143963,0.225490614771843,0.225490614771843,0.225490614771843,1044.21124956086,1376.8973541803,2421.10860374116,,,53.0499999523163,0,22634.7752031574,22791.9085369337
2011-06-01T05:05:19Z,1306904719,E50F,55.3209338,25.5939907,1318.85,-10.7,-36.7,236.1,-92869.67,-63143.29,236.8,Weapon+Missile,Red,Allies,R-27ER,,xu,,146.789276066044,138.116744995117,0.437759024365923,1318.84533691406,1318.84533691406,119.533194939242,-85.19921875,0.00498613779907398,NaN,0.200042580411333,2.32925074755161,3674.99569985591,0.223950296640396,0.223950296640396,0.223950296640396,1077.35457839966,1293.34546232483,2370.70004072449,,,54.0499999523163,0,22754.4433008294,22938.8284970182
2011-06-01T05:05:20Z,1306904720,E50F,55.3199674,25.5934061,1228.5,-10.7,-38.9,236.5,-92967.55,-63206.82,237.2,Weapon+Missile,Red,Allies,R-27ER,,xu,,147.578046911218,139.453598022461,0.439650588425889,1228.50146484375,1228.50146484375,116.693036250981,-90.3438720703125,0.0603065440645188,NaN,0,2.18636724553977,4520.59722252697,0.30466040968895,0.30466040968895,0.30466040968895,1088.96399650648,1204.748389021,2293.71238552748,,,55.0499999523163,0,22871.2747668589,23086.5344843451
2011-06-01T05:05:21Z,1306904721,E50F,55.3190113,25.5928366,1133.48,-9.8,-39.7,236.9,-93064.39,-63268.69,237.6,Weapon+Missile,Red,Allies,R-27ER,,xu,,149.111463073234,141.538833618164,0.443730727596203,1133.47534179688,1133.47534179688,114.909809670543,-95.026123046875,0,NaN,1.7692239007084,0.866174281576575,5000,0.829192698001862,0.829192698001862,0.829192698001862,1111.71142099202,1111.55959606323,2223.27101705525,,,56.0499999523163,0,22986.2997381486,23235.7511328654
2011-06-01T05:05:22Z,1306904722,E50F,55.3180399,25.5922652,1038,-8,-39.1,237.2,-93162.77,-63330.74,237.9,Weapon+Missile,Red,Allies,R-27ER,,xu,,150.481362632077,143.483184814453,0.447314091960498,1038.00451660156,1038.00451660156,116.318364999396,-95.4708251953125,0,NaN,1.53842327091721,0.546445122400345,5000,0.913589835166931,0.913589835166931,0.913589835166931,1132.23202498034,1017.93469927307,2150.16672425341,,,57.0499999523163,0,23102.74080351,23386.3426885668
2011-06-01T05:05:23Z,1306904723,E50F,55.3170573,25.5916929,943.44,-6.6,-38.6,237.4,-93262.28,-63392.88,238.1,Weapon+Missile,Red,Allies,R-27ER,,xu,,150.680113740788,144.30632019043,0.447417325366656,943.44384765625,943.44384765625,117.314860804383,-94.5606689453125,0.0104412900173548,NaN,1.33846521409685,0.494663590672627,5000,0.894222497940063,0.894222497940063,0.894222497940063,1135.22483384684,925.202360861816,2060.42719470865,,,58.0499999523163,0,23220.178066287,23537.1323289201
2011-06-01T05:05:24Z,1306904724,E50F,55.316059,25.5911162,849.03,-5.5,-38.3,237.6,-93363.36,-63455.48,238.3,Weapon+Missile,Red,Allies,R-27ER,,xu,,151.824862783239,146.04524230957,0.450327525105294,849.026916503906,849.026916503906,118.895887527378,-94.4169311523438,0,NaN,1.09229580489949,0.429786478552305,5000,0.880750238895416,0.880750238895416,0.880750238895416,1152.53944795746,832.610981073303,1985.15042903077,,,59.0499999523163,0,23339.2024234197,23689.0709221211
2011-06-01T05:05:25Z,1306904725,E50F,55.3150438,25.5905335,754.36,-4.6,-38.1,237.7,-93466.17,-63518.74,238.5,Weapon+Missile,Red,Allies,R-27ER,,xu,,153.406323057817,148.21940612793,0.454524584269401,754.361511230469,754.361511230469,120.714377762283,-94.6654052734375,0.238194955205358,NaN,0.769238956215285,0.41496149959794,5000,0.481063276529312,0.481063276529312,0.481063276529312,1176.67499770597,739.775931410828,1916.45092911679,,,60.0499999523163,0,23460.022034442,23842.5720204942
2011-06-01T05:05:26Z,1306904726,E50F,55.3140396,25.5899612,657.1,-5.6,-40.4,238,-93567.84,-63580.84,238.7,Weapon+Missile,Red,Allies,R-27ER,,xu,,153.797707698189,149.265350341797,0.455177338548106,657.099182128906,657.099182128906,119.137627267614,-97.2623291015625,0,NaN,0.969231163981489,1.72776550622007,3846.91238094273,0.143452063202858,0.143452063202858,0.143452063202858,1182.68674466088,644.394169442444,1827.08091410333,,,61.0499999523163,0,23579.2779313251,23996.4715885634
2011-06-01T05:05:27Z,1306904727,E50F,55.313055,25.5894056,554,-6.3,-42.6,238.2,-93667.52,-63641.13,239,Weapon+Missile,Red,Allies,R-27ER,,xu,,155.563841368861,151.700469970703,0.45986275630648,553.998413085938,553.998413085938,116.491802991389,-103.100769042969,0.015301298725139,NaN,0.661544802250755,2.21613064862174,4181.85452001673,0.160970509052277,0.160970509052277,0.160970509052277,1210.00543707181,543.286853768921,1753.29229084073,,,62.0499999523163,0,23695.8820313267,24152.1278334718
2011-06-01T05:05:28Z,1306904728,E50F,55.3121002,25.588873,446.64,-7,-44.7,238.6,-93764.19,-63698.91,239.3,Weapon+Missile,Red,Allies,R-27ER,,xu,,155.590636280815,152.472671508789,0.459379923975963,446.639984130859,446.639984130859,112.617111624151,-107.358428955078,0.0718001971158387,NaN,0.59996381669392,2.0706610662354,4485.64512088391,0.173936262726784,0.173936262726784,0.173936262726784,1210.42230491345,438.004200037689,1648.42650495114,,,63.0499999523163,0,23808.6028635188,24307.799962455
2011-06-01T05:05:29Z,1306904729,E50F,55.3111599,25.5883552,333.78,-7.4,-46.5,238.9,-93859.37,-63755.05,239.7,Weapon+Missile,Red,Allies,R-27ER,,xu,,157.94762123738,155.584854125977,0.465741377185106,333.783843994141,333.783843994141,110.503134290337,-112.856140136719,0.0265668421240028,NaN,0.399975877795947,1.92515455813886,4889.53056354577,0.184584766626358,0.184584766626358,0.184584766626358,1247.37255272735,327.330133370514,1574.70268609786,,,64.0499999523163,0,23919.2098253799,24465.8249774178
2011-06-01T05:05:30Z,1306904730,E50F,55.3102381,25.5878551,216.27,-7.7,-48.3,239.3,-93952.67,-63809.28,240,Weapon+Missile,Red,Allies,R-27ER,,xu,,159.547001850787,158.001647949219,0.469831470729678,216.272308349609,216.272308349609,107.917953974485,-117.511535644531,0.0145673712888952,NaN,0.276923189708997,1.76396059962267,5000,0.190573140978813,0.190573140978813,0.190573140978813,1272.76228997875,212.09068326767,1484.85297324642,,,65.0499999523163,0,24027.2193560408,24625.4370879696
2011-06-01T05:05:31Z,1306904731,E50F,55.309328,25.587369,93.56,-8,-50,239.7,-94044.78,-63861.96,240.4,Weapon+Missile,Red,Allies,R-27ER,,xu,,162.227205654399,161.549438476562,0.477062113477808,93.5630722045898,93.5630722045898,106.113663677872,-122.70923614502,0.0602223395271005,NaN,0.200042580411333,1.68406712984909,5000,0.20305535197258,0.20305535197258,0.20305535197258,1315.88331272174,91.7540302035141,1407.63734292525,,,66.0499999523163,0,24133.4195787946,24787.7226136253
