ISOTime,UnixTime,Id,Longitude,Latitude,Altitude,Roll,Pitch,Yaw,U,V,Heading,Type,Color,Coalition,Name,Group,Country,Pilot,TAS,CAS,M,ASL,AGL,GS,VS,AOA,AOS,RRT,TRT,TRD,G,LatG,LonG,Ek,Ep,Em,FFW,FFV,RelativeTime,Elev,GroundDistance,AirDistance
2011-06-01T04:30:00Z,1306902600,102,55.2343046,27.3349358,8997.77,0,0.3,116.5,-98921.91,129836.54,117.4,Air+FixedWing,Red,Allies,E-2C,Red AWACS #002,xu,,NaN,NaN,NaN,8997.76953125,8534.55679321289,NaN,NaN,NaN,NaN,NaN,NaN,NaN,NaN,NaN,NaN,NaN,8823.79765736328,NaN,,,0,463.212738037109,NaN,NaN
2011-06-01T04:30:01Z,1306902601,102,55.2356857,27.3343195,8994.67,-0.4,2.4,116.5,-98786.21,129766.32,117.3,Air+FixedWing,Red,Allies,E-2C,Red AWACS #002,xu,,152.818415181325,96.3661041259766,0.502717754515914,8994.6748046875,8536.25247192383,152.787076305672,-3.0947265625,4.22077217960546,0.000517081537238848,0.733343750805929,0.125953747730019,5000,0.760993096575242,-0.00105245459708899,0.0829033496753977,1167.67340092659,8820.76276733887,9988.43616826546,,,1,458.422332763672,152.843506293716,153.090371895694
2011-06-01T04:30:02Z,1306902602,102,55.2370715,27.3337015,8989.26,-0.2,4,116.5,-98650.05,129695.91,117.3,Air+FixedWing,Red,Allies,E-2C,Red AWACS #002,xu,,153.381696985432,96.7667236328125,0.504532197829366,8989.263671875,8585.35269165039,153.286217944786,-5.4111328125,5.89888708901025,0.0236357183803731,0.371398366308613,1.61508189906685,5000,1.10321769775761,-0.000837514675195562,-0.0780147553749945,1176.29724850655,8815.4562587793,9991.75350728584,,,2,403.910980224609,306.180689087171,306.739044209303
2011-06-01T04:30:03Z,1306902603,102,55.2384439,27.3330897,8984.79,0,5.1,116.5,-98515.23,129626.21,117.3,Air+FixedWing,Red,Allies,E-2C,Red AWACS #002,xu,,151.842379563627,95.7802124023438,0.499437209170723,8984.7861328125,8614.56912231445,151.776348208436,-4.4775390625,6.41086956708843,0.0337226987647057,0.0190464494080433,1.1118038923861,5000,1.16918386102407,-0.00159736654835035,0.257295153556622,1152.80541157722,8811.06529293457,9963.8707045118,,,3,370.217010498047,458.023339666638,458.861556261912
2011-06-01T04:30:04Z,1306902604,102,55.2398296,27.3324718,8982.15,0.1,5.8,116.5,-98379.07,129555.81,117.3,Air+FixedWing,Red,Allies,E-2C,Red AWACS #002,xu,,153.301785106679,96.7542419433594,0.504218662884539,8982.1455078125,8620.82302856445,153.279041021608,-2.640625,6.43216238269171,0.0520490305593495,0.20000001179094,0.730896355288096,5000,1.20477281576574,0.00107342565928847,-0.0977652139860415,1175.07186584473,8808.47572441894,9983.54759026367,,,4,361.322479248047,611.355404429659,612.432290116779
2011-06-01T04:30:05Z,1306902605,102,55.2411959,27.3318625,8981.36,0.1,6.2,116.5,-98244.83,129486.39,117.3,Air+FixedWing,Red,Allies,E-2C,Red AWACS #002,xu,,151.132345297163,95.3330917358398,0.497077702987401,8981.35546875,8649.11538696289,151.130280332238,-0.7900390625,6.19894628848482,0.0591117388393957,0,0.419767124648426,5000,1.12532958573418,0.00086855233962738,0.203597830311572,1142.04928975105,8807.70096076172,9949.75025051277,,,5,332.240081787109,762.544585425157,763.836438348421
2011-06-01T04:30:06Z,1306902606,102,55.2425694,27.3312497,8981.95,0.1,6.4,116.5,-98109.88,129416.59,117.4,Air+FixedWing,Red,Allies,E-2C,Red AWACS #002,xu,,151.928236483998,95.8526077270508,0.499699567819509,8981.9453125,8663.98416137695,151.927091479724,0.58984375,5.94361733268285,-0.0361820505535904,0,0.185311343135284,5000,1.09249034935736,-0.00109447748611763,0.0375072812616255,1154.10945205688,8808.27939988281,9962.3888519397,,,6,317.961151123047,914.531381972291,916.03840464351
2011-06-01T04:30:07Z,1306902607,102,55.2439352,27.3306402,8983.42,0.1,6.4,116.5,-97975.68,129347.15,117.4,Air+FixedWing,Red,Allies,E-2C,Red AWACS #002,xu,,151.113520338489,95.309196472168,0.497030251568414,8983.4169921875,8668.10894775391,151.106353896811,1.4716796875,5.73588242630832,-0.0281047959417108,0,0.0513960362511687,5000,1.03145663443244,0.00168359588222899,0.206051901865423,1141.76480145454,8809.72262464355,9951.4874260981,,,7,315.308044433594,1065.69234359571,1067.41940834203
2011-06-01T04:30:08Z,1306902608,102,55.245309,27.3300269,8985.36,0.1,6.3,116.5,-97840.7,129277.3,117.4,Air+FixedWing,Red,Allies,E-2C,Red AWACS #002,xu,,151.999326080158,95.8803253173828,0.49995748089916,8985.359375,8669.91744995117,151.986914824376,1.9423828125,5.52579114009454,-0.0272993897691995,0,0.0513960362511687,5000,1.02356302850436,-0.000212350211290117,-0.0249819763468664,1155.18975644112,8811.62745148437,9966.81720792549,,,8,315.441925048828,1217.74187152602,1219.69550537471
2011-06-01T04:30:09Z,1306902609,102,55.2466706,27.3294191,8987.45,0.1,6.3,116.6,-97706.91,129208.05,117.4,Air+FixedWing,Red,Allies,E-2C,Red AWACS #002,xu,,150.656352294938,94.9871063232422,0.495554753857728,8987.4453125,8633.65893554688,150.641911006076,2.0859375,5.50975776671881,-0.0222943597534455,0,0.100870594880489,5000,0.993151249372992,0.000221381493653201,0.0544616060934052,1134.86682434082,8813.67305738281,9948.53988172363,,,9,353.786376953125,1368.43404635715,1370.61441236545
2011-06-01T04:30:10Z,1306902610,102,55.2480273,27.3288132,8989.46,0,6.2,116.6,-97573.62,129139.03,117.4,Air+FixedWing,Red,Allies,E-2C,Red AWACS #002,xu,,150.117580389282,94.6227188110352,0.493796641604376,8989.4638671875,8578.39318847656,150.104008537102,2.0185546875,5.4599342290877,-0.0263288816184685,0,0.100870594880489,5000,0.973074770989478,0.0020116067511242,0.146180551979651,1126.76439709663,8815.65258331543,9942.41698041206,,,10,411.070678710938,1518.6027150731,1521.00825472877
2011-06-01T04:30:11Z,1306902611,102,55.2493874,27.3282057,8991.32,0,6.1,116.6,-97439.96,129069.85,117.4,Air+FixedWing,Red,Allies,E-2C,Red AWACS #002,xu,,150.50999251489,94.8696823120117,0.49510039901778,8991.3173828125,8605.32333374023,150.498579151632,1.853515625,5.43525095644128,-0.0248786690092519,0,0.0532655904281015,5000,0.981212776614769,-0.00399405417635875,0.00135922273229976,1132.66289234161,8817.47026121582,9950.13315355743,,,11,385.994049072266,1669.15581456413,1671.78496158046
2011-06-01T04:30:12Z,1306902612,102,55.2507385,27.3276022,8992.93,0,6,116.6,-97307.22,129001.1,117.4,Air+FixedWing,Red,Allies,E-2C,Red AWACS #002,xu,,149.498036709783,94.1975860595703,0.491782808575698,8992.93359375,8671.60562133789,149.489300092967,1.6162109375,5.42931995588898,-0.0250255627846196,0,0.0523391626455858,5000,0.967639542818847,0.00148923619915583,0.130701326676691,1117.48314900398,8819.05522271484,9936.53837171883,,,12,321.327972412109,1818.70851516248,1821.55722754088
2011-06-01T04:30:13Z,1306902613,102,55.252092,27.3269975,8994.31,0,5.9,116.6,-97174.22,128932.23,117.4,Air+FixedWing,Red,Allies,E-2C,Red AWACS #002,xu,,149.77849073473,94.3736419677734,0.492714986526701,8994.314453125,8701.03860473633,149.772125290924,1.380859375,5.42750859485404,-0.0229273312200088,0,0.100870594880489,5000,0.97713266516328,-0.00140495906179344,0.0288020349718298,1121.67981433868,8820.40938317383,9942.08919751251,,,13,293.275848388672,1968.53641375772,1971.60274817934
2011-06-01T04:30:14Z,1306902614,102,55.2534392,27.3263957,8995.45,0,5.9,116.6,-97041.85,128863.68,117.4,Air+FixedWing,Red,Allies,E-2C,Red AWACS #002,xu,,149.070805987982,93.9036636352539,0.490394827878377,8995.44921875,8704.70404052734,149.066486860336,1.134765625,5.5022360081062,-0.0225978784483341,0,0.0523391626455858,5000,0.968468632652808,0.000882588509825075,0.160964164652126,1111.10525989532,8821.52220810547,9932.62746800079,,,14,290.745178222656,2117.66572282512,2120.94668075193
2011-06-01T04:30:15Z,1306902615,102,55.2547917,27.3257914,8996.39,0,5.9,116.6,-96908.95,128794.86,117.4,Air+FixedWing,Red,Allies,E-2C,Red AWACS #002,xu,,149.663318848638,94.2869338989258,0.492350522315871,8996.38671875,8705.23239135742,149.660382541737,0.9375,5.57803669788243,-0.0202644919520267,0,0.0523391626455858,5000,0.984887931346976,-0.000249982334911233,0.0107967400378811,1119.95545043945,8822.44158154297,9942.39703198242,,,15,291.154327392578,2267.38426885667,2270.87932539605
2011-06-01T04:30:16Z,1306902616,102,55.2561361,27.3251906,8997.14,0,5.8,116.6,-96776.84,128726.45,117.4,Air+FixedWing,Red,Allies,E-2C,Red AWACS #002,xu,,148.774769187367,93.700569152832,0.489432619275616,8997.1357421875,8697.37051391602,148.772883653724,0.7490234375,5.53986201701846,-0.0228397966265753,0,0.0523391626455858,5000,0.985628132351223,0.000217270405584395,0.0413775434712674,1106.69659733772,8823.1761226123,9929.87271995003,,,16,299.765228271484,2416.22232093079,2419.92920490643
2011-06-01T04:30:17Z,1306902617,102,55.2574754,27.3245922,8997.74,0,5.8,116.6,-96645.24,128658.3,117.4,Air+FixedWing,Red,Allies,E-2C,Red AWACS #002,xu,,148.201013213592,93.3219146728516,0.487549230983142,8997.7353515625,8690.71594238281,148.199800222985,0.599609375,5.5925377502296,-0.0214998258844398,0,0.0139882274201861,5000,0.971442835675377,-1.60042015327901e-05,0.220445318831043,1098.17701587677,8823.76413854004,9921.94115441681,,,17,307.019409179688,2564.4763455092,2568.39357757399
2011-06-01T04:30:18Z,1306902618,102,55.2588253,27.3239891,8998.22,0,5.8,116.6,-96512.59,128589.6,117.4,Air+FixedWing,Red,Allies,E-2C,Red AWACS #002,xu,,149.388640788857,94.0967712402344,0.49145966429384,8998.224609375,8694.248046875,149.387839610643,0.4892578125,5.6361961783498,-0.0253399475170796,0,0.0139882274201861,5000,0.997861201338408,-0.00113257084473631,-0.0504778793779932,1115.84829983711,8824.24393655274,9940.09223638985,,,18,303.9765625,2713.91889690459,2718.04775534923
2011-06-01T04:30:19Z,1306902619,102,55.2601619,27.3233918,8998.59,0,5.8,116.6,-96381.25,128521.58,117.4,Air+FixedWing,Red,Allies,E-2C,Red AWACS #002,xu,,147.906903399054,93.1245880126953,0.486587565621868,8998.5927734375,8676.3298034668,147.906445188573,0.3681640625,5.67107254626608,-0.0206779495584188,0,0.0139882274201861,5000,0.9881807221383,0.000707280791356558,0.100007338208513,1093.82260365486,8824.60498216309,9918.42758581795,,,19,322.262969970703,2861.88577862784,2866.22384921294
2011-06-01T04:30:20Z,1306902620,102,55.2614984,27.3227946,8998.89,0,5.8,116.6,-96249.91,128453.56,117.4,Air+FixedWing,Red,Allies,E-2C,Red AWACS #002,xu,,147.90316014515,93.1205139160156,0.486577324662348,8998.89453125,8658.59429931641,147.902852315784,0.3017578125,5.69500073207342,-0.0226557551924606,0,0.0139882274201861,5000,0.983932203883562,0.000963664806880903,0.141833183005804,1093.7672390461,8824.90090548828,9918.66814453438,,,20,340.300231933594,3009.84729609328,3014.39442891683
2011-06-01T04:30:21Z,1306902621,102,55.2628387,27.3221957,8999.13,0,5.8,116.6,-96118.21,128385.37,117.4,Air+FixedWing,Red,Allies,E-2C,Red AWACS #002,xu,,148.31172971851,93.386604309082,0.487923073886901,8999.1298828125,8669.43884277344,148.311542982124,0.2353515625,5.72129049824814,-0.0211667319336301,0,0.0139882274201861,5000,0.993022148598109,-0.000859830864548541,0.0661401168082819,1099.81845860481,8825.13170652832,9924.95016513313,,,21,329.691040039062,3158.2194875523,3162.97614739435
2011-06-01T04:30:22Z,1306902622,102,55.2641758,27.3215981,8999.31,0,5.8,116.6,-95986.81,128317.32,117.4,Air+FixedWing,Red,Allies,E-2C,Red AWACS #002,xu,,147.972835087202,93.1638717651367,0.486809417565915,8999.3125,8673.69671630859,147.97272240081,0.1826171875,5.73460257207496,-0.0269727801939492,0,0.0139882274201861,5000,0.994376590124516,0.0013398869662704,0.0705432170624342,1094.79799618721,8825.3107928125,9920.10878899971,,,22,325.615783691406,3306.25141689901,3311.21705461383
2011-06-01T04:30:23Z,1306902623,102,55.2655102,27.3210018,8999.46,0,5.8,116.6,-95855.67,128249.42,117.4,Air+FixedWing,Red,Allies,E-2C,Red AWACS #002,xu,,147.675600845435,92.9688110351562,0.485832571337095,8999.4599609375,8665.12713623047,147.675527222123,0.1474609375,5.75212882572512,-0.0203976819205643,0,0.0139882274201861,5000,0.997802652973394,-0.0012492081482949,0.0397705069085238,1090.40415425301,8825.45540259277,9915.85955684578,,,23,334.332824707031,3453.97769512844,3459.15184429283
2011-06-01T04:30:24Z,1306902624,102,55.2668393,27.3204079,8999.58,0,5.8,116.6,-95725.07,128181.79,117.4,Air+FixedWing,Red,Allies,E-2C,Red AWACS #002,xu,,147.074738595935,92.5752334594727,0.483856604027342,8999.5751953125,8654.68280029297,147.074693452346,0.115234375,5.75890630313961,-0.0277053135384337,0,0.0139882274201861,5000,0.986185460378399,0.00153795233001545,0.157095752257042,1081.54893665314,8825.56840891113,9907.11734556427,,,24,344.892395019531,3601.11221500792,3606.49401526354
2011-06-01T04:30:25Z,1306902625,102,55.2681734,27.3198118,8999.66,0,5.8,116.6,-95593.97,128113.91,117.4,Air+FixedWing,Red,Allies,E-2C,Red AWACS #002,xu,,147.630087381249,92.9379959106445,0.485684218203222,8999.6611328125,8648.91799926758,147.630062368548,0.0859375,5.7684267786347,-0.0237753221854113,0,0.0139882274201861,5000,0.999585184534995,-0.00190457196848528,0.0439007690169054,1089.73213500977,8825.65268480957,9915.38481981934,,,25,350.743133544922,3748.80670544639,3754.3969291426
2011-06-01T04:30:26Z,1306902626,102,55.2695023,27.3192179,8999.74,0,5.8,116.6,-95463.38,128046.28,117.4,Air+FixedWing,Red,Allies,E-2C,Red AWACS #002,xu,,147.067775260448,92.5696411132812,0.483834796662012,8999.736328125,8651.10134887695,147.067756036878,0.0751953125,5.77762862672317,-0.031798900397368,0,0.0139882274201861,5000,0.991678033786775,0.00201480759143075,0.116818114429722,1081.44652600288,8825.7264262207,9907.17295222359,,,26,348.634979248047,3895.93688857979,3901.73473555426
2011-06-01T04:30:27Z,1306902627,102,55.2708326,27.3186234,8999.8,0,5.8,116.6,-95332.63,127978.59,117.4,Air+FixedWing,Red,Allies,E-2C,Red AWACS #002,xu,,147.224728891438,92.6721115112305,0.484351562209646,8999.7958984375,8662.89178466797,147.224716839718,0.0595703125,5.77761806266071,-0.0245945508508723,0,0.0139882274201861,5000,0.992204856549785,-0.000655363820190377,0.104733800389459,1083.75603985786,8825.78484474121,9909.54088459908,,,27,336.904113769531,4043.21013934437,4049.21580586585
2011-06-01T04:30:28Z,1306902628,102,55.2721634,27.3180288,8999.83,0,5.8,116.6,-95201.86,127910.88,117.4,Air+FixedWing,Red,Allies,E-2C,Red AWACS #002,xu,,147.26324860535,92.6970520019531,0.484478541336678,8999.8330078125,8675.74871826172,147.26324392969,0.037109375,5.78552607141111,-0.0239238322938208,0,0.0139882274201861,5000,0.999876671128669,6.40168061311546e-06,0.0528560172414387,1084.32321949005,8825.82123660645,9910.1444560965,,,28,324.084289550781,4190.53734048625,4196.75089643415
2011-06-01T04:30:29Z,1306902629,102,55.2734898,27.317436,8999.87,0,5.8,116.6,-95071.51,127843.39,117.4,Air+FixedWing,Red,Allies,E-2C,Red AWACS #002,xu,,146.788033130311,92.3860244750977,0.482915398812244,8999.87109375,8678.92813110352,146.788028189381,0.0380859375,5.78889909549398,-0.0280335539740466,0,0.0139882274201861,5000,1.00016485624615,0.000506014587304955,0.0381940125502047,1077.33633351326,8825.85858615234,9903.1949196656,,,29,320.942962646484,4337.38540472959,4343.80617515264
2011-06-01T04:30:30Z,1306902630,102,55.2748105,27.3168458,8999.9,0,5.8,116.6,-94941.7,127776.19,117.4,Air+FixedWing,Red,Allies,E-2C,Red AWACS #002,xu,,146.169482637173,91.9817047119141,0.480880626009195,8999.8984375,8680.0517578125,146.169480079592,0.02734375,5.79012717528565,-0.027649869566387,0,0.0139882274201861,5000,0.989460559686482,-0.000373021319082938,0.148502785016152,1068.27588272095,8825.88540121094,9894.16128393188,,,30,319.8466796875,4483.60530660965,4490.23240351234
2011-06-01T04:30:31Z,1306902631,102,55.2761356,27.3162535,8999.92,0,5.8,116.6,-94811.48,127708.77,117.4,Air+FixedWing,Red,Allies,E-2C,Red AWACS #002,xu,,146.637759603918,92.2877349853516,0.482421349242746,8999.919921875,8684.912109375,146.637758030045,0.021484375,5.79235412912618,-0.0289057295960949,0,0.0139882274201861,5000,0.990956512092861,0.00080791389338236,0.131804608455789,1075.13162708282,8825.90647018555,9901.03809726837,,,31,315.0078125,4630.31457968522,4637.1486931741
2011-06-01T04:30:32Z,1306902632,102,55.2774633,27.3156602,8999.93,0,5.9,116.6,-94680.99,127641.21,117.4,Air+FixedWing,Red,Allies,E-2C,Red AWACS #002,xu,,146.941644841338,92.4860992431641,0.483421190040053,8999.93359375,8685.06076049805,146.941644205303,0.013671875,5.89617022353159,-0.0268170439869114,0,0.0523391626455858,5000,1.00441292840096,9.06788179755079e-05,0.0117348329021448,1079.5923494339,8825.91987771484,9905.51222714874,,,32,314.872833251953,4777.30595540954,4784.34748301719
2011-06-01T04:30:33Z,1306902633,102,55.278783,27.3150704,8999.95,0,5.9,116.6,-94551.3,127574.07,117.4,Air+FixedWing,Red,Allies,E-2C,Red AWACS #002,xu,,146.043616380433,91.8991241455078,0.480466891865108,8999.9501953125,8686.4211730957,146.043615436839,0.0166015625,5.89386398540005,-0.0325448130022112,0,0.0523391626455858,5000,0.993422356180183,-0.000629405334607286,0.108400785559733,1066.43689427376,8825.93615828613,9892.37305255989,,,33,313.529022216797,4923.41230745506,4930.66000101479
2011-06-01T04:30:34Z,1306902634,102,55.2801031,27.3144804,8999.96,0,5.9,116.6,-94421.55,127506.9,117.4,Air+FixedWing,Red,Allies,E-2C,Red AWACS #002,xu,,146.099610210528,91.935920715332,0.480651171493868,8999.9599609375,8698.79309082031,146.09960988415,0.009765625,5.89694588713696,-0.0294314016150356,0,0.0139882274201861,5000,0.996498600757058,0.000814315573995477,0.0854139207076221,1067.25480518341,8825.94573509277,9893.20054027618,,,34,301.166870117188,5069.57658473267,5077.03052566632
2011-06-01T04:30:35Z,1306902635,102,55.2814216,27.3138911,8999.97,0,5.9,116.6,-94291.96,127439.81,117.4,Air+FixedWing,Red,Allies,E-2C,Red AWACS #002,xu,,145.928280825493,91.823616027832,0.48008758343739,8999.9697265625,8701.39202880859,145.928280498731,0.009765625,5.89731341293994,-0.0279026814982552,0,0.0139882274201861,5000,0.992789041879503,-0.000525571392274925,0.115498005688125,1064.75315723419,8825.95531189941,9890.70846913361,,,35,298.577697753906,5215.55048683455,5223.21040673464
2011-06-01T04:30:36Z,1306902636,102,55.2827413,27.3133012,8999.97,0,5.9,116.6,-94162.26,127372.66,117.4,Air+FixedWing,Red,Allies,E-2C,Red AWACS #002,xu,,146.054145126784,91.905876159668,0.480501689300945,8999.9736328125,8707.54788208008,146.054145074548,0.00390625,5.89615505267433,-0.0305113809985492,0,0.0139882274201861,5000,0.997574483776457,-2.27576452765327e-05,0.0769403409391525,1066.59066543579,8825.95914262207,9892.54980805786,,,36,292.425750732422,5361.67122060004,5369.53732653777
2011-06-01T04:30:37Z,1306902637,102,55.2840587,27.3127124,8999.98,0,5.9,116.6,-94032.78,127305.63,117.4,Air+FixedWing,Red,Allies,E-2C,Red AWACS #002,xu,,145.799069776563,91.7390060424805,0.479662559819473,8999.9794921875,8707.82354736328,145.799069658825,0.005859375,5.89999926828606,-0.0316748919072119,0,0.0139882274201861,5000,0.994951129732466,0.000236827210554372,0.0945759106543109,1062.86843738556,8825.96488870605,9888.83332609161,,,37,292.155944824219,5507.52713385961,5515.59905233343
2011-06-01T04:30:38Z,1306902638,102,55.2853755,27.3121239,8999.98,0,5.9,116.6,-93903.38,127238.64,117.4,Air+FixedWing,Red,Allies,E-2C,Red AWACS #002,xu,,145.718669789076,91.6866989135742,0.479398052893147,8999.9794921875,8703.318359375,145.718669789076,0,5.89576524354797,-0.0308652824078983,0,0.0139882274201861,5000,1.00216549875936,0.000165353434418214,0.0412328701861641,1061.69653625488,8825.96488870605,9887.66142496094,,,38,296.6611328125,5653.31593591105,5661.59357217237
2011-06-01T04:30:39Z,1306902639,102,55.2866865,27.3115379,8999.99,0,5.9,116.6,-93774.51,127171.93,117.4,Air+FixedWing,Red,Allies,E-2C,Red AWACS #002,xu,,145.110651958027,91.2898635864258,0.477397814967048,8999.990234375,8694.9274597168,145.110651560418,0.0107421875,5.89999926828606,-0.0279028166663222,0,0.0139882274201861,5000,0.988448837039413,1.9556804969975e-05,0.152653489818406,1052.85506558418,8825.97542319336,9878.83048877754,,,39,305.062774658203,5798.47835200504,5806.96082270011
2011-06-01T04:30:40Z,1306902640,102,55.2880021,27.3109499,8999.99,0,5.9,116.6,-93645.2,127104.99,117.4,Air+FixedWing,Red,Allies,E-2C,Red AWACS #002,xu,,145.60333483723,91.6113815307617,0.479018686535259,8999.990234375,8692.32382202148,145.60333483723,0,5.89999926828606,-0.0330999145200328,0,0.0139882274201861,5000,0.998512613922384,0.000528772232581481,0.0659247150370205,1060.01655578613,8825.97542319336,9885.99197897949,,,40,307.666412353516,5944.13660053658,5952.82460504356
2011-06-01T04:30:41Z,1306902641,102,55.2893144,27.3103632,8999.99,0,5.9,116.6,-93516.22,127038.23,117.4,Air+FixedWing,Red,Allies,E-2C,Red AWACS #002,xu,,145.239862557706,91.3741226196289,0.477822903388365,8999.990234375,8689.42327880859,145.239862557706,0,5.89999926828606,-0.031545083160814,0,0.0139882274201861,5000,1.00001236818819,-0.000752796081909623,0.0514118906697407,1054.73088378906,8825.97542319336,9880.70630698242,,,41,310.566955566406,6089.43642838295,6098.32946094605
2011-06-01T04:30:42Z,1306902642,102,55.2906221,27.3097787,8999.99,0,5.9,116.6,-93387.69,126971.69,117.4,Air+FixedWing,Red,Allies,E-2C,Red AWACS #002,xu,,144.733303233711,91.0434188842773,0.476156379868809,8999.990234375,8691.0270690918,144.733303233711,0,5.89846530172784,-0.0297094236646062,0,0.0523391626455858,5000,0.988221479421541,-9.60252091967177e-06,0.175197614448463,1047.38645324707,8825.97542319336,9873.36187644043,,,42,308.963165283203,6234.23208414389,6243.32943334166
2011-06-01T04:30:43Z,1306902643,102,55.2919363,27.3091913,9000,0,6,116.6,-93258.52,126904.82,117.4,Air+FixedWing,Red,Allies,E-2C,Red AWACS #002,xu,,145.44612714346,91.5088653564453,0.478501556803893,9000,8694.23846435547,145.446126815615,0.009765625,5.99766154377445,-0.0301092949339651,0,0.0523391626455858,5000,0.997367367397455,-0.000178508558775077,0.0679277607615732,1057.72879505157,8825.985,9883.71379505157,,,43,305.761535644531,6379.73985192261,6389.04252303264
2011-06-01T04:30:44Z,1306902644,102,55.293247,27.3086053,9000,0,6,116.6,-93129.68,126838.12,117.4,Air+FixedWing,Red,Allies,E-2C,Red AWACS #002,xu,,145.086246070495,91.2735977172852,0.477317588161618,9000,8696.29354858398,145.086246070495,0,5.99999314935044,-0.0328144017278252,0,0.0139882274201861,5000,0.99456011917329,0.000707280791356558,0.104163733896019,1052.50093994141,8825.985,9878.48593994141,,,44,303.706451416016,6524.877676989,6534.38514778053
2011-06-01T04:30:45Z,1306902645,102,55.2945579,27.3080193,9000,0,6,116.6,-93000.84,126771.42,117.4,Air+FixedWing,Red,Allies,E-2C,Red AWACS #002,xu,,145.082654454401,91.2713394165039,0.477305772144747,9000,8700.87835693359,145.082654454401,0,5.99999314935044,-0.0287655789828844,0,0.0139882274201861,5000,1.00036742950607,-0.00117133269154563,0.0489108013693885,1052.44883117676,8825.985,9878.43383117676,,,45,299.121643066406,6670.01845040728,6679.73072504119
2011-06-01T04:30:46Z,1306902646,102,55.2958638,27.3074354,9000,0,6,116.6,-92872.48,126704.97,117.4,Air+FixedWing,Red,Allies,E-2C,Red AWACS #002,xu,,144.534222308964,90.9133071899414,0.475501491477073,9000,8702.115234375,144.534222308964,0,5.99999314935044,-0.0324911228948369,0,0.0139882274201861,5000,0.993779774738729,0.0018850151635153,0.1115882240506,1044.50707092285,8825.985,9870.49207092285,,,46,297.884765625,6814.62738251029,6824.54371051982
2011-06-01T04:30:47Z,1306902647,102,55.2971702,27.3068514,9000,0,6,116.6,-92744.06,126638.5,117.4,Air+FixedWing,Red,Allies,E-2C,Red AWACS #002,xu,,144.603847476746,90.958854675293,0.475730550523408,9000,8703.15951538086,144.603847476746,0,5.99999314935044,-0.0274554653180264,0,0.0139882274201861,5000,0.996791612841672,-0.00138540225682347,0.0829324646805966,1045.51363525391,8825.985,9871.49863525391,,,47,296.840484619141,6959.28025514206,6969.40069853128
2011-06-01T04:30:48Z,1306902648,102,55.2984747,27.3062681,9000,0,6,116.6,-92615.84,126572.12,117.4,Air+FixedWing,Red,Allies,E-2C,Red AWACS #002,xu,,144.390890038037,90.8198776245117,0.475029944271756,9000,8704.11694335938,144.390890038037,0,5.99999314935044,-0.0386324047276415,0,0.0139882274201861,5000,0.997689637104009,0.0013398869662704,0.0743883244278952,1042.43645629883,8825.985,9868.42145629883,,,48,295.883056640625,7103.73077168905,7114.05504491911
2011-06-01T04:30:49Z,1306902649,102,55.2997766,27.3056861,9000,0,6,116.6,-92487.87,126505.88,117.4,Air+FixedWing,Red,Allies,E-2C,Red AWACS #002,xu,,144.093696628975,90.6258773803711,0.474052211060835,9000,8708.13073730469,144.093696628975,0,5.99999314935044,-0.0301190415170273,0,0.0139882274201861,5000,0.982192622626631,-0.000775201964055531,0.221832742965308,1038.14967041016,8825.985,9864.13467041015,,,49,291.869262695312,7247.88390703005,7258.41159047424
2011-06-01T04:30:50Z,1306902650,102,55.3010888,27.3050994,9000,0,6,116.6,-92358.88,126439.11,117.4,Air+FixedWing,Red,Allies,E-2C,Red AWACS #002,xu,,145.250392053177,91.3809204101562,0.477857610160135,9000,8709.75921630859,145.250392053177,0,5.99999314935044,-0.030439288495932,0,0.0139882274201861,5000,1.00889899457681,0.000489658622641531,-0.0322617143371654,1054.88381958008,8825.985,9880.86881958008,,,50,290.240783691406,7393.18829170878,7403.92100986248
2011-06-01T04:30:51Z,1306902651,102,55.302389,27.304518,9000,0,6,116.6,-92231.08,126372.96,117.4,Air+FixedWing,Red,Allies,E-2C,Red AWACS #002,xu,,143.901553304532,90.5004959106445,0.473420080926597,9000,8711.15447998047,143.901553304532,0,5.99999314935044,-0.0301358034754465,0,0.0139882274201861,5000,0.996493175886723,-0.00170010492412711,0.0857719060037418,1035.38285217285,8825.985,9861.36785217285,,,51,288.845520019531,7537.16179424713,7548.09766914118
2011-06-01T04:30:52Z,1306902652,102,55.3036873,27.3039375,9000,0,6,116.6,-92103.45,126306.88,117.4,Air+FixedWing,Red,Allies,E-2C,Red AWACS #002,xu,,143.716593434842,90.3799133300781,0.47281158355832,9000,8711.88339233398,143.716593434842,0,5.99999314935044,-0.0307962683399954,0,0.0139882274201861,5000,0.987632991910082,0.000960463966574347,0.17007102545526,1032.72296142578,8825.985,9858.70796142578,,,52,288.116607666016,7680.93529033226,7692.07403974373
2011-06-01T04:30:53Z,1306902653,102,55.3049915,27.3033543,9000,0,6,116.6,-91975.25,126240.52,117.4,Air+FixedWing,Red,Allies,E-2C,Red AWACS #002,xu,,144.362892865257,90.8016357421875,0.474937836691964,9000,8711.99087524414,144.362892865257,0,5.99999314935044,-0.0330448599190694,0,0.0139882274201861,5000,1.00141331554713,0.000820717254608588,0.0389598485967476,1042.03224182129,8825.985,9868.01724182129,,,53,288.009124755859,7825.35072439436,7836.69325414244
2011-06-01T04:30:54Z,1306902654,102,55.3062898,27.3027737,9000,0,6.1,116.6,-91847.62,126174.45,117.4,Air+FixedWing,Red,Allies,E-2C,Red AWACS #002,xu,,143.71634817553,90.3799133300781,0.472810776682503,9000,8712.23498535156,143.71634817553,0,6.09998740397696,-0.0351802371477816,0,0.0523391626455858,5000,0.993466639601679,-0.000236827210554372,0.114416058260302,1032.71943664551,8825.985,9858.70443664551,,,54,287.765014648438,7969.1272308245,7980.67263933819
2011-06-01T04:30:55Z,1306902655,102,55.307589,27.3021928,9000,0,6.1,116.6,-91719.91,126108.35,117.4,Air+FixedWing,Red,Allies,E-2C,Red AWACS #002,xu,,143.796747875976,90.4322128295898,0.473075282741108,9000,8713.3776550293,143.796747875976,0,6.09998740397696,-0.0311899156448781,0,0.0523391626455858,5000,0.995094957816297,-0.000103833942332362,0.0991794689582204,1033.87523498535,8825.985,9859.86023498535,,,55,286.622344970703,8112.98995255566,8124.7383614894
2011-06-01T04:30:56Z,1306902656,102,55.3088874,27.3016122,9000,0,6.1,116.6,-91592.27,126042.28,117.4,Air+FixedWing,Red,Allies,E-2C,Red AWACS #002,xu,,143.726877598584,90.3867874145508,0.472845417311459,9000,8714.42727661133,143.726877598584,0,6.09998740397696,-0.0289187040123395,0,0.0171320104161963,5000,0.993616956364063,-0.00097006648749402,0.113009505933429,1032.87076721191,8825.985,9858.85576721191,,,56,285.572723388672,8256.77137946694,8268.7226741091
2011-06-01T04:30:57Z,1306902657,102,55.3101865,27.3010312,9000,0,6.1,116.6,-91464.58,125976.17,117.4,Air+FixedWing,Red,Allies,E-2C,Red AWACS #002,xu,,143.793401438881,90.4299163818359,0.473064273335832,9000,8720.22463989258,143.793401438881,0,6.09998740397696,-0.0326293291801787,0,0.0171320104161963,5000,0.99831539427927,0.00123605302393804,0.0690450226815311,1033.82711486816,8825.985,9859.81211486816,,,57,279.775360107422,8400.63238999451,8412.78668264307
2011-06-01T04:30:58Z,1306902658,102,55.3114821,27.3004517,9000,0,6.1,116.6,-91337.2,125910.24,117.4,Air+FixedWing,Red,Allies,E-2C,Red AWACS #002,xu,,143.426337605224,90.1906967163086,0.47185667421098,9000,8721.77944946289,143.426337605224,0,6.09998740397696,-0.0322731981153428,0,0.0171320104161963,5000,0.997895127061052,-0.00120049201743528,0.0729775703516521,1028.55571594238,8825.985,9854.54071594238,,,58,278.220550537109,8544.12018543194,8556.47694945437
2011-06-01T04:30:59Z,1306902659,102,55.3127749,27.2998736,9000,0,6.1,116.6,-91210.12,125844.45,117.4,Air+FixedWing,Red,Allies,E-2C,Red AWACS #002,xu,,143.098045402949,89.976921081543,0.470776629434538,9000,8723.18023681641,143.098045402949,0,6.09998740397696,-0.0327310095739473,0,0.0171320104161963,5000,0.99661191768346,0.00146967939418585,0.0849848881470494,1023.85252990723,8825.985,9849.83752990722,,,59,276.819763183594,8687.27981558093,8699.83858791197
2011-06-01T04:31:00Z,1306902660,102,55.3140656,27.2992963,9000,0,6.1,116.6,-91083.23,125778.77,117.4,Air+FixedWing,Red,Allies,E-2C,Red AWACS #002,xu,,142.888189820009,89.8398895263672,0.470086227942846,9000,8721.06909179688,142.888189820009,0,6.09998740397696,-0.0302399224066576,0,0.0171320104161963,5000,0.983128904782033,-0.000956911363137159,0.211148882561299,1020.85173950195,8825.985,9846.83673950195,,,60,278.930908203125,8830.22351080276,8842.98398674389
2011-06-01T04:31:01Z,1306902661,102,55.3153658,27.2987148,9000,0,6.1,116.6,-90955.41,125712.61,117.4,Air+FixedWing,Red,Allies,E-2C,Red AWACS #002,xu,,143.922612270463,90.5142288208008,0.473489362578714,9000,8714.19515991211,143.922612270463,0,6.09998740397696,-0.0326995080153663,0,0.0171320104161963,5000,1.00327274885565,-0.000512768031048691,0.022657790120337,1035.6859161377,8825.985,9861.67091613769,,,61,285.804840087891,8974.20826360131,8987.17191215764
2011-06-01T04:31:02Z,1306902662,102,55.3166584,27.2981366,9000,0,6.1,116.6,-90828.34,125646.82,117.4,Air+FixedWing,Red,Allies,E-2C,Red AWACS #002,xu,,143.098045402949,89.976921081543,0.470776629434538,9000,8698.41897583008,143.098045402949,0,6.09998740397696,-0.0311212884037959,0,0.0171320104161963,5000,1.00403260801357,0.00116457924780188,0.0155475939605075,1023.85252990723,8825.985,9849.83752990722,,,62,301.581024169922,9117.36188039873,9130.52752877892
2011-06-01T04:31:03Z,1306902663,102,55.3179429,27.2975621,9000,0,6.1,116.6,-90702.05,125581.45,117.4,Air+FixedWing,Red,Allies,E-2C,Red AWACS #002,xu,,142.203363211948,89.3935623168945,0.467833224686354,9000,8673.28341674805,142.203363211948,0,6.09998740397696,-0.0318456333354576,0,0.0171320104161963,5000,0.981350269805031,-0.000356665354419519,0.227792024190254,1011.08982543945,8825.985,9837.07482543945,,,63,326.716583251953,9259.61381430893,9272.98019017548
2011-06-01T04:31:04Z,1306902664,102,55.3192384,27.2969826,9000,0,6.1,116.6,-90574.7,125515.53,117.4,Air+FixedWing,Red,Allies,E-2C,Red AWACS #002,xu,,143.401931907164,90.1746292114258,0.471776382182958,9000,8663.48001098633,143.401931907164,0,6.09998740397696,-0.0308596007582575,0,0.0171320104161963,5000,1.00141619704879,-0.00132708360504417,0.0400300194212165,1028.20570373535,8825.985,9854.19070373535,,,64,336.519989013672,9403.09166702974,9416.66050023957
2011-06-01T04:31:05Z,1306902665,102,55.3205279,27.2964058,9000,0,6.1,116.6,-90447.93,125449.9,117.4,Air+FixedWing,Red,Allies,E-2C,Red AWACS #002,xu,,142.748694418901,89.7488021850586,0.469627303611836,9000,8667.5075378418,142.748694418901,0,6.09998740397696,-0.0358520090540626,0,0.0171320104161963,5000,0.989455660911858,0.00138220141651691,0.151947810007319,1018.85948791504,8825.985,9844.84448791504,,,65,332.492462158203,9545.8997312703,9559.6700767054
2011-06-01T04:31:06Z,1306902666,102,55.3218214,27.2958272,9000,0,6.1,116.6,-90320.76,125384.07,117.4,Air+FixedWing,Red,Allies,E-2C,Red AWACS #002,xu,,143.199259188137,90.0424957275391,0.471109611513426,9000,8676.52310180664,143.199259188137,0,6.09998740397696,-0.031516421690959,0,0.0370093733476075,5000,1.00259080652759,-0.000775553727186154,0.029038898608242,1025.30139160156,8825.985,9851.28639160156,,,66,323.476898193359,9689.15448334175,9703.12697130919
2011-06-01T04:31:07Z,1306902667,102,55.3231081,27.2952516,9000,0,6.2,116.6,-90194.27,125318.59,117.4,Air+FixedWing,Red,Allies,E-2C,Red AWACS #002,xu,,142.437624480598,89.5463180541992,0.468603918165442,9000,8684.74908447266,142.437624480598,0,6.20000822753505,-0.0286657215158152,0,0.0532655904281015,5000,0.994153680851264,0.00178118122118294,0.107973696955703,1014.42384338379,8825.985,9840.40884338379,,,67,315.250915527344,9831.66123136994,9845.83480638458
2011-06-01T04:31:08Z,1306902668,102,55.3243946,27.294676,9000,0,6.2,116.6,-90067.77,125253.12,117.4,Air+FixedWing,Red,Allies,E-2C,Red AWACS #002,xu,,142.437380018598,89.5459213256836,0.468603113912693,9000,8689.60540771484,142.437380018598,0,6.20000822753505,-0.0339647307060464,0,0.0242283218322616,5000,0.994532807243089,-0.00183309819234912,0.10448378375351,1014.42036132813,8825.985,9840.40536132812,,,68,310.394592285156,9974.14286061767,9988.51748723509
2011-06-01T04:31:09Z,1306902669,102,55.325681,27.2941005,9000,0,6.2,116.6,-89941.3,125187.65,117.4,Air+FixedWing,Red,Allies,E-2C,Red AWACS #002,xu,,142.402689370466,89.523567199707,0.468488985544591,9000,8686.8639831543,142.402689370466,0,6.20000822753505,-0.0287696598673705,0,0.0197823405926261,5000,0.990419524075195,0.000859830864548541,0.142347149484644,1013.92629699707,8825.985,9839.91129699707,,,69,313.136016845703,10116.6180907352,10131.1937599248
2011-06-01T04:31:10Z,1306902670,102,55.3269703,27.2935237,9000,0,6.2,116.6,-89814.54,125122.03,117.4,Air+FixedWing,Red,Allies,E-2C,Red AWACS #002,xu,,142.741511050748,89.7441864013672,0.46960367113078,9000,8692.78063964844,142.741511050748,0,6.20000822753505,-0.0316863883368465,0,0.0197823405926261,5000,0.995689810944681,-0.000207667884664724,0.0938333975492238,1018.75694885254,8825.985,9844.74194885254,,,70,307.219360351562,10259.4198199745,10274.1969924498
2011-06-01T04:31:11Z,1306902671,102,55.3282585,27.2929474,9000,0,6.2,116.6,-89687.9,125056.48,117.4,Air+FixedWing,Red,Allies,E-2C,Red AWACS #002,xu,,142.601770513599,89.6529998779297,0.469143940329504,9000,8700.86981201172,142.601770513599,0,6.20000822753505,-0.0335691501233774,0,0.0197823405926261,5000,1.00588804952952,0.000197713600614418,-4.28617769179711e-05,1016.76324768066,8825.985,9842.74824768066,,,71,299.130187988281,10402.0858202703,10417.0643045085
2011-06-01T04:31:12Z,1306902672,102,55.3295368,27.2923754,9000,0,6.2,116.6,-89562.2,124991.41,117.4,Air+FixedWing,Red,Allies,E-2C,Red AWACS #002,xu,,141.536004220561,88.9589538574219,0.465637687942976,9000,8709.1875,141.536004220561,0,6.20000822753505,-0.0331111013333911,0,0.0197823405926261,5000,0.976948248092686,-0.000885437587001006,0.266352190852103,1001.62202453613,8825.985,9827.60702453613,,,72,290.8125,10543.6770878526,10558.8553673303
2011-06-01T04:31:13Z,1306902673,102,55.3308294,27.291797,9000,0,6.2,116.6,-89435.12,124925.62,117.4,Air+FixedWing,Red,Allies,E-2C,Red AWACS #002,xu,,143.098045402949,89.976921081543,0.470776629434538,9000,8713.90026855469,143.098045402949,0,6.20000822753505,-0.0380509160564216,0,0.0197823405926261,5000,1.00515817747237,0.00100882833430334,0.00667571594042062,1023.85252990723,8825.985,9849.83752990722,,,73,286.099731445312,10686.841304768,10702.2215990272
2011-06-01T04:31:14Z,1306902674,102,55.3321128,27.2912227,9000,0,6.2,116.6,-89308.93,124860.3,117.4,Air+FixedWing,Red,Allies,E-2C,Red AWACS #002,xu,,142.09855777618,89.3252029418945,0.467488426477139,9000,8718.72109985352,142.09855777618,0,6.20000822753505,-0.0231410410214177,0,0.0197823405926261,5000,1.00169277337505,-0.000305100146383967,0.0385752612396489,1009.60000610352,8825.985,9835.58500610351,,,74,281.278900146484,10828.994228368,10844.5751104026
2011-06-01T04:31:15Z,1306902675,102,55.3333901,27.2906512,9000,0,6.2,116.6,-89183.34,124795.3,117.4,Air+FixedWing,Red,Allies,E-2C,Red AWACS #002,xu,,141.413731242016,88.8793869018555,0.465235423463763,9000,8723.52185058594,141.413731242016,0,6.20000822753505,-0.0299651946030056,0,0.0197823405926261,5000,0.981219910226265,-0.000749243478472435,0.227030923863734,999.892169189453,8825.985,9825.87716918945,,,75,276.478149414062,10970.4688801446,10986.2493928653
2011-06-01T04:31:16Z,1306902676,102,55.3346781,27.2900749,9000,0,6.2,116.6,-89056.72,124729.74,117.4,Air+FixedWing,Red,Allies,E-2C,Red AWACS #002,xu,,142.587894571112,89.6441497802734,0.469098290024387,9000,8728.36318969727,142.587894571112,0,6.20000822753505,-0.0378854337515565,0,0.0197823405926261,5000,1.00892912548613,0.000856278261111356,-0.028036405246014,1016.56538391113,8825.985,9842.55038391113,,,76,271.636810302734,11113.127262576,11129.1090763098
2011-06-01T04:31:17Z,1306902677,102,55.3359538,27.289504,9000,0,6.2,116.6,-88931.28,124664.81,117.4,Air+FixedWing,Red,Allies,E-2C,Red AWACS #002,xu,,141.245993660343,88.7702102661133,0.464683585504642,9000,8733.23361206055,141.245993660343,0,6.20000822753505,-0.0286092568991312,0,0.0197823405926261,5000,0.987992339455209,-0.000950509682524046,0.164689734522512,997.521536254883,8825.985,9823.50653625488,,,77,266.766387939453,11254.424836923,11270.6060314747
2011-06-01T04:31:18Z,1306902678,102,55.3372346,27.2889309,9000,0,6.2,116.6,-88805.35,124599.62,117.4,Air+FixedWing,Red,Allies,E-2C,Red AWACS #002,xu,,141.805200771411,89.1341323852539,0.466523314609,9000,8737.52777099609,141.805200771411,0,6.20000822753505,-0.0334780488198191,0,0.0197823405926261,5000,0.998810076384129,0.00186545835854533,0.0651109034515105,1005.43574829102,8825.985,9831.42074829102,,,78,262.472229003906,11396.2912245132,11412.6726025177
2011-06-01T04:31:19Z,1306902679,102,55.3385115,27.2883594,9000,0,6.2,116.6,-88679.79,124534.63,117.4,Air+FixedWing,Red,Allies,E-2C,Red AWACS #002,xu,,141.382143145415,88.8588027954102,0.4651315021446,9000,8741.36450195312,141.382143145415,0,6.20000822753505,-0.0328806685880264,0,0.0197823405926261,5000,0.980334462707158,-0.000986070689026809,0.235181596181492,999.445520019531,8825.985,9825.43052001953,,,79,258.635498046875,11537.7309537673,11554.3119131799
2011-06-01T04:31:20Z,1306902680,102,55.3397998,27.2877828,9000,0,6.2,116.6,-88553.12,124469.06,117.4,Air+FixedWing,Red,Allies,E-2C,Red AWACS #002,xu,,142.636705645368,89.6760940551758,0.469258873021536,9000,8745.58135986328,142.636705645368,0,6.20000822753505,-0.0291303317772203,0,0.0197823405926261,5000,1.01158266453971,-0.000214421328408471,-0.0524626155424708,1017.26148986816,8825.985,9843.24648986816,,,80,254.418640136719,11680.4380520394,11697.2203812069
2011-06-01T04:31:21Z,1306902681,102,55.3410738,27.2872127,9000,0,6.2,116.6,-88427.85,124404.22,117.4,Air+FixedWing,Red,Allies,E-2C,Red AWACS #002,xu,,141.053850428491,88.6449356079102,0.464051455675019,9000,8749.51022338867,141.053850428491,0,6.20000822753505,-0.0344849168914411,0,0.0523391626455858,5000,0.987146486677524,-0.000480056101721859,0.172475931525961,994.809436035156,8825.985,9820.79443603516,,,81,250.489776611328,11821.5507864466,11838.5322356089
2011-06-01T04:31:22Z,1306902682,102,55.3423535,27.28664,9000,0,6.3,116.6,-88302.02,124339.08,117.4,Air+FixedWing,Red,Allies,E-2C,Red AWACS #002,xu,,141.689865785829,89.0589904785156,0.466143875353799,9000,8752.11801147461,141.689865785829,0,6.30000282459342,-0.0313238248795699,0,0.0523391626455858,5000,0.998263695300118,0.00121009453835495,0.0707592177826569,1003.80090332031,8825.985,9829.78590332031,,,82,247.881988525391,11963.2948354921,11980.4762954796
2011-06-01T04:31:23Z,1306902683,102,55.3436297,27.2860687,9000,0,6.3,116.6,-88176.53,124274.12,117.4,Air+FixedWing,Red,Allies,E-2C,Red AWACS #002,xu,,141.30533454474,88.8086929321289,0.464878810404222,9000,8756.86212158203,141.30533454474,0,6.30000282459342,-0.0312585291040328,0,0.00989117029631303,5000,0.998533916512595,-0.000963664806880903,0.0683115856782951,998.359878540039,8825.985,9824.34487854004,,,83,243.137878417969,12104.6656289668,12122.0465730892
2011-06-01T04:31:24Z,1306902684,102,55.3449022,27.2854992,9000,0,6.3,116.6,-88051.41,124209.35,117.4,Air+FixedWing,Red,Allies,E-2C,Red AWACS #002,xu,,140.896642367966,88.5424880981445,0.46353425866757,9000,8760.28335571289,140.896642367966,0,6.30000282459342,-0.0334231559911934,0,0.00989117029631303,5000,0.978594478937251,-9.70804985886262e-05,0.248920676670772,992.59319152832,8825.985,9818.57819152832,,,84,239.716644287109,12245.6231523887,12263.2029974926
2011-06-01T04:31:25Z,1306902685,102,55.3461872,27.2849241,9000,0,6.3,116.6,-87925.06,124143.95,117.4,Air+FixedWing,Red,Allies,E-2C,Red AWACS #002,xu,,142.269886845829,89.4367980957031,0.468052080031641,9000,8762.38719177246,142.269886845829,0,6.30000282459342,-0.0294598123104079,0,0.00989117029631303,5000,1.01163521619078,0.000859479101417904,-0.0503584528699804,1012.03603515625,8825.985,9838.02103515625,,,85,237.612808227539,12387.9605699118,12405.7412631252
2011-06-01T04:31:26Z,1306902686,102,55.3474577,27.2843553,9000,0,6.3,116.6,-87800.12,124079.27,117.4,Air+FixedWing,Red,Allies,E-2C,Red AWACS #002,xu,,140.690378248615,88.4083023071289,0.462855672691026,9000,8762.96148681641,140.690378248615,0,6.30000282459342,-0.035316348587119,0,0.00989117029631303,5000,0.985671152893129,-0.000324305188223316,0.184820992535159,989.689126586914,8825.985,9815.67412658691,,,86,237.038513183594,12528.7046789993,12546.6839720522
2011-06-01T04:31:27Z,1306902687,102,55.348735,27.2837836,9000,0,6.3,116.6,-87674.52,124014.26,117.4,Air+FixedWing,Red,Allies,E-2C,Red AWACS #002,xu,,141.43119880911,88.8906555175781,0.46529288981376,9000,8763.22145080566,141.43119880911,0,6.30000282459342,-0.0295599508776708,0,0.00989117029631303,5000,1.00576866499515,-0.000142947552272312,0.00278008098789187,1000.1391998291,8825.985,9826.1241998291,,,87,236.778549194336,12670.1976267034,12688.3765762589
2011-06-01T04:31:28Z,1306902688,102,55.3500028,27.2832161,9000,0,6.3,116.6,-87549.85,123949.73,117.4,Air+FixedWing,Red,Allies,E-2C,Red AWACS #002,xu,,140.375961993378,88.2039031982422,0.461821278234675,9000,8764.14320373535,140.375961993378,0,6.30000282459342,-0.0318556251941797,0,0.00989117029631303,5000,0.984107498850939,-0.000116637303558593,0.198984387772337,985.27053527832,8825.985,9811.25553527832,,,88,235.856796264648,12810.6360992775,12829.0132173978
2011-06-01T04:31:29Z,1306902689,102,55.3512786,27.2826449,9000,0,6.3,116.6,-87424.41,123884.79,117.4,Air+FixedWing,Red,Allies,E-2C,Red AWACS #002,xu,,141.256523157243,88.7768173217773,0.464718226376543,9000,8766.41807556152,141.256523157243,0,6.30000282459342,-0.0299122773137028,0,0.00989117029631303,5000,0.990402345785723,-0.00024002805086093,0.141966401255313,997.670266723633,8825.985,9823.65526672363,,,89,233.581924438477,12951.9629896692,12970.5395299739
2011-06-01T04:31:30Z,1306902690,102,55.3525571,27.2820726,9000,0,6.3,116.6,-87298.68,123819.7,117.4,Air+FixedWing,Red,Allies,E-2C,Red AWACS #002,xu,,141.574530825005,88.9837799072266,0.465764436180051,9000,8771.19610595703,141.574530825005,0,6.30000282459342,-0.0366310860217125,0,0.00989117029631303,5000,1.00893620384555,0.000148997469754796,-0.0259111150547756,1002.16738891602,8825.985,9828.15238891601,,,90,228.803894042969,13093.5939029607,13112.3702944474
2011-06-01T04:31:31Z,1306902691,102,55.3538235,27.2815057,9000,0,6.3,116.6,-87174.14,123755.23,117.4,Air+FixedWing,Red,Allies,E-2C,Red AWACS #002,xu,,140.236221479835,88.1127014160156,0.461361547511058,9000,8776.03825378418,140.236221479835,0,6.30000282459342,-0.0309890370731844,0,0.00989117029631303,5000,0.987470494456616,0.000149349232885427,0.168522767325022,983.30989074707,8825.985,9809.29489074707,,,91,223.96174621582,13233.8868717285,13252.8612264638
2011-06-01T04:31:32Z,1306902692,102,55.3550953,27.2809363,9000,0,6.3,116.6,-87049.09,123690.5,117.4,Air+FixedWing,Red,Allies,E-2C,Red AWACS #002,xu,,140.816242572948,88.4902420043945,0.463269752297835,9000,8780.09135437012,140.816242572948,0,6.30000282459342,-0.0341625897703619,0,0.00989117029631303,5000,0.9861022971697,0.000331058631967058,0.180915738157553,991.460708618164,8825.985,9817.44570861816,,,92,219.908645629883,13374.7738351049,13393.9469912564
2011-06-01T04:31:33Z,1306902693,102,55.3563732,27.2803641,9000,0,6.3,116.6,-86923.41,123625.45,117.4,Air+FixedWing,Red,Allies,E-2C,Red AWACS #002,xu,,141.518536650929,88.9477081298828,0.46558022158463,9000,8782.08682250977,141.518536650929,0,6.30000282459342,-0.030315066599507,0,0.00989117029631303,5000,1.0059238909844,-0.000876186829211963,0.00137406215155551,1001.37481079102,8825.985,9827.35981079101,,,93,217.913177490234,13516.3497849119,13535.7227146879
2011-06-01T04:31:34Z,1306902694,102,55.3576416,27.2797962,9000,0,6.3,116.6,-86798.68,123560.88,117.4,Air+FixedWing,Red,Allies,E-2C,Red AWACS #002,xu,,140.449423813037,88.2516326904297,0.462062959438311,9000,8780.96968078613,140.449423813037,0,6.30000282459342,-0.033722673099742,0,0.00989117029631303,5000,0.999554279592409,0.00139500477774314,0.059069256368294,986.302032470703,8825.985,9812.2870324707,,,94,219.030319213867,13656.8688073019,13676.4400193039
2011-06-01T04:31:35Z,1306902695,102,55.3589053,27.2792304,9000,0,6.3,116.6,-86674.39,123496.55,117.4,Air+FixedWing,Red,Allies,E-2C,Red AWACS #002,xu,,139.949557781168,87.9264526367188,0.460418455874413,9000,8776.833984375,139.949557781168,0,6.30000282459342,-0.0296099222877391,0,0.00989117029631303,5000,0.982814066021226,-0.00208272876412973,0.210700150905153,979.293936157227,8825.985,9805.27893615722,,,95,223.166015625,13796.8665564107,13816.6353150859
2011-06-01T04:31:36Z,1306902696,102,55.3601781,27.2786605,9000,0,6.3,116.6,-86549.23,123431.74,117.4,Air+FixedWing,Red,Allies,E-2C,Red AWACS #002,xu,,140.945698988925,88.5748291015625,0.463695649486023,9000,8773.31141662598,140.945698988925,0,6.30000282459342,-0.0310189849672605,0,0.00989117029631303,5000,0.994159103439369,0.00175522273559985,0.10793813028025,993.284503173828,8825.985,9819.26950317383,,,96,226.688583374023,13937.8722808595,13957.8400085306
2011-06-01T04:31:37Z,1306902697,102,55.3614509,27.2780906,9000,0,6.3,116.6,-86424.07,123366.96,117.4,Air+FixedWing,Red,Allies,E-2C,Red AWACS #002,xu,,140.927986097954,88.5631408691406,0.463637376047798,9000,8773.16165161133,140.927986097954,0,6.30000282459342,-0.0348056956411009,0,0.00989117029631303,5000,0.999433587294339,-0.000726837596326533,0.0601624730732269,993.03486328125,8825.985,9819.01986328125,,,97,226.838348388672,14078.8815565872,14099.048258267
2011-06-01T04:31:38Z,1306902698,102,55.362719,27.2775228,9000,0,6.3,116.6,-86299.35,123302.4,117.4,Air+FixedWing,Red,Allies,E-2C,Red AWACS #002,xu,,140.438894213151,88.2445907592773,0.462028318227595,9000,8773.58428955078,140.438894213151,0,6.30000282459342,-0.0346767901924708,0,0.00989117029631303,5000,0.990364963557121,0.000833872378965454,0.14230500510517,986.154150390625,8825.985,9812.13915039062,,,98,226.415710449219,14219.3694359619,14239.734375923
2011-06-01T04:31:39Z,1306902699,102,55.3639901,27.2769536,9000,0,6.4,116.6,-86174.34,123237.7,117.4,Air+FixedWing,Red,Allies,E-2C,Red AWACS #002,xu,,140.760248546245,88.453971862793,0.463085538187257,9000,8775.26507568359,140.760248546245,0,6.39999669631503,-0.0253376379641925,0,0.0513960362511687,5000,0.999525639708176,-0.000752796081909623,0.0601365329008589,990.672378540039,8825.985,9816.65737854004,,,99,224.734924316406,14360.1929695154,14380.7566213887
2011-06-01T04:31:40Z,1306902700,102,55.3652566,27.2763864,9000,0,6.4,116.6,-86049.79,123173.22,117.4,Air+FixedWing,Red,Allies,E-2C,Red AWACS #002,xu,,140.253689042531,88.1240463256836,0.461419013846585,9000,8781.5334777832,140.253689042531,0,6.39999669631503,-0.0356137629811623,0,0.0513960362511687,5000,1.002147607697,-0.000382975603133244,0.0367611486505107,983.554864501953,8825.985,9809.53986450195,,,100,218.466522216797,14500.5107321408,14521.2723822479
2011-06-01T04:31:41Z,1306902701,102,55.3665164,27.2758223,9000,0,6.4,116.6,-85925.89,123109.08,117.4,Air+FixedWing,Red,Allies,E-2C,Red AWACS #002,xu,,139.516459926175,87.6449661254883,0.458993612175012,9000,8782.54629516602,139.516459926175,0,6.39999669631503,-0.0326654240664122,0,0.0139882274201861,5000,0.978955668996218,0.00158026678026196,0.243522055324935,973.242129516602,8825.985,9799.2271295166,,,101,217.453704833984,14640.078426883,14661.0370168255
2011-06-01T04:31:42Z,1306902702,102,55.3677881,27.2752527,9000,0,6.4,116.6,-85800.83,123044.35,117.4,Air+FixedWing,Red,Allies,E-2C,Red AWACS #002,xu,,140.819589543914,88.4925842285156,0.463280763459489,9000,8779.92935180664,140.819589543914,0,6.39999669631503,-0.034139666346135,0,0.0139882274201861,5000,1.00448929607868,-0.00140175822148688,0.0158845147825852,991.50783996582,8825.985,9817.49283996582,,,102,220.070648193359,14780.9779470506,14802.1353561285
2011-06-01T04:31:43Z,1306902703,102,55.3690511,27.2746871,9000,0,6.4,116.6,-85676.61,122980.05,117.4,Air+FixedWing,Red,Allies,E-2C,Red AWACS #002,xu,,139.876340694326,87.8789443969727,0.460177579814481,9000,8779.01750183105,139.876340694326,0,6.39999669631503,-0.0278153307980639,0,0.0139882274201861,NaN,0.993767798318395,0,0.111468873918056,978.269534301758,8825.985,9804.25453430176,,,103,220.982498168945,14920.9093985616,14942.264260762
2011-06-01T04:31:44Z,1306902704,102,55.3703141,27.2741214,9000,0,6.4,116.6,-85552.39,122915.74,117.4,Air+FixedWing,Red,Allies,E-2C,Red AWACS #002,xu,,139.876340694326,87.8789443969727,0.460177579814481,9000,8776.05862426758,139.876340694326,0,6.39999669631503,-0.0339690414323096,0,0.0139882274201861,5000,0.995198488778303,0.000525571392274925,0.0987139740160939,978.269534301758,8825.985,9804.25453430176,,,104,223.941375732422,15060.8428015452,15082.3951196204
2011-06-01T04:31:45Z,1306902705,102,55.371576,27.2735562,9000,0,6.4,116.6,-85428.28,122851.5,117.4,Air+FixedWing,Red,Allies,E-2C,Red AWACS #002,xu,,139.750476269943,87.7968292236328,0.459763499878518,9000,8773.26416015625,139.750476269943,0,6.39999669631503,-0.0264196436215375,0,0.0139882274201861,5000,0.981694449887531,0.000509567190742137,0.219105260007548,976.509780883789,8825.985,9802.49478088379,,,105,226.73583984375,15200.6568860962,15222.4064916808
2011-06-01T04:31:46Z,1306902706,102,55.3728475,27.2729867,9000,0,6.4,116.6,-85303.23,122786.77,117.4,Air+FixedWing,Red,Allies,E-2C,Red AWACS #002,xu,,140.812651273915,88.4878997802734,0.463257937324057,9000,8770.75881958008,140.812651273915,0,6.39999669631503,-0.0334760245028372,0,0.0139882274201861,5000,1.01016829767913,-0.00178793466492668,-0.0347449532866699,991.410137939453,8825.985,9817.39513793945,,,106,229.241180419922,15341.5335494627,15363.4819419298
2011-06-01T04:31:47Z,1306902707,102,55.374106,27.272423,9000,0,6.4,116.6,-85179.46,122722.7,117.4,Air+FixedWing,Red,Allies,E-2C,Red AWACS #002,xu,,139.36978164278,87.5492324829102,0.458511056961393,9000,8769.37417602539,139.36978164278,0,6.39999669631503,-0.0368384846912662,0,0.0139882274201861,5000,0.980862291755091,0.00168730156290088,0.226524121025568,971.196801757813,8825.985,9797.18180175781,,,107,230.625823974609,15480.9688345465,15503.1139800105
2011-06-01T04:31:48Z,1306902708,102,55.3753746,27.2718548,9000,0,6.4,116.6,-85054.68,122658.11,117.4,Air+FixedWing,Red,Allies,E-2C,Red AWACS #002,xu,,140.505173122972,88.2879943847656,0.462246368457985,9000,8766.70965576172,140.505173122972,0,6.39999669631503,-0.0290956971311153,0,0.0139882274201861,5000,1.00862079431674,-0.000872985988905398,-0.0209486423176682,987.08518371582,8825.985,9813.07018371582,,,108,233.290344238281,15621.536869695,15643.8803665452
2011-06-01T04:31:49Z,1306902709,102,55.3766315,27.2712918,9000,0,6.4,116.6,-84931.06,122594.12,117.4,Air+FixedWing,Red,Allies,E-2C,Red AWACS #002,xu,,139.198452241558,87.4380035400391,0.457947402316053,9000,8764.26647949219,139.198452241558,0,6.39999669631503,-0.0329348432512253,0,0.0139882274201861,5000,0.985387988939785,0.000382975603133244,0.186176599185602,968.810455322266,8825.985,9794.79545532226,,,109,235.733520507812,15760.7973443231,15783.3373474995
2011-06-01T04:31:50Z,1306902710,102,55.377895,27.2707258,9000,0,6.4,116.6,-84806.79,122529.79,117.4,Air+FixedWing,Red,Allies,E-2C,Red AWACS #002,xu,,139.935681418579,87.9174194335938,0.460372804187207,9000,8761.70748901367,139.935681418579,0,6.39999669631503,-0.0323989274105293,0,0.0139882274201861,5000,0.994839369381821,-0.000496412066385276,0.101915597346459,979.099746704102,8825.985,9805.0847467041,,,110,238.292510986328,15900.796901234,15923.5344536347
2011-06-01T04:31:51Z,1306902711,102,55.3791576,27.2701602,9000,0,6.4,116.6,-84682.6,122465.5,117.4,Air+FixedWing,Red,Allies,E-2C,Red AWACS #002,xu,,139.84140557567,87.8561630249023,0.460062647165585,9000,8759.34185791016,139.84140557567,0,6.39999669631503,-0.0329449706625144,0,0.0139882274201861,5000,0.994007211249382,0.000681322305773467,0.10933445836448,977.780935668945,8825.985,9803.76593566894,,,111,240.658142089844,16040.6976817698,16063.6326440138
2011-06-01T04:31:52Z,1306902712,102,55.38042,27.2695946,9000,0,6.4,116.6,-84558.43,122401.23,117.4,Air+FixedWing,Red,Allies,E-2C,Red AWACS #002,xu,,139.820346548998,87.842414855957,0.459993365313639,9000,8757.61279296875,139.820346548998,0,6.39999669631503,-0.0307234212188596,0,0.0139882274201861,5000,0.988246476296592,-0.00034706283349985,0.160692596091426,977.486465454102,8825.985,9803.4714654541,,,112,242.38720703125,16180.5773094223,16203.7096516604
2011-06-01T04:31:53Z,1306902713,102,55.3816869,27.2690271,9000,0,6.4,116.6,-84433.83,122336.73,117.4,Air+FixedWing,Red,Allies,E-2C,Red AWACS #002,xu,,140.306091733187,88.1585083007812,0.461591412861614,9000,8755.90696716309,140.306091733187,0,6.39999669631503,-0.0290566109494676,0,0.0139882274201861,5000,1.00643678551372,-0.000587442647491403,-0.00147775434562776,984.28996887207,8825.985,9810.27496887207,,,113,244.093032836914,16320.9576132538,16344.288041976
2011-06-01T04:31:54Z,1306902714,102,55.3829437,27.2684641,9000,0,6.4,116.6,-84310.22,122272.73,117.4,Air+FixedWing,Red,Allies,E-2C,Red AWACS #002,xu,,139.191514284908,87.4336624145508,0.457924577211506,9000,8754.7799987793,139.191514284908,0,6.39999669631503,-0.035834273307092,0,0.0139882274201861,5000,0.984593803920505,0.000486809545465606,0.193256922084526,968.713882446289,8825.985,9794.69888244629,,,114,245.220001220703,16460.209439602,16483.7363624474
2011-06-01T04:31:55Z,1306902715,102,55.3842077,27.2678978,9000,0,6.4,116.6,-84185.89,122208.38,117.4,Air+FixedWing,Red,Allies,E-2C,Red AWACS #002,xu,,139.998613623158,87.9582366943359,0.460579844130143,9000,8753.9952545166,139.998613623158,0,6.39999669631503,-0.0329449706625144,0,0.0139882274201861,5000,1.00206876790768,-1.63559646634187e-05,0.0374640215984532,979.980590820312,8825.985,9805.96559082031,,,115,246.004745483398,16600.2734453933,16623.9980084046
2011-06-01T04:31:56Z,1306902716,102,55.385465,27.2673345,9000,0,6.4,116.6,-84062.21,122144.35,117.4,Air+FixedWing,Red,Allies,E-2C,Red AWACS #002,xu,,139.268322490845,87.4833831787109,0.458177267653239,9000,8753.2942199707,139.268322490845,0,6.39999669631503,-0.0282217292021511,0,0.0139882274201861,5000,0.996351793194064,0.00144372090860276,0.0884320277868048,969.783282470703,8825.985,9795.7682824707,,,116,246.705780029297,16739.5940509685,16763.5152051548
2011-06-01T04:31:57Z,1306902717,102,55.3867204,27.266772,9000,0,6.4,116.6,-83938.73,122080.45,117.4,Air+FixedWing,Red,Allies,E-2C,Red AWACS #002,xu,,139.040999918021,87.3357086181641,0.457429401710506,9000,8751.14248657227,139.040999918021,0,6.39999669631503,-0.0368136350594012,0,0.0139882274201861,5000,0.991540029276198,-0.0022029186711255,0.131329893428692,966.619982910156,8825.985,9792.60498291016,,,117,248.857513427734,16878.7054177193,16902.8228678306
2011-06-01T04:31:58Z,1306902718,102,55.3879775,27.2662087,9000,0,6.4,116.6,-83815.08,122016.43,117.4,Air+FixedWing,Red,Allies,E-2C,Red AWACS #002,xu,,139.236979069255,87.463249206543,0.458074151287604,9000,8748.52703857422,139.236979069255,0,6.39999669631503,-0.0291582995548945,0,0.0139882274201861,5000,0.983323686602258,0.00100918009743397,0.204580279380854,969.346817016602,8825.985,9795.3318170166,,,118,251.472961425781,17018.0056212999,17042.3196337978
2011-06-01T04:31:59Z,1306902719,102,55.3892429,27.2656417,9000,0,6.4,116.6,-83690.61,121952,117.4,Air+FixedWing,Red,Allies,E-2C,Red AWACS #002,xu,,140.15582170538,88.0605850219727,0.46109704120897,9000,8746.37550354004,140.15582170538,0,6.39999669631503,-0.0348560378054883,0,0.0139882274201861,5000,1.00381481752489,-0.000957263126267793,0.0218976299047205,982.182717895508,8825.985,9808.16771789551,,,119,253.624496459961,17158.2217812582,17182.7336486225
2011-06-01T04:32:00Z,1306902720,102,55.3905003,27.2650783,9000,0,6.4,116.6,-83566.93,121887.97,117.4,Air+FixedWing,Red,Allies,E-2C,Red AWACS #002,xu,,139.271914170303,87.4857406616211,0.458189083878571,9000,8744.86837768555,139.271914170303,0,6.39999669631503,-0.0296538031288358,0,0.0395646845203054,5000,0.992935640185956,0.00117773437215874,0.118887734936077,969.833303833008,8825.985,9795.81830383301,,,120,255.131622314453,17297.5594538898,17322.2679365118
2011-06-01T04:32:01Z,1306902721,102,55.3917584,27.2645146,9000,0,6.5,116.6,-83443.18,121823.91,117.4,Air+FixedWing,Red,Allies,E-2C,Red AWACS #002,xu,,139.345130846839,87.5334625244141,0.458429958588641,9000,8748.96597290039,139.345130846839,0,6.49999046451537,-0.0331485490970718,0,0.0504352774299245,5000,0.999137476201623,-0.000360217957856707,0.0643532986851612,970.853274536133,8825.985,9796.83827453613,,,121,251.034027099609,17436.9689300435,17461.8741292442
2011-06-01T04:32:02Z,1306902722,102,55.3930121,27.2639528,9000,0,6.5,116.6,-83319.86,121760.08,117.4,Air+FixedWing,Red,Allies,E-2C,Red AWACS #002,xu,,138.862977037083,87.2198486328125,0.456843726262501,9000,8760.04251098633,138.862977037083,0,6.49999046451537,-0.0280438529248708,0,0.0139882274201861,5000,0.990828933049116,-3.20084030655773e-06,0.137276556562004,964.146319580078,8825.985,9790.13131958008,,,122,239.957489013672,17575.8971054133,17600.9983420425
2011-06-01T04:32:03Z,1306902723,102,55.3942679,27.26339,9000,0,6.5,116.6,-83196.33,121696.13,117.4,Air+FixedWing,Red,Allies,E-2C,Red AWACS #002,xu,,139.100584891959,87.3744354248047,0.457625429637488,9000,8777.62371826172,139.100584891959,0,6.49999046451537,-0.0340981537777361,0,0,5000,0.993533194773418,0.00107390042982638,0.113541520049827,967.448635864258,8825.985,9793.43363586426,,,123,222.376281738281,17715.0594748745,17740.3570793969
2011-06-01T04:32:04Z,1306902724,102,55.3955237,27.2628272,9000,0,6.5,116.6,-83072.79,121632.2,117.4,Air+FixedWing,Red,Allies,E-2C,Red AWACS #002,xu,,139.103931898523,87.3764038085938,0.457636440916254,9000,8782.99261474609,139.103931898523,0,6.49999046451537,-0.0348496788252109,0,0,5000,0.988083168865194,-0.00178758290179605,0.161375856039403,967.495193481445,8825.985,9793.48019348144,,,124,217.007385253906,17854.2235754276,17879.7175502861
2011-06-01T04:32:05Z,1306902725,102,55.3967838,27.2622625,9000,0,6.5,116.6,-82948.84,121568.02,117.4,Air+FixedWing,Red,Allies,E-2C,Red AWACS #002,xu,,139.579392240693,87.685905456543,0.459200652479636,9000,8788.92904663086,139.579392240693,0,6.49999046451537,-0.026947750904502,0,0,5000,1.01107839043307,0.000596693405280463,-0.0404509193109159,974.120336914063,8825.985,9800.10533691406,,,125,211.070953369141,17993.870620049,18019.561646711
2011-06-01T04:32:06Z,1306902726,102,55.3980302,27.2617039,9000,0,6.5,116.6,-82826.23,121504.55,117.4,Air+FixedWing,Red,Allies,E-2C,Red AWACS #002,xu,,138.062815647274,86.699951171875,0.454211284421402,9000,8792.74360656738,138.062815647274,0,6.49999046451537,-0.0363153453378915,0,0,5000,0.977316440166482,-4.5163527422434e-05,0.255874364258542,953.067053222656,8825.985,9779.05205322265,,,126,207.256393432617,18132.0004430823,18157.8863806423
