ISOTime,UnixTime,Id,Longitude,Latitude,Altitude,Roll,Pitch,Yaw,U,V,Heading,Type,Color,Coalition,Name,Group,Country,Pilot,TAS,CAS,M,ASL,AGL,GS,VS,AOA,AOS,RRT,TRT,TRD,G,LatG,LonG,Ek,Ep,Em,FFW,FFV,RelativeTime,Elev,GroundDistance,AirDistance
2011-06-01T04:33:02Z,1306902782,109,56.3820309,27.2308793,9.34,0.2,0.2,324.1,14569.09,117225.66,324.4,Air+FixedWing,Red,Allies,F-15C,Red F-15C #001,xu,=CNF=101（国庆）,0.149589654023654,0,0.000439481344697268,9.34428596496582,2.34428596496582,NaN,NaN,NaN,NaN,NaN,NaN,NaN,NaN,NaN,NaN,NaN,9.16361419583321,NaN,,,0.109999895095825,7,NaN,NaN
2011-06-01T04:33:03Z,1306902783,109,56.382031,27.2308794,9.32,0.4,0.2,324.1,14569.11,117225.67,324.4,Air+FixedWing,Red,Allies,F-15C,Red F-15C #001,xu,=CNF=101（国庆）,0.0337946741924527,0,9.92857722279877e-05,9.31714248657227,2.31714248657227,0.0201323516875862,-0.0271434783935547,NaN,NaN,0.25714296187264,NaN,NaN,0.997911717852087,0.0103781686293692,0.000974366435894416,5.71040001887013e-05,9.13699553659439,9.13705264059458,,,1.10999989509583,7,0.0131873882016998,0.0301774109338733
2011-06-01T04:33:04Z,1306902784,109,56.382031,27.2308793,9.27,0.3,0.2,324.1,14569.11,117225.66,324.3,Air+FixedWing,Red,Allies,F-15C,Red F-15C #001,xu,=CNF=101（国庆）,0.049751226027422,0,0.000146164636606813,9.26999950408936,2.26999950408936,0.0158972857383786,-0.0471429824829102,NaN,NaN,0.142832915923307,0.153870688385032,NaN,1.00355056392315,0.0036753643493834,0.0043900087482528,0.000123759224561582,9.09076406367779,9.09088782290235,,,2.10999989509583,7,0.0246729516802695,0.0786993585722271
2011-06-01T04:33:05Z,1306902785,109,56.3820311,27.2308793,9.26,0.3,0.3,324,14569.12,117225.66,324.3,Air+FixedWing,Red,Allies,F-15C,Red F-15C #001,xu,=CNF=101（国庆）,0.0156102969284178,0,4.58616449700257e-05,9.25782108306885,2.25782108306885,0.009765625,-0.0121784210205078,NaN,NaN,0.114285820122121,0.0713262647800548,NaN,1.00095846295971,0.00685844954967169,0.00640354744739347,1.21840685096686e-05,9.07882111242771,9.07883329649622,,,3.10999989509583,7,0.0345711461276707,0.0943929386770683
2011-06-01T04:33:06Z,1306902786,109,56.3820311,27.2308793,9.26,0.3,0.3,324,14569.11,117225.66,324.3,Air+FixedWing,Red,Allies,F-15C,Red F-15C #001,xu,=CNF=101（国庆）,0.0100481689803478,0,2.95206137466758e-05,9.25545501708984,2.25545501708984,0.009765625,-0.00236606597900391,NaN,NaN,0,0.00989117029631303,NaN,1.00066006588757,0.00443079541621048,0.00465859586028644,5.04828499288124e-06,9.07650079433441,9.07650584261941,,,4.10999989509583,7,0.0345711461276707,0.0967590054243898
2011-06-01T04:33:07Z,1306902787,109,56.3820311,27.2308793,9.26,0.3,0.3,324,14569.11,117225.66,324.3,Air+FixedWing,Red,Allies,F-15C,Red F-15C #001,xu,=CNF=101（国庆）,0.00430583953857422,0,1.26501686313802e-05,9.25976085662842,2.25976085662842,0,0.00430583953857422,NaN,NaN,0,0.00989117029631303,NaN,0.999504714322615,0.00523344319174879,0.00523367582830127,9.27012706597452e-07,9.08072338046551,9.08072430747821,,,5.10999989509583,7,0.0345711461276707,0.10106484573203
2011-06-01T04:33:08Z,1306902788,109,56.3820311,27.2308793,9.26,0.3,0.3,324,14569.11,117225.66,324.3,Air+FixedWing,Red,Allies,F-15C,Red F-15C #001,xu,=CNF=101（国庆）,0.000281333923339844,0,8.26533717482191e-07,9.25947952270508,2.25947952270508,0,-0.000281333923339844,NaN,NaN,0,0.00989117029631303,NaN,0.99997246284369,0.00523589234007693,0.00523612508550286,3.95743882108945e-09,9.08044748613358,9.08044749009101,,,6.10999989509583,7,0.0345711461276707,0.101346180171448
2011-06-01T04:33:09Z,1306902789,109,56.3820311,27.2308793,9.26,0.3,0.3,324,14569.11,117225.66,324.3,Air+FixedWing,Red,Allies,F-15C,Red F-15C #001,xu,=CNF=101（国庆）,0.000281333923339844,0,8.26533714863129e-07,9.25919818878174,2.25919818878174,0,-0.000281333923339844,NaN,NaN,0,0.00989117029631303,NaN,0.99997246284369,0.00523589234007693,0.00523612508550286,3.95743882108945e-09,9.08017159180164,9.08017159575908,,,7.10999989509583,7,0.0345711461276707,0.101627513921265
2011-06-01T04:33:10Z,1306902790,109,56.3820311,27.2308793,9.26,0.3,0.3,324,14569.11,117225.66,324.3,Air+FixedWing,Red,Allies,F-15C,Red F-15C #001,xu,=CNF=101（国庆）,0.000281333923339844,0,8.26533712244067e-07,9.2589168548584,2.2589168548584,0,-0.000281333923339844,NaN,NaN,0,0.00989117029631303,NaN,0.99997246284369,0.00523589234007693,0.00523612508550286,3.95743882108945e-09,9.07989569746971,9.07989570142715,,,8.10999989509583,7,0.0345711461276707,0.101908848147607
2011-06-01T04:33:11Z,1306902791,109,56.3820311,27.2308793,9.26,0.3,0.3,324,14569.11,117225.66,324.3,Air+FixedWing,Red,Allies,F-15C,Red F-15C #001,xu,=CNF=101（国庆）,0.000281333923339844,0,8.26533709625005e-07,9.25863552093506,2.25863552093506,0,-0.000281333923339844,NaN,NaN,0,0.00989117029631303,NaN,0.999972365598675,0.00523589183089848,0.00523612457630178,3.95743882108945e-09,9.07961980313778,9.07961980709522,,,9.10999989509583,7,0.0345711461276707,0.102190181668182
2011-06-01T04:33:12Z,1306902792,109,56.3820311,27.2308793,9.26,0.3,0.3,324,14569.11,117225.66,324.3,Air+FixedWing,Red,Allies,F-15C,Red F-15C #001,xu,=CNF=101（国庆）,0.00028228759765625,0,8.29335516173326e-07,9.2583532333374,2.2583532333374,0,-0.00028228759765625,NaN,NaN,0,0.00989117029631303,NaN,0.999972560088705,0.00523589284925538,0.00523612559470394,3.98431438952684e-09,9.07934297357082,9.07934297755514,,,10.1099998950958,7,0.0345711461276707,0.102472469552808
2011-06-01T04:33:13Z,1306902793,109,56.3820311,27.2308793,9.26,0.3,0.3,324,14569.11,117225.66,324.3,Air+FixedWing,Red,Allies,F-15C,Red F-15C #001,xu,=CNF=101（国庆）,0.000281333923339844,0,8.26533704378003e-07,9.25807189941406,2.25807189941406,0,-0.000281333923339844,NaN,NaN,0,0.00989117029631303,NaN,0.99997246284369,0.00523589234007693,0.00523612508550286,3.95743882108945e-09,9.07906707923889,9.07906708319633,,,11.1099998950958,7,0.0345711461276707,0.102753803073383
2011-06-01T04:33:14Z,1306902794,109,56.3820311,27.2308793,9.26,0.3,0.3,324,14569.11,117225.66,324.3,Air+FixedWing,Red,Allies,F-15C,Red F-15C #001,xu,=CNF=101（国庆）,0.000281333923339844,0,8.26533701758941e-07,9.25779056549072,2.25779056549072,0,-0.000281333923339844,NaN,NaN,0,0.00989117029631303,NaN,0.99997246284369,0.00523589234007693,0.00523612508550286,3.95743882108945e-09,9.07879118490696,9.0787911888644,,,12.1099998950958,7,0.0345711461276707,0.103035137742042
2011-06-01T04:33:15Z,1306902795,109,56.3820311,27.2308793,9.26,0.3,0.3,324,14569.11,117225.66,324.3,Air+FixedWing,Red,Allies,F-15C,Red F-15C #001,xu,=CNF=101（国庆）,0.000281333923339844,0,8.26533699139879e-07,9.25750923156738,2.25750923156738,0,-0.000281333923339844,NaN,NaN,0,0.00989117029631303,NaN,0.99997246284369,0.00523589234007693,0.00523612508550286,3.95743882108945e-09,9.07851529057503,9.07851529453247,,,13.1099998950958,7,0.0345711461276707,0.103316471262617
2011-06-01T04:33:16Z,1306902796,109,56.3820311,27.2308793,9.26,0.3,0.3,324,14569.11,117225.66,324.3,Air+FixedWing,Red,Allies,F-15C,Red F-15C #001,xu,=CNF=101（国庆）,0.000281333923339844,0,8.26533696520818e-07,9.25722789764404,2.25722789764404,0,-0.000281333923339844,NaN,NaN,0,0.00989117029631303,NaN,0.99997246284369,0.00523589234007693,0.00523612508550286,3.95743882108945e-09,9.0782393962431,9.07823940020053,,,14.1099998950958,7,0.0345711461276707,0.103597805702035
2011-06-01T04:33:17Z,1306902797,109,56.3820311,27.2308793,9.26,0.3,0.3,324,14569.11,117225.66,324.3,Air+FixedWing,Red,Allies,F-15C,Red F-15C #001,xu,=CNF=101（国庆）,0.000281333923339844,0,8.26533693901756e-07,9.2569465637207,2.2569465637207,0,-0.000281333923339844,NaN,NaN,0,0.00989117029631303,NaN,0.99997246284369,0.00523589234007693,0.00523612508550286,3.95743882108945e-09,9.07796350191116,9.0779635058686,,,15.1099998950958,7,0.0345711461276707,0.103879139238775
2011-06-01T04:33:18Z,1306902798,109,56.3820311,27.2308793,9.26,0.3,0.3,324,14569.11,117225.66,324.3,Air+FixedWing,Red,Allies,F-15C,Red F-15C #001,xu,=CNF=101（国庆）,0.000281333923339844,0,8.26533691282694e-07,9.25666522979736,2.25666522979736,0,-0.000281333923339844,NaN,NaN,0,0.00989117029631303,NaN,0.99997246284369,0.00523589234007693,0.00523612508550286,3.95743882108945e-09,9.07768760757923,9.07768761153667,,,16.1099998950958,7,0.0345711461276707,0.104160472988592
2011-06-01T04:33:19Z,1306902799,109,56.3820311,27.2308793,9.26,0.3,0.3,324,14569.11,117225.66,324.3,Air+FixedWing,Red,Allies,F-15C,Red F-15C #001,xu,=CNF=101（国庆）,0.000281333923339844,0,8.26533688663632e-07,9.25638389587402,2.25638389587402,0,-0.000281333923339844,NaN,NaN,0,0.00989117029631303,NaN,0.999972365598675,0.00523589183089848,0.00523612457630178,3.95743882108945e-09,9.0774117132473,9.07741171720474,,,17.1099998950958,7,0.0345711461276707,0.104441806509167
2011-06-01T04:33:20Z,1306902800,109,56.3820311,27.2308793,9.26,0.3,0.3,324,14569.11,117225.66,324.3,Air+FixedWing,Red,Allies,F-15C,Red F-15C #001,xu,=CNF=101（国庆）,0.00028228759765625,0,8.29335495140898e-07,9.25610160827637,2.25610160827637,0,-0.00028228759765625,NaN,NaN,0,0.00989117029631303,NaN,0.999972560088705,0.00523589284925538,0.00523612559470394,3.98431438952684e-09,9.07713488368034,9.07713488766466,,,18.1099998950958,7,0.0345711461276707,0.104724094393792
2011-06-01T04:33:21Z,1306902801,109,56.3820311,27.2308793,9.26,0.3,0.3,324,14569.11,117225.66,324.3,Air+FixedWing,Red,Allies,F-15C,Red F-15C #001,xu,=CNF=101（国庆）,0.000281333923339844,0,8.26533683416631e-07,9.25582027435303,2.25582027435303,0,-0.000281333923339844,NaN,NaN,0,0.00989117029631303,NaN,0.99997246284369,0.00523589234007693,0.00523612508550286,3.95743882108945e-09,9.07685898934841,9.07685899330585,,,19.1099998950958,7,0.0345711461276707,0.105005428143609
2011-06-01T04:33:22Z,1306902802,109,56.3820311,27.2308793,9.26,0.3,0.3,324,14569.11,117225.66,324.3,Air+FixedWing,Red,Allies,F-15C,Red F-15C #001,xu,=CNF=101（国庆）,0.000281333923339844,0,8.26533680797569e-07,9.25553894042969,2.25553894042969,0,-0.000281333923339844,NaN,NaN,0,0.00989117029631303,NaN,0.99997246284369,0.00523589234007693,0.00523612508550286,3.95743882108945e-09,9.07658309501648,9.07658309897392,,,20.1099998950958,7,0.0345711461276707,0.105286762583027
2011-06-01T04:33:23Z,1306902803,109,56.3820311,27.2308793,9.26,0.3,0.3,324,14569.11,117225.66,324.3,Air+FixedWing,Red,Allies,F-15C,Red F-15C #001,xu,=CNF=101（国庆）,0.000281333923339844,0,8.26533678178507e-07,9.25525760650635,2.25525760650635,0,-0.000281333923339844,NaN,NaN,0,0.00989117029631303,NaN,0.99997246284369,0.00523589234007693,0.00523612508550286,3.95743882108945e-09,9.07630720068455,9.07630720464199,,,21.1099998950958,7,0.0345711461276707,0.105568096103602
2011-06-01T04:33:24Z,1306902804,109,56.3820311,27.2308793,9.25,0.3,0.3,324,14569.11,117225.66,324.3,Air+FixedWing,Red,Allies,F-15C,Red F-15C #001,xu,=CNF=101（国庆）,0.000281333923339844,0,8.26533675559446e-07,9.25497627258301,2.25497627258301,0,-0.000281333923339844,NaN,NaN,0,0.00989117029631303,NaN,0.99997246284369,0.00523589234007693,0.00523612508550286,3.95743882108945e-09,9.07603130635262,9.07603131031006,,,22.1099998950958,7,0.0345711461276707,0.105849430329944
2011-06-01T04:33:25Z,1306902805,109,56.3820311,27.2308793,9.25,0.3,0.3,324,14569.11,117225.66,324.3,Air+FixedWing,Red,Allies,F-15C,Red F-15C #001,xu,=CNF=101（国庆）,0.000281333923339844,0,8.26533672940384e-07,9.25469493865967,2.25469493865967,0,-0.000281333923339844,NaN,NaN,0,0.00989117029631303,NaN,0.99997246284369,0.00523589234007693,0.00523612508550286,3.95743882108945e-09,9.07575541202068,9.07575541597812,,,23.1099998950958,7,0.0345711461276707,0.106130764079761
2011-06-01T04:33:26Z,1306902806,109,56.3820311,27.2308793,9.25,0.3,0.3,324,14569.11,117225.66,324.3,Air+FixedWing,Red,Allies,F-15C,Red F-15C #001,xu,=CNF=101（国庆）,0.000281333923339844,0,8.26533670321322e-07,9.25441360473633,2.25441360473633,0,-0.000281333923339844,NaN,NaN,0,0.00989117029631303,NaN,0.99997246284369,0.00523589234007693,0.00523612508550286,3.95743882108945e-09,9.07547951768875,9.07547952164619,,,24.1099998950958,7,0.0345711461276707,0.106412098519178
2011-06-01T04:33:27Z,1306902807,109,56.3820311,27.2308793,9.25,0.3,0.3,324,14569.11,117225.66,324.3,Air+FixedWing,Red,Allies,F-15C,Red F-15C #001,xu,=CNF=101（国庆）,0.000281333923339844,0,8.26533667702261e-07,9.25413227081299,2.25413227081299,0,-0.000281333923339844,NaN,NaN,0,0.00989117029631303,NaN,0.999972365598675,0.00523589183089848,0.00523612457630178,3.95743882108945e-09,9.07520362335682,9.07520362731426,,,25.1099998950958,7,0.0345711461276707,0.106693432039754
2011-06-01T04:33:28Z,1306902808,109,56.3820311,27.2308793,9.25,0.3,0.3,324,14569.11,117225.66,324.3,Air+FixedWing,Red,Allies,F-15C,Red F-15C #001,xu,=CNF=101（国庆）,0.00028228759765625,0,8.29335474108471e-07,9.25384998321533,2.25384998321533,0,-0.00028228759765625,NaN,NaN,0,0.00989117029631303,NaN,0.999972560088705,0.00523589284925538,0.00523612559470394,3.98431438952684e-09,9.07492679378986,9.07492679777418,,,26.1099998950958,7,0.0345711461276707,0.106975719234778
2011-06-01T04:33:29Z,1306902809,109,56.3820311,27.2308793,9.25,0.3,0.3,324,14569.11,117225.66,324.3,Air+FixedWing,Red,Allies,F-15C,Red F-15C #001,xu,=CNF=101（国庆）,0.000281333923339844,0,8.2653366245526e-07,9.25356864929199,2.25356864929199,0,-0.000281333923339844,NaN,NaN,0,0.00989117029631303,NaN,0.99997246284369,0.00523589234007693,0.00523612508550286,3.95743882108945e-09,9.07465089945793,9.07465090341537,,,27.1099998950958,7,0.0345711461276707,0.107257052984594
2011-06-01T04:33:30Z,1306902810,109,56.3820311,27.2308793,9.25,0.3,0.3,324,14569.11,117225.66,324.3,Air+FixedWing,Red,Allies,F-15C,Red F-15C #001,xu,=CNF=101（国庆）,0.000281333923339844,0,8.26533659836198e-07,9.25328731536865,2.25328731536865,0,-0.000281333923339844,NaN,NaN,0,0.00989117029631303,NaN,0.99997246284369,0.00523589234007693,0.00523612508550286,3.95743882108945e-09,9.074375005126,9.07437500908344,,,28.1099998950958,7,0.0345711461276707,0.107538387424012
2011-06-01T04:33:31Z,1306902811,109,56.3820311,27.2308793,9.25,0.3,0.3,324,14569.11,117225.66,324.3,Air+FixedWing,Red,Allies,F-15C,Red F-15C #001,xu,=CNF=101（国庆）,0.000281333923339844,0,8.26533657217137e-07,9.25300598144531,2.25300598144531,0,-0.000281333923339844,NaN,NaN,0,0.00989117029631303,NaN,0.99997246284369,0.00523589234007693,0.00523612508550286,3.95743882108945e-09,9.07409911079407,9.07409911475151,,,29.1099998950958,7,0.0345711461276707,0.107819720731511
2011-06-01T04:33:32Z,1306902812,109,56.3820311,27.2308793,9.25,0.3,0.3,324,14569.11,117225.66,324.3,Air+FixedWing,Red,Allies,F-15C,Red F-15C #001,xu,=CNF=101（国庆）,0.000281333923339844,0,8.26533654598076e-07,9.25272464752197,2.25272464752197,0,-0.000281333923339844,NaN,NaN,0,0.00989117029631303,NaN,0.99997246284369,0.00523589234007693,0.00523612508550286,3.95743882108945e-09,9.07382321646214,9.07382322041958,,,30.1099998950958,7,0.0345711461276707,0.10810105540017
2011-06-01T04:33:33Z,1306902813,109,56.3820311,27.2308793,9.25,0.3,0.3,324,14569.11,117225.66,324.3,Air+FixedWing,Red,Allies,F-15C,Red F-15C #001,xu,=CNF=101（国庆）,0.000281333923339844,0,8.26533651979014e-07,9.25244331359863,2.25244331359863,0,-0.000281333923339844,NaN,NaN,0,0.00989117029631303,NaN,0.99997246284369,0.00523589234007693,0.00523612508550286,3.95743882108945e-09,9.0735473221302,9.07354732608764,,,31.1099998950958,7,0.0345711461276707,0.108382388920745
2011-06-01T04:33:34Z,1306902814,109,56.3820311,27.2308793,9.25,0.3,0.3,324,14569.11,117225.66,324.3,Air+FixedWing,Red,Allies,F-15C,Red F-15C #001,xu,=CNF=101（国庆）,0.000281333923339844,0,8.26533649359953e-07,9.25216197967529,2.25216197967529,0,-0.000281333923339844,NaN,NaN,0,0.00989117029631303,NaN,0.999972365598675,0.00523589183089848,0.00523612457630178,3.95743882108945e-09,9.07327142779827,9.07327143175571,,,32.1099998950958,7,0.0345711461276707,0.108663723360163
2011-06-01T04:33:35Z,1306902815,109,56.3820311,27.2308793,9.25,0.3,0.3,324,14569.11,117225.66,324.3,Air+FixedWing,Red,Allies,F-15C,Red F-15C #001,xu,=CNF=101（国庆）,0.00028228759765625,0,8.29335455703986e-07,9.25187969207764,2.25187969207764,0,-0.00028228759765625,NaN,NaN,0,0.00989117029631303,NaN,0.999972560088705,0.00523589284925538,0.00523612559470394,3.98431438952684e-09,9.07299459823132,9.07299460221563,,,33.1099998950958,7,0.0345711461276707,0.108946011244789
2011-06-01T04:33:36Z,1306902816,109,56.3820311,27.2308793,9.25,0.3,0.3,324,14569.11,117225.66,324.3,Air+FixedWing,Red,Allies,F-15C,Red F-15C #001,xu,=CNF=101（国庆）,0.000281333923339844,0,8.26533644112952e-07,9.2515983581543,2.2515983581543,0,-0.000281333923339844,NaN,NaN,0,0.00989117029631303,NaN,0.99997246284369,0.00523589234007693,0.00523612508550286,3.95743882108945e-09,9.07271870389938,9.07271870785682,,,34.1099998950958,7,0.0345711461276707,0.109227344765364
2011-06-01T04:33:37Z,1306902817,109,56.3820311,27.2308793,9.25,0.3,0.3,324,14569.11,117225.66,324.3,Air+FixedWing,Red,Allies,F-15C,Red F-15C #001,xu,=CNF=101（国庆）,0.000281333923339844,0,8.26533641493891e-07,9.25131702423096,2.25131702423096,0,-0.000281333923339844,NaN,NaN,0,0.00989117029631303,NaN,0.99997246284369,0.00523589234007693,0.00523612508550286,3.95743882108945e-09,9.07244280956745,9.07244281352489,,,35.1099998950958,7,0.0345711461276707,0.10950867851518
2011-06-01T04:33:38Z,1306902818,109,56.3820311,27.2308793,9.25,0.3,0.3,324,14569.11,117225.66,324.3,Air+FixedWing,Red,Allies,F-15C,Red F-15C #001,xu,=CNF=101（国庆）,0.000281333923339844,0,8.26533638874829e-07,9.25103569030762,2.25103569030762,0,-0.000281333923339844,NaN,NaN,0,0.00989117029631303,NaN,0.99997246284369,0.00523589234007693,0.00523612508550286,3.95743882108945e-09,9.07216691523552,9.07216691919296,,,36.1099998950958,7,0.0345711461276707,0.109790012264996
2011-06-01T04:33:39Z,1306902819,109,56.3820311,27.2308793,9.25,0.3,0.3,324,14569.11,117225.66,324.3,Air+FixedWing,Red,Allies,F-15C,Red F-15C #001,xu,=CNF=101（国庆）,0.000281333923339844,0,8.26533636255768e-07,9.25075435638428,2.25075435638428,0,-0.000281333923339844,NaN,NaN,0,0.00989117029631303,NaN,0.99997246284369,0.00523589234007693,0.00523612508550286,3.95743882108945e-09,9.07189102090359,9.07189102486103,,,37.1099998950958,7,0.0345711461276707,0.110071346262098
2011-06-01T04:33:40Z,1306902820,109,56.3820311,27.2308793,9.25,0.3,0.3,324,14569.11,117225.66,324.3,Air+FixedWing,Red,Allies,F-15C,Red F-15C #001,xu,=CNF=101（国庆）,0.000281333923339844,0,8.26533633636707e-07,9.25047302246094,2.25047302246094,0,-0.000281333923339844,NaN,NaN,0,0.00989117029631303,NaN,0.99997246284369,0.00523589234007693,0.00523612508550286,3.95743882108945e-09,9.07161512657166,9.07161513052909,,,38.1099998950958,7,0.0345711461276707,0.110352680241156
2011-06-01T04:33:41Z,1306902821,109,56.3820311,27.2308793,9.25,0.3,0.3,324,14569.11,117225.66,324.3,Air+FixedWing,Red,Allies,F-15C,Red F-15C #001,xu,=CNF=101（国庆）,0.000281333923339844,0,8.26533631017645e-07,9.2501916885376,2.2501916885376,0,-0.000281333923339844,NaN,NaN,0,0.00989117029631303,NaN,0.998961892650134,0.00523060095765988,0.00523083346786483,3.95743882108945e-09,9.07133923223972,9.07133923619716,,,39.1099998950958,7,0.0345711461276707,0.110634013761731
2011-06-01T04:33:42Z,1306902822,109,56.3820311,27.2308793,9.24,0.3,0.3,324,14569.11,117225.66,324.3,Air+FixedWing,Red,Allies,F-15C,Red F-15C #001,xu,=CNF=101（国庆）,0.0101919174194336,0,2.99429284769223e-05,9.23999977111816,2.23999977111816,0,-0.0101919174194336,NaN,NaN,0,0.0513960362511687,NaN,1.00101172031661,0.00524133393013573,0.00524156691745991,5.1937590342277e-06,9.06134437554359,9.06134956930263,,,40.1099998950958,7,0.0392808126887455,0.121861490945467
2011-06-01T04:33:43Z,1306902823,109,56.3820311,27.2308794,9.24,0.3,0.2,324,14569.11,117225.66,324.3,Air+FixedWing,Red,Allies,F-15C,Red F-15C #001,xu,=CNF=101（国庆）,0,0,0,9.23999977111816,2.23999977111816,0,0,NaN,NaN,0,0.0504352774299245,NaN,1.00099987094947,0.0052412718856482,0.00349400035352244,0,9.06134437554359,9.06134437554359,,,41.1099998950958,7,0.0407555622758537,0.123336242010671
2011-06-01T04:33:44Z,1306902824,109,56.3820311,27.2308793,9.25,0.3,0.2,324,14569.11,117225.66,324.3,Air+FixedWing,Red,Allies,F-15C,Red F-15C #001,xu,=CNF=101（国庆）,0.0100002288818359,0,2.9379768258097e-05,9.25,2.25,0,0.0100002288818359,NaN,NaN,0,0.0484566469995765,NaN,0.998957098279429,0.00523057585406319,0.0043195579475454,5.00022888445528e-06,9.07115125,9.07115625022888,,,42.1099998950958,7,0.0469399784240364,0.135094290216868
2011-06-01T04:33:45Z,1306902825,109,56.3820311,27.2308793,9.25,0.4,0.3,324,14569.11,117225.66,324.3,Air+FixedWing,Red,Allies,F-15C,Red F-15C #001,xu,=CNF=101（国庆）,0,0,0,9.25,2.25,0,0,NaN,NaN,0.122226982249319,0.0504352774299245,NaN,0.999966383253632,0.00630249113094825,0.00523612508550286,0,9.07115125,9.07115125,,,43.1099998950958,7,0.0469399784240364,0.135094290216868
2011-06-01T04:33:46Z,1306902826,109,56.3820311,27.2308793,9.25,0.4,0.3,324,14569.11,117225.66,324.3,Air+FixedWing,Red,Allies,F-15C,Red F-15C #001,xu,=CNF=101（国庆）,0,0,0,9.25,2.25,0,0,NaN,NaN,0.121951266722432,0.0139882274201861,NaN,0.999962449401241,0.0068960302022153,0.00523612508550286,0,9.07115125,9.07115125,,,44.1099998950958,7,0.0469399784240364,0.135094290216868
2011-06-01T04:33:47Z,1306902827,109,56.3820311,27.2308793,9.25,0.3,0.3,324,14569.11,117225.66,324.3,Air+FixedWing,Red,Allies,F-15C,Red F-15C #001,xu,=CNF=101（国庆）,0,0,0,9.25,2.25,0,0,NaN,NaN,0,0.00989117029631303,NaN,0.99997246284369,0.00523589234007693,0.00523612508550286,0,9.07115125,9.07115125,,,45.1099998950958,7,0.0491085398515519,0.137262854719513
2011-06-01T04:33:48Z,1306902828,109,56.3820311,27.2308793,9.25,0.3,0.3,324,14569.11,117225.66,324.3,Air+FixedWing,Red,Allies,F-15C,Red F-15C #001,xu,=CNF=101（国庆）,0,0,0,9.25,2.25,0,0,NaN,NaN,0,0.00989117029631303,NaN,0.99997246284369,0.00523589234007693,0.00523612508550286,0,9.07115125,9.07115125,,,46.1099998950958,7,0.0519999555407171,0.14015427496287
2011-06-01T04:33:49Z,1306902829,109,56.3820311,27.2308794,9.25,0.3,0.3,324,14569.11,117225.66,324.3,Air+FixedWing,Red,Allies,F-15C,Red F-15C #001,xu,=CNF=101（国庆）,0,0,0,9.25,2.25,0,0,NaN,NaN,0,0.00989117029631303,NaN,0.99997246284369,0.00523589234007693,0.00523612508550286,0,9.07115125,9.07115125,,,47.1099998950958,7,0.0548913704622998,0.143045693964451
2011-06-01T04:33:50Z,1306902830,109,56.3820311,27.2308794,9.25,0.3,0.3,324,14569.11,117225.66,324.3,Air+FixedWing,Red,Allies,F-15C,Red F-15C #001,xu,=CNF=101（国庆）,0,0,0,9.25,2.25,0,0,NaN,NaN,0,0.0474363941624125,NaN,0.99997246284369,0.00523589234007693,0.00523612508550286,0,9.07115125,9.07115125,,,48.1099998950958,7,0.0577827863883722,0.145937113675786
2011-06-01T04:33:51Z,1306902831,109,56.382031,27.2308794,9.25,0.3,0.3,324,14569.11,117225.66,324.3,Air+FixedWing,Red,Allies,F-15C,Red F-15C #001,xu,=CNF=101（国庆）,0,0,0,9.25,2.25,0,0,NaN,NaN,0.199987938897973,0.00989117029631303,NaN,0.99997246284369,0.00523589234007693,0.00523612508550286,0,9.07115125,9.07115125,,,49.1099998950958,7,0.0677421751292917,0.155896516699428
2011-06-01T04:33:52Z,1306902832,109,56.3820311,27.2308793,9.25,0.3,0.3,324,14569.11,117225.66,324.3,Air+FixedWing,Red,Allies,F-15C,Red F-15C #001,xu,=CNF=101（国庆）,0,0,0,9.25,2.25,0,0,NaN,NaN,0,0.0197823405926261,NaN,0.999975782589562,0.0051550399985374,0.00465289279817763,0,9.07115125,9.07115125,,,50.1099998950958,7,0.0816292468387756,0.169783608365964
2011-06-01T04:33:53Z,1306902833,109,56.3820311,27.2308793,9.25,0.3,0.2,324,14569.11,117225.66,324.3,Air+FixedWing,Red,Allies,F-15C,Red F-15C #001,xu,=CNF=101（国庆）,0.0009765625,0,2.8690523265584e-06,9.25,2.25,0.0009765625,0,NaN,NaN,0,0.0513960362511687,NaN,0.999981404240812,0.00507419970985718,0.00337422178357883,4.76837158203125e-08,9.07115125,9.07115129768372,,,51.1099998950958,7,0.0816292468387756,0.169783608365964
2011-06-01T04:33:54Z,1306902834,109,56.3820311,27.2308793,9.25,0.3,0.2,324,14569.11,117225.66,324.3,Air+FixedWing,Red,Allies,F-15C,Red F-15C #001,xu,=CNF=101（国庆）,0.0029296875,0,8.6071569796752e-06,9.25,2.25,0.0029296875,0,NaN,NaN,0,0.0221173298063182,NaN,0.999980777988905,0.00515506615463016,0.0034323313983532,4.29153442382813e-07,9.07115125,9.07115167915344,,,52.1099998950958,7,0.0816292468387756,0.169783608365964
2011-06-01T04:33:55Z,1306902835,109,56.3820311,27.2308793,9.25,0.3,0.2,324,14569.12,117225.66,324.3,Air+FixedWing,Red,Allies,F-15C,Red F-15C #001,xu,=CNF=101（国庆）,0.00390625,0,1.14762093062336e-05,9.25,2.25,0.00390625,0,NaN,NaN,0,0.0171320104161963,NaN,0.999985161752249,0.00458900104121933,0.00302556409493263,7.62939453125e-07,9.07115125,9.07115201293945,,,53.1099998950958,7,0.0816292468387756,0.169783608365964
2011-06-01T04:33:56Z,1306902836,109,56.3820312,27.2308793,9.25,0.4,0.2,324,14569.13,117225.66,324.3,Air+FixedWing,Red,Allies,F-15C,Red F-15C #001,xu,=CNF=101（国庆）,0.01171875,0,3.44286279187008e-05,9.25,2.25,0.01171875,0,NaN,NaN,0.192000512911319,0.0171320104161963,NaN,0.999950213653272,0.00901390937917025,0.0050012909972611,6.866455078125e-06,9.07115125,9.07115811645508,,,54.1099998950958,7,0.0915274423216609,0.17968181857175
2011-06-01T04:33:57Z,1306902837,109,56.3820311,27.2308793,9.25,0.4,0.2,324,14569.12,117225.66,324.3,Air+FixedWing,Red,Allies,F-15C,Red F-15C #001,xu,=CNF=101（国庆）,0.013671875,0,4.01667325718176e-05,9.25,2.25,0.013671875,0,NaN,NaN,0.199999998450727,0.0171320104161963,NaN,0.999975681291122,0.00633429623560652,0.00302556409493263,9.34600830078125e-06,9.07115125,9.0711605960083,,,55.1099998950958,7,0.101425637804546,0.189580028777535
2011-06-01T04:33:58Z,1306902838,109,56.3820311,27.2308793,9.25,0.3,0.2,324,14569.11,117225.66,324.3,Air+FixedWing,Red,Allies,F-15C,Red F-15C #001,xu,=CNF=101（国庆）,0.005859375,0,1.72143139593504e-05,9.25,2.25,0.005859375,0,NaN,NaN,0.0154895350162667,0.0171320104161963,NaN,0.999992740288707,0.00397195879046157,0.00209581025854277,1.71661376953125e-06,9.07115125,9.07115296661377,,,56.1099998950958,7,0.101425637804546,0.189580028777535
2011-06-01T04:33:59Z,1306902839,109,56.3820312,27.2308793,9.25,0.3,0.2,324,14569.13,117225.66,324.3,Air+FixedWing,Red,Allies,F-15C,Red F-15C #001,xu,=CNF=101（国庆）,0.017578125,0,5.16429418780512e-05,9.25,2.25,0.017578125,0,NaN,NaN,0,0.0171320104161963,NaN,0.99995948542409,0.00790452527691135,0.00540805830068166,1.54495239257812e-05,9.07115125,9.07116669952392,,,57.1099998950958,7,0.109438464441247,0.197592867166986
2011-06-01T04:34:00Z,1306902840,109,56.3820311,27.2308793,9.25,0.3,0.2,324,14569.11,117225.66,324.3,Air+FixedWing,Red,Allies,F-15C,Red F-15C #001,xu,=CNF=101（国庆）,0.0146484375,0,4.3035784898376e-05,9.25,2.25,0.0146484375,0,NaN,NaN,0,0.0171320104161963,NaN,0.998831392875646,0.00219753279482321,0.00326941345718416,1.07288360595703e-05,9.07115125,9.07116197883606,,,58.1099998950958,7,0.117451291077947,0.205605705556437
2011-06-01T04:34:01Z,1306902841,109,56.3820312,27.2308794,9.24,0.7,0.2,324,14569.12,117225.67,324.3,Air+FixedWing,Red,Allies,F-15C,Red F-15C #001,xu,=CNF=101（国庆）,0.0221394092334376,0,6.50435741627262e-05,9.23857116699219,2.23857116699219,0.0189614139052223,-0.0114288330078125,NaN,NaN,0.771428405370244,0.0279764548403722,NaN,1.001220743658,0.0133173516014463,0.00249167513600854,2.4507672060281e-05,9.05994339347839,9.05996790115045,,,59.1099998950958,7,0.137570810854843,0.228744731287654
2011-06-01T04:34:02Z,1306902842,109,56.3820312,27.2308794,9.24,0.9,0.2,324,14569.13,117225.67,324.3,Air+FixedWing,Red,Allies,F-15C,Red F-15C #001,xu,=CNF=101（国庆）,0.00603101858224481,0,1.77185852886533e-05,9.23999977111816,2.23999977111816,0.005859375,0.00142860412597656,NaN,NaN,1.17140476341387,0.0171320104161963,NaN,0.999723593846292,0.0156489261169243,0.00414502044294809,1.81865925696911e-06,9.06134437554359,9.06134619420285,,,60.1099998950958,7,0.141492796512974,0.232918809803035
2011-06-01T04:34:03Z,1306902843,109,56.3820312,27.2308795,9.24,0.9,0.2,324,14569.13,117225.68,324.3,Air+FixedWing,Red,Allies,F-15C,Red F-15C #001,xu,=CNF=101（国庆）,0.00834375365753665,0,2.45131910625864e-05,9.23999977111816,2.23999977111816,0.00834375365753665,0,NaN,NaN,0.733343750805929,0.0279764548403722,NaN,0.998726052126917,0.0235893903593146,0.00227820290303969,3.48091125488281e-06,9.06134437554359,9.06134785645485,,,61.1099998950958,7,0.151836614207396,0.243262642315237
2011-06-01T04:34:04Z,1306902844,109,56.3820308,27.2308792,9.23,-0,0.2,324,14569.08,117225.64,324.3,Air+FixedWing,Red,Allies,F-15C,Red F-15C #001,xu,=CNF=101（国庆）,0.0656106290072292,0,0.000192758052244794,9.22999954223633,2.22999954223633,0.0648440441446642,-0.0100002288818359,NaN,NaN,2.19997661090443,0.0171320104161963,NaN,1.00202967974377,-0.0122779872289333,0.00368343316683299,0.000215237731936213,9.05153750108719,9.05175273881912,,,62.1099998950958,7,0.211393590566485,0.303653438440581
2011-06-01T04:34:05Z,1306902845,109,56.3820312,27.2308795,9.24,0.6,0.2,324,14569.12,117225.67,324.3,Air+FixedWing,Red,Allies,F-15C,Red F-15C #001,xu,=CNF=101（国庆）,0.0540636712983091,0,0.000158834160076531,9.23999977111816,2.23999977111816,0.0531307441747478,0.0100002288818359,NaN,NaN,0.43809409633673,0.0171320104161963,NaN,0.998857212649898,0.016284961330612,0.00368836269033374,0.00014614402771258,9.06134437554359,9.06149051957131,,,63.1099998950958,7,0.26282119125704,0.356044376065806
2011-06-01T04:34:06Z,1306902846,109,56.3820311,27.2308794,9.24,0.5,0.2,324,14569.12,117225.67,324.3,Air+FixedWing,Red,Allies,F-15C,Red F-15C #001,xu,=CNF=101（国庆）,0.00390625,0,1.14762080136122e-05,9.23999977111816,2.23999977111816,0.00390625,0,NaN,NaN,0.771428672174509,0.0171320104161963,NaN,0.998938845936407,0.0081718390012699,0.00407571718085046,7.62939453125e-07,9.06134437554359,9.06134513848305,,,64.1099998950958,7,0.272042609245992,0.365265807273674
2011-06-01T04:34:07Z,1306902847,109,56.3820311,27.2308795,9.23,0.5,0.2,324,14569.12,117225.68,324.3,Air+FixedWing,Red,Allies,F-15C,Red F-15C #001,xu,=CNF=101（国庆）,0.0130239319249895,0,3.82631257833722e-05,9.22999954223633,2.22999954223633,0.00834375365753665,-0.0100002288818359,NaN,NaN,0.542857245373678,0.0171320104161963,NaN,1.00302280390566,0.00823270645969912,0.00250551622277386,8.4811401393381e-06,9.05153750108719,9.05154598222733,,,65.1099998950958,7,0.28352817445736,0.380494831994224
2011-06-01T04:34:08Z,1306902848,109,56.3820311,27.2308795,9.25,0.3,0.2,324,14569.12,117225.68,324.3,Air+FixedWing,Red,Allies,F-15C,Red F-15C #001,xu,=CNF=101（国庆）,0.0202138907586857,0,5.93865833574446e-05,9.25,2.25,0.0029296875,0.0200004577636719,NaN,NaN,0.21904760845732,0.0171320104161963,NaN,0.996042798933194,0.0070990234136045,0.00176831521916838,2.04300689802039e-05,9.07115125,9.07117168006898,,,66.1099998950958,7,0.287298914344324,0.400847641029521
2011-06-01T04:34:09Z,1306902849,109,56.3820311,27.2308793,9.23,0.3,0.2,324,14569.12,117225.66,324.3,Air+FixedWing,Red,Allies,F-15C,Red F-15C #001,xu,=CNF=101（国庆）,0.0299196227935177,0,8.79011281196676e-05,9.2314281463623,2.2314281463623,0.0234578362294225,-0.0185718536376953,NaN,NaN,0.0666608853911791,0.0171320104161963,NaN,1.00172488704568,0.0042475996170372,0.00590225502639012,4.47591914053191e-05,9.05293848315239,9.05298324234379,,,67.1099998950958,7,0.309582761765937,0.429856001863969
2011-06-01T04:34:10Z,1306902850,109,56.382031,27.2308793,9.23,0.3,0.2,324,14569.11,117225.66,324.3,Air+FixedWing,Red,Allies,F-15C,Red F-15C #001,xu,=CNF=101（国庆）,0.00890441066986825,0,2.61603475394581e-05,9.22999954223633,2.22999954223633,0.0087890625,-0.00142860412597656,NaN,NaN,0.0393418896192734,0.0171320104161963,NaN,1.00013460590011,0.00374995594257236,0.00296796295735753,3.96442646888318e-06,9.05153750108719,9.05154146551366,,,68.1099998950958,7,0.319480956213338,0.439856774441364
2011-06-01T04:34:11Z,1306902851,109,56.3820311,27.2308793,9.23,0.3,0.2,324,14569.11,117225.66,324.3,Air+FixedWing,Red,Allies,F-15C,Red F-15C #001,xu,=CNF=101（国庆）,0,0,0,9.22999954223633,2.22999954223633,0,0,NaN,NaN,0,0.0171320104161963,NaN,0.999980151736999,0.00523593259940314,0.00349044101312757,0,9.05153750108719,9.05153750108719,,,69.1099998950958,7,0.325381802279426,0.445757628902274
2011-06-01T04:34:12Z,1306902852,109,56.382031,27.2308794,9.23,0.3,0.2,324,14569.11,117225.66,324.3,Air+FixedWing,Red,Allies,F-15C,Red F-15C #001,xu,=CNF=101（国庆）,0,0,0,9.22999954223633,2.22999954223633,0,0,NaN,NaN,0,0.0171320104161963,NaN,0.999980151736999,0.00523593259940314,0.00349044101312757,0,9.05153750108719,9.05153750108719,,,70.1099998950958,7,0.337981019941831,0.458356863997625
2011-06-01T04:34:13Z,1306902853,109,56.3820311,27.2308794,9.23,0.3,0.2,324,14569.11,117225.66,324.3,Air+FixedWing,Red,Allies,F-15C,Red F-15C #001,xu,=CNF=101（国庆）,0,0,0,9.22999954223633,2.22999954223633,0,0,NaN,NaN,0,0.0171320104161963,NaN,0.999983282996531,0.00483160037553826,0.00319989293925573,0,9.05153750108719,9.05153750108719,,,71.1099998950958,7,0.342987003601586,0.463362854245386
2011-06-01T04:34:14Z,1306902854,109,56.3820311,27.2308793,9.23,0.3,0.2,324,14569.12,117225.66,324.3,Air+FixedWing,Red,Allies,F-15C,Red F-15C #001,xu,=CNF=101（国庆）,0.0048828125,0,1.43452584012391e-05,9.22999954223633,2.22999954223633,0.0048828125,0,NaN,NaN,0,0.0171320104161963,NaN,0.999980151736999,0.00523593259940314,0.00349044101312757,1.19209289550781e-06,9.05153750108719,9.05153869318008,,,72.1099998950958,7,0.355146527572612,0.475522396015156
2011-06-01T04:34:15Z,1306902855,109,56.3820311,27.2308793,9.23,0.3,0.2,324,14569.12,117225.66,324.3,Air+FixedWing,Red,Allies,F-15C,Red F-15C #001,xu,=CNF=101（国庆）,0.0048828125,0,1.43452584012391e-05,9.22999954223633,2.22999954223633,0.0048828125,0,NaN,NaN,0,0.0171320104161963,NaN,0.999973262966029,0.00612546349190587,0.0041296467756456,1.19209289550781e-06,9.05153750108719,9.05153869318008,,,73.1099998950958,7,0.356089211607926,0.476465081213806
2011-06-01T04:34:16Z,1306902856,109,56.3820311,27.2308793,9.23,0.3,0.2,324,14569.11,117225.66,324.3,Air+FixedWing,Red,Allies,F-15C,Red F-15C #001,xu,=CNF=101（国庆）,0.005859375,0,1.72143100814869e-05,9.22999954223633,2.22999954223633,0.005859375,0,NaN,NaN,0,0.0171320104161963,NaN,0.999981404240812,0.00507419970985718,0.00337422178357883,1.71661376953125e-06,9.05153750108719,9.05153921770096,,,74.1099998950958,7,0.35703189564324,0.477407766412455
2011-06-01T04:34:17Z,1306902857,109,56.3820311,27.2308793,9.23,0.3,0.2,324,14569.11,117225.66,324.3,Air+FixedWing,Red,Allies,F-15C,Red F-15C #001,xu,=CNF=101（国庆）,0.00390625,0,1.14762067209913e-05,9.22999954223633,2.22999954223633,0.00390625,0,NaN,NaN,0,0.0171320104161963,NaN,0.999982656744624,0.00491246682031123,0.0032580025540301,7.62939453125e-07,9.05153750108719,9.05153826402664,,,75.1099998950958,7,0.357035003926333,0.477410874695548
2011-06-01T04:34:18Z,1306902858,109,56.3820311,27.2308793,9.23,0.3,0.2,324,14569.11,117225.66,324.3,Air+FixedWing,Red,Allies,F-15C,Red F-15C #001,xu,=CNF=101（国庆）,0,0,0,9.22999954223633,2.22999954223633,0,0,NaN,NaN,0,0.0171320104161963,NaN,0.999980151736999,0.00523593259940314,0.00349044101312757,0,9.05153750108719,9.05153750108719,,,76.1099998950958,7,0.357190465550096,0.477566336834937
2011-06-01T04:34:19Z,1306902859,109,56.3820311,27.2308793,9.23,0.3,0.2,324,14569.11,117225.66,324.3,Air+FixedWing,Red,Allies,F-15C,Red F-15C #001,xu,=CNF=101（国庆）,0,0,0,9.22999954223633,2.22999954223633,0,0,NaN,NaN,0,0.0171320104161963,NaN,0.999980151736999,0.00523593259940314,0.00349044101312757,0,9.05153750108719,9.05153750108719,,,77.1099998950958,7,0.357345925234964,0.477721796519806
2011-06-01T04:34:20Z,1306902860,109,56.3820311,27.2308793,9.23,0.3,0.2,324,14569.11,117225.66,324.3,Air+FixedWing,Red,Allies,F-15C,Red F-15C #001,xu,=CNF=101（国庆）,0,0,0,9.22999954223633,2.22999954223633,0,0,NaN,NaN,0,0.0171320104161963,NaN,0.999980151736999,0.00523593259940314,0.00349044101312757,0,9.05153750108719,9.05153750108719,,,78.1099998950958,7,0.357501386986575,0.477877258659195
2011-06-01T04:34:21Z,1306902861,109,56.3820311,27.2308793,9.23,0.3,0.2,324,14569.11,117225.66,324.3,Air+FixedWing,Red,Allies,F-15C,Red F-15C #001,xu,=CNF=101（国庆）,0,0,0,9.22999954223633,2.22999954223633,0,0,NaN,NaN,0,0.0171320104161963,NaN,0.999980151736999,0.00523593259940314,0.00349044101312757,0,9.05153750108719,9.05153750108719,,,79.1099998950958,7,0.357656848610338,0.478032720282958
2011-06-01T04:34:22Z,1306902862,109,56.3820311,27.2308793,9.23,0.3,0.2,324,14569.11,117225.66,324.3,Air+FixedWing,Red,Allies,F-15C,Red F-15C #001,xu,=CNF=101（国庆）,0,0,0,9.22999954223633,2.22999954223633,0,0,NaN,NaN,0,0.0171320104161963,NaN,0.999980151736999,0.00523593259940314,0.00349044101312757,0,9.05153750108719,9.05153750108719,,,80.1099998950958,7,0.357812308810839,0.478188179967826
2011-06-01T04:34:23Z,1306902863,109,56.3820311,27.2308793,9.23,0.3,0.2,324,14569.11,117225.66,324.3,Air+FixedWing,Red,Allies,F-15C,Red F-15C #001,xu,=CNF=101（国庆）,0,0,0,9.22999954223633,2.22999954223633,0,0,NaN,NaN,0,0.0171320104161963,NaN,0.999980151736999,0.00523593259940314,0.00349044101312757,0,9.05153750108719,9.05153750108719,,,81.1099998950958,7,0.357967770046822,0.478343642107216
2011-06-01T04:34:24Z,1306902864,109,56.3820311,27.2308793,9.23,0.3,0.2,324,14569.11,117225.66,324.3,Air+FixedWing,Red,Allies,F-15C,Red F-15C #001,xu,=CNF=101（国庆）,0,0,0,9.22999954223633,2.22999954223633,0,0,NaN,NaN,0,0.0171320104161963,NaN,0.999980151736999,0.00523593259940314,0.00349044101312757,0,9.05153750108719,9.05153750108719,,,82.1099998950958,7,0.358123231798433,0.478499104246605
2011-06-01T04:34:25Z,1306902865,109,56.3820311,27.2308793,9.23,0.3,0.2,324,14569.11,117225.66,324.3,Air+FixedWing,Red,Allies,F-15C,Red F-15C #001,xu,=CNF=101（国庆）,0,0,0,9.22999954223633,2.22999954223633,0,0,NaN,NaN,0,0.0171320104161963,NaN,0.999980151736999,0.00523593259940314,0.00349044101312757,0,9.05153750108719,9.05153750108719,,,83.1099998950958,7,0.358278691871079,0.478654564447106
2011-06-01T04:34:26Z,1306902866,109,56.3820311,27.2308793,9.23,0.3,0.2,324,14569.11,117225.66,324.3,Air+FixedWing,Red,Allies,F-15C,Red F-15C #001,xu,=CNF=101（国庆）,0,0,0,9.22999954223633,2.22999954223633,0,0,NaN,NaN,0,0.0171320104161963,NaN,0.999980151736999,0.00523593259940314,0.00349044101312757,0,9.05153750108719,9.05153750108719,,,84.1099998950958,7,0.35843415116817,0.478810024131975
2011-06-01T04:34:27Z,1306902867,109,56.3820311,27.2308793,9.23,0.3,0.2,324,14569.11,117225.66,324.3,Air+FixedWing,Red,Allies,F-15C,Red F-15C #001,xu,=CNF=101（国庆）,0,0,0,9.22999954223633,2.22999954223633,0,0,NaN,NaN,0,0.0171320104161963,NaN,0.999980151736999,0.00523593259940314,0.00349044101312757,0,9.05153750108719,9.05153750108719,,,85.1099998950958,7,0.358589612919781,0.478965485367958
2011-06-01T04:34:28Z,1306902868,109,56.3820311,27.2308793,9.23,0.3,0.2,324,14569.11,117225.66,324.3,Air+FixedWing,Red,Allies,F-15C,Red F-15C #001,xu,=CNF=101（国庆）,0,0,0,9.22999954223633,2.22999954223633,0,0,NaN,NaN,0,0.0171320104161963,NaN,0.999980151736999,0.00523593259940314,0.00349044101312757,0,9.05153750108719,9.05153750108719,,,86.1099998950958,7,0.358745074931324,0.479120947379501
2011-06-01T04:34:29Z,1306902869,109,56.3820311,27.2308793,9.23,0.3,0.2,324,14569.11,117225.66,324.3,Air+FixedWing,Red,Allies,F-15C,Red F-15C #001,xu,=CNF=101（国庆）,0,0,0,9.22999954223633,2.22999954223633,0,0,NaN,NaN,0,0.0171320104161963,NaN,0.999980151736999,0.00523593259940314,0.00349044101312757,0,9.05153750108719,9.05153750108719,,,87.1099998950958,7,0.358900534356273,0.479276407580002
2011-06-01T04:34:30Z,1306902870,109,56.3820311,27.2308793,9.23,0.3,0.2,324,14569.11,117225.66,324.3,Air+FixedWing,Red,Allies,F-15C,Red F-15C #001,xu,=CNF=101（国庆）,0,0,0,9.22999954223633,2.22999954223633,0,0,NaN,NaN,0,0.0171320104161963,NaN,0.999980151736999,0.00523593259940314,0.00349044101312757,0,9.05153750108719,9.05153750108719,,,88.1099998950958,7,0.359055995980036,0.479431869331613
2011-06-01T04:34:31Z,1306902871,109,56.3820311,27.2308793,9.23,0.3,0.2,324,14569.11,117225.66,324.3,Air+FixedWing,Red,Allies,F-15C,Red F-15C #001,xu,=CNF=101（国庆）,0,0,0,9.22999954223633,2.22999954223633,0,0,NaN,NaN,0,0.0171320104161963,NaN,0.999980151736999,0.00523593259940314,0.00349044101312757,0,9.05153750108719,9.05153750108719,,,89.1099998950958,7,0.359211457216019,0.479587331471002
2011-06-01T04:34:32Z,1306902872,109,56.3820311,27.2308793,9.23,0.3,0.2,324,14569.11,117225.66,324.3,Air+FixedWing,Red,Allies,F-15C,Red F-15C #001,xu,=CNF=101（国庆）,0,0,0,9.22999954223633,2.22999954223633,0,0,NaN,NaN,0,0.0171320104161963,NaN,0.999980151736999,0.00523593259940314,0.00349044101312757,0,9.05153750108719,9.05153750108719,,,90.1099998950958,7,0.35936691741652,0.47974279205928
2011-06-01T04:34:33Z,1306902873,109,56.3820311,27.2308793,9.23,0.3,0.2,324,14569.11,117225.66,324.3,Air+FixedWing,Red,Allies,F-15C,Red F-15C #001,xu,=CNF=101（国庆）,0,0,0,9.22999954223633,2.22999954223633,0,0,NaN,NaN,0,0.0171320104161963,NaN,0.999980151736999,0.00523593259940314,0.00349044101312757,0,9.05153750108719,9.05153750108719,,,91.1099998950958,7,0.359522379040283,0.479898253683043
2011-06-01T04:34:34Z,1306902874,109,56.3820311,27.2308793,9.23,0.3,0.2,324,14569.11,117225.66,324.3,Air+FixedWing,Red,Allies,F-15C,Red F-15C #001,xu,=CNF=101（国庆）,0,0,0,9.22999954223633,2.22999954223633,0,0,NaN,NaN,0,0.0171320104161963,NaN,0.999980151736999,0.00523593259940314,0.00349044101312757,0,9.05153750108719,9.05153750108719,,,92.1099998950958,7,0.359677839240785,0.480053713367911
2011-06-01T04:34:35Z,1306902875,109,56.3820311,27.2308793,9.23,0.3,0.2,324,14569.11,117225.66,324.3,Air+FixedWing,Red,Allies,F-15C,Red F-15C #001,xu,=CNF=101（国庆）,0,0,0,9.22999954223633,2.22999954223633,0,0,NaN,NaN,0,0.0171320104161963,NaN,0.999980151736999,0.00523593259940314,0.00349044101312757,0,9.05153750108719,9.05153750108719,,,93.1099998950958,7,0.359833300476768,0.480209175507301
2011-06-01T04:34:36Z,1306902876,109,56.3820311,27.2308793,9.23,0.3,0.2,324,14569.11,117225.66,324.3,Air+FixedWing,Red,Allies,F-15C,Red F-15C #001,xu,=CNF=101（国庆）,0,0,0,9.22999954223633,2.22999954223633,0,0,NaN,NaN,0,0.0171320104161963,NaN,0.999980151736999,0.00523593259940314,0.00349044101312757,0,9.05153750108719,9.05153750108719,,,94.1099998950958,7,0.359988760677269,0.480364635579947
2011-06-01T04:34:37Z,1306902877,109,56.3820311,27.2308793,9.23,0.3,0.2,324,14569.11,117225.66,324.3,Air+FixedWing,Red,Allies,F-15C,Red F-15C #001,xu,=CNF=101（国庆）,0,0,0,9.22999954223633,2.22999954223633,0,0,NaN,NaN,0,0.0171320104161963,NaN,0.999980151736999,0.00523593259940314,0.00349044101312757,0,9.05153750108719,9.05153750108719,,,95.1099998950958,7,0.360144222301032,0.480520097331558
2011-06-01T04:34:38Z,1306902878,109,56.3820311,27.2308793,9.23,0.3,0.2,324,14569.11,117225.66,324.3,Air+FixedWing,Red,Allies,F-15C,Red F-15C #001,xu,=CNF=101（国庆）,0,0,0,9.22999954223633,2.22999954223633,0,0,NaN,NaN,0,0.0171320104161963,NaN,0.999980151736999,0.00523593259940314,0.00349044101312757,0,9.05153750108719,9.05153750108719,,,96.1099998950958,7,0.360299683537015,0.480675559470947
2011-06-01T04:34:39Z,1306902879,109,56.3820311,27.2308793,9.23,0.3,0.2,324,14569.11,117225.66,324.3,Air+FixedWing,Red,Allies,F-15C,Red F-15C #001,xu,=CNF=101（国庆）,0,0,0,9.22999954223633,2.22999954223633,0,0,NaN,NaN,0,0.0171320104161963,NaN,0.999980151736999,0.00523593259940314,0.00349044101312757,0,9.05153750108719,9.05153750108719,,,97.1099998950958,7,0.36045514334974,0.480831018768038
2011-06-01T04:34:40Z,1306902880,109,56.3820311,27.2308793,9.23,0.3,0.2,324,14569.11,117225.66,324.3,Air+FixedWing,Red,Allies,F-15C,Red F-15C #001,xu,=CNF=101（国庆）,0,0,0,9.22999954223633,2.22999954223633,0,0,NaN,NaN,0,0.0171320104161963,NaN,0.999980151736999,0.00523593259940314,0.00349044101312757,0,9.05153750108719,9.05153750108719,,,98.1099998950958,7,0.360610605361283,0.480986480779581
2011-06-01T04:34:41Z,1306902881,109,56.3820311,27.2308793,9.23,0.3,0.2,324,14569.11,117225.66,324.3,Air+FixedWing,Red,Allies,F-15C,Red F-15C #001,xu,=CNF=101（国庆）,0,0,0,9.22999954223633,2.22999954223633,0,0,NaN,NaN,0,0.0171320104161963,NaN,0.999980151736999,0.00523593259940314,0.00349044101312757,0,9.05153750108719,9.05153750108719,,,99.1099998950958,7,0.360766067112893,0.48114194291897
2011-06-01T04:34:42Z,1306902882,109,56.3820311,27.2308793,9.23,0.3,0.2,324,14569.11,117225.66,324.3,Air+FixedWing,Red,Allies,F-15C,Red F-15C #001,xu,=CNF=101（国庆）,0,0,0,9.22999954223633,2.22999954223633,0,0,NaN,NaN,0,0.0171320104161963,NaN,0.999980151736999,0.00523593259940314,0.00349044101312757,0,9.05153750108719,9.05153750108719,,,100.109999895096,7,0.360921526409984,0.481297402216061
2011-06-01T04:34:43Z,1306902883,109,56.3820311,27.2308793,9.23,0.3,0.2,324,14569.11,117225.66,324.3,Air+FixedWing,Red,Allies,F-15C,Red F-15C #001,xu,=CNF=101（国庆）,0,0,0,9.22999954223633,2.22999954223633,0,0,NaN,NaN,0,0.0171320104161963,NaN,0.999980151736999,0.00523593259940314,0.00349044101312757,0,9.05153750108719,9.05153750108719,,,101.109999895096,7,0.361076986094853,0.481452862804339
2011-06-01T04:34:44Z,1306902884,109,56.3820311,27.2308793,9.23,0.3,0.2,324,14569.11,117225.66,324.3,Air+FixedWing,Red,Allies,F-15C,Red F-15C #001,xu,=CNF=101（国庆）,0,0,0,9.22999954223633,2.22999954223633,0,0,NaN,NaN,0,0.0171320104161963,NaN,0.999980151736999,0.00523593259940314,0.00349044101312757,0,9.05153750108719,9.05153750108719,,,102.109999895096,7,0.361232447846464,0.481608324428102
2011-06-01T04:34:45Z,1306902885,109,56.3820311,27.2308793,9.23,0.3,0.2,324,14569.11,117225.66,324.3,Air+FixedWing,Red,Allies,F-15C,Red F-15C #001,xu,=CNF=101（国庆）,0,0,0,9.22999954223633,2.22999954223633,0,0,NaN,NaN,0,0.0171320104161963,NaN,0.999980151736999,0.00523593259940314,0.00349044101312757,0,9.05153750108719,9.05153750108719,,,103.109999895096,7,0.361387909470226,0.481763786179712
2011-06-01T04:34:46Z,1306902886,109,56.3820311,27.2308793,9.23,0.3,0.2,324,14569.11,117225.66,324.3,Air+FixedWing,Red,Allies,F-15C,Red F-15C #001,xu,=CNF=101（国庆）,0,0,0,9.22999954223633,2.22999954223633,0,0,NaN,NaN,0,0.0171320104161963,NaN,0.999980151736999,0.00523593259940314,0.00349044101312757,0,9.05153750108719,9.05153750108719,,,104.109999895096,7,0.361543369670728,0.481919246767991
2011-06-01T04:34:47Z,1306902887,109,56.3820311,27.2308793,9.23,0.3,0.2,324,14569.11,117225.66,324.3,Air+FixedWing,Red,Allies,F-15C,Red F-15C #001,xu,=CNF=101（国庆）,0,0,0,9.22999954223633,2.22999954223633,0,0,NaN,NaN,0,0.0171320104161963,NaN,0.999980151736999,0.00523593259940314,0.00349044101312757,0,9.05153750108719,9.05153750108719,,,105.109999895096,7,0.361698830906711,0.482074708391753
2011-06-01T04:34:48Z,1306902888,109,56.3820311,27.2308793,9.23,0.3,0.2,324,14569.11,117225.66,324.3,Air+FixedWing,Red,Allies,F-15C,Red F-15C #001,xu,=CNF=101（国庆）,0,0,0,9.22999954223633,2.22999954223633,0,0,NaN,NaN,0,0.0171320104161963,NaN,0.999980151736999,0.00523593259940314,0.00349044101312757,0,9.05153750108719,9.05153750108719,,,106.109999895096,7,0.361854292530473,0.482230169627736
2011-06-01T04:34:49Z,1306902889,109,56.382031,27.2308793,9.23,0.3,0.2,324,14569.11,117225.66,324.3,Air+FixedWing,Red,Allies,F-15C,Red F-15C #001,xu,=CNF=101（国庆）,0,0,0,9.22999954223633,2.22999954223633,0,0,NaN,NaN,0,0.0171320104161963,NaN,0.999980151736999,0.00523593259940314,0.00349044101312757,0,9.05153750108719,9.05153750108719,,,107.109999895096,7,0.362009752730975,0.482385630216014
2011-06-01T04:34:50Z,1306902890,109,56.382031,27.2308793,9.23,0.3,0.2,324,14569.11,117225.66,324.3,Air+FixedWing,Red,Allies,F-15C,Red F-15C #001,xu,=CNF=101（国庆）,0,0,0,9.22999954223633,2.22999954223633,0,0,NaN,NaN,0,0.0171320104161963,NaN,0.999980151736999,0.00523593259940314,0.00349044101312757,0,9.05153750108719,9.05153750108719,,,108.109999895096,7,0.362165213966958,0.482541091839777
2011-06-01T04:34:51Z,1306902891,109,56.382031,27.2308793,9.23,0.3,0.2,324,14569.11,117225.66,324.3,Air+FixedWing,Red,Allies,F-15C,Red F-15C #001,xu,=CNF=101（国庆）,0,0,0,9.22999954223633,2.22999954223633,0,0,NaN,NaN,0,0.0171320104161963,NaN,0.999980151736999,0.00523593259940314,0.00349044101312757,0,9.05153750108719,9.05153750108719,,,109.109999895096,7,0.362320673779683,0.482696551652502
2011-06-01T04:34:52Z,1306902892,109,56.382031,27.2308793,9.23,0.3,0.2,324,14569.11,117225.66,324.3,Air+FixedWing,Red,Allies,F-15C,Red F-15C #001,xu,=CNF=101（国庆）,0,0,0,9.22999954223633,2.22999954223633,0,0,NaN,NaN,0,0.0171320104161963,NaN,0.999980151736999,0.00523593259940314,0.00349044101312757,0,9.05153750108719,9.05153750108719,,,110.109999895096,7,0.362476135791226,0.48285201417967
2011-06-01T04:34:53Z,1306902893,109,56.382031,27.2308793,9.23,0.3,0.2,324,14569.11,117225.66,324.3,Air+FixedWing,Red,Allies,F-15C,Red F-15C #001,xu,=CNF=101（国庆）,0,0,0,9.22999954223633,2.22999954223633,0,0,NaN,NaN,0,0.0171320104161963,NaN,0.999980151736999,0.00523593259940314,0.00349044101312757,0,9.05153750108719,9.05153750108719,,,111.109999895096,7,0.362631595088317,0.483007473476761
2011-06-01T04:34:54Z,1306902894,109,56.382031,27.2308793,9.23,0.3,0.2,324,14569.11,117225.66,324.3,Air+FixedWing,Red,Allies,F-15C,Red F-15C #001,xu,=CNF=101（国庆）,0,0,0,9.22999954223633,2.22999954223633,0,0,NaN,NaN,0,0.0171320104161963,NaN,0.999980151736999,0.00523593259940314,0.00349044101312757,0,9.05153750108719,9.05153750108719,,,112.109999895096,7,0.3627870563243,0.483162935100524
2011-06-01T04:34:55Z,1306902895,109,56.382031,27.2308793,9.23,0.3,0.2,324,14569.11,117225.66,324.3,Air+FixedWing,Red,Allies,F-15C,Red F-15C #001,xu,=CNF=101（国庆）,0,0,0,9.22999954223633,2.22999954223633,0,0,NaN,NaN,0,0.0171320104161963,NaN,0.999980151736999,0.00523593259940314,0.00349044101312757,0,9.05153750108719,9.05153750108719,,,113.109999895096,7,0.36294251807591,0.483318397239913
2011-06-01T04:34:56Z,1306902896,109,56.382031,27.2308793,9.23,0.3,0.2,324,14569.11,117225.66,324.3,Air+FixedWing,Red,Allies,F-15C,Red F-15C #001,xu,=CNF=101（国庆）,0,0,0,9.22999954223633,2.22999954223633,0,0,NaN,NaN,0,0.0171320104161963,NaN,0.999980151736999,0.00523593259940314,0.00349044101312757,0,9.05153750108719,9.05153750108719,,,114.109999895096,7,0.363097977760779,0.48347385731256
2011-06-01T04:34:57Z,1306902897,109,56.382031,27.2308793,9.23,0.3,0.2,324,14569.11,117225.66,324.3,Air+FixedWing,Red,Allies,F-15C,Red F-15C #001,xu,=CNF=101（国庆）,0,0,0,9.22999954223633,2.22999954223633,0,0,NaN,NaN,0,0.0171320104161963,NaN,0.999980151736999,0.00523593259940314,0.00349044101312757,0,9.05153750108719,9.05153750108719,,,115.109999895096,7,0.363253439900168,0.48362931906417
2011-06-01T04:34:58Z,1306902898,109,56.382031,27.2308793,9.23,0.3,0.2,324,14569.11,117225.66,324.3,Air+FixedWing,Red,Allies,F-15C,Red F-15C #001,xu,=CNF=101（国庆）,0,0,0,9.22999954223633,2.22999954223633,0,0,NaN,NaN,0,0.0171320104161963,NaN,0.999980151736999,0.00523593259940314,0.00349044101312757,0,9.05153750108719,9.05153750108719,,,116.109999895096,7,0.363408901136151,0.48378478120356
2011-06-01T04:34:59Z,1306902899,109,56.382031,27.2308793,9.23,0.3,0.2,324,14569.11,117225.66,324.3,Air+FixedWing,Red,Allies,F-15C,Red F-15C #001,xu,=CNF=101（国庆）,0,0,0,9.22999954223633,2.22999954223633,0,0,NaN,NaN,0,0.0171320104161963,NaN,0.999980151736999,0.00523593259940314,0.00349044101312757,0,9.05153750108719,9.05153750108719,,,117.109999895096,7,0.36356436082102,0.483940241276206
2011-06-01T04:35:00Z,1306902900,109,56.382031,27.2308793,9.23,0.3,0.2,324,14569.11,117225.66,324.3,Air+FixedWing,Red,Allies,F-15C,Red F-15C #001,xu,=CNF=101（国庆）,0,0,0,9.22999954223633,2.22999954223633,0,0,NaN,NaN,0,0.0171320104161963,NaN,0.999980151736999,0.00523593259940314,0.00349044101312757,0,9.05153750108719,9.05153750108719,,,118.109999895096,7,0.363719822960409,0.484095703027817
2011-06-01T04:35:01Z,1306902901,109,56.382031,27.2308793,9.23,0.3,0.2,324,14569.11,117225.66,324.3,Air+FixedWing,Red,Allies,F-15C,Red F-15C #001,xu,=CNF=101（国庆）,0,0,0,9.22999954223633,2.22999954223633,0,0,NaN,NaN,0,0.0171320104161963,NaN,0.999980151736999,0.00523593259940314,0.00349044101312757,0,9.05153750108719,9.05153750108719,,,119.109999895096,7,0.363875282645277,0.484251163100463
2011-06-01T04:35:02Z,1306902902,109,56.382031,27.2308793,9.23,0.3,0.2,324,14569.11,117225.66,324.3,Air+FixedWing,Red,Allies,F-15C,Red F-15C #001,xu,=CNF=101（国庆）,0,0,0,9.22999954223633,2.22999954223633,0,0,NaN,NaN,0,0.0171320104161963,NaN,0.999980151736999,0.00523593259940314,0.00349044101312757,0,9.05153750108719,9.05153750108719,,,120.109999895096,7,0.364030744396888,0.484406625239853
2011-06-01T04:35:03Z,1306902903,109,56.382031,27.2308793,9.23,0.3,0.2,324,14569.11,117225.66,324.3,Air+FixedWing,Red,Allies,F-15C,Red F-15C #001,xu,=CNF=101（国庆）,0,0,0,9.22999954223633,2.22999954223633,0,0,NaN,NaN,0,0.0171320104161963,NaN,0.999980151736999,0.00523593259940314,0.00349044101312757,0,9.05153750108719,9.05153750108719,,,121.109999895096,7,0.364186204081757,0.484562084924721
2011-06-01T04:35:04Z,1306902904,109,56.382031,27.2308793,9.23,0.3,0.2,324,14569.11,117225.66,324.3,Air+FixedWing,Red,Allies,F-15C,Red F-15C #001,xu,=CNF=101（国庆）,0,0,0,9.22999954223633,2.22999954223633,0,0,NaN,NaN,0,0.0171320104161963,NaN,0.999980151736999,0.00523593259940314,0.00349044101312757,0,9.05153750108719,9.05153750108719,,,122.109999895096,7,0.364341665705519,0.48471754706411
2011-06-01T04:35:05Z,1306902905,109,56.382031,27.2308793,9.23,0.3,0.2,324,14569.11,117225.66,324.3,Air+FixedWing,Red,Allies,F-15C,Red F-15C #001,xu,=CNF=101（国庆）,0,0,0,9.22999954223633,2.22999954223633,0,0,NaN,NaN,0,0.0171320104161963,NaN,0.999980151736999,0.00523593259940314,0.00349044101312757,0,9.05153750108719,9.05153750108719,,,123.109999895096,7,0.36449712745713,0.4848730092035
2011-06-01T04:35:06Z,1306902906,109,56.382031,27.2308793,9.23,0.3,0.2,324,14569.11,117225.66,324.3,Air+FixedWing,Red,Allies,F-15C,Red F-15C #001,xu,=CNF=101（国庆）,0,0,0,9.22999954223633,2.22999954223633,0,0,NaN,NaN,0,0.0171320104161963,NaN,0.999980151736999,0.00523593259940314,0.00349044101312757,0,9.05153750108719,9.05153750108719,,,124.109999895096,7,0.364652586754221,0.485028468500591
2011-06-01T04:35:07Z,1306902907,109,56.382031,27.2308793,9.23,0.3,0.2,324,14569.11,117225.66,324.3,Air+FixedWing,Red,Allies,F-15C,Red F-15C #001,xu,=CNF=101（国庆）,0,0,0,9.22999954223633,2.22999954223633,0,0,NaN,NaN,0,0.0171320104161963,NaN,0.999980151736999,0.00523593259940314,0.00349044101312757,0,9.05153750108719,9.05153750108719,,,125.109999895096,7,0.364808048505832,0.48518393063998
2011-06-01T04:35:08Z,1306902908,109,56.382031,27.2308793,9.23,0.3,0.2,324,14569.11,117225.66,324.3,Air+FixedWing,Red,Allies,F-15C,Red F-15C #001,xu,=CNF=101（国庆）,0,0,0,9.22999954223633,2.22999954223633,0,0,NaN,NaN,0,0.0171320104161963,NaN,0.999980151736999,0.00523593259940314,0.00349044101312757,0,9.05153750108719,9.05153750108719,,,126.109999895096,7,0.364963510517375,0.485339392651523
2011-06-01T04:35:09Z,1306902909,109,56.382031,27.2308793,9.23,0.3,0.2,324,14569.11,117225.66,324.3,Air+FixedWing,Red,Allies,F-15C,Red F-15C #001,xu,=CNF=101（国庆）,0,0,0,9.22999954223633,2.22999954223633,0,0,NaN,NaN,0,0.0171320104161963,NaN,0.999980151736999,0.00523593259940314,0.00349044101312757,0,9.05153750108719,9.05153750108719,,,127.109999895096,7,0.365118969814466,0.485494851948613
2011-06-01T04:35:10Z,1306902910,109,56.382031,27.2308793,9.23,0.3,0.2,324,14569.11,117225.66,324.3,Air+FixedWing,Red,Allies,F-15C,Red F-15C #001,xu,=CNF=101（国庆）,0,0,0,9.22999954223633,2.22999954223633,0,0,NaN,NaN,0,0.0171320104161963,NaN,0.999980151736999,0.00523593259940314,0.00349044101312757,0,9.05153750108719,9.05153750108719,,,128.109999895096,7,0.365274430014967,0.485650312536892
2011-06-01T04:35:11Z,1306902911,109,56.382031,27.2308793,9.23,0.3,0.2,324,14569.11,117225.66,324.3,Air+FixedWing,Red,Allies,F-15C,Red F-15C #001,xu,=CNF=101（国庆）,0,0,0,9.22999954223633,2.22999954223633,0,0,NaN,NaN,0,0.0171320104161963,NaN,0.999980151736999,0.00523593259940314,0.00349044101312757,0,9.05153750108719,9.05153750108719,,,129.109999895096,7,0.36542989125095,0.485805774288502
2011-06-01T04:35:12Z,1306902912,109,56.382031,27.2308793,9.23,0.3,0.2,324,14569.11,117225.66,324.3,Air+FixedWing,Red,Allies,F-15C,Red F-15C #001,xu,=CNF=101（国庆）,0,0,0,9.22999954223633,2.22999954223633,0,0,NaN,NaN,0,0.0171320104161963,NaN,0.999980151736999,0.00523593259940314,0.00349044101312757,0,9.05153750108719,9.05153750108719,,,130.109999895096,7,0.365585353390339,0.485961235912265
2011-06-01T04:35:13Z,1306902913,109,56.382031,27.2308793,9.23,0.3,0.2,324,14569.11,117225.66,324.3,Air+FixedWing,Red,Allies,F-15C,Red F-15C #001,xu,=CNF=101（国庆）,0,0,0,9.22999954223633,2.22999954223633,0,0,NaN,NaN,0,0.0171320104161963,NaN,0.999980151736999,0.00523593259940314,0.00349044101312757,0,9.05153750108719,9.05153750108719,,,131.109999895096,7,0.365740813075208,0.486116696500543
2011-06-01T04:35:14Z,1306902914,109,56.382031,27.2308793,9.23,0.3,0.2,324,14569.11,117225.66,324.3,Air+FixedWing,Red,Allies,F-15C,Red F-15C #001,xu,=CNF=101（国庆）,0,0,0,9.22999954223633,2.22999954223633,0,0,NaN,NaN,0,0.0171320104161963,NaN,0.999980151736999,0.00523593259940314,0.00349044101312757,0,9.05153750108719,9.05153750108719,,,132.109999895096,7,0.365896274311191,0.486272158124306
2011-06-01T04:35:15Z,1306902915,109,56.382031,27.2308793,9.23,0.3,0.2,324,14569.11,117225.66,324.3,Air+FixedWing,Red,Allies,F-15C,Red F-15C #001,xu,=CNF=101（国庆）,0,0,0,9.22999954223633,2.22999954223633,0,0,NaN,NaN,0,0.0171320104161963,NaN,0.999980151736999,0.00523593259940314,0.00349044101312757,0,9.05153750108719,9.05153750108719,,,133.109999895096,7,0.366051736062802,0.486427619875917
2011-06-01T04:35:16Z,1306902916,109,56.382031,27.2308793,9.23,0.3,0.2,324,14569.11,117225.66,324.3,Air+FixedWing,Red,Allies,F-15C,Red F-15C #001,xu,=CNF=101（国庆）,0,0,0,9.22999954223633,2.22999954223633,0,0,NaN,NaN,0,0.0171320104161963,NaN,0.999980151736999,0.00523593259940314,0.00349044101312757,0,9.05153750108719,9.05153750108719,,,134.109999895096,7,0.366207196135448,0.486583079948563
2011-06-01T04:35:17Z,1306902917,109,56.382031,27.2308793,9.23,0.3,0.2,324,14569.11,117225.66,324.3,Air+FixedWing,Red,Allies,F-15C,Red F-15C #001,xu,=CNF=101（国庆）,0,0,0,9.22999954223633,2.22999954223633,0,0,NaN,NaN,0,0.0171320104161963,NaN,0.999980151736999,0.00523593259940314,0.00349044101312757,0,9.05153750108719,9.05153750108719,,,135.109999895096,7,0.366362657887059,0.486738542087952
2011-06-01T04:35:18Z,1306902918,109,56.382031,27.2308793,9.23,0.3,0.2,324,14569.11,117225.66,324.3,Air+FixedWing,Red,Allies,F-15C,Red F-15C #001,xu,=CNF=101（国庆）,0,0,0,9.22999954223633,2.22999954223633,0,0,NaN,NaN,0,0.0171320104161963,NaN,0.999980151736999,0.00523593259940314,0.00349044101312757,0,9.05153750108719,9.05153750108719,,,136.109999895096,7,0.36651811718415,0.486894001385043
2011-06-01T04:35:19Z,1306902919,109,56.382031,27.2308793,9.23,0.3,0.2,324,14569.11,117225.66,324.3,Air+FixedWing,Red,Allies,F-15C,Red F-15C #001,xu,=CNF=101（国庆）,0,0,0,9.22999954223633,2.22999954223633,0,0,NaN,NaN,0,0.0171320104161963,NaN,0.999980151736999,0.00523593259940314,0.00349044101312757,0,9.05153750108719,9.05153750108719,,,137.109999895096,7,0.366673578420133,0.487049463524433
2011-06-01T04:35:20Z,1306902920,109,56.382031,27.2308793,9.23,0.3,0.2,324,14569.11,117225.66,324.3,Air+FixedWing,Red,Allies,F-15C,Red F-15C #001,xu,=CNF=101（国庆）,0,0,0,9.22999954223633,2.22999954223633,0,0,NaN,NaN,0,0.0171320104161963,NaN,0.999980151736999,0.00523593259940314,0.00349044101312757,0,9.05153750108719,9.05153750108719,,,138.109999895096,7,0.366829038105001,0.487204923209301
2011-06-01T04:35:21Z,1306902921,109,56.382031,27.2308793,9.23,0.3,0.2,324,14569.11,117225.66,324.3,Air+FixedWing,Red,Allies,F-15C,Red F-15C #001,xu,=CNF=101（国庆）,0,0,0,9.22999954223633,2.22999954223633,0,0,NaN,NaN,0,0.0171320104161963,NaN,0.999980151736999,0.00523593259940314,0.00349044101312757,0,9.05153750108719,9.05153750108719,,,139.109999895096,7,0.367263086093306,0.487638972002955
2011-06-01T04:35:22Z,1306902922,109,56.382031,27.2308793,9.23,0.3,0.2,324,14569.11,117225.66,324.3,Air+FixedWing,Red,Allies,F-15C,Red F-15C #001,xu,=CNF=101（国庆）,0,0,0,9.22999954223633,2.22999954223633,0,0,NaN,NaN,0,0.0171320104161963,NaN,0.999980151736999,0.00523593259940314,0.00349044101312757,0,9.05153750108719,9.05153750108719,,,140.109999895096,7,0.368469148317751,0.488845035173474
2011-06-01T04:35:23Z,1306902923,109,56.382031,27.2308793,9.23,0.3,0.2,324,14569.11,117225.66,324.3,Air+FixedWing,Red,Allies,F-15C,Red F-15C #001,xu,=CNF=101（国庆）,0,0,0,9.22999954223633,2.22999954223633,0,0,NaN,NaN,0,0.0171320104161963,NaN,0.999980151736999,0.00523593259940314,0.00349044101312757,0,9.05153750108719,9.05153750108719,,,141.109999895096,7,0.369675209773266,0.49005109881684
