ISOTime,UnixTime,Id,Longitude,Latitude,Altitude,Roll,Pitch,Yaw,U,V,Heading,Type,Color,Coalition,Name,Group,Country,Pilot,TAS,CAS,M,ASL,AGL,GS,VS,AOA,AOS,RRT,TRT,TRD,G,LatG,LonG,Ek,Ep,Em,FFW,FFV,RelativeTime,Elev,GroundDistance,AirDistance
2011-06-01T04:32:33Z,1306902753,10A,56.1780244,27.1571156,17.84,0.9,-0.8,257.3,-5684.46,109171.09,257.7,Air+FixedWing,Red,Allies,Su-27,Red Su-27 #001,xu,=CNF=801（建军）,0.107034721018246,0,0.000314488769586549,17.8423805236816,1.84238052368164,NaN,NaN,NaN,NaN,NaN,NaN,NaN,NaN,NaN,NaN,NaN,17.4973980962563,NaN,,,0.0799999237060547,16,NaN,NaN
2011-06-01T04:32:34Z,1306902754,10A,56.1780253,27.1571158,17.75,0.7,1,257.3,-5684.37,109171.1,257.7,Air+FixedWing,Red,Allies,Su-27,Red Su-27 #001,xu,=CNF=801（建军）,0.126418310326017,0,0.000371441145766271,17.7542858123779,1.75428581237793,0.0906692396902112,-0.0880947113037109,NaN,NaN,0,NaN,NaN,1.01226566842021,0.0109544509220654,0.031632976223927,0.000799079459284258,17.4110066961956,17.4118057756549,,,1.07999992370605,16,0.0919681003996061,0.127353276648054
2011-06-01T04:32:35Z,1306902755,10A,56.1780249,27.1571157,17.79,0.5,0.1,257.4,-5684.41,109171.09,257.7,Air+FixedWing,Red,Allies,Su-27,Red Su-27 #001,xu,=CNF=801（建军）,0.0596412803975661,0,0.000175237547622617,17.7909507751465,1.79095077514648,0.047040013102056,0.0366649627685547,NaN,NaN,0.199987938897973,0.35745560233509,NaN,0.994430761010454,0.00909850398945326,-0.00409664596754576,0.000177854116373055,17.446962741909,17.4471405960254,,,2.07999992370605,16,0.138930917842023,0.186933794422959
2011-06-01T04:32:36Z,1306902756,10A,56.178025,27.1571157,17.77,0.4,-0,257.4,-5684.4,109171.09,257.7,Air+FixedWing,Red,Allies,Su-27,Red Su-27 #001,xu,=CNF=801（建军）,0.0196887750311187,0,5.78493946535708e-05,17.7733325958252,1.7733325958252,0.0087890625,-0.0176181793212891,NaN,NaN,0,0.0279764548403722,NaN,1.0020179527045,0.00665608761379144,0.000973699643661552,1.93823931113002e-05,17.4296852100849,17.429704592478,,,3.07999992370605,16,0.147824807720343,0.206669598195044
2011-06-01T04:32:37Z,1306902757,10A,56.1780249,27.1571156,17.78,0.3,-0.2,257.4,-5684.41,109171.09,257.8,Air+FixedWing,Red,Allies,Su-27,Red Su-27 #001,xu,=CNF=801（建军）,0.00723852250448024,0,2.12681670463277e-05,17.7757129669189,1.77571296691895,0.0068359375,0.00238037109375,NaN,NaN,0,0.0532655904281015,NaN,0.999155930003056,0.00517900607178562,-0.00324444089188343,2.61981040239334e-06,17.4320195567036,17.432022176514,,,4.07999992370605,16,0.15775845935627,0.216884496767177
2011-06-01T04:32:38Z,1306902758,10A,56.1780248,27.1571156,17.77,0.2,-0.2,257.4,-5684.42,109171.09,257.8,Air+FixedWing,Red,Allies,Su-27,Red Su-27 #001,xu,=CNF=801（建军）,0.0108950386830312,0,3.20117106262527e-05,17.7700004577637,1.77000045776367,0.00927734375,-0.00571250915527344,NaN,NaN,0.0380851348119911,0.0726849788369981,NaN,1.00056576991981,0.00371361222917729,-0.0045146718911259,5.93509339523735e-06,17.4264174989128,17.4264234340062,,,5.07999992370605,16,0.166929517739863,0.227689196652795
2011-06-01T04:32:39Z,1306902759,10A,56.1780248,27.1571156,17.77,0.2,-0.2,257.4,-5684.42,109171.09,257.8,Air+FixedWing,Red,Allies,Su-27,Red Su-27 #001,xu,=CNF=801（建军）,0.0009765625,0,2.86932768831183e-06,17.7700004577637,1.77000045776367,0.0009765625,0,NaN,NaN,0,0.089020570186167,NaN,0.999988635296755,0.00343802322895253,-0.00324732153109383,4.76837158203125e-08,17.4264174989128,17.4264175465965,,,6.07999992370605,16,0.167659034509318,0.228418715619599
2011-06-01T04:32:40Z,1306902760,10A,56.1780249,27.1571156,17.77,0.1,-0.3,257.4,-5684.42,109171.09,257.8,Air+FixedWing,Red,Allies,Su-27,Red Su-27 #001,xu,=CNF=801（建军）,0.00146484375,0,4.30399153246774e-06,17.7700004577637,1.77000045776367,0.00146484375,0,NaN,NaN,0,0.0523391626455858,NaN,0.999978398505125,0.00198730051189443,-0.00635527495275405,1.07288360595703e-07,17.4264174989128,17.4264176062012,,,7.07999992370605,16,0.175679098835773,0.236438802546266
2011-06-01T04:32:41Z,1306902761,10A,56.1780249,27.1571156,17.77,0.1,-0.3,257.4,-5684.41,109171.09,257.8,Air+FixedWing,Red,Allies,Su-27,Red Su-27 #001,xu,=CNF=801（建军）,0.009765625,0,2.86932768831183e-05,17.7700004577637,1.77000045776367,0.009765625,0,NaN,NaN,0.0345880779569446,0.0197823405926261,NaN,0.999990703004552,0.00106988697928458,-0.00426265093636282,4.76837158203125e-06,17.4264174989128,17.4264222672844,,,8.07999992370605,16,0.176100576123456,0.236860281126052
2011-06-01T04:32:42Z,1306902762,10A,56.1780249,27.1571156,17.77,0,-0.3,257.4,-5684.41,109171.09,257.8,Air+FixedWing,Red,Allies,Su-27,Red Su-27 #001,xu,=CNF=801（建军）,0,0,0,17.7700004577637,1.77000045776367,0,0,NaN,NaN,0.0345880779569446,0.0139882274201861,NaN,0.999985933307936,0.000676445836934308,-0.00523596443235874,0,17.4264174989128,17.4264174989128,,,9.07999992370605,16,0.176100576123456,0.236860281126052
2011-06-01T04:32:43Z,1306902763,10A,56.1780249,27.1571156,17.77,0,-0.3,257.4,-5684.41,109171.09,257.8,Air+FixedWing,Red,Allies,Su-27,Red Su-27 #001,xu,=CNF=801（建军）,0,0,0,17.7700004577637,1.77000045776367,0,0,NaN,NaN,0.0345880779569446,0.0171320104161963,NaN,0.999986231327057,7.25705661829348e-05,-0.00523596443235874,0,17.4264174989128,17.4264174989128,,,10.0799999237061,16,0.176100576123456,0.236860281126052
2011-06-01T04:32:44Z,1306902764,10A,56.1780249,27.1571156,17.77,0,-0.3,257.4,-5684.41,109171.09,257.8,Air+FixedWing,Red,Allies,Su-27,Red Su-27 #001,xu,=CNF=801（建军）,0,0,0,17.7700004577637,1.77000045776367,0,0,NaN,NaN,0,0.0221173298063182,NaN,0.999984681607202,-0,-0.0055246613919735,0,17.4264174989128,17.4264174989128,,,11.0799999237061,16,0.176100576123456,0.236860281126052
2011-06-01T04:32:45Z,1306902765,10A,56.1780249,27.1571156,17.77,0,-0.3,257.4,-5684.41,109171.09,257.8,Air+FixedWing,Red,Allies,Su-27,Red Su-27 #001,xu,=CNF=801（建军）,0,0,0,17.7700004577637,1.77000045776367,0,0,NaN,NaN,0,0.0261695779877396,NaN,0.999982774258683,-0,-0.00585272535681725,0,17.4264174989128,17.4264174989128,,,12.0799999237061,16,0.176100576123456,0.236860281126052
2011-06-01T04:32:46Z,1306902766,10A,56.1780249,27.1571156,17.77,0,-0.4,257.4,-5684.41,109171.09,257.8,Air+FixedWing,Red,Allies,Su-27,Red Su-27 #001,xu,=CNF=801（建军）,0,0,0,17.7700004577637,1.77000045776367,0,0,NaN,NaN,0,0.0261695779877396,NaN,0.999980807305523,-0,-0.00618078839033842,0,17.4264174989128,17.4264174989128,,,13.0799999237061,16,0.176100576123456,0.236860281126052
2011-06-01T04:32:47Z,1306902767,10A,56.1780249,27.1571156,17.77,0,-0.4,257.4,-5684.41,109171.09,257.8,Air+FixedWing,Red,Allies,Su-27,Red Su-27 #001,xu,=CNF=801（建军）,0,0,0,17.7700004577637,1.77000045776367,0,0,NaN,NaN,0,0.0242283218322616,NaN,0.99997872114308,-0,-0.0065088514238596,0,17.4264174989128,17.4264174989128,,,14.0799999237061,16,0.176100576123456,0.236860281126052
2011-06-01T04:32:48Z,1306902768,10A,56.1780249,27.1571156,17.77,0,-0.4,257.4,-5684.41,109171.09,257.8,Air+FixedWing,Red,Allies,Su-27,Red Su-27 #001,xu,=CNF=801（建军）,0,0,0,17.7700004577637,1.77000045776367,0,0,NaN,NaN,0,0.0242283218322616,NaN,0.99997776746882,-0,-0.0066531989723444,0,17.4264174989128,17.4264174989128,,,15.0799999237061,16,0.176100576123456,0.236860281126052
2011-06-01T04:32:49Z,1306902769,10A,56.1780249,27.1571156,17.77,0,-0.4,257.4,-5684.41,109171.09,257.8,Air+FixedWing,Red,Allies,Su-27,Red Su-27 #001,xu,=CNF=801（建军）,0,0,0,17.7700004577637,1.77000045776367,0,0,NaN,NaN,0,0.0242283218322616,NaN,0.99997776746882,-0,-0.0066531989723444,0,17.4264174989128,17.4264174989128,,,16.0799999237061,16,0.176100576123456,0.236860281126052
2011-06-01T04:32:50Z,1306902770,10A,56.1780249,27.1571156,17.77,0,-0.4,257.4,-5684.41,109171.09,257.8,Air+FixedWing,Red,Allies,Su-27,Red Su-27 #001,xu,=CNF=801（建军）,0,0,0,17.7700004577637,1.77000045776367,0,0,NaN,NaN,0,0.0242283218322616,NaN,0.99997776746882,-0,-0.0066531989723444,0,17.4264174989128,17.4264174989128,,,17.0799999237061,16,0.176100576123456,0.236860281126052
2011-06-01T04:32:51Z,1306902771,10A,56.1780249,27.1571156,17.77,0,-0.4,257.4,-5684.41,109171.09,257.8,Air+FixedWing,Red,Allies,Su-27,Red Su-27 #001,xu,=CNF=801（建军）,0,0,0,17.7700004577637,1.77000045776367,0,0,NaN,NaN,0,0.0242283218322616,NaN,0.99997776746882,-0,-0.0066531989723444,0,17.4264174989128,17.4264174989128,,,18.0799999237061,16,0.176100576123456,0.236860281126052
2011-06-01T04:32:52Z,1306902772,10A,56.1780249,27.1571156,17.77,0,-0.4,257.4,-5684.41,109171.09,257.8,Air+FixedWing,Red,Allies,Su-27,Red Su-27 #001,xu,=CNF=801（建军）,0,0,0,17.7700004577637,1.77000045776367,0,0,NaN,NaN,0,0.0242283218322616,NaN,0.99997776746882,-0,-0.0066531989723444,0,17.4264174989128,17.4264174989128,,,19.0799999237061,16,0.176100576123456,0.236860281126052
2011-06-01T04:32:53Z,1306902773,10A,56.1780249,27.1571156,17.77,0,-0.4,257.4,-5684.41,109171.09,257.8,Air+FixedWing,Red,Allies,Su-27,Red Su-27 #001,xu,=CNF=801（建军）,0,0,0,17.7700004577637,1.77000045776367,0,0,NaN,NaN,0,0.0242283218322616,NaN,0.99997776746882,-0,-0.0066531989723444,0,17.4264174989128,17.4264174989128,,,20.0799999237061,16,0.176100576123456,0.236860281126052
2011-06-01T04:32:54Z,1306902774,10A,56.1780249,27.1571156,17.77,0,-0.4,257.4,-5684.41,109171.09,257.8,Air+FixedWing,Red,Allies,Su-27,Red Su-27 #001,xu,=CNF=801（建军）,0,0,0,17.7700004577637,1.77000045776367,0,0,NaN,NaN,0,0.0242283218322616,NaN,0.99997776746882,-0,-0.0066531989723444,0,17.4264174989128,17.4264174989128,,,21.0799999237061,16,0.176100576123456,0.236860281126052
2011-06-01T04:32:55Z,1306902775,10A,56.1780249,27.1571156,17.77,0,-0.4,257.4,-5684.41,109171.09,257.8,Air+FixedWing,Red,Allies,Su-27,Red Su-27 #001,xu,=CNF=801（建军）,0,0,0,17.7700004577637,1.77000045776367,0,0,NaN,NaN,0,0.0242283218322616,NaN,0.99997776746882,-0,-0.0066531989723444,0,17.4264174989128,17.4264174989128,,,22.0799999237061,16,0.176100576123456,0.236860281126052
2011-06-01T04:32:56Z,1306902776,10A,56.1780249,27.1571156,17.77,0,-0.4,257.4,-5684.41,109171.09,257.8,Air+FixedWing,Red,Allies,Su-27,Red Su-27 #001,xu,=CNF=801（建军）,0,0,0,17.7700004577637,1.77000045776367,0,0,NaN,NaN,0,0.0242283218322616,NaN,0.99997776746882,-0,-0.0066531989723444,0,17.4264174989128,17.4264174989128,,,23.0799999237061,16,0.176100576123456,0.236860281126052
2011-06-01T04:32:57Z,1306902777,10A,56.1780249,27.1571156,17.77,0,-0.4,257.4,-5684.41,109171.09,257.8,Air+FixedWing,Red,Allies,Su-27,Red Su-27 #001,xu,=CNF=801（建军）,0,0,0,17.7700004577637,1.77000045776367,0,0,NaN,NaN,0,0.0242283218322616,NaN,0.99997776746882,-0,-0.0066531989723444,0,17.4264174989128,17.4264174989128,,,24.0799999237061,16,0.176100576123456,0.236860281126052
2011-06-01T04:32:58Z,1306902778,10A,56.1780249,27.1571156,17.77,0,-0.4,257.4,-5684.41,109171.09,257.8,Air+FixedWing,Red,Allies,Su-27,Red Su-27 #001,xu,=CNF=801（建军）,0,0,0,17.7700004577637,1.77000045776367,0,0,NaN,NaN,0,0.0242283218322616,NaN,0.99997776746882,-0,-0.0066531989723444,0,17.4264174989128,17.4264174989128,,,25.0799999237061,16,0.176100576123456,0.236860281126052
2011-06-01T04:32:59Z,1306902779,10A,56.1780249,27.1571156,17.77,0,-0.4,257.4,-5684.41,109171.09,257.8,Air+FixedWing,Red,Allies,Su-27,Red Su-27 #001,xu,=CNF=801（建军）,0,0,0,17.7700004577637,1.77000045776367,0,0,NaN,NaN,0,0.0242283218322616,NaN,0.99997776746882,-0,-0.0066531989723444,0,17.4264174989128,17.4264174989128,,,26.0799999237061,16,0.176100576123456,0.236860281126052
2011-06-01T04:33:00Z,1306902780,10A,56.1780249,27.1571156,17.77,0,-0.4,257.4,-5684.41,109171.09,257.8,Air+FixedWing,Red,Allies,Su-27,Red Su-27 #001,xu,=CNF=801（建军）,0,0,0,17.7700004577637,1.77000045776367,0,0,NaN,NaN,0,0.0242283218322616,NaN,0.99997776746882,-0,-0.0066531989723444,0,17.4264174989128,17.4264174989128,,,27.0799999237061,16,0.176100576123456,0.236860281126052
2011-06-01T04:33:01Z,1306902781,10A,56.1780249,27.1571156,17.77,0,-0.4,257.4,-5684.41,109171.09,257.8,Air+FixedWing,Red,Allies,Su-27,Red Su-27 #001,xu,=CNF=801（建军）,0,0,0,17.7700004577637,1.77000045776367,0,0,NaN,NaN,0,0.0242283218322616,NaN,0.99997776746882,-0,-0.0066531989723444,0,17.4264174989128,17.4264174989128,,,28.0799999237061,16,0.176100576123456,0.236860281126052
2011-06-01T04:33:02Z,1306902782,10A,56.1780249,27.1571156,17.77,0,-0.4,257.4,-5684.41,109171.09,257.8,Air+FixedWing,Red,Allies,Su-27,Red Su-27 #001,xu,=CNF=801（建军）,0,0,0,17.7700004577637,1.77000045776367,0,0,NaN,NaN,0,0.0242283218322616,NaN,0.99997776746882,-0,-0.0066531989723444,0,17.4264174989128,17.4264174989128,,,29.0799999237061,16,0.176100576123456,0.236860281126052
2011-06-01T04:33:03Z,1306902783,10A,56.1780249,27.1571156,17.77,0,-0.4,257.4,-5684.41,109171.09,257.8,Air+FixedWing,Red,Allies,Su-27,Red Su-27 #001,xu,=CNF=801（建军）,0,0,0,17.7700004577637,1.77000045776367,0,0,NaN,NaN,0,0.0242283218322616,NaN,0.99997776746882,-0,-0.0066531989723444,0,17.4264174989128,17.4264174989128,,,30.0799999237061,16,0.176100576123456,0.236860281126052
2011-06-01T04:33:04Z,1306902784,10A,56.1780249,27.1571156,17.77,0,-0.4,257.4,-5684.41,109171.09,257.8,Air+FixedWing,Red,Allies,Su-27,Red Su-27 #001,xu,=CNF=801（建军）,0,0,0,17.7700004577637,1.77000045776367,0,0,NaN,NaN,0,0.0242283218322616,NaN,0.99997776746882,-0,-0.0066531989723444,0,17.4264174989128,17.4264174989128,,,31.0799999237061,16,0.176100576123456,0.236860281126052
2011-06-01T04:33:05Z,1306902785,10A,56.1780249,27.1571156,17.77,0,-0.4,257.4,-5684.41,109171.09,257.8,Air+FixedWing,Red,Allies,Su-27,Red Su-27 #001,xu,=CNF=801（建军）,0,0,0,17.7700004577637,1.77000045776367,0,0,NaN,NaN,0,0.0242283218322616,NaN,0.99997776746882,-0,-0.0066531989723444,0,17.4264174989128,17.4264174989128,,,32.0799999237061,16,0.176100576123456,0.236860281126052
2011-06-01T04:33:06Z,1306902786,10A,56.1780249,27.1571156,17.77,0,-0.4,257.4,-5684.41,109171.09,257.8,Air+FixedWing,Red,Allies,Su-27,Red Su-27 #001,xu,=CNF=801（建军）,0,0,0,17.7700004577637,1.77000045776367,0,0,NaN,NaN,0,0.0242283218322616,NaN,0.99997776746882,-0,-0.0066531989723444,0,17.4264174989128,17.4264174989128,,,33.0799999237061,16,0.176100576123456,0.236860281126052
2011-06-01T04:33:07Z,1306902787,10A,56.1780249,27.1571156,17.77,0,-0.4,257.4,-5684.41,109171.09,257.8,Air+FixedWing,Red,Allies,Su-27,Red Su-27 #001,xu,=CNF=801（建军）,0,0,0,17.7700004577637,1.77000045776367,0,0,NaN,NaN,0,0.0242283218322616,NaN,0.99997776746882,-0,-0.0066531989723444,0,17.4264174989128,17.4264174989128,,,34.0799999237061,16,0.176100576123456,0.236860281126052
2011-06-01T04:33:08Z,1306902788,10A,56.1780249,27.1571156,17.77,0,-0.4,257.4,-5684.41,109171.09,257.8,Air+FixedWing,Red,Allies,Su-27,Red Su-27 #001,xu,=CNF=801（建军）,0,0,0,17.7700004577637,1.77000045776367,0,0,NaN,NaN,0,0.0242283218322616,NaN,0.99997776746882,-0,-0.0066531989723444,0,17.4264174989128,17.4264174989128,,,35.0799999237061,16,0.176100576123456,0.236860281126052
2011-06-01T04:33:09Z,1306902789,10A,56.1780249,27.1571156,17.77,0,-0.4,257.4,-5684.41,109171.09,257.8,Air+FixedWing,Red,Allies,Su-27,Red Su-27 #001,xu,=CNF=801（建军）,0,0,0,17.7700004577637,1.77000045776367,0,0,NaN,NaN,0,0.0242283218322616,NaN,0.99997776746882,-0,-0.0066531989723444,0,17.4264174989128,17.4264174989128,,,36.0799999237061,16,0.176100576123456,0.236860281126052
2011-06-01T04:33:10Z,1306902790,10A,56.1780249,27.1571156,17.77,0,-0.4,257.4,-5684.41,109171.09,257.8,Air+FixedWing,Red,Allies,Su-27,Red Su-27 #001,xu,=CNF=801（建军）,0,0,0,17.7700004577637,1.77000045776367,0,0,NaN,NaN,0,0.0242283218322616,NaN,0.99997776746882,-0,-0.0066531989723444,0,17.4264174989128,17.4264174989128,,,37.0799999237061,16,0.176100576123456,0.236860281126052
2011-06-01T04:33:11Z,1306902791,10A,56.1780249,27.1571156,17.77,0,-0.4,257.4,-5684.41,109171.09,257.8,Air+FixedWing,Red,Allies,Su-27,Red Su-27 #001,xu,=CNF=801（建军）,0,0,0,17.7700004577637,1.77000045776367,0,0,NaN,NaN,0,0.0242283218322616,NaN,0.99997776746882,-0,-0.0066531989723444,0,17.4264174989128,17.4264174989128,,,38.0799999237061,16,0.176100576123456,0.236860281126052
2011-06-01T04:33:12Z,1306902792,10A,56.1780249,27.1571156,17.77,0,-0.4,257.4,-5684.41,109171.09,257.8,Air+FixedWing,Red,Allies,Su-27,Red Su-27 #001,xu,=CNF=801（建军）,0,0,0,17.7700004577637,1.77000045776367,0,0,NaN,NaN,0,0.0242283218322616,NaN,0.99997776746882,-0,-0.0066531989723444,0,17.4264174989128,17.4264174989128,,,39.0799999237061,16,0.176100576123456,0.236860281126052
2011-06-01T04:33:13Z,1306902793,10A,56.1780249,27.1571156,17.77,0,-0.4,257.4,-5684.41,109171.09,257.8,Air+FixedWing,Red,Allies,Su-27,Red Su-27 #001,xu,=CNF=801（建军）,0,0,0,17.7700004577637,1.77000045776367,0,0,NaN,NaN,0,0.0242283218322616,NaN,0.99997776746882,-0,-0.0066531989723444,0,17.4264174989128,17.4264174989128,,,40.0799999237061,16,0.176100576123456,0.236860281126052
2011-06-01T04:33:14Z,1306902794,10A,56.1780249,27.1571156,17.77,0,-0.4,257.4,-5684.41,109171.09,257.8,Air+FixedWing,Red,Allies,Su-27,Red Su-27 #001,xu,=CNF=801（建军）,0,0,0,17.7700004577637,1.77000045776367,0,0,NaN,NaN,0,0.0242283218322616,NaN,0.99997776746882,-0,-0.0066531989723444,0,17.4264174989128,17.4264174989128,,,41.0799999237061,16,0.176100576123456,0.236860281126052
2011-06-01T04:33:15Z,1306902795,10A,56.1780249,27.1571156,17.77,0,-0.4,257.4,-5684.41,109171.09,257.8,Air+FixedWing,Red,Allies,Su-27,Red Su-27 #001,xu,=CNF=801（建军）,0,0,0,17.7700004577637,1.77000045776367,0,0,NaN,NaN,0,0.0242283218322616,NaN,0.99997776746882,-0,-0.0066531989723444,0,17.4264174989128,17.4264174989128,,,42.0799999237061,16,0.176100576123456,0.236860281126052
2011-06-01T04:33:16Z,1306902796,10A,56.1780249,27.1571156,17.77,0,-0.4,257.4,-5684.41,109171.09,257.8,Air+FixedWing,Red,Allies,Su-27,Red Su-27 #001,xu,=CNF=801（建军）,0,0,0,17.7700004577637,1.77000045776367,0,0,NaN,NaN,0,0.0242283218322616,NaN,0.99997776746882,-0,-0.0066531989723444,0,17.4264174989128,17.4264174989128,,,43.0799999237061,16,0.176100576123456,0.236860281126052
2011-06-01T04:33:17Z,1306902797,10A,56.1780249,27.1571156,17.77,0,-0.4,257.4,-5684.41,109171.09,257.8,Air+FixedWing,Red,Allies,Su-27,Red Su-27 #001,xu,=CNF=801（建军）,0,0,0,17.7700004577637,1.77000045776367,0,0,NaN,NaN,0,0.0242283218322616,NaN,0.99997776746882,-0,-0.0066531989723444,0,17.4264174989128,17.4264174989128,,,44.0799999237061,16,0.176100576123456,0.236860281126052
2011-06-01T04:33:18Z,1306902798,10A,56.1780249,27.1571156,17.77,0,-0.4,257.4,-5684.41,109171.09,257.8,Air+FixedWing,Red,Allies,Su-27,Red Su-27 #001,xu,=CNF=801（建军）,0,0,0,17.7700004577637,1.77000045776367,0,0,NaN,NaN,0,0.0242283218322616,NaN,0.99997776746882,-0,-0.0066531989723444,0,17.4264174989128,17.4264174989128,,,45.0799999237061,16,0.176100576123456,0.236860281126052
2011-06-01T04:33:19Z,1306902799,10A,56.1780249,27.1571156,17.77,0,-0.4,257.4,-5684.41,109171.09,257.8,Air+FixedWing,Red,Allies,Su-27,Red Su-27 #001,xu,=CNF=801（建军）,0,0,0,17.7700004577637,1.77000045776367,0,0,NaN,NaN,0,0.0242283218322616,NaN,0.99997776746882,-0,-0.0066531989723444,0,17.4264174989128,17.4264174989128,,,46.0799999237061,16,0.176100576123456,0.236860281126052
2011-06-01T04:33:20Z,1306902800,10A,56.1780249,27.1571156,17.77,0,-0.4,257.4,-5684.41,109171.09,257.8,Air+FixedWing,Red,Allies,Su-27,Red Su-27 #001,xu,=CNF=801（建军）,0,0,0,17.7700004577637,1.77000045776367,0,0,NaN,NaN,0,0.0242283218322616,NaN,0.99997776746882,-0,-0.0066531989723444,0,17.4264174989128,17.4264174989128,,,47.0799999237061,16,0.176100576123456,0.236860281126052
2011-06-01T04:33:21Z,1306902801,10A,56.1780249,27.1571156,17.77,0,-0.4,257.4,-5684.41,109171.09,257.8,Air+FixedWing,Red,Allies,Su-27,Red Su-27 #001,xu,=CNF=801（建军）,0,0,0,17.7700004577637,1.77000045776367,0,0,NaN,NaN,0,0.0242283218322616,NaN,0.99997776746882,-0,-0.0066531989723444,0,17.4264174989128,17.4264174989128,,,48.0799999237061,16,0.176100576123456,0.236860281126052
2011-06-01T04:33:22Z,1306902802,10A,56.1780249,27.1571156,17.77,0,-0.4,257.4,-5684.41,109171.09,257.8,Air+FixedWing,Red,Allies,Su-27,Red Su-27 #001,xu,=CNF=801（建军）,0,0,0,17.7700004577637,1.77000045776367,0,0,NaN,NaN,0,0.0242283218322616,NaN,0.99997776746882,-0,-0.0066531989723444,0,17.4264174989128,17.4264174989128,,,49.0799999237061,16,0.176100576123456,0.236860281126052
2011-06-01T04:33:23Z,1306902803,10A,56.1780249,27.1571156,17.77,0,-0.4,257.4,-5684.41,109171.09,257.8,Air+FixedWing,Red,Allies,Su-27,Red Su-27 #001,xu,=CNF=801（建军）,0,0,0,17.7700004577637,1.77000045776367,0,0,NaN,NaN,0,0.0242283218322616,NaN,0.99997776746882,-0,-0.0066531989723444,0,17.4264174989128,17.4264174989128,,,50.0799999237061,16,0.176100576123456,0.236860281126052
2011-06-01T04:33:24Z,1306902804,10A,56.1780249,27.1571156,17.77,0,-0.4,257.4,-5684.41,109171.09,257.8,Air+FixedWing,Red,Allies,Su-27,Red Su-27 #001,xu,=CNF=801（建军）,0,0,0,17.7700004577637,1.77000045776367,0,0,NaN,NaN,0,0.0242283218322616,NaN,0.99997776746882,-0,-0.0066531989723444,0,17.4264174989128,17.4264174989128,,,51.0799999237061,16,0.176100576123456,0.236860281126052
2011-06-01T04:33:25Z,1306902805,10A,56.1780249,27.1571156,17.77,0,-0.4,257.4,-5684.41,109171.09,257.8,Air+FixedWing,Red,Allies,Su-27,Red Su-27 #001,xu,=CNF=801（建军）,0,0,0,17.7700004577637,1.77000045776367,0,0,NaN,NaN,0,0.0242283218322616,NaN,0.99997776746882,-0,-0.0066531989723444,0,17.4264174989128,17.4264174989128,,,52.0799999237061,16,0.176100576123456,0.236860281126052
2011-06-01T04:33:26Z,1306902806,10A,56.1780249,27.1571156,17.77,0,-0.4,257.4,-5684.41,109171.09,257.8,Air+FixedWing,Red,Allies,Su-27,Red Su-27 #001,xu,=CNF=801（建军）,0,0,0,17.7700004577637,1.77000045776367,0,0,NaN,NaN,0,0.0242283218322616,NaN,0.99997776746882,-0,-0.0066531989723444,0,17.4264174989128,17.4264174989128,,,53.0799999237061,16,0.176100576123456,0.236860281126052
2011-06-01T04:33:27Z,1306902807,10A,56.1780249,27.1571156,17.77,0,-0.4,257.4,-5684.41,109171.09,257.8,Air+FixedWing,Red,Allies,Su-27,Red Su-27 #001,xu,=CNF=801（建军）,0,0,0,17.7700004577637,1.77000045776367,0,0,NaN,NaN,0,0.0242283218322616,NaN,0.99997776746882,-0,-0.0066531989723444,0,17.4264174989128,17.4264174989128,,,54.0799999237061,16,0.176100576123456,0.236860281126052
2011-06-01T04:33:28Z,1306902808,10A,56.1780249,27.1571156,17.77,0,-0.4,257.4,-5684.41,109171.09,257.8,Air+FixedWing,Red,Allies,Su-27,Red Su-27 #001,xu,=CNF=801（建军）,0,0,0,17.7700004577637,1.77000045776367,0,0,NaN,NaN,0,0.0242283218322616,NaN,0.99997776746882,-0,-0.0066531989723444,0,17.4264174989128,17.4264174989128,,,55.0799999237061,16,0.176100576123456,0.236860281126052
2011-06-01T04:33:29Z,1306902809,10A,56.1780249,27.1571156,17.77,0,-0.4,257.4,-5684.41,109171.09,257.8,Air+FixedWing,Red,Allies,Su-27,Red Su-27 #001,xu,=CNF=801（建军）,0,0,0,17.7700004577637,1.77000045776367,0,0,NaN,NaN,0,0.0242283218322616,NaN,0.99997776746882,-0,-0.0066531989723444,0,17.4264174989128,17.4264174989128,,,56.0799999237061,16,0.176100576123456,0.236860281126052
2011-06-01T04:33:30Z,1306902810,10A,56.1780249,27.1571156,17.77,0,-0.4,257.4,-5684.41,109171.09,257.8,Air+FixedWing,Red,Allies,Su-27,Red Su-27 #001,xu,=CNF=801（建军）,0,0,0,17.7700004577637,1.77000045776367,0,0,NaN,NaN,0,0.0242283218322616,NaN,0.99997776746882,-0,-0.0066531989723444,0,17.4264174989128,17.4264174989128,,,57.0799999237061,16,0.176100576123456,0.236860281126052
2011-06-01T04:33:31Z,1306902811,10A,56.1780249,27.1571156,17.77,0,-0.4,257.4,-5684.41,109171.09,257.8,Air+FixedWing,Red,Allies,Su-27,Red Su-27 #001,xu,=CNF=801（建军）,0,0,0,17.7700004577637,1.77000045776367,0,0,NaN,NaN,0,0.0242283218322616,NaN,0.99997776746882,-0,-0.0066531989723444,0,17.4264174989128,17.4264174989128,,,58.0799999237061,16,0.176100576123456,0.236860281126052
2011-06-01T04:33:32Z,1306902812,10A,56.1780249,27.1571156,17.77,0,-0.4,257.4,-5684.41,109171.09,257.8,Air+FixedWing,Red,Allies,Su-27,Red Su-27 #001,xu,=CNF=801（建军）,0,0,0,17.7700004577637,1.77000045776367,0,0,NaN,NaN,0,0.0242283218322616,NaN,0.99997776746882,-0,-0.0066531989723444,0,17.4264174989128,17.4264174989128,,,59.0799999237061,16,0.176100576123456,0.236860281126052
2011-06-01T04:33:33Z,1306902813,10A,56.1780249,27.1571156,17.77,0,-0.4,257.4,-5684.41,109171.09,257.8,Air+FixedWing,Red,Allies,Su-27,Red Su-27 #001,xu,=CNF=801（建军）,0,0,0,17.7700004577637,1.77000045776367,0,0,NaN,NaN,0,0.0242283218322616,NaN,0.99997776746882,-0,-0.0066531989723444,0,17.4264174989128,17.4264174989128,,,60.0799999237061,16,0.176100576123456,0.236860281126052
2011-06-01T04:33:34Z,1306902814,10A,56.1780249,27.1571156,17.77,0,-0.4,257.4,-5684.41,109171.09,257.8,Air+FixedWing,Red,Allies,Su-27,Red Su-27 #001,xu,=CNF=801（建军）,0,0,0,17.7700004577637,1.77000045776367,0,0,NaN,NaN,0,0.0242283218322616,NaN,0.99997776746882,-0,-0.0066531989723444,0,17.4264174989128,17.4264174989128,,,61.0799999237061,16,0.176100576123456,0.236860281126052
2011-06-01T04:33:35Z,1306902815,10A,56.1780249,27.1571156,17.77,0,-0.4,257.4,-5684.41,109171.09,257.8,Air+FixedWing,Red,Allies,Su-27,Red Su-27 #001,xu,=CNF=801（建军）,0,0,0,17.7700004577637,1.77000045776367,0,0,NaN,NaN,0,0.0242283218322616,NaN,0.99997776746882,-0,-0.0066531989723444,0,17.4264174989128,17.4264174989128,,,62.0799999237061,16,0.176100576123456,0.236860281126052
2011-06-01T04:33:36Z,1306902816,10A,56.1780249,27.1571156,17.77,0,-0.4,257.4,-5684.41,109171.09,257.8,Air+FixedWing,Red,Allies,Su-27,Red Su-27 #001,xu,=CNF=801（建军）,0,0,0,17.7700004577637,1.77000045776367,0,0,NaN,NaN,0,0.0242283218322616,NaN,0.99997776746882,-0,-0.0066531989723444,0,17.4264174989128,17.4264174989128,,,63.0799999237061,16,0.176100576123456,0.236860281126052
2011-06-01T04:33:37Z,1306902817,10A,56.1780249,27.1571156,17.77,0,-0.4,257.4,-5684.41,109171.09,257.8,Air+FixedWing,Red,Allies,Su-27,Red Su-27 #001,xu,=CNF=801（建军）,0,0,0,17.7700004577637,1.77000045776367,0,0,NaN,NaN,0,0.0242283218322616,NaN,0.99997776746882,-0,-0.0066531989723444,0,17.4264174989128,17.4264174989128,,,64.0799999237061,16,0.176100576123456,0.236860281126052
2011-06-01T04:33:38Z,1306902818,10A,56.1780249,27.1571156,17.77,0,-0.4,257.4,-5684.41,109171.09,257.8,Air+FixedWing,Red,Allies,Su-27,Red Su-27 #001,xu,=CNF=801（建军）,0,0,0,17.7700004577637,1.77000045776367,0,0,NaN,NaN,0,0.0242283218322616,NaN,0.99997776746882,-0,-0.0066531989723444,0,17.4264174989128,17.4264174989128,,,65.0799999237061,16,0.176100576123456,0.236860281126052
2011-06-01T04:33:39Z,1306902819,10A,56.1780249,27.1571156,17.77,0,-0.4,257.4,-5684.41,109171.09,257.8,Air+FixedWing,Red,Allies,Su-27,Red Su-27 #001,xu,=CNF=801（建军）,0,0,0,17.7700004577637,1.77000045776367,0,0,NaN,NaN,0,0.0242283218322616,NaN,0.99997776746882,-0,-0.0066531989723444,0,17.4264174989128,17.4264174989128,,,66.0799999237061,16,0.176100576123456,0.236860281126052
2011-06-01T04:33:40Z,1306902820,10A,56.1780249,27.1571156,17.77,0,-0.4,257.4,-5684.41,109171.09,257.8,Air+FixedWing,Red,Allies,Su-27,Red Su-27 #001,xu,=CNF=801（建军）,0,0,0,17.7700004577637,1.77000045776367,0,0,NaN,NaN,0,0.0242283218322616,NaN,0.99997776746882,-0,-0.0066531989723444,0,17.4264174989128,17.4264174989128,,,67.0799999237061,16,0.176100576123456,0.236860281126052
2011-06-01T04:33:41Z,1306902821,10A,56.1780249,27.1571156,17.77,0,-0.4,257.4,-5684.41,109171.09,257.8,Air+FixedWing,Red,Allies,Su-27,Red Su-27 #001,xu,=CNF=801（建军）,0,0,0,17.7700004577637,1.77000045776367,0,0,NaN,NaN,0,0.0242283218322616,NaN,0.99997776746882,-0,-0.0066531989723444,0,17.4264174989128,17.4264174989128,,,68.0799999237061,16,0.176100576123456,0.236860281126052
2011-06-01T04:33:42Z,1306902822,10A,56.1780249,27.1571156,17.77,0,-0.4,257.4,-5684.41,109171.09,257.8,Air+FixedWing,Red,Allies,Su-27,Red Su-27 #001,xu,=CNF=801（建军）,0,0,0,17.7700004577637,1.77000045776367,0,0,NaN,NaN,0,0.0242283218322616,NaN,0.99997776746882,-0,-0.0066531989723444,0,17.4264174989128,17.4264174989128,,,69.0799999237061,16,0.176100576123456,0.236860281126052
2011-06-01T04:33:43Z,1306902823,10A,56.1780249,27.1571156,17.77,0,-0.4,257.4,-5684.41,109171.09,257.8,Air+FixedWing,Red,Allies,Su-27,Red Su-27 #001,xu,=CNF=801（建军）,0,0,0,17.7700004577637,1.77000045776367,0,0,NaN,NaN,0,0.0242283218322616,NaN,0.99997776746882,-0,-0.0066531989723444,0,17.4264174989128,17.4264174989128,,,70.0799999237061,16,0.176100576123456,0.236860281126052
2011-06-01T04:33:44Z,1306902824,10A,56.1780249,27.1571156,17.77,0,-0.4,257.4,-5684.41,109171.09,257.8,Air+FixedWing,Red,Allies,Su-27,Red Su-27 #001,xu,=CNF=801（建军）,0,0,0,17.7700004577637,1.77000045776367,0,0,NaN,NaN,0,0.0242283218322616,NaN,0.99997776746882,-0,-0.0066531989723444,0,17.4264174989128,17.4264174989128,,,71.0799999237061,16,0.176100576123456,0.236860281126052
2011-06-01T04:33:45Z,1306902825,10A,56.1780249,27.1571156,17.77,0,-0.4,257.4,-5684.41,109171.09,257.8,Air+FixedWing,Red,Allies,Su-27,Red Su-27 #001,xu,=CNF=801（建军）,0,0,0,17.7700004577637,1.77000045776367,0,0,NaN,NaN,0,0.0242283218322616,NaN,0.99997776746882,-0,-0.0066531989723444,0,17.4264174989128,17.4264174989128,,,72.0799999237061,16,0.176100576123456,0.236860281126052
2011-06-01T04:33:46Z,1306902826,10A,56.1780249,27.1571156,17.77,0,-0.4,257.4,-5684.41,109171.09,257.8,Air+FixedWing,Red,Allies,Su-27,Red Su-27 #001,xu,=CNF=801（建军）,0,0,0,17.7700004577637,1.77000045776367,0,0,NaN,NaN,0,0.0242283218322616,NaN,0.99997776746882,-0,-0.0066531989723444,0,17.4264174989128,17.4264174989128,,,73.0799999237061,16,0.176100576123456,0.236860281126052
2011-06-01T04:33:47Z,1306902827,10A,56.1780249,27.1571156,17.77,0,-0.4,257.4,-5684.41,109171.09,257.8,Air+FixedWing,Red,Allies,Su-27,Red Su-27 #001,xu,=CNF=801（建军）,0,0,0,17.7700004577637,1.77000045776367,0,0,NaN,NaN,0,0.0242283218322616,NaN,0.99997776746882,-0,-0.0066531989723444,0,17.4264174989128,17.4264174989128,,,74.0799999237061,16,0.176100576123456,0.236860281126052
2011-06-01T04:33:48Z,1306902828,10A,56.1780249,27.1571156,17.77,0,-0.4,257.4,-5684.41,109171.09,257.8,Air+FixedWing,Red,Allies,Su-27,Red Su-27 #001,xu,=CNF=801（建军）,0,0,0,17.7700004577637,1.77000045776367,0,0,NaN,NaN,0,0.0242283218322616,NaN,0.99997776746882,-0,-0.0066531989723444,0,17.4264174989128,17.4264174989128,,,75.0799999237061,16,0.176100576123456,0.236860281126052
2011-06-01T04:33:49Z,1306902829,10A,56.1780249,27.1571156,17.77,0,-0.4,257.4,-5684.41,109171.09,257.8,Air+FixedWing,Red,Allies,Su-27,Red Su-27 #001,xu,=CNF=801（建军）,0,0,0,17.7700004577637,1.77000045776367,0,0,NaN,NaN,0,0.0242283218322616,NaN,0.99997776746882,-0,-0.0066531989723444,0,17.4264174989128,17.4264174989128,,,76.0799999237061,16,0.176100576123456,0.236860281126052
2011-06-01T04:33:50Z,1306902830,10A,56.1780249,27.1571156,17.77,0,-0.4,257.4,-5684.41,109171.09,257.8,Air+FixedWing,Red,Allies,Su-27,Red Su-27 #001,xu,=CNF=801（建军）,0,0,0,17.7700004577637,1.77000045776367,0,0,NaN,NaN,0,0.0242283218322616,NaN,0.99997776746882,-0,-0.0066531989723444,0,17.4264174989128,17.4264174989128,,,77.0799999237061,16,0.176100576123456,0.236860281126052
2011-06-01T04:33:51Z,1306902831,10A,56.1780249,27.1571156,17.77,0,-0.4,257.4,-5684.41,109171.09,257.8,Air+FixedWing,Red,Allies,Su-27,Red Su-27 #001,xu,=CNF=801（建军）,0,0,0,17.7700004577637,1.77000045776367,0,0,NaN,NaN,0,0.0242283218322616,NaN,0.99997776746882,-0,-0.0066531989723444,0,17.4264174989128,17.4264174989128,,,78.0799999237061,16,0.176100576123456,0.236860281126052
2011-06-01T04:36:37Z,1306902997,10A,56.1780252,27.1571157,17.76,0.6,0.5,257.3,-5684.38,109171.09,257.7,Air+FixedWing,Red,Allies,Su-27,Red Su-27 #001,xu,=CNF=801（建军）,0.12040608652169,0,0.000353776119759916,17.763334274292,1.76333427429199,NaN,NaN,NaN,NaN,0,NaN,NaN,NaN,NaN,NaN,NaN,17.4198802060986,NaN,,,0.980000019073486,16,NaN,NaN
2011-06-01T04:36:38Z,1306902998,10A,56.1780248,27.1571157,17.79,0.5,-0.1,257.4,-5684.42,109171.09,257.7,Air+FixedWing,Red,Allies,Su-27,Red Su-27 #001,xu,=CNF=801（建军）,0.0453846697545303,0,0.000133348885489268,17.7914276123047,1.79142761230469,0.03564453125,0.0280933380126953,NaN,NaN,0.085732534462,0.190774333872743,NaN,0.994902805896444,0.00882920828266899,-0.00582293298955312,0.000102988412436389,17.4474303594208,17.4475333478332,,,1.98000001907349,16,0.0355681753912039,0.0453248032051954
2011-06-01T04:36:39Z,1306902999,10A,56.1780249,27.1571157,17.77,0.3,-0.2,257.4,-5684.41,109171.09,257.7,Air+FixedWing,Red,Allies,Su-27,Red Su-27 #001,xu,=CNF=801（建军）,0.0220900792166044,0,6.49048841556014e-05,17.7700004577637,1.77000045776367,0.00537109375,-0.0214271545410156,NaN,NaN,0.199987938897973,0.140927626650204,NaN,1.00250890297717,0.0050583503018036,-0.00262391353911816,2.43985799897928e-05,17.4264174989128,17.4264418974928,,,2.98000001907349,16,0.0412280325408661,0.0674868672863399
2011-06-01T04:36:40Z,1306903000,10A,56.1780249,27.1571156,17.77,0.2,-0.3,257.4,-5684.41,109171.09,257.8,Air+FixedWing,Red,Allies,Su-27,Red Su-27 #001,xu,=CNF=801（建军）,0.00477343214438309,0,1.40252585311179e-05,17.7733325958252,1.7733325958252,0.00341796875,0.00333213806152344,NaN,NaN,0.133325292598649,0.0523391626455858,NaN,0.999298632595528,0.00405914986643631,-0.00518374056911956,1.13928272185149e-06,17.4296852100849,17.4296863493676,,,3.98000001907349,16,0.0528392649759614,0.0795667937080163
2011-06-01T04:36:41Z,1306903001,10A,56.1780248,27.1571156,17.77,0.2,-0.3,257.4,-5684.42,109171.09,257.8,Air+FixedWing,Red,Allies,Su-27,Red Su-27 #001,xu,=CNF=801（建军）,0.00513438731725151,0,1.50858134445126e-05,17.7700004577637,1.77000045776367,0.00390625,-0.00333213806152344,NaN,NaN,0,0.0395646845203054,NaN,1.00031543601617,0.00364960583853593,-0.00596772864857538,1.31809665617766e-06,17.4264174989128,17.4264188170095,,,4.98000001907349,16,0.0571119014939181,0.0849851577827587
2011-06-01T04:36:42Z,1306903002,10A,56.1780249,27.1571156,17.77,0.1,-0.3,257.4,-5684.41,109171.09,257.8,Air+FixedWing,Red,Allies,Su-27,Red Su-27 #001,xu,=CNF=801（建军）,0.00341796875,0,1.00426469090914e-05,17.7700004577637,1.77000045776367,0.00341796875,0,NaN,NaN,0.127260084615678,0.0242283218322616,NaN,0.999984408448391,0.00175582596311016,-0.00528463010715854,5.84125518798828e-07,17.4264174989128,17.4264180830383,,,5.98000001907349,16,0.0609128885744975,0.0887861554554926
2011-06-01T04:36:43Z,1306903003,10A,56.1780249,27.1571156,17.77,0.1,-0.3,257.4,-5684.41,109171.09,257.8,Air+FixedWing,Red,Allies,Su-27,Red Su-27 #001,xu,=CNF=801（建军）,0.00390625,0,1.14773107532473e-05,17.7700004577637,1.77000045776367,0.00390625,0,NaN,NaN,0.0259547188460485,0.0139882274201861,NaN,0.999987205600679,0.0014344138754747,-0.00484663903396037,7.62939453125e-07,17.4264174989128,17.4264182618523,,,6.98000001907349,16,0.0646861191847118,0.0925593969131898
2011-06-01T04:36:44Z,1306903004,10A,56.1780249,27.1571156,17.77,0.1,-0.3,257.4,-5684.41,109171.09,257.8,Air+FixedWing,Red,Allies,Su-27,Red Su-27 #001,xu,=CNF=801（建军）,0,0,0,17.7700004577637,1.77000045776367,0,0,NaN,NaN,0.0302167568881364,0.0139882274201861,NaN,0.99998569489264,0.000991336739506431,-0.00523596443235874,0,17.4264174989128,17.4264174989128,,,7.98000001907349,16,0.0646861191847118,0.0925593969131898
2011-06-01T04:36:45Z,1306903005,10A,56.1780249,27.1571156,17.77,0,-0.3,257.4,-5684.41,109171.09,257.8,Air+FixedWing,Red,Allies,Su-27,Red Su-27 #001,xu,=CNF=801（建军）,0,0,0,17.7700004577637,1.77000045776367,0,0,NaN,NaN,0.0302167568881364,0.0139882274201861,NaN,0.999986052515585,0.000464085938976155,-0.00523596443235874,0,17.4264174989128,17.4264174989128,,,8.98000001907349,16,0.0646861191847118,0.0925593969131898
2011-06-01T04:36:46Z,1306903006,10A,56.1780249,27.1571156,17.77,0,-0.3,257.4,-5684.41,109171.09,257.8,Air+FixedWing,Red,Allies,Su-27,Red Su-27 #001,xu,=CNF=801（建军）,0,0,0,17.7700004577637,1.77000045776367,0,0,NaN,NaN,0.0229494356112428,0.0197823405926261,NaN,0.999985754490744,-0,-0.00532110081985593,0,17.4264174989128,17.4264174989128,,,9.98000001907349,16,0.0646861191847118,0.0925593969131898
2011-06-01T04:36:47Z,1306903007,10A,56.1780249,27.1571156,17.77,0,-0.3,257.4,-5684.41,109171.09,257.8,Air+FixedWing,Red,Allies,Su-27,Red Su-27 #001,xu,=CNF=801（建军）,0,0,0,17.7700004577637,1.77000045776367,0,0,NaN,NaN,0,0.0356631257199208,NaN,0.999981701375141,-0,-0.00603057350963354,0,17.4264174989128,17.4264174989128,,,10.9800000190735,16,0.0646861191847118,0.0925593969131898
2011-06-01T04:36:48Z,1306903008,10A,56.1780249,27.1571156,17.77,0,-0.4,257.4,-5684.41,109171.09,257.8,Air+FixedWing,Red,Allies,Su-27,Red Su-27 #001,xu,=CNF=801（建军）,0,0,0,17.7700004577637,1.77000045776367,0,0,NaN,NaN,0,0.0419646855956116,NaN,0.999977231027049,-0,-0.00674004200845957,0,17.4264174989128,17.4264174989128,,,11.9800000190735,16,0.0646861191847118,0.0925593969131898
2011-06-01T04:36:49Z,1306903009,10A,56.1780249,27.1571156,17.77,0,-0.4,257.4,-5684.41,109171.09,257.8,Air+FixedWing,Red,Allies,Su-27,Red Su-27 #001,xu,=CNF=801（建军）,0,0,0,17.7700004577637,1.77000045776367,0,0,NaN,NaN,0,0.0221173298063182,NaN,0.999975740911019,-0,-0.00694646267220378,0,17.4264174989128,17.4264174989128,,,12.9800000190735,16,0.0646861191847118,0.0925593969131898
2011-06-01T04:36:50Z,1306903010,10A,56.1780249,27.1571156,17.77,0,-0.4,257.4,-5684.41,109171.09,257.8,Air+FixedWing,Red,Allies,Su-27,Red Su-27 #001,xu,=CNF=801（建军）,0,0,0,17.7700004577637,1.77000045776367,0,0,NaN,NaN,0,0.0197823405926261,NaN,0.999976098538866,-0,-0.00689373817294836,0,17.4264174989128,17.4264174989128,,,13.9800000190735,16,0.0646861191847118,0.0925593969131898
2011-06-01T04:36:51Z,1306903011,10A,56.1780249,27.1571156,17.77,0,-0.4,257.4,-5684.41,109171.09,257.8,Air+FixedWing,Red,Allies,Su-27,Red Su-27 #001,xu,=CNF=801（建军）,0,0,0,17.7700004577637,1.77000045776367,0,0,NaN,NaN,0,0.0139882274201861,NaN,0.999976456166713,-0,-0.00684101320803165,0,17.4264174989128,17.4264174989128,,,14.9800000190735,16,0.0646861191847118,0.0925593969131898
2011-06-01T04:36:52Z,1306903012,10A,56.1780249,27.1571156,17.77,0,-0.4,257.4,-5684.41,109171.09,257.8,Air+FixedWing,Red,Allies,Su-27,Red Su-27 #001,xu,=CNF=801（建军）,0,0,0,17.7700004577637,1.77000045776367,0,0,NaN,NaN,0,0.0171320104161963,NaN,0.999976813794561,-0,-0.00678828870877624,0,17.4264174989128,17.4264174989128,,,15.9800000190735,16,0.0646861191847118,0.0925593969131898
2011-06-01T04:36:53Z,1306903013,10A,56.1780249,27.1571156,17.77,0,-0.4,257.4,-5684.41,109171.09,257.8,Air+FixedWing,Red,Allies,Su-27,Red Su-27 #001,xu,=CNF=801（建军）,0,0,0,17.7700004577637,1.77000045776367,0,0,NaN,NaN,0,0.0139882274201861,NaN,0.999977171422408,-0,-0.0067355646751821,0,17.4264174989128,17.4264174989128,,,16.9800000190735,16,0.0646861191847118,0.0925593969131898
2011-06-01T04:36:54Z,1306903014,10A,56.1780249,27.1571156,17.77,0,-0.4,257.4,-5684.41,109171.09,257.8,Air+FixedWing,Red,Allies,Su-27,Red Su-27 #001,xu,=CNF=801（建军）,0,0,0,17.7700004577637,1.77000045776367,0,0,NaN,NaN,0,0.0139882274201861,NaN,0.999977588654897,-0,-0.0066828397102654,0,17.4264174989128,17.4264174989128,,,17.9800000190735,16,0.0646861191847118,0.0925593969131898
2011-06-01T04:36:55Z,1306903015,10A,56.1780249,27.1571156,17.77,0,-0.4,257.4,-5684.41,109171.09,257.8,Air+FixedWing,Red,Allies,Su-27,Red Su-27 #001,xu,=CNF=801（建军）,0,0,0,17.7700004577637,1.77000045776367,0,0,NaN,NaN,0,0.0171320104161963,NaN,0.999977886678103,-0,-0.00663011521100998,0,17.4264174989128,17.4264174989128,,,18.9800000190735,16,0.0646861191847118,0.0925593969131898
2011-06-01T04:36:56Z,1306903016,10A,56.1780249,27.1571156,17.77,0,-0.4,257.4,-5684.41,109171.09,257.8,Air+FixedWing,Red,Allies,Su-27,Red Su-27 #001,xu,=CNF=801（建军）,0,0,0,17.7700004577637,1.77000045776367,0,0,NaN,NaN,0,0.0171320104161963,NaN,0.99997824430595,-0,-0.00657739024609327,0,17.4264174989128,17.4264174989128,,,19.9800000190735,16,0.0646861191847118,0.0925593969131898
2011-06-01T04:36:57Z,1306903017,10A,56.1780249,27.1571156,17.77,0,-0.4,257.4,-5684.41,109171.09,257.8,Air+FixedWing,Red,Allies,Su-27,Red Su-27 #001,xu,=CNF=801（建军）,0,0,0,17.7700004577637,1.77000045776367,0,0,NaN,NaN,0,0.0197823405926261,NaN,0.999978601933798,-0,-0.00652466574683786,0,17.4264174989128,17.4264174989128,,,20.9800000190735,16,0.0646861191847118,0.0925593969131898
2011-06-01T04:36:58Z,1306903018,10A,56.1780249,27.1571156,17.77,0,-0.4,257.4,-5684.41,109171.09,257.8,Air+FixedWing,Red,Allies,Su-27,Red Su-27 #001,xu,=CNF=801（建军）,0,0,0,17.7700004577637,1.77000045776367,0,0,NaN,NaN,0,0.0197823405926261,NaN,0.999978959561645,-0,-0.00647194078192115,0,17.4264174989128,17.4264174989128,,,21.9800000190735,16,0.0646861191847118,0.0925593969131898
2011-06-01T04:36:59Z,1306903019,10A,56.1780249,27.1571156,17.77,0,-0.4,257.4,-5684.41,109171.09,257.8,Air+FixedWing,Red,Allies,Su-27,Red Su-27 #001,xu,=CNF=801（建军）,0,0,0,17.7700004577637,1.77000045776367,0,0,NaN,NaN,0,0.0197823405926261,NaN,0.999979257584851,-0,-0.00641921628266573,0,17.4264174989128,17.4264174989128,,,22.9800000190735,16,0.0646861191847118,0.0925593969131898
2011-06-01T04:37:00Z,1306903020,10A,56.1780249,27.1571156,17.77,0,-0.4,257.4,-5684.41,109171.09,257.8,Air+FixedWing,Red,Allies,Su-27,Red Su-27 #001,xu,=CNF=801（建军）,0,0,0,17.7700004577637,1.77000045776367,0,0,NaN,NaN,0,0.0171320104161963,NaN,0.99997967481734,-0,-0.00636649178341031,0,17.4264174989128,17.4264174989128,,,23.9800000190735,16,0.0646861191847118,0.0925593969131898
2011-06-01T04:37:01Z,1306903021,10A,56.1780249,27.1571156,17.77,0,-0.4,257.4,-5684.41,109171.09,257.8,Air+FixedWing,Red,Allies,Su-27,Red Su-27 #001,xu,=CNF=801（建军）,0,0,0,17.7700004577637,1.77000045776367,0,0,NaN,NaN,0,0.0197823405926261,NaN,0.999979972840546,-0,-0.0063137668184936,0,17.4264174989128,17.4264174989128,,,24.9800000190735,16,0.0646861191847118,0.0925593969131898
2011-06-01T04:37:02Z,1306903022,10A,56.1780249,27.1571156,17.77,0,-0.4,257.4,-5684.41,109171.09,257.8,Air+FixedWing,Red,Allies,Su-27,Red Su-27 #001,xu,=CNF=801（建军）,0,0,0,17.7700004577637,1.77000045776367,0,0,NaN,NaN,0,0.0171320104161963,NaN,0.999980330468393,-0,-0.0062610418535769,0,17.4264174989128,17.4264174989128,,,25.9800000190735,16,0.0646861191847118,0.0925593969131898
2011-06-01T04:37:03Z,1306903023,10A,56.1780249,27.1571156,17.77,0,-0.4,257.4,-5684.41,109171.09,257.8,Air+FixedWing,Red,Allies,Su-27,Red Su-27 #001,xu,=CNF=801（建军）,0,0,0,17.7700004577637,1.77000045776367,0,0,NaN,NaN,0,0.0171320104161963,NaN,0.999980628491599,-0,-0.00620831735432148,0,17.4264174989128,17.4264174989128,,,26.9800000190735,16,0.0646861191847118,0.0925593969131898
2011-06-01T04:37:04Z,1306903024,10A,56.1780249,27.1571156,17.77,0,-0.4,257.4,-5684.41,109171.09,257.8,Air+FixedWing,Red,Allies,Su-27,Red Su-27 #001,xu,=CNF=801（建军）,0,0,0,17.7700004577637,1.77000045776367,0,0,NaN,NaN,0,0.0171320104161963,NaN,0.999980926514805,-0,-0.00615559285506606,0,17.4264174989128,17.4264174989128,,,27.9800000190735,16,0.0646861191847118,0.0925593969131898
2011-06-01T04:37:05Z,1306903025,10A,56.1780249,27.1571156,17.77,0,-0.3,257.4,-5684.41,109171.09,257.8,Air+FixedWing,Red,Allies,Su-27,Red Su-27 #001,xu,=CNF=801（建军）,0,0,0,17.7700004577637,1.77000045776367,0,0,NaN,NaN,0,0.0171320104161963,NaN,0.999981284142653,-0,-0.00610286789014935,0,17.4264174989128,17.4264174989128,,,28.9800000190735,16,0.0646861191847118,0.0925593969131898
2011-06-01T04:37:06Z,1306903026,10A,56.1780249,27.1571156,17.77,0,-0.3,257.4,-5684.41,109171.09,257.8,Air+FixedWing,Red,Allies,Su-27,Red Su-27 #001,xu,=CNF=801（建军）,0,0,0,17.7700004577637,1.77000045776367,0,0,NaN,NaN,0,0.0139882274201861,NaN,0.999981582165859,-0,-0.00605014292523265,0,17.4264174989128,17.4264174989128,,,29.9800000190735,16,0.0646861191847118,0.0925593969131898
2011-06-01T04:37:07Z,1306903027,10A,56.1780249,27.1571156,17.77,0,-0.3,257.4,-5684.41,109171.09,257.8,Air+FixedWing,Red,Allies,Su-27,Red Su-27 #001,xu,=CNF=801（建军）,0,0,0,17.7700004577637,1.77000045776367,0,0,NaN,NaN,0,0.0139882274201861,NaN,0.999981939793706,-0,-0.00599741796031594,0,17.4264174989128,17.4264174989128,,,30.9800000190735,16,0.0646861191847118,0.0925593969131898
2011-06-01T04:37:08Z,1306903028,10A,56.1780249,27.1571156,17.77,0,-0.3,257.4,-5684.41,109171.09,257.8,Air+FixedWing,Red,Allies,Su-27,Red Su-27 #001,xu,=CNF=801（建军）,0,0,0,17.7700004577637,1.77000045776367,0,0,NaN,NaN,0,0.0139882274201861,NaN,0.999982178212271,-0,-0.00594469299539924,0,17.4264174989128,17.4264174989128,,,31.9800000190735,16,0.0646861191847118,0.0925593969131898
2011-06-01T04:37:09Z,1306903029,10A,56.1780249,27.1571156,17.77,0,-0.3,257.4,-5684.41,109171.09,257.8,Air+FixedWing,Red,Allies,Su-27,Red Su-27 #001,xu,=CNF=801（建军）,0,0,0,17.7700004577637,1.77000045776367,0,0,NaN,NaN,0,0.0171320104161963,NaN,0.999982595444759,-0,-0.00589196849614382,0,17.4264174989128,17.4264174989128,,,32.9800000190735,16,0.0646861191847118,0.0925593969131898
2011-06-01T04:37:10Z,1306903030,10A,56.1780249,27.1571156,17.77,0,-0.3,257.4,-5684.41,109171.09,257.8,Air+FixedWing,Red,Allies,Su-27,Red Su-27 #001,xu,=CNF=801（建军）,0,0,0,17.7700004577637,1.77000045776367,0,0,NaN,NaN,0,0.0139882274201861,NaN,0.999982833863324,-0,-0.00583924353122711,0,17.4264174989128,17.4264174989128,,,33.9800000190735,16,0.0646861191847118,0.0925593969131898
2011-06-01T04:37:11Z,1306903031,10A,56.1780249,27.1571156,17.77,0,-0.3,257.4,-5684.41,109171.09,257.8,Air+FixedWing,Red,Allies,Su-27,Red Su-27 #001,xu,=CNF=801（建军）,0,0,0,17.7700004577637,1.77000045776367,0,0,NaN,NaN,0,0.0171320104161963,NaN,0.99998313188653,-0,-0.00578651856631041,0,17.4264174989128,17.4264174989128,,,34.9800000190735,16,0.0646861191847118,0.0925593969131898
2011-06-01T04:37:12Z,1306903032,10A,56.1780249,27.1571156,17.77,0,-0.3,257.4,-5684.41,109171.09,257.8,Air+FixedWing,Red,Allies,Su-27,Red Su-27 #001,xu,=CNF=801（建军）,0,0,0,17.7700004577637,1.77000045776367,0,0,NaN,NaN,0,0.0171320104161963,NaN,0.999983489514378,-0,-0.0057337936013937,0,17.4264174989128,17.4264174989128,,,35.9800000190735,16,0.0646861191847118,0.0925593969131898
2011-06-01T04:37:13Z,1306903033,10A,56.1780249,27.1571156,17.77,0,-0.3,257.4,-5684.41,109171.09,257.8,Air+FixedWing,Red,Allies,Su-27,Red Su-27 #001,xu,=CNF=801（建军）,0,0,0,17.7700004577637,1.77000045776367,0,0,NaN,NaN,0,0.0221173298063182,NaN,0.999983727932943,-0,-0.00568106863647699,0,17.4264174989128,17.4264174989128,,,36.9800000190735,16,0.0646861191847118,0.0925593969131898
2011-06-01T04:37:14Z,1306903034,10A,56.1780249,27.1571156,17.77,0,-0.3,257.4,-5684.41,109171.09,257.8,Air+FixedWing,Red,Allies,Su-27,Red Su-27 #001,xu,=CNF=801（建军）,0,0,0,17.7700004577637,1.77000045776367,0,0,NaN,NaN,0,0.0197823405926261,NaN,0.999984025956149,-0,-0.00562834367156029,0,17.4264174989128,17.4264174989128,,,37.9800000190735,16,0.0646861191847118,0.0925593969131898
2011-06-01T04:37:15Z,1306903035,10A,56.1780249,27.1571156,17.77,0,-0.3,257.4,-5684.41,109171.09,257.8,Air+FixedWing,Red,Allies,Su-27,Red Su-27 #001,xu,=CNF=801（建军）,0,0,0,17.7700004577637,1.77000045776367,0,0,NaN,NaN,0,0.0197823405926261,NaN,0.999984383583996,-0,-0.00557561870664358,0,17.4264174989128,17.4264174989128,,,38.9800000190735,16,0.0646861191847118,0.0925593969131898
2011-06-01T04:37:16Z,1306903036,10A,56.1780249,27.1571156,17.77,0,-0.3,257.4,-5684.41,109171.09,257.8,Air+FixedWing,Red,Allies,Su-27,Red Su-27 #001,xu,=CNF=801（建军）,0,0,0,17.7700004577637,1.77000045776367,0,0,NaN,NaN,0,0.0171320104161963,NaN,0.999984681607202,-0,-0.00552289374172688,0,17.4264174989128,17.4264174989128,,,39.9800000190735,16,0.0646861191847118,0.0925593969131898
2011-06-01T04:37:17Z,1306903037,10A,56.1780249,27.1571156,17.77,0,-0.3,257.4,-5684.41,109171.09,257.8,Air+FixedWing,Red,Allies,Su-27,Red Su-27 #001,xu,=CNF=801（建军）,0,0,0,17.7700004577637,1.77000045776367,0,0,NaN,NaN,0,0.0171320104161963,NaN,0.999984979630408,-0,-0.00547016831114888,0,17.4264174989128,17.4264174989128,,,40.9800000190735,16,0.0646861191847118,0.0925593969131898
2011-06-01T04:37:18Z,1306903038,10A,56.1780249,27.1571156,17.77,0,-0.3,257.4,-5684.41,109171.09,257.8,Air+FixedWing,Red,Allies,Su-27,Red Su-27 #001,xu,=CNF=801（建军）,0,0,0,17.7700004577637,1.77000045776367,0,0,NaN,NaN,0,0.0171320104161963,NaN,0.999985277653614,-0,-0.00541744334623218,0,17.4264174989128,17.4264174989128,,,41.9800000190735,16,0.0646861191847118,0.0925593969131898
2011-06-01T04:37:19Z,1306903039,10A,56.1780249,27.1571156,17.77,0,-0.3,257.4,-5684.41,109171.09,257.8,Air+FixedWing,Red,Allies,Su-27,Red Su-27 #001,xu,=CNF=801（建军）,0,0,0,17.7700004577637,1.77000045776367,0,0,NaN,NaN,0,0.0171320104161963,NaN,0.999985575676821,-0,-0.00536471884697676,0,17.4264174989128,17.4264174989128,,,42.9800000190735,16,0.0646861191847118,0.0925593969131898
2011-06-01T04:37:20Z,1306903040,10A,56.1780249,27.1571156,17.77,0,-0.3,257.4,-5684.41,109171.09,257.8,Air+FixedWing,Red,Allies,Su-27,Red Su-27 #001,xu,=CNF=801（建军）,0,0,0,17.7700004577637,1.77000045776367,0,0,NaN,NaN,0,0.0139882274201861,NaN,0.999985814095385,-0,-0.00531199341639876,0,17.4264174989128,17.4264174989128,,,43.9800000190735,16,0.0646861191847118,0.0925593969131898
2011-06-01T04:37:21Z,1306903041,10A,56.1780249,27.1571156,17.77,0,-0.3,257.4,-5684.41,109171.09,257.8,Air+FixedWing,Red,Allies,Su-27,Red Su-27 #001,xu,=CNF=801（建军）,0,0,0,17.7700004577637,1.77000045776367,0,0,NaN,NaN,0,0.0197823405926261,NaN,0.99998605251395,-0,-0.00525926845148206,0,17.4264174989128,17.4264174989128,,,44.9800000190735,16,0.0646861191847118,0.0925593969131898
2011-06-01T04:37:22Z,1306903042,10A,56.1780249,27.1571156,17.77,0,-0.3,257.4,-5684.41,109171.09,257.8,Air+FixedWing,Red,Allies,Su-27,Red Su-27 #001,xu,=CNF=801（建军）,0,0,0,17.7700004577637,1.77000045776367,0,0,NaN,NaN,0,0.0171320104161963,NaN,0.999990105629553,-0,-0.0044426410458982,0,17.4264174989128,17.4264174989128,,,45.9800000190735,16,0.0646861191847118,0.0925593969131898
2011-06-01T04:37:23Z,1306903043,10A,56.1780249,27.1571156,17.77,0,-0.3,257.4,-5684.41,109171.09,257.8,Air+FixedWing,Red,Allies,Su-27,Red Su-27 #001,xu,=CNF=801（建军）,0,0,0,17.7700004577637,1.77000045776367,0,0,NaN,NaN,0,0.0139882274201861,NaN,0.999986171723233,-0,-0.00523596443235874,0,17.4264174989128,17.4264174989128,,,46.9800000190735,16,0.0688432776303406,0.0967165674210127
2011-06-01T04:37:24Z,1306903044,10A,56.1780249,27.1571157,17.77,0,-0.3,257.4,-5684.41,109171.09,257.8,Air+FixedWing,Red,Allies,Su-27,Red Su-27 #001,xu,=CNF=801（建军）,0,0,0,17.7700004577637,1.77000045776367,0,0,NaN,NaN,0,0.0139882274201861,NaN,0.999986171723233,-0,-0.00523596443235874,0,17.4264174989128,17.4264174989128,,,47.9800000190735,16,0.073462344820325,0.101335647444716
2011-06-01T04:37:25Z,1306903045,10A,56.1780249,27.1571157,17.77,0.1,-0.3,257.4,-5684.41,109171.09,257.8,Air+FixedWing,Red,Allies,Su-27,Red Su-27 #001,xu,=CNF=801（建军）,0,0,0,17.7700004577637,1.77000045776367,0,0,NaN,NaN,0.106672387013165,0.0139882274201861,NaN,0.999985814100288,0.000930879253606895,-0.00523596443235874,0,17.4264174989128,17.4264174989128,,,48.9800000190735,16,0.0758180676078636,0.103691377151156
2011-06-01T04:37:26Z,1306903046,10A,56.1780249,27.1571156,17.77,0,-0.3,257.4,-5684.41,109171.09,257.8,Air+FixedWing,Red,Allies,Su-27,Red Su-27 #001,xu,=CNF=801（建军）,0,0,0,17.7700004577637,1.77000045776367,0,0,NaN,NaN,0,0.0139882274201861,NaN,0.999986171723233,-0,-0.00523596443235874,0,17.4264174989128,17.4264174989128,,,49.9800000190735,16,0.0855303549712529,0.113403692424994
2011-06-01T04:37:27Z,1306903047,10A,56.1780249,27.1571156,17.77,0,-0.3,257.4,-5684.41,109171.09,257.8,Air+FixedWing,Red,Allies,Su-27,Red Su-27 #001,xu,=CNF=801（建军）,0,0,0,17.7700004577637,1.77000045776367,0,0,NaN,NaN,0,0.0139882274201861,NaN,0.999986171723233,-0,-0.00523596443235874,0,17.4264174989128,17.4264174989128,,,50.9800000190735,16,0.0877837858804295,0.115657130191895
2011-06-01T04:37:28Z,1306903048,10A,56.1780249,27.1571157,17.77,0,-0.3,257.4,-5684.41,109171.09,257.8,Air+FixedWing,Red,Allies,Su-27,Red Su-27 #001,xu,=CNF=801（建军）,0,0,0,17.7700004577637,1.77000045776367,0,0,NaN,NaN,0,0.0139882274201861,NaN,0.999986171723233,-0,-0.00523596443235874,0,17.4264174989128,17.4264174989128,,,51.9800000190735,16,0.0900372176182581,0.11791056808115
2011-06-01T04:37:29Z,1306903049,10A,56.1780249,27.1571157,17.77,0,-0.3,257.4,-5684.41,109171.09,257.8,Air+FixedWing,Red,Allies,Su-27,Red Su-27 #001,xu,=CNF=801（建军）,0,0,0,17.7700004577637,1.77000045776367,0,0,NaN,NaN,0,0.0139882274201861,NaN,0.999986171723233,-0,-0.00523596443235874,0,17.4264174989128,17.4264174989128,,,52.9800000190735,16,0.0922906484703077,0.120164005319471
2011-06-01T04:37:30Z,1306903050,10A,56.1780249,27.1571157,17.77,0,-0.3,257.4,-5684.41,109171.09,257.8,Air+FixedWing,Red,Allies,Su-27,Red Su-27 #001,xu,=CNF=801（建军）,0,0,0,17.7700004577637,1.77000045776367,0,0,NaN,NaN,0,0.0139882274201861,NaN,0.999985290235737,-0.000778661473563575,-0.00540431460589453,0,17.4264174989128,17.4264174989128,,,53.9800000190735,16,0.0945440793794843,0.122417442614918
2011-06-01T04:37:31Z,1306903051,10A,56.1780249,27.1571157,17.77,0.2,-0.3,257.4,-5684.41,109171.1,257.8,Air+FixedWing,Red,Allies,Su-27,Red Su-27 #001,xu,=CNF=801（建军）,0.0078125,0,2.29546215064946e-05,17.7700004577637,1.77000045776367,0.0078125,0,NaN,NaN,0.21904760845732,0.0139882274201861,NaN,0.999976359422196,0.00504792305725204,-0.00489926408528717,3.0517578125e-06,17.4264174989128,17.4264205506706,,,54.9800000190735,16,0.0977870869795679,0.12566045926266
2011-06-01T04:37:32Z,1306903052,10A,56.1780249,27.1571157,17.77,0.1,-0.3,257.4,-5684.41,109171.09,257.8,Air+FixedWing,Red,Allies,Su-27,Red Su-27 #001,xu,=CNF=801（建军）,0.0078125,0,2.29546215064946e-05,17.7700004577637,1.77000045776367,0.0078125,0,NaN,NaN,0,0.0139882274201861,NaN,0.999277984725693,0.000965408235900186,-0.00540061180876642,3.0517578125e-06,17.4264174989128,17.4264205506706,,,55.9800000190735,16,0.101467443308221,0.129340825820772
2011-06-01T04:37:33Z,1306903053,10A,56.1780249,27.1571157,17.76,0.1,-0.3,257.4,-5684.41,109171.09,257.8,Air+FixedWing,Red,Allies,Su-27,Red Su-27 #001,xu,=CNF=801（建军）,0.00693511962890625,0,2.03767083195589e-05,17.7630653381348,1.76306533813477,0,-0.00693511962890625,NaN,NaN,0,0.0139882274201861,NaN,1.0003793067459,0.00174599314430094,-0.00523803070721378,2.40479421336204e-06,17.4196164698219,17.4196188746161,,,56.9800000190735,16,0.102603354991949,0.13636835637576
2011-06-01T04:37:34Z,1306903054,10A,56.1780249,27.1571156,17.76,-0.1,-0.3,257.4,-5684.41,109171.09,257.8,Air+FixedWing,Red,Allies,Su-27,Red Su-27 #001,xu,=CNF=801（建军）,0.00306510925292969,0,9.00587710089242e-06,17.7600002288818,1.76000022888184,0,-0.00306510925292969,NaN,NaN,0.243810432612775,0.0139882274201861,NaN,1.00131790957352,-0.00104851458672869,-0.00524294027403299,4.69744736619759e-07,17.4166106244564,17.4166110942011,,,57.9800000190735,16,0.1137353034151,0.147914605671948
2011-06-01T04:37:35Z,1306903055,10A,56.1780249,27.1571156,17.77,0,-0.3,257.4,-5684.41,109171.09,257.8,Air+FixedWing,Red,Allies,Su-27,Red Su-27 #001,xu,=CNF=801（建军）,0.0100002288818359,0,2.938258802699e-05,17.7700004577637,1.77000045776367,0,0.0100002288818359,NaN,NaN,0,0.0139882274201861,NaN,0.99896644651784,-0,-0.00523062511295757,5.00022888445528e-06,17.4264174989128,17.4264224991417,,,58.9800000190735,16,0.113855811686781,0.157915559554626
2011-06-01T04:37:36Z,1306903056,10A,56.1780249,27.1571156,17.77,0,-0.3,257.4,-5684.41,109171.09,257.8,Air+FixedWing,Red,Allies,Su-27,Red Su-27 #001,xu,=CNF=801（建军）,0,0,0,17.7700004577637,1.77000045776367,0,0,NaN,NaN,0,0.0139882274201861,NaN,0.999986171723233,-0,-0.00523596443235874,0,17.4264174989128,17.4264174989128,,,59.9800000190735,16,0.115362164246177,0.15942191648984
2011-06-01T04:37:37Z,1306903057,10A,56.1780249,27.1571156,17.77,0,-0.3,257.4,-5684.41,109171.09,257.8,Air+FixedWing,Red,Allies,Su-27,Red Su-27 #001,xu,=CNF=801（建军）,0,0,0,17.7700004577637,1.77000045776367,0,0,NaN,NaN,0,0.0139882274201861,NaN,0.999986171723233,-0,-0.00523596443235874,0,17.4264174989128,17.4264174989128,,,60.9800000190735,16,0.116868517809656,0.160928273957685
2011-06-01T04:37:38Z,1306903058,10A,56.1780249,27.1571156,17.77,0,-0.3,257.4,-5684.41,109171.09,257.8,Air+FixedWing,Red,Allies,Su-27,Red Su-27 #001,xu,=CNF=801（建军）,0,0,0,17.7700004577637,1.77000045776367,0,0,NaN,NaN,0,0.0139882274201861,NaN,0.999986171723233,-0,-0.00523596443235874,0,17.4264174989128,17.4264174989128,,,61.9800000190735,16,0.118374870958809,0.162434631364352
2011-06-01T04:37:39Z,1306903059,10A,56.1780249,27.1571157,17.77,0,-0.3,257.4,-5684.41,109171.09,257.8,Air+FixedWing,Red,Allies,Su-27,Red Su-27 #001,xu,=CNF=801（建军）,0,0,0,17.7700004577637,1.77000045776367,0,0,NaN,NaN,0,0.0139882274201861,NaN,0.999986171723233,-0,-0.00523596443235874,0,17.4264174989128,17.4264174989128,,,62.9800000190735,16,0.119881224107962,0.16394098841787
2011-06-01T04:37:40Z,1306903060,10A,56.1780249,27.1571157,17.77,0,-0.3,257.4,-5684.41,109171.09,257.8,Air+FixedWing,Red,Allies,Su-27,Red Su-27 #001,xu,=CNF=801（建军）,0,0,0,17.7700004577637,1.77000045776367,0,0,NaN,NaN,0,0.0139882274201861,NaN,0.999986171723233,-0,-0.00523596443235874,0,17.4264174989128,17.4264174989128,,,63.9800000190735,16,0.121387576903967,0.165447345824537
2011-06-01T04:37:41Z,1306903061,10A,56.1780249,27.1571157,17.77,0,-0.3,257.4,-5684.41,109171.09,257.8,Air+FixedWing,Red,Allies,Su-27,Red Su-27 #001,xu,=CNF=801（建军）,0,0,0,17.7700004577637,1.77000045776367,0,0,NaN,NaN,0,0.0139882274201861,NaN,0.999986171723233,-0,-0.00523596443235874,0,17.4264174989128,17.4264174989128,,,64.9800000190735,16,0.122893929934816,0.166953702759751
2011-06-01T04:37:42Z,1306903062,10A,56.1780249,27.1571157,17.77,0,-0.3,257.4,-5684.41,109171.09,257.8,Air+FixedWing,Red,Allies,Su-27,Red Su-27 #001,xu,=CNF=801（建军）,0,0,0,17.7700004577637,1.77000045776367,0,0,NaN,NaN,0,0.0139882274201861,NaN,0.999986171723233,-0,-0.00523596443235874,0,17.4264174989128,17.4264174989128,,,65.9800000190735,16,0.12440028273082,0.168460060403027
2011-06-01T04:37:43Z,1306903063,10A,56.1780249,27.1571157,17.77,0,-0.3,257.4,-5684.41,109171.09,257.8,Air+FixedWing,Red,Allies,Su-27,Red Su-27 #001,xu,=CNF=801（建军）,0,0,0,17.7700004577637,1.77000045776367,0,0,NaN,NaN,0.0336045307164627,0.0139882274201861,NaN,0.999985873704112,0.000850331146299132,-0.00523596443235874,0,17.4264174989128,17.4264174989128,,,66.9800000190735,16,0.124867251838258,0.168927030753443
2011-06-01T04:37:44Z,1306903064,10A,56.1780249,27.1571157,17.77,0.1,-0.3,257.4,-5684.41,109171.09,257.8,Air+FixedWing,Red,Allies,Su-27,Red Su-27 #001,xu,=CNF=801（建军）,0,0,0,17.7700004577637,1.77000045776367,0,0,NaN,NaN,0.151515206936304,0.0139882274201861,NaN,0.999984860439103,0.00163952867581911,-0.00523596443235874,0,17.4264174989128,17.4264174989128,,,67.9800000190735,16,0.124867251838258,0.168927030753443
2011-06-01T04:37:45Z,1306903065,10A,56.1780249,27.1571156,17.77,0,-0.3,257.4,-5684.41,109171.09,257.8,Air+FixedWing,Red,Allies,Su-27,Red Su-27 #001,xu,=CNF=801（建军）,0,0,0,17.7700004577637,1.77000045776367,0,0,NaN,NaN,0,0.0139882274201861,NaN,0.999986171723233,-0,-0.00523596443235874,0,17.4264174989128,17.4264174989128,,,68.9800000190735,16,0.130754339723355,0.174814135019425
2011-06-01T04:37:46Z,1306903066,10A,56.1780249,27.1571156,17.77,0,-0.3,257.4,-5684.41,109171.09,257.8,Air+FixedWing,Red,Allies,Su-27,Red Su-27 #001,xu,=CNF=801（建军）,0,0,0,17.7700004577637,1.77000045776367,0,0,NaN,NaN,0,0.0139882274201861,NaN,0.999986171723233,-0,-0.00523596443235874,0,17.4264174989128,17.4264174989128,,,69.9800000190735,16,0.131062423681332,0.175122220277507
2011-06-01T04:37:47Z,1306903067,10A,56.1780249,27.1571157,17.77,0,-0.3,257.4,-5684.41,109171.09,257.8,Air+FixedWing,Red,Allies,Su-27,Red Su-27 #001,xu,=CNF=801（建军）,0,0,0,17.7700004577637,1.77000045776367,0,0,NaN,NaN,0,0.0139882274201861,NaN,0.999986171723233,-0,-0.00523596443235874,0,17.4264174989128,17.4264174989128,,,70.9800000190735,16,0.132597711196558,0.176657512225679
2011-06-01T04:37:48Z,1306903068,10A,56.1780249,27.1571156,17.77,0,-0.3,257.4,-5684.41,109171.09,257.8,Air+FixedWing,Red,Allies,Su-27,Red Su-27 #001,xu,=CNF=801（建军）,0,0,0,17.7700004577637,1.77000045776367,0,0,NaN,NaN,0,0.0139882274201861,NaN,0.999985916908029,1.05220301208302e-05,-0.00528463010715854,0,17.4264174989128,17.4264174989128,,,71.9800000190735,16,0.139069775291861,0.183129594887751
2011-06-01T04:37:49Z,1306903069,10A,56.1780249,27.1571156,17.77,0,-0.3,257.4,-5684.41,109171.09,257.8,Air+FixedWing,Red,Allies,Su-27,Red Su-27 #001,xu,=CNF=801（建军）,0.00048828125,0,1.43466384415591e-06,17.7700004577637,1.77000045776367,0.00048828125,0,NaN,NaN,0,0.0139882274201861,NaN,0.999986426538437,-1.05220301208302e-05,-0.00518729875755895,1.19209289550781e-08,17.4264174989128,17.4264175108337,,,72.9800000190735,16,0.139069775291861,0.183129594887751
