ISOTime,UnixTime,Id,Longitude,Latitude,Altitude,Roll,Pitch,Yaw,U,V,Heading,Type,Color,Coalition,Name,Group,Country,Pilot,TAS,CAS,M,ASL,AGL,GS,VS,AOA,AOS,RRT,TRT,TRD,G,LatG,LonG,Ek,Ep,Em,FFW,FFV,RelativeTime,Elev,GroundDistance,AirDistance
2011-06-01T04:33:13Z,1306902793,10C,56.3824436,27.2306435,9.04,0.2,-0.3,89.7,14609.83,117199.34,90,Air+FixedWing,Red,Allies,F-15C,Red F-15C #003,xu,=CNF=307(女生）,0.0665654883948094,0,0.000195562930993296,9.04333305358887,2.25457763671875,NaN,NaN,NaN,NaN,NaN,NaN,NaN,NaN,NaN,NaN,NaN,8.86848020899773,NaN,,,0.279999971389771,6.78875541687012,NaN,NaN
2011-06-01T04:33:14Z,1306902794,10C,56.3824438,27.2306435,9.07,0.2,-0.7,89.7,14609.85,117199.34,90,Air+FixedWing,Red,Allies,F-15C,Red F-15C #003,xu,=CNF=307(女生）,0.0344066743186143,0,0.000101083492159373,9.06904697418213,2.28029727935791,0.0228607420131243,0.0257139205932617,NaN,NaN,0.94283931302856,NaN,NaN,0.990355545812299,0.00266034961939541,-0.0161832717646686,5.91909618833597e-05,8.89369695093632,8.8937561418982,,,1.27999997138977,6.78874969482422,0.0226610382642953,0.0342743317271116
2011-06-01T04:33:15Z,1306902795,10C,56.3824436,27.2306435,9,0.2,-0.5,89.7,14609.83,117199.34,90,Air+FixedWing,Red,Allies,F-15C,Red F-15C #003,xu,=CNF=307(女生）,0.0701179035430568,0,0.000205999483977163,9.00142860412598,2.21262311935425,0.0185546875,-0.0676183700561523,NaN,NaN,0.266650585197298,0.0261695779877396,NaN,1.00162542126677,0.000559544060728604,-0.00784474181714207,0.000245826019863671,8.8273859820652,8.82763180808506,,,2.27999997138977,6.78880548477173,0.0415445667646491,0.104479976097955
2011-06-01T04:33:16Z,1306902796,10C,56.3824435,27.2306433,8.95,0.4,-0.4,89.7,14609.82,117199.31,90,Air+FixedWing,Red,Allies,F-15C,Red F-15C #003,xu,=CNF=307(女生）,0.0609659812721732,0,0.000179111935366559,8.94999980926514,2.1613941192627,0.0327403410434379,-0.0514287948608398,NaN,NaN,0.193650804008671,0.101835886039175,NaN,1.00619002511654,0.0113704138348084,-0.00602919954531938,0.000185842543623949,8.77695156295299,8.77713740549662,,,3.27999997138977,6.78860569000244,0.065909619896008,0.161388485541859
2011-06-01T04:33:17Z,1306902797,10C,56.3824435,27.2306433,8.96,0.5,-0.4,89.7,14609.82,117199.32,90,Air+FixedWing,Red,Allies,F-15C,Red F-15C #003,xu,=CNF=307(女生）,0.0126901431804021,0,3.72823714750982e-05,8.96000003814697,2.17139434814453,0.0078125,0.0100002288818359,NaN,NaN,0.00950762332465775,0.0442346629476897,NaN,0.998918514547124,0.00863440890575337,-0.00697414154228982,8.05198669695528e-06,8.7867584374094,8.7867664893961,,,4.27999997138977,6.78860569000244,0.0664397122980829,0.171402754446758
2011-06-01T04:33:18Z,1306902798,10C,56.3824435,27.2306434,8.96,0.5,-0.4,89.7,14609.82,117199.33,90,Air+FixedWing,Red,Allies,F-15C,Red F-15C #003,xu,=CNF=307(女生）,0.0078125,0,2.29523436425069e-05,8.96000003814697,2.17128086090088,0.0078125,0,NaN,NaN,0,0.0532655904281015,NaN,0.99995143930811,0.00713307797837626,-0.00698126046959384,3.0517578125e-06,8.7867584374094,8.78676148916721,,,5.27999997138977,6.78871917724609,0.0770415686811455,0.18200462632402
2011-06-01T04:33:19Z,1306902799,10C,56.3824435,27.2306434,8.96,0.5,-0.3,89.7,14609.82,117199.32,90,Air+FixedWing,Red,Allies,F-15C,Red F-15C #003,xu,=CNF=307(女生）,0.0078125,0,2.29523436425069e-05,8.96000003814697,2.17128086090088,0.0078125,0,NaN,NaN,0,0.0532655904281015,NaN,0.999941192460637,0.00952303893338586,-0.00523596450200341,3.0517578125e-06,8.7867584374094,8.78676148916721,,,6.27999997138977,6.78871917724609,0.0770415686811455,0.18200462632402
2011-06-01T04:33:20Z,1306902800,10C,56.3824435,27.2306434,8.96,0.5,-0.3,89.7,14609.82,117199.32,90,Air+FixedWing,Red,Allies,F-15C,Red F-15C #003,xu,=CNF=307(女生）,0,0,0,8.96000003814697,2.17128086090088,0,0,NaN,NaN,0,0.0139882274201861,NaN,0.999948144483458,0.00872641614348385,-0.00523596443235874,0,8.7867584374094,8.7867584374094,,,7.27999997138977,6.78871917724609,0.0770415686811455,0.18200462632402
2011-06-01T04:33:21Z,1306902801,10C,56.3824435,27.2306434,8.96,0.5,-0.3,89.7,14609.82,117199.32,90,Air+FixedWing,Red,Allies,F-15C,Red F-15C #003,xu,=CNF=307(女生）,0,0,0,8.96000003814697,2.17128086090088,0,0,NaN,NaN,0,0.0139882274201861,NaN,0.999941192460637,0.00952303893338586,-0.00523596450200341,0,8.7867584374094,8.7867584374094,,,8.27999997138977,6.78871917724609,0.0770415686811455,0.18200462632402
2011-06-01T04:33:22Z,1306902802,10C,56.3824435,27.2306434,8.96,0.5,-0.3,89.7,14609.82,117199.33,90,Air+FixedWing,Red,Allies,F-15C,Red F-15C #003,xu,=CNF=307(女生）,0.0078125,0,2.29523436425069e-05,8.96000003814697,2.17128086090088,0.0078125,0,NaN,NaN,0,0.0139882274201861,NaN,0.999955096506279,0.00792979335358184,-0.00523596436271407,3.0517578125e-06,8.7867584374094,8.78676148916721,,,9.27999997138977,6.78871917724609,0.0770415686811455,0.18200462632402
2011-06-01T04:33:23Z,1306902803,10C,56.3824435,27.2306434,8.96,0.5,-0.3,89.7,14609.82,117199.33,90,Air+FixedWing,Red,Allies,F-15C,Red F-15C #003,xu,=CNF=307(女生）,0,0,0,8.96000003814697,2.17128086090088,0,0,NaN,NaN,0,0.0139882274201861,NaN,0.999948144483458,0.00872641614348385,-0.00523596443235874,0,8.7867584374094,8.7867584374094,,,10.2799999713898,6.78871917724609,0.0770415686811455,0.18200462632402
2011-06-01T04:33:24Z,1306902804,10C,56.3824435,27.2306434,8.96,0.5,-0.3,89.7,14609.82,117199.33,90,Air+FixedWing,Red,Allies,F-15C,Red F-15C #003,xu,=CNF=307(女生）,0,0,0,8.96000003814697,2.17128086090088,0,0,NaN,NaN,0,0.0139882274201861,NaN,0.999948144483458,0.00872641614348385,-0.00523596443235874,0,8.7867584374094,8.7867584374094,,,11.2799999713898,6.78871917724609,0.0770415686811455,0.18200462632402
2011-06-01T04:33:25Z,1306902805,10C,56.3824435,27.2306434,8.96,0.5,-0.3,89.7,14609.82,117199.33,90,Air+FixedWing,Red,Allies,F-15C,Red F-15C #003,xu,=CNF=307(女生）,0,0,0,8.96000003814697,2.17128086090088,0,0,NaN,NaN,0,0.0139882274201861,NaN,0.999955096506279,0.00792979335358184,-0.00523596436271407,0,8.7867584374094,8.7867584374094,,,12.2799999713898,6.78871917724609,0.0770415686811455,0.18200462632402
2011-06-01T04:33:26Z,1306902806,10C,56.3824435,27.2306434,8.96,0.5,-0.3,89.7,14609.82,117199.32,90,Air+FixedWing,Red,Allies,F-15C,Red F-15C #003,xu,=CNF=307(女生）,0.0078125,0,2.29523436425069e-05,8.96000003814697,2.17128086090088,0.0078125,0,NaN,NaN,0,0.0139882274201861,NaN,0.999941192460637,0.00952303893338586,-0.00523596450200341,3.0517578125e-06,8.7867584374094,8.78676148916721,,,13.2799999713898,6.78871917724609,0.0770415686811455,0.18200462632402
2011-06-01T04:33:27Z,1306902807,10C,56.3824435,27.2306434,8.96,0.5,-0.3,89.7,14609.82,117199.32,90,Air+FixedWing,Red,Allies,F-15C,Red F-15C #003,xu,=CNF=307(女生）,0,0,0,8.96000003814697,2.17128086090088,0,0,NaN,NaN,0,0.0139882274201861,NaN,0.999948144483458,0.00872641614348385,-0.00523596443235874,0,8.7867584374094,8.7867584374094,,,14.2799999713898,6.78871917724609,0.0770415686811455,0.18200462632402
2011-06-01T04:33:28Z,1306902808,10C,56.3824435,27.2306434,8.96,0.5,-0.3,89.7,14609.82,117199.32,90,Air+FixedWing,Red,Allies,F-15C,Red F-15C #003,xu,=CNF=307(女生）,0,0,0,8.96000003814697,2.17128086090088,0,0,NaN,NaN,0,0.0139882274201861,NaN,0.999948144483458,0.00872641614348385,-0.00523596443235874,0,8.7867584374094,8.7867584374094,,,15.2799999713898,6.78871917724609,0.0770415686811455,0.18200462632402
2011-06-01T04:33:29Z,1306902809,10C,56.3824435,27.2306434,8.96,0.5,-0.3,89.7,14609.82,117199.32,90,Air+FixedWing,Red,Allies,F-15C,Red F-15C #003,xu,=CNF=307(女生）,0,0,0,8.96000003814697,2.17128086090088,0,0,NaN,NaN,0,0.0139882274201861,NaN,0.999941192460637,0.00952303893338586,-0.00523596450200341,0,8.7867584374094,8.7867584374094,,,16.2799999713898,6.78871917724609,0.0770415686811455,0.18200462632402
2011-06-01T04:33:30Z,1306902810,10C,56.3824435,27.2306434,8.96,0.5,-0.3,89.7,14609.82,117199.33,90,Air+FixedWing,Red,Allies,F-15C,Red F-15C #003,xu,=CNF=307(女生）,0.0078125,0,2.29523436425069e-05,8.96000003814697,2.17128086090088,0.0078125,0,NaN,NaN,0,0.0139882274201861,NaN,0.999955096506279,0.00792979335358184,-0.00523596436271407,3.0517578125e-06,8.7867584374094,8.78676148916721,,,17.2799999713898,6.78871917724609,0.0770415686811455,0.18200462632402
2011-06-01T04:33:31Z,1306902811,10C,56.3824435,27.2306434,8.96,0.5,-0.3,89.7,14609.82,117199.33,90,Air+FixedWing,Red,Allies,F-15C,Red F-15C #003,xu,=CNF=307(女生）,0,0,0,8.96000003814697,2.17128086090088,0,0,NaN,NaN,0,0.0139882274201861,NaN,0.999955096506279,0.00792979335358184,-0.00523596436271407,0,8.7867584374094,8.7867584374094,,,18.2799999713898,6.78871917724609,0.0770415686811455,0.18200462632402
2011-06-01T04:33:32Z,1306902812,10C,56.3824435,27.2306434,8.96,0.5,-0.3,89.7,14609.82,117199.32,90,Air+FixedWing,Red,Allies,F-15C,Red F-15C #003,xu,=CNF=307(女生）,0.0078125,0,2.29523436425069e-05,8.96000003814697,2.17128086090088,0.0078125,0,NaN,NaN,0,0.0139882274201861,NaN,0.999941192460637,0.00952303893338586,-0.00523596450200341,3.0517578125e-06,8.7867584374094,8.78676148916721,,,19.2799999713898,6.78871917724609,0.0770415686811455,0.18200462632402
2011-06-01T04:33:33Z,1306902813,10C,56.3824435,27.2306434,8.96,0.5,-0.3,89.7,14609.82,117199.32,90,Air+FixedWing,Red,Allies,F-15C,Red F-15C #003,xu,=CNF=307(女生）,0,0,0,8.96000003814697,2.17128086090088,0,0,NaN,NaN,0,0.0139882274201861,NaN,0.999941192460637,0.00952303893338586,-0.00523596450200341,0,8.7867584374094,8.7867584374094,,,20.2799999713898,6.78871917724609,0.0770415686811455,0.18200462632402
2011-06-01T04:33:34Z,1306902814,10C,56.3824435,27.2306434,8.96,0.5,-0.3,89.7,14609.82,117199.33,90,Air+FixedWing,Red,Allies,F-15C,Red F-15C #003,xu,=CNF=307(女生）,0.0078125,0,2.29523436425069e-05,8.96000003814697,2.17128086090088,0.0078125,0,NaN,NaN,0,0.0139882274201861,NaN,0.9999620485291,0.00713317056367984,-0.00523596429306941,3.0517578125e-06,8.7867584374094,8.78676148916721,,,21.2799999713898,6.78871917724609,0.0770415686811455,0.18200462632402
2011-06-01T04:33:35Z,1306902815,10C,56.3824435,27.2306434,8.96,0.5,-0.3,89.7,14609.82,117199.32,90,Air+FixedWing,Red,Allies,F-15C,Red F-15C #003,xu,=CNF=307(女生）,0.0078125,0,2.29523436425069e-05,8.96000003814697,2.17128086090088,0.0078125,0,NaN,NaN,0,0.0139882274201861,NaN,0.999934240437816,0.0103196617232879,-0.00523596457164808,3.0517578125e-06,8.7867584374094,8.78676148916721,,,22.2799999713898,6.78871917724609,0.0770415686811455,0.18200462632402
2011-06-01T04:33:36Z,1306902816,10C,56.3824435,27.2306434,8.96,0.5,-0.3,89.7,14609.82,117199.33,90,Air+FixedWing,Red,Allies,F-15C,Red F-15C #003,xu,=CNF=307(女生）,0.0078125,0,2.29523436425069e-05,8.96000003814697,2.17128086090088,0.0078125,0,NaN,NaN,0,0.0139882274201861,NaN,0.999955096506279,0.00792979335358184,-0.00523596436271407,3.0517578125e-06,8.7867584374094,8.78676148916721,,,23.2799999713898,6.78871917724609,0.0770415686811455,0.18200462632402
2011-06-01T04:33:37Z,1306902817,10C,56.3824435,27.2306434,8.96,0.5,-0.3,89.7,14609.82,117199.33,90,Air+FixedWing,Red,Allies,F-15C,Red F-15C #003,xu,=CNF=307(女生）,0,0,0,8.96000003814697,2.17128086090088,0,0,NaN,NaN,0,0.0139882274201861,NaN,0.999955096506279,0.00792979335358184,-0.00523596436271407,0,8.7867584374094,8.7867584374094,,,24.2799999713898,6.78871917724609,0.0770415686811455,0.18200462632402
2011-06-01T04:33:38Z,1306902818,10C,56.3824435,27.2306434,8.96,0.5,-0.3,89.7,14609.82,117199.32,90,Air+FixedWing,Red,Allies,F-15C,Red F-15C #003,xu,=CNF=307(女生）,0.0078125,0,2.29523436425069e-05,8.96000003814697,2.17128086090088,0.0078125,0,NaN,NaN,0,0.0139882274201861,NaN,0.999941192460637,0.00952303893338586,-0.00523596450200341,3.0517578125e-06,8.7867584374094,8.78676148916721,,,25.2799999713898,6.78871917724609,0.0770415686811455,0.18200462632402
2011-06-01T04:33:39Z,1306902819,10C,56.3824435,27.2306434,8.96,0.5,-0.3,89.7,14609.82,117199.32,90,Air+FixedWing,Red,Allies,F-15C,Red F-15C #003,xu,=CNF=307(女生）,0,0,0,8.96000003814697,2.17128086090088,0,0,NaN,NaN,0,0.0139882274201861,NaN,0.999941192460637,0.00952303893338586,-0.00523596450200341,0,8.7867584374094,8.7867584374094,,,26.2799999713898,6.78871917724609,0.0770415686811455,0.18200462632402
2011-06-01T04:33:40Z,1306902820,10C,56.3824435,27.2306434,8.96,0.5,-0.3,89.7,14609.82,117199.33,90,Air+FixedWing,Red,Allies,F-15C,Red F-15C #003,xu,=CNF=307(女生）,0.0078125,0,2.29523436425069e-05,8.96000003814697,2.17128086090088,0.0078125,0,NaN,NaN,0,0.0139882274201861,NaN,0.999955096506279,0.00792979335358184,-0.00523596436271407,3.0517578125e-06,8.7867584374094,8.78676148916721,,,27.2799999713898,6.78871917724609,0.0770415686811455,0.18200462632402
2011-06-01T04:33:41Z,1306902821,10C,56.3824435,27.2306434,8.96,0.5,-0.3,89.7,14609.82,117199.33,90,Air+FixedWing,Red,Allies,F-15C,Red F-15C #003,xu,=CNF=307(女生）,0,0,0,8.96000003814697,2.17128086090088,0,0,NaN,NaN,0,0.0139882274201861,NaN,0.999955096506279,0.00792979335358184,-0.00523596436271407,0,8.7867584374094,8.7867584374094,,,28.2799999713898,6.78871917724609,0.0770415686811455,0.18200462632402
2011-06-01T04:33:42Z,1306902822,10C,56.3824435,27.2306434,8.96,0.5,-0.3,89.7,14609.82,117199.32,90,Air+FixedWing,Red,Allies,F-15C,Red F-15C #003,xu,=CNF=307(女生）,0.0078125,0,2.29523436425069e-05,8.96000003814697,2.17128086090088,0.0078125,0,NaN,NaN,0,0.0139882274201861,NaN,0.999934240437816,0.0103196617232879,-0.00523596457164808,3.0517578125e-06,8.7867584374094,8.78676148916721,,,29.2799999713898,6.78871917724609,0.0770415686811455,0.18200462632402
2011-06-01T04:33:43Z,1306902823,10C,56.3824435,27.2306434,8.96,0.5,-0.3,89.7,14609.82,117199.33,90,Air+FixedWing,Red,Allies,F-15C,Red F-15C #003,xu,=CNF=307(女生）,0.0078125,0,2.29523436425069e-05,8.96000003814697,2.17128086090088,0.0078125,0,NaN,NaN,0,0.0139882274201861,NaN,0.999955096506279,0.00792979335358184,-0.00523596436271407,3.0517578125e-06,8.7867584374094,8.78676148916721,,,30.2799999713898,6.78871917724609,0.0770415686811455,0.18200462632402
2011-06-01T04:33:44Z,1306902824,10C,56.3824435,27.2306434,8.96,0.5,-0.3,89.7,14609.82,117199.33,90,Air+FixedWing,Red,Allies,F-15C,Red F-15C #003,xu,=CNF=307(女生）,0,0,0,8.96000003814697,2.17128086090088,0,0,NaN,NaN,0,0.0139882274201861,NaN,0.999955096506279,0.00792979335358184,-0.00523596436271407,0,8.7867584374094,8.7867584374094,,,31.2799999713898,6.78871917724609,0.0770415686811455,0.18200462632402
2011-06-01T04:33:45Z,1306902825,10C,56.3824435,27.2306434,8.96,0.5,-0.3,89.7,14609.82,117199.32,90,Air+FixedWing,Red,Allies,F-15C,Red F-15C #003,xu,=CNF=307(女生）,0.0078125,0,2.29523436425069e-05,8.96000003814697,2.17128086090088,0.0078125,0,NaN,NaN,0,0.0139882274201861,NaN,0.999941192460637,0.00952303893338586,-0.00523596450200341,3.0517578125e-06,8.7867584374094,8.78676148916721,,,32.2799999713898,6.78871917724609,0.0770415686811455,0.18200462632402
2011-06-01T04:33:46Z,1306902826,10C,56.3824435,27.2306434,8.96,0.5,-0.3,89.7,14609.82,117199.32,90,Air+FixedWing,Red,Allies,F-15C,Red F-15C #003,xu,=CNF=307(女生）,0,0,0,8.96000003814697,2.17128086090088,0,0,NaN,NaN,0,0.0139882274201861,NaN,0.999948144483458,0.00872641614348385,-0.00523596443235874,0,8.7867584374094,8.7867584374094,,,33.2799999713898,6.78871917724609,0.0770415686811455,0.18200462632402
2011-06-01T04:33:47Z,1306902827,10C,56.3824435,27.2306434,8.96,0.5,-0.3,89.7,14609.82,117199.32,90,Air+FixedWing,Red,Allies,F-15C,Red F-15C #003,xu,=CNF=307(女生）,0,0,0,8.96000003814697,2.17128086090088,0,0,NaN,NaN,0,0.0139882274201861,NaN,0.999941192460637,0.00952303893338586,-0.00523596450200341,0,8.7867584374094,8.7867584374094,,,34.2799999713898,6.78871917724609,0.0770415686811455,0.18200462632402
2011-06-01T04:33:48Z,1306902828,10C,56.3824435,27.2306434,8.96,0.5,-0.3,89.7,14609.82,117199.33,90,Air+FixedWing,Red,Allies,F-15C,Red F-15C #003,xu,=CNF=307(女生）,0.0078125,0,2.29523436425069e-05,8.96000003814697,2.17128086090088,0.0078125,0,NaN,NaN,0,0.0139882274201861,NaN,0.999955096506279,0.00792979335358184,-0.00523596436271407,3.0517578125e-06,8.7867584374094,8.78676148916721,,,35.2799999713898,6.78871917724609,0.0770415686811455,0.18200462632402
2011-06-01T04:33:49Z,1306902829,10C,56.3824435,27.2306434,8.96,0.5,-0.3,89.7,14609.82,117199.33,90,Air+FixedWing,Red,Allies,F-15C,Red F-15C #003,xu,=CNF=307(女生）,0,0,0,8.96000003814697,2.17128086090088,0,0,NaN,NaN,0,0.0139882274201861,NaN,0.999948144483458,0.00872641614348385,-0.00523596443235874,0,8.7867584374094,8.7867584374094,,,36.2799999713898,6.78871917724609,0.0770415686811455,0.18200462632402
2011-06-01T04:33:50Z,1306902830,10C,56.3824435,27.2306434,8.96,0.5,-0.3,89.7,14609.82,117199.33,90,Air+FixedWing,Red,Allies,F-15C,Red F-15C #003,xu,=CNF=307(女生）,0,0,0,8.96000003814697,2.17128086090088,0,0,NaN,NaN,0,0.0139882274201861,NaN,0.999955096506279,0.00792979335358184,-0.00523596436271407,0,8.7867584374094,8.7867584374094,,,37.2799999713898,6.78871917724609,0.0770415686811455,0.18200462632402
2011-06-01T04:33:51Z,1306902831,10C,56.3824435,27.2306434,8.96,0.5,-0.3,89.7,14609.82,117199.32,90,Air+FixedWing,Red,Allies,F-15C,Red F-15C #003,xu,=CNF=307(女生）,0.0078125,0,2.29523436425069e-05,8.96000003814697,2.17128086090088,0.0078125,0,NaN,NaN,0,0.0139882274201861,NaN,0.999941192460637,0.00952303893338586,-0.00523596450200341,3.0517578125e-06,8.7867584374094,8.78676148916721,,,38.2799999713898,6.78871917724609,0.0770415686811455,0.18200462632402
2011-06-01T04:33:52Z,1306902832,10C,56.3824435,27.2306434,8.96,0.5,-0.3,89.7,14609.82,117199.32,90,Air+FixedWing,Red,Allies,F-15C,Red F-15C #003,xu,=CNF=307(女生）,0,0,0,8.96000003814697,2.17128086090088,0,0,NaN,NaN,0,0.0139882274201861,NaN,0.999948144483458,0.00872641614348385,-0.00523596443235874,0,8.7867584374094,8.7867584374094,,,39.2799999713898,6.78871917724609,0.0770415686811455,0.18200462632402
2011-06-01T04:33:53Z,1306902833,10C,56.3824435,27.2306434,8.96,0.5,-0.3,89.7,14609.82,117199.32,90,Air+FixedWing,Red,Allies,F-15C,Red F-15C #003,xu,=CNF=307(女生）,0,0,0,8.96000003814697,2.17128086090088,0,0,NaN,NaN,0,0.0139882274201861,NaN,0.999941192460637,0.00952303893338586,-0.00523596450200341,0,8.7867584374094,8.7867584374094,,,40.2799999713898,6.78871917724609,0.0770415686811455,0.18200462632402
2011-06-01T04:33:54Z,1306902834,10C,56.3824435,27.2306434,8.96,0.5,-0.3,89.7,14609.82,117199.33,90,Air+FixedWing,Red,Allies,F-15C,Red F-15C #003,xu,=CNF=307(女生）,0.0078125,0,2.29523436425069e-05,8.96000003814697,2.17128086090088,0.0078125,0,NaN,NaN,0,0.0139882274201861,NaN,0.999955096506279,0.00792979335358184,-0.00523596436271407,3.0517578125e-06,8.7867584374094,8.78676148916721,,,41.2799999713898,6.78871917724609,0.0770415686811455,0.18200462632402
2011-06-01T04:33:55Z,1306902835,10C,56.3824435,27.2306434,8.96,0.5,-0.3,89.7,14609.82,117199.33,90,Air+FixedWing,Red,Allies,F-15C,Red F-15C #003,xu,=CNF=307(女生）,0,0,0,8.96000003814697,2.17128086090088,0,0,NaN,NaN,0,0.0139882274201861,NaN,0.999948144483458,0.00872641614348385,-0.00523596443235874,0,8.7867584374094,8.7867584374094,,,42.2799999713898,6.78871917724609,0.0770415686811455,0.18200462632402
2011-06-01T04:33:56Z,1306902836,10C,56.3824435,27.2306434,8.96,0.5,-0.3,89.7,14609.82,117199.33,90,Air+FixedWing,Red,Allies,F-15C,Red F-15C #003,xu,=CNF=307(女生）,0,0,0,8.96000003814697,2.17128086090088,0,0,NaN,NaN,0,0.0139882274201861,NaN,0.999633126060581,0.00792698355977609,-0.00523427844965404,0,8.7867584374094,8.7867584374094,,,43.2799999713898,6.78871917724609,0.0770415686811455,0.18200462632402
2011-06-01T04:33:57Z,1306902837,10C,56.3824435,27.2306434,8.96,0.5,-0.3,89.7,14609.82,117199.32,90,Air+FixedWing,Red,Allies,F-15C,Red F-15C #003,xu,=CNF=307(女生）,0.00842648757885009,0,2.47561768615161e-05,8.95684242248535,2.16812324523926,0.0078125,-0.00315761566162109,NaN,NaN,0,0.0139882274201861,NaN,0.999878141973617,0.00952248878712435,-0.00423980445002865,3.55028464582574e-06,8.7836618742466,8.78366542453124,,,44.2799999713898,6.78871917724609,0.0770415686811455,0.18516224160667
2011-06-01T04:33:58Z,1306902838,10C,56.3824436,27.2306434,8.95,0.5,-0.4,89.7,14609.83,117199.32,90,Air+FixedWing,Red,Allies,F-15C,Red F-15C #003,xu,=CNF=307(女生）,0.0104887600803232,0,3.08149256714584e-05,8.95301532745361,2.1643238067627,0.009765625,-0.00382709503173828,NaN,NaN,0,0.0532655904281015,NaN,1.00103231674169,0.00873587747567456,-0.0080843287853375,5.50070440112904e-06,8.7799087760973,8.7799142768017,,,45.2799999713898,6.78869152069092,0.0869397832372582,0.195774573361047
2011-06-01T04:33:59Z,1306902839,10C,56.3824435,27.2306434,8.96,0.5,-0.4,89.7,14609.83,117199.32,90,Air+FixedWing,Red,Allies,F-15C,Red F-15C #003,xu,=CNF=307(女生）,0.00705264899072221,0,2.07199773728046e-05,8.96000003814697,2.17128086090088,0.0009765625,0.00698471069335938,NaN,NaN,0,0.0532655904281015,NaN,0.998982525134954,0.00871798931107809,-0.00697459301847555,2.48699288931675e-06,8.7867584374094,8.78676092440229,,,46.2799999713898,6.78871917724609,0.0968379977933709,0.20788907319763
2011-06-01T04:34:00Z,1306902840,10C,56.3824435,27.2306434,8.96,0.5,-0.4,89.7,14609.83,117199.32,90,Air+FixedWing,Red,Allies,F-15C,Red F-15C #003,xu,=CNF=307(女生）,0.00257378747518376,0,7.56152998511974e-06,8.95761871337891,2.16889953613281,0.0009765625,-0.00238132476806641,NaN,NaN,0,0.0532655904281015,NaN,1.00042524553718,0.00873057976741412,-0.00668591345061936,3.31219098370639e-07,8.78442315555573,8.78442348677482,,,47.2799999713898,6.78871917724609,0.0968379977933709,0.210270397665619
2011-06-01T04:34:01Z,1306902841,10C,56.3824435,27.2306434,8.96,0.5,-0.3,89.7,14609.83,117199.32,90,Air+FixedWing,Red,Allies,F-15C,Red F-15C #003,xu,=CNF=307(女生）,0.0030798384562557,0,9.04825735825779e-06,8.96000003814697,2.17128086090088,0.001953125,0.00238132476806641,NaN,NaN,0.123817669273991,0.0532655904281015,NaN,0.998679907788836,0.00871534831259956,-0.00632473654168338,4.74270245831576e-07,8.7867584374094,8.78675891167965,,,48.2799999713898,6.78871917724609,0.0968379977933709,0.212651722133608
2011-06-01T04:34:02Z,1306902842,10C,56.3824435,27.2306433,8.95,0.5,-0.3,89.7,14609.82,117199.32,90,Air+FixedWing,Red,Allies,F-15C,Red F-15C #003,xu,=CNF=307(女生）,0.0133136094774487,0,3.91140486950354e-05,8.94999980926514,2.1613941192627,0.0087890625,-0.0100002288818359,NaN,NaN,0,0.0139882274201861,NaN,1.00096505007643,0.00953197407401738,-0.00444466173771808,8.86260986590059e-06,8.77695156295299,8.77696042556286,,,49.2799999713898,6.78860569000244,0.107969946578508,0.227615852308157
2011-06-01T04:34:03Z,1306902843,10C,56.3824435,27.2306434,8.95,0.5,-0.3,89.7,14609.82,117199.33,90,Air+FixedWing,Red,Allies,F-15C,Red F-15C #003,xu,=CNF=307(女生）,0.0078732985823228,0,2.31309611913404e-05,8.94999980926514,2.16128063201904,0.0078732985823228,0,NaN,NaN,0,0.0139882274201861,NaN,0.999962569915097,0.00713317512245301,-0.00513638403269127,3.09944152832031e-06,8.77695156295299,8.77695466239452,,,50.2799999713898,6.78871917724609,0.119101895363644,0.23874781664667
2011-06-01T04:34:04Z,1306902844,10C,56.3824435,27.2306433,8.95,0.5,-0.3,89.7,14609.82,117199.32,90,Air+FixedWing,Red,Allies,F-15C,Red F-15C #003,xu,=CNF=307(女生）,0.0078125,0,2.29523410572895e-05,8.94999980926514,2.1613941192627,0.0078125,0,NaN,NaN,0,0.0139882274201861,NaN,0.999941192460637,0.00952303893338586,-0.00523596450200341,3.0517578125e-06,8.77695156295299,8.77695461471081,,,51.2799999713898,6.78860569000244,0.128977012223196,0.248622947403386
2011-06-01T04:34:05Z,1306902845,10C,56.3824435,27.2306434,8.95,0.5,-0.3,89.7,14609.82,117199.32,90,Air+FixedWing,Red,Allies,F-15C,Red F-15C #003,xu,=CNF=307(女生）,0,0,0,8.94999980926514,2.16128063201904,0,0,NaN,NaN,0,0.0139882274201861,NaN,0.999955096506279,0.00792979335358184,-0.00523596436271407,0,8.77695156295299,8.77695156295299,,,52.2799999713898,6.78871917724609,0.13795439039626,0.257600337699821
2011-06-01T04:34:06Z,1306902846,10C,56.3824435,27.2306433,8.95,0.6,-0.3,89.7,14609.82,117199.31,90,Air+FixedWing,Red,Allies,F-15C,Red F-15C #003,xu,=CNF=307(女生）,0.0078125,0,2.29523410572895e-05,8.94999980926514,2.1613941192627,0.0078125,0,NaN,NaN,0.199999998450727,0.0242283218322616,NaN,0.999911909783346,0.0120648302395049,-0.00573462215211277,3.0517578125e-06,8.77695156295299,8.77695461471081,,,53.2799999713898,6.78860569000244,0.148188600494909,0.267834561578052
2011-06-01T04:34:07Z,1306902847,10C,56.3824435,27.2306433,8.95,0.5,-0.3,89.7,14609.82,117199.32,90,Air+FixedWing,Red,Allies,F-15C,Red F-15C #003,xu,=CNF=307(女生）,0.0078125,0,2.29523410572895e-05,8.94999980926514,2.16136598587036,0.0078125,0,NaN,NaN,0,0.0139882274201861,NaN,0.999955096506279,0.00792979335358184,-0.00523596436271407,3.0517578125e-06,8.77695156295299,8.77695461471081,,,54.2799999713898,6.78863382339478,0.15103784969225,0.270683814678628
2011-06-01T04:34:08Z,1306902848,10C,56.3824435,27.2306434,8.95,0.5,-0.3,89.7,14609.82,117199.32,90,Air+FixedWing,Red,Allies,F-15C,Red F-15C #003,xu,=CNF=307(女生）,0,0,0,8.94999980926514,2.16130924224854,0,0,NaN,NaN,0,0.0395646845203054,NaN,0.999946406320606,0.0095230845211176,-0.00424016189822199,0,8.77695156295299,8.77695156295299,,,55.2799999713898,6.7886905670166,0.157664009894896,0.277309983929516
2011-06-01T04:34:09Z,1306902849,10C,56.3824435,27.2306434,8.95,0.5,-0.4,89.7,14609.83,117199.33,90,Air+FixedWing,Red,Allies,F-15C,Red F-15C #003,xu,=CNF=307(女生）,0.012506102026236,0,3.67416728324388e-05,8.94999980926514,2.16128730773926,0.012506102026236,0,NaN,NaN,0,0.0532655904281015,NaN,0.999937535729964,0.00713295646956717,-0.00897284475346377,7.82012939453125e-06,8.77695156295299,8.77695938308239,,,56.2799999713898,6.78871250152588,0.159771225316873,0.279417202315541
2011-06-01T04:34:10Z,1306902850,10C,56.3824435,27.2306434,8.95,0.5,-0.4,89.7,14609.82,117199.32,90,Air+FixedWing,Red,Allies,F-15C,Red F-15C #003,xu,=CNF=307(女生）,0.012506102026236,0,3.67416728324388e-05,8.94999980926514,2.16133737564087,0.012506102026236,0,NaN,NaN,0,0.0197823405926261,NaN,0.999937534791598,0.0103196906468143,-0.00498967646429966,7.82012939453125e-06,8.77695156295299,8.77695938308239,,,57.2799999713898,6.78866243362427,0.164207450306554,0.283853433225317
2011-06-01T04:34:11Z,1306902851,10C,56.3824436,27.2306434,8.95,0.5,-0.4,89.7,14609.83,117199.33,90,Air+FixedWing,Red,Allies,F-15C,Red F-15C #003,xu,=CNF=307(女生）,0.012506102026236,0,3.67416728324388e-05,8.94999980926514,2.16130113601685,0.012506102026236,0,NaN,NaN,0,0.0197823405926261,NaN,0.999944487519037,0.00713301722397172,-0.00797705261152881,7.82012939453125e-06,8.77695156295299,8.77695938308239,,,58.2799999713898,6.78869867324829,0.172977133106251,0.292623127985267
2011-06-01T04:34:12Z,1306902852,10C,56.3824436,27.2306433,8.95,0.5,-0.4,89.7,14609.83,117199.32,90,Air+FixedWing,Red,Allies,F-15C,Red F-15C #003,xu,=CNF=307(女生）,0.0078125,0,2.29523410572895e-05,8.94999980926514,2.16139364242554,0.0078125,0,NaN,NaN,0.0874810628895233,0.0197823405926261,NaN,0.999930583237116,0.009522946348098,-0.00698126067852565,3.0517578125e-06,8.77695156295299,8.77695461471081,,,59.2799999713898,6.7886061668396,0.181143112815989,0.300789119533914
2011-06-01T04:34:13Z,1306902853,10C,56.3824436,27.2306434,8.95,0.5,-0.4,89.7,14609.83,117199.32,90,Air+FixedWing,Red,Allies,F-15C,Red F-15C #003,xu,=CNF=307(女生）,0,0,0,8.94999980926514,2.16136503219604,0,0,NaN,NaN,0,0.0197823405926261,NaN,0.999930583237116,0.009522946348098,-0.00698126067852565,0,8.77695156295299,8.77695156295299,,,60.2799999713898,6.78863477706909,0.183603648149904,0.303249658297833
2011-06-01T04:34:14Z,1306902854,10C,56.3824436,27.2306434,8.95,0.5,-0.4,89.7,14609.83,117199.33,90,Air+FixedWing,Red,Allies,F-15C,Red F-15C #003,xu,=CNF=307(女生）,0.0078125,0,2.29523410572895e-05,8.94999980926514,2.16130828857422,0.0078125,0,NaN,NaN,0,0.0197823405926261,NaN,0.999958391331774,0.00633645518846902,-0.00698126039994991,3.0517578125e-06,8.77695156295299,8.77695461471081,,,61.2799999713898,6.78869152069092,0.189000956829417,0.308646974901398
2011-06-01T04:34:15Z,1306902855,10C,56.3824436,27.2306433,8.95,0.5,-0.4,89.7,14609.83,117199.31,90,Air+FixedWing,Red,Allies,F-15C,Red F-15C #003,xu,=CNF=307(女生）,0.015625,0,4.5904682114579e-05,8.94999980926514,2.16142177581787,0.015625,0,NaN,NaN,0,0.0197823405926261,NaN,0.999916679189787,0.0111161919279125,-0.00698126081781352,1.220703125e-05,8.77695156295299,8.77696376998425,,,62.2799999713898,6.78857803344727,0.200132905614554,0.319778939239911
2011-06-01T04:34:16Z,1306902856,10C,56.3824436,27.2306433,8.95,0.5,-0.4,89.7,14609.83,117199.32,90,Air+FixedWing,Red,Allies,F-15C,Red F-15C #003,xu,=CNF=307(女生）,0.0078125,0,2.29523410572895e-05,8.94999980926514,2.16142177581787,0.0078125,0,NaN,NaN,0,0.0197823405926261,NaN,0.998966523845992,0.00234438190849492,-0.00796993312707329,3.0517578125e-06,8.77695156295299,8.77695461471081,,,63.2799999713898,6.78857803344727,0.200132905614554,0.319778939239911
2011-06-01T04:34:17Z,1306902857,10C,56.3824435,27.2306428,8.94,1.7,-0.4,89.7,14609.82,117199.27,89.9,Air+FixedWing,Red,Allies,F-15C,Red F-15C #003,xu,=CNF=307(女生）,0.0564455017302507,0,0.000165831201400152,8.9399995803833,2.15190601348877,0.0555525884895621,-0.0100002288818359,NaN,NaN,1.67618946713684,0.0197823405926261,NaN,1.00129770443503,0.0392312132233903,-0.00523846392457628,0.000159304733278987,8.76714468849659,8.76730399322987,,,64.2799999713898,6.78809356689453,0.251975517140011,0.372577315358866
2011-06-01T04:34:18Z,1306902858,10C,56.3824436,27.2306432,8.95,1.2,-0.4,89.7,14609.83,117199.3,90,Air+FixedWing,Red,Allies,F-15C,Red F-15C #003,xu,=CNF=307(女生）,0.0342335290224325,0,0.000100574673115839,8.94999980926514,2.16150712966919,0.0327403410434379,0.0100002288818359,NaN,NaN,0.752368175521942,0.0197823405926261,NaN,0.998805287933841,0.0172364285424225,-0.00796993340564904,5.85967254664865e-05,8.77695156295299,8.77701015967846,,,65.2799999713898,6.78849267959595,0.294799725114439,0.416553700717289
2011-06-01T04:34:19Z,1306902859,10C,56.3824436,27.2306431,8.95,1,-0.4,89.7,14609.83,117199.3,90,Air+FixedWing,Red,Allies,F-15C,Red F-15C #003,xu,=CNF=307(女生）,0,0,0,8.94999980926514,2.16162109375,0,0,NaN,NaN,0.0571394416056226,0.0197823405926261,NaN,0.998116979343107,0.0206092962299738,-0.00696973500594585,0,8.77695156295299,8.77695156295299,,,66.2799999713898,6.78837871551514,0.30405221017852,0.425806198895097
2011-06-01T04:34:20Z,1306902860,10C,56.3824436,27.2306434,8.93,0.1,-0.4,89.7,14609.83,117199.33,90,Air+FixedWing,Red,Allies,F-15C,Red F-15C #003,xu,=CNF=307(女生）,0.0351951093914806,0,0.000103399680895044,8.93380928039551,2.14506101608276,0.03125,-0.0161905288696289,NaN,NaN,0.257174604858404,0.0197823405926261,NaN,1.00226235736745,-0.000937483698096146,-0.00699719302673727,6.19347862539144e-05,8.76107407795906,8.76113601274531,,,67.2799999713898,6.78874826431274,0.338701023013583,0.464051157480152
2011-06-01T04:34:21Z,1306902861,10C,56.3824436,27.2306434,8.94,0.1,-0.4,89.7,14609.83,117199.33,90,Air+FixedWing,Red,Allies,F-15C,Red F-15C #003,xu,=CNF=307(女生）,0.00619029998779297,0,1.81864781521271e-05,8.9399995803833,2.15133666992188,0,0.00619029998779297,NaN,NaN,1.00955660084124,0.0197823405926261,NaN,0.99933733212261,0.00408499099395629,-0.00697685393324988,1.91599069694348e-06,8.76714468849659,8.76714660448729,,,68.2799999713898,6.78866291046143,0.345592247720291,0.473314468535381
2011-06-01T04:34:22Z,1306902862,10C,56.3824436,27.2306435,8.94,0.4,-0.4,89.7,14609.83,117199.34,90,Air+FixedWing,Red,Allies,F-15C,Red F-15C #003,xu,=CNF=307(女生）,0.015625,0,4.59046769441458e-05,8.9399995803833,2.15122270584106,0.015625,0,NaN,NaN,0.580948570044605,0.0197823405926261,NaN,0.999978463014416,0.0031642366498714,-0.00698126026066203,1.220703125e-05,8.76714468849659,8.76715689552784,,,69.2799999713898,6.78877687454224,0.356194104576198,0.483916340057767
2011-06-01T04:34:23Z,1306902863,10C,56.3824436,27.2306433,8.94,0.5,-0.4,89.7,14609.83,117199.32,90,Air+FixedWing,Red,Allies,F-15C,Red F-15C #003,xu,=CNF=307(女生）,0.0234375,0,6.88570154162187e-05,8.9399995803833,2.15142154693604,0.0234375,0,NaN,NaN,0.333313231496622,0.0197823405926261,NaN,0.999917399508325,0.0109013696064155,-0.00698126074816958,2.74658203125e-05,8.76714468849659,8.7671721543169,,,70.2799999713898,6.78857803344727,0.376337633306717,0.504059897293138
2011-06-01T04:34:24Z,1306902864,10C,56.3824436,27.2306433,8.94,0.6,-0.4,89.7,14609.83,117199.31,90,Air+FixedWing,Red,Allies,F-15C,Red F-15C #003,xu,=CNF=307(女生）,0.0078125,0,2.29523384720729e-05,8.9399995803833,2.15142154693604,0.0078125,0,NaN,NaN,0.133325292598649,0.0197823405926261,NaN,0.99991238478037,0.0112681385374486,-0.00698126067852565,3.0517578125e-06,8.76714468849659,8.7671477402544,,,71.2799999713898,6.78857803344727,0.376337633306717,0.504059897293138
2011-06-01T04:34:25Z,1306902865,10C,56.3824436,27.2306433,8.94,0.5,-0.4,89.7,14609.83,117199.31,90,Air+FixedWing,Red,Allies,F-15C,Red F-15C #003,xu,=CNF=307(女生）,0,0,0,8.9399995803833,2.15142154693604,0,0,NaN,NaN,0.0666626462993244,0.0197823405926261,NaN,0.99992896066554,0.00968925199568871,-0.00698126067852565,0,8.76714468849659,8.76714468849659,,,72.2799999713898,6.78857803344727,0.376337633306717,0.504059897293138
2011-06-01T04:34:26Z,1306902866,10C,56.3824436,27.2306433,8.94,0.6,-0.4,89.7,14609.83,117199.32,90,Air+FixedWing,Red,Allies,F-15C,Red F-15C #003,xu,=CNF=307(女生）,0.0078125,0,2.29523384720729e-05,8.9399995803833,2.15142154693604,0.0078125,0,NaN,NaN,0.199999998450727,0.0197823405926261,NaN,0.999929069541064,0.00967491991338566,-0.00698126053923778,3.0517578125e-06,8.76714468849659,8.7671477402544,,,73.2799999713898,6.78857803344727,0.376337633306717,0.504059897293138
2011-06-01T04:34:27Z,1306902867,10C,56.3824436,27.2306433,8.94,0.6,-0.4,89.7,14609.83,117199.32,90,Air+FixedWing,Red,Allies,F-15C,Red F-15C #003,xu,=CNF=307(女生）,0,0,0,8.9399995803833,2.15136480331421,0,0,NaN,NaN,0.104761761654773,0.0197823405926261,NaN,0.999929071607557,0.00964048192332795,-0.00698126060888171,0,8.76714468849659,8.76714468849659,,,74.2799999713898,6.78863477706909,0.38163856785534,0.509360839647844
2011-06-01T04:34:28Z,1306902868,10C,56.3824436,27.2306433,8.94,0.6,-0.4,89.7,14609.83,117199.32,90,Air+FixedWing,Red,Allies,F-15C,Red F-15C #003,xu,=CNF=307(女生）,0,0,0,8.9399995803833,2.15142154693604,0,0,NaN,NaN,0,0.0197823405926261,NaN,0.999920727160717,0.0104715292254171,-0.00698126060888171,0,8.76714468849659,8.76714468849659,,,75.2799999713898,6.78857803344727,0.38640085991412,0.51412313874378
2011-06-01T04:34:29Z,1306902869,10C,56.3824436,27.2306434,8.94,0.6,-0.4,89.7,14609.83,117199.32,90,Air+FixedWing,Red,Allies,F-15C,Red F-15C #003,xu,=CNF=307(女生）,0,0,0,8.9399995803833,2.15130805969238,0,0,NaN,NaN,0,0.0197823405926261,NaN,0.99991238478037,0.0112681385374486,-0.00698126067852565,0,8.76714468849659,8.76714468849659,,,76.2799999713898,6.78869152069092,0.396994166209415,0.524716459823521
2011-06-01T04:34:30Z,1306902870,10C,56.3824436,27.2306434,8.94,0.5,-0.4,89.7,14609.83,117199.33,90,Air+FixedWing,Red,Allies,F-15C,Red F-15C #003,xu,=CNF=307(女生）,0.0078125,0,2.29523384720729e-05,8.9399995803833,2.15130805969238,0.0078125,0,NaN,NaN,0.199987938897973,0.0197823405926261,NaN,0.999944487284445,0.00792970076828351,-0.00698126053923778,3.0517578125e-06,8.76714468849659,8.7671477402544,,,77.2799999713898,6.78869152069092,0.396994166209415,0.524716459823521
2011-06-01T04:34:31Z,1306902871,10C,56.3824436,27.2306434,8.94,0.5,-0.4,89.7,14609.83,117199.33,90,Air+FixedWing,Red,Allies,F-15C,Red F-15C #003,xu,=CNF=307(女生）,0,0,0,8.9399995803833,2.15130805969238,0,0,NaN,NaN,0,0.0197823405926261,NaN,0.999937535260781,0.00872632355819075,-0.00698126060888171,0,8.76714468849659,8.76714468849659,,,78.2799999713898,6.78869152069092,0.396994166209415,0.524716459823521
2011-06-01T04:34:32Z,1306902872,10C,56.3824436,27.2306434,8.94,0.5,-0.4,89.7,14609.83,117199.33,90,Air+FixedWing,Red,Allies,F-15C,Red F-15C #003,xu,=CNF=307(女生）,0,0,0,8.9399995803833,2.15130805969238,0,0,NaN,NaN,0,0.0197823405926261,NaN,0.999944487284445,0.00792970076828351,-0.00698126053923778,0,8.76714468849659,8.76714468849659,,,79.2799999713898,6.78869152069092,0.396994166209415,0.524716459823521
2011-06-01T04:34:33Z,1306902873,10C,56.3824436,27.2306434,8.94,0.5,-0.4,89.7,14609.83,117199.32,90,Air+FixedWing,Red,Allies,F-15C,Red F-15C #003,xu,=CNF=307(女生）,0.0078125,0,2.29523384720729e-05,8.9399995803833,2.15133666992188,0.0078125,0,NaN,NaN,0,0.0197823405926261,NaN,0.999930583237116,0.009522946348098,-0.00698126067852565,3.0517578125e-06,8.76714468849659,8.7671477402544,,,80.2799999713898,6.78866291046143,0.400174723224918,0.527897020683082
2011-06-01T04:34:34Z,1306902874,10C,56.3824436,27.2306434,8.94,0.5,-0.4,89.7,14609.83,117199.32,90,Air+FixedWing,Red,Allies,F-15C,Red F-15C #003,xu,=CNF=307(女生）,0,0,0,8.9399995803833,2.15130805969238,0,0,NaN,NaN,0,0.0197823405926261,NaN,0.999937535260781,0.00872632355819075,-0.00698126060888171,0,8.76714468849659,8.76714468849659,,,81.2799999713898,6.78869152069092,0.40335528024042,0.531077581542642
2011-06-01T04:34:35Z,1306902875,10C,56.3824436,27.2306433,8.94,0.5,-0.4,89.7,14609.83,117199.32,90,Air+FixedWing,Red,Allies,F-15C,Red F-15C #003,xu,=CNF=307(女生）,0,0,0,8.9399995803833,2.15136480331421,0,0,NaN,NaN,0,0.0197823405926261,NaN,0.999937535260781,0.00872632355819075,-0.00698126060888171,0,8.76714468849659,8.76714468849659,,,82.2799999713898,6.78863477706909,0.409716393857372,0.537438703793783
2011-06-01T04:34:36Z,1306902876,10C,56.3824436,27.2306434,8.94,0.5,-0.4,89.7,14609.83,117199.32,90,Air+FixedWing,Red,Allies,F-15C,Red F-15C #003,xu,=CNF=307(女生）,0,0,0,8.9399995803833,2.15130805969238,0,0,NaN,NaN,0,0.0197823405926261,NaN,0.999930583237116,0.009522946348098,-0.00698126067852565,0,8.76714468849659,8.76714468849659,,,83.2799999713898,6.78869152069092,0.416077507474324,0.543799826044924
2011-06-01T04:34:37Z,1306902877,10C,56.3824436,27.2306434,8.94,0.5,-0.4,89.7,14609.83,117199.33,90,Air+FixedWing,Red,Allies,F-15C,Red F-15C #003,xu,=CNF=307(女生）,0.0078125,0,2.29523384720729e-05,8.9399995803833,2.15130805969238,0.0078125,0,NaN,NaN,0,0.0197823405926261,NaN,0.999944487284445,0.00792970076828351,-0.00698126053923778,3.0517578125e-06,8.76714468849659,8.7671477402544,,,84.2799999713898,6.78869152069092,0.416077507474324,0.543799826044924
2011-06-01T04:34:38Z,1306902878,10C,56.3824436,27.2306434,8.94,0.5,-0.4,89.7,14609.83,117199.33,90,Air+FixedWing,Red,Allies,F-15C,Red F-15C #003,xu,=CNF=307(女生）,0,0,0,8.9399995803833,2.15130805969238,0,0,NaN,NaN,0,0.0197823405926261,NaN,0.999937535260781,0.00872632355819075,-0.00698126060888171,0,8.76714468849659,8.76714468849659,,,85.2799999713898,6.78869152069092,0.416077507474324,0.543799826044924
2011-06-01T04:34:39Z,1306902879,10C,56.3824436,27.2306434,8.94,0.5,-0.4,89.7,14609.83,117199.33,90,Air+FixedWing,Red,Allies,F-15C,Red F-15C #003,xu,=CNF=307(女生）,0,0,0,8.9399995803833,2.15130805969238,0,0,NaN,NaN,0,0.0197823405926261,NaN,0.999944487284445,0.00792970076828351,-0.00698126053923778,0,8.76714468849659,8.76714468849659,,,86.2799999713898,6.78869152069092,0.416077507474324,0.543799826044924
2011-06-01T04:34:40Z,1306902880,10C,56.3824436,27.2306434,8.94,0.5,-0.4,89.7,14609.83,117199.32,90,Air+FixedWing,Red,Allies,F-15C,Red F-15C #003,xu,=CNF=307(女生）,0.0078125,0,2.29523384720729e-05,8.9399995803833,2.15130805969238,0.0078125,0,NaN,NaN,0,0.0197823405926261,NaN,0.999930583237116,0.009522946348098,-0.00698126067852565,3.0517578125e-06,8.76714468849659,8.7671477402544,,,87.2799999713898,6.78869152069092,0.416077507474324,0.543799826044924
2011-06-01T04:34:41Z,1306902881,10C,56.3824436,27.2306434,8.94,0.5,-0.4,89.7,14609.83,117199.32,90,Air+FixedWing,Red,Allies,F-15C,Red F-15C #003,xu,=CNF=307(女生）,0,0,0,8.9399995803833,2.15130805969238,0,0,NaN,NaN,0,0.0197823405926261,NaN,0.999937535260781,0.00872632355819075,-0.00698126060888171,0,8.76714468849659,8.76714468849659,,,88.2799999713898,6.78869152069092,0.416077507474324,0.543799826044924
2011-06-01T04:34:42Z,1306902882,10C,56.3824436,27.2306434,8.94,0.5,-0.4,89.7,14609.83,117199.32,90,Air+FixedWing,Red,Allies,F-15C,Red F-15C #003,xu,=CNF=307(女生）,0,0,0,8.9399995803833,2.15130805969238,0,0,NaN,NaN,0,0.0197823405926261,NaN,0.999930583237116,0.009522946348098,-0.00698126067852565,0,8.76714468849659,8.76714468849659,,,89.2799999713898,6.78869152069092,0.416077507474324,0.543799826044924
2011-06-01T04:34:43Z,1306902883,10C,56.3824436,27.2306434,8.94,0.5,-0.4,89.7,14609.83,117199.33,90,Air+FixedWing,Red,Allies,F-15C,Red F-15C #003,xu,=CNF=307(女生）,0.0078125,0,2.29523384720729e-05,8.9399995803833,2.15130805969238,0.0078125,0,NaN,NaN,0,0.0197823405926261,NaN,0.999944487284445,0.00792970076828351,-0.00698126053923778,3.0517578125e-06,8.76714468849659,8.7671477402544,,,90.2799999713898,6.78869152069092,0.416077507474324,0.543799826044924
2011-06-01T04:34:44Z,1306902884,10C,56.3824436,27.2306434,8.94,0.5,-0.4,89.7,14609.83,117199.33,90,Air+FixedWing,Red,Allies,F-15C,Red F-15C #003,xu,=CNF=307(女生）,0,0,0,8.9399995803833,2.15130805969238,0,0,NaN,NaN,0,0.0197823405926261,NaN,0.999937535260781,0.00872632355819075,-0.00698126060888171,0,8.76714468849659,8.76714468849659,,,91.2799999713898,6.78869152069092,0.416077507474324,0.543799826044924
2011-06-01T04:34:45Z,1306902885,10C,56.3824436,27.2306434,8.94,0.5,-0.4,89.7,14609.83,117199.33,90,Air+FixedWing,Red,Allies,F-15C,Red F-15C #003,xu,=CNF=307(女生）,0,0,0,8.9399995803833,2.15130805969238,0,0,NaN,NaN,0,0.0197823405926261,NaN,0.999944487284445,0.00792970076828351,-0.00698126053923778,0,8.76714468849659,8.76714468849659,,,92.2799999713898,6.78869152069092,0.416077507474324,0.543799826044924
2011-06-01T04:34:46Z,1306902886,10C,56.3824436,27.2306434,8.94,0.5,-0.4,89.7,14609.83,117199.32,90,Air+FixedWing,Red,Allies,F-15C,Red F-15C #003,xu,=CNF=307(女生）,0.0078125,0,2.29523384720729e-05,8.9399995803833,2.15130805969238,0.0078125,0,NaN,NaN,0,0.0197823405926261,NaN,0.999930583237116,0.009522946348098,-0.00698126067852565,3.0517578125e-06,8.76714468849659,8.7671477402544,,,93.2799999713898,6.78869152069092,0.416077507474324,0.543799826044924
2011-06-01T04:34:47Z,1306902887,10C,56.3824436,27.2306434,8.94,0.5,-0.4,89.7,14609.83,117199.32,90,Air+FixedWing,Red,Allies,F-15C,Red F-15C #003,xu,=CNF=307(女生）,0,0,0,8.9399995803833,2.15130805969238,0,0,NaN,NaN,0,0.0197823405926261,NaN,0.999930583237116,0.009522946348098,-0.00698126067852565,0,8.76714468849659,8.76714468849659,,,94.2799999713898,6.78869152069092,0.416077507474324,0.543799826044924
2011-06-01T04:34:48Z,1306902888,10C,56.3824436,27.2306434,8.94,0.5,-0.4,89.7,14609.83,117199.33,90,Air+FixedWing,Red,Allies,F-15C,Red F-15C #003,xu,=CNF=307(女生）,0.0078125,0,2.29523384720729e-05,8.9399995803833,2.15130805969238,0.0078125,0,NaN,NaN,0,0.0197823405926261,NaN,0.999944487284445,0.00792970076828351,-0.00698126053923778,3.0517578125e-06,8.76714468849659,8.7671477402544,,,95.2799999713898,6.78869152069092,0.416077507474324,0.543799826044924
2011-06-01T04:34:49Z,1306902889,10C,56.3824436,27.2306434,8.94,0.5,-0.4,89.7,14609.83,117199.33,90,Air+FixedWing,Red,Allies,F-15C,Red F-15C #003,xu,=CNF=307(女生）,0,0,0,8.9399995803833,2.15130805969238,0,0,NaN,NaN,0,0.0197823405926261,NaN,0.999944487284445,0.00792970076828351,-0.00698126053923778,0,8.76714468849659,8.76714468849659,,,96.2799999713898,6.78869152069092,0.416077507474324,0.543799826044924
2011-06-01T04:34:50Z,1306902890,10C,56.3824436,27.2306434,8.94,0.5,-0.4,89.7,14609.83,117199.32,90,Air+FixedWing,Red,Allies,F-15C,Red F-15C #003,xu,=CNF=307(女生）,0.0078125,0,2.29523384720729e-05,8.9399995803833,2.15130805969238,0.0078125,0,NaN,NaN,0,0.0197823405926261,NaN,0.999930583237116,0.009522946348098,-0.00698126067852565,3.0517578125e-06,8.76714468849659,8.7671477402544,,,97.2799999713898,6.78869152069092,0.416077507474324,0.543799826044924
2011-06-01T04:34:51Z,1306902891,10C,56.3824436,27.2306434,8.94,0.5,-0.4,89.7,14609.83,117199.32,90,Air+FixedWing,Red,Allies,F-15C,Red F-15C #003,xu,=CNF=307(女生）,0,0,0,8.9399995803833,2.15130805969238,0,0,NaN,NaN,0,0.0197823405926261,NaN,0.999930583237116,0.009522946348098,-0.00698126067852565,0,8.76714468849659,8.76714468849659,,,98.2799999713898,6.78869152069092,0.416077507474324,0.543799826044924
2011-06-01T04:34:52Z,1306902892,10C,56.3824436,27.2306434,8.94,0.5,-0.4,89.7,14609.83,117199.33,90,Air+FixedWing,Red,Allies,F-15C,Red F-15C #003,xu,=CNF=307(女生）,0.0078125,0,2.29523384720729e-05,8.9399995803833,2.15130805969238,0.0078125,0,NaN,NaN,0,0.0197823405926261,NaN,0.99995143930811,0.00713307797837626,-0.00698126046959384,3.0517578125e-06,8.76714468849659,8.7671477402544,,,99.2799999713898,6.78869152069092,0.416077507474324,0.543799826044924
2011-06-01T04:34:53Z,1306902893,10C,56.3824436,27.2306434,8.94,0.5,-0.4,89.7,14609.83,117199.32,90,Air+FixedWing,Red,Allies,F-15C,Red F-15C #003,xu,=CNF=307(女生）,0.0078125,0,2.29523384720729e-05,8.9399995803833,2.15130805969238,0.0078125,0,NaN,NaN,0,0.0197823405926261,NaN,0.999930583237116,0.009522946348098,-0.00698126067852565,3.0517578125e-06,8.76714468849659,8.7671477402544,,,100.27999997139,6.78869152069092,0.416077507474324,0.543799826044924
2011-06-01T04:34:54Z,1306902894,10C,56.3824436,27.2306434,8.94,0.5,-0.4,89.7,14609.83,117199.32,90,Air+FixedWing,Red,Allies,F-15C,Red F-15C #003,xu,=CNF=307(女生）,0,0,0,8.9399995803833,2.15130805969238,0,0,NaN,NaN,0,0.0197823405926261,NaN,0.999930583237116,0.009522946348098,-0.00698126067852565,0,8.76714468849659,8.76714468849659,,,101.27999997139,6.78869152069092,0.416077507474324,0.543799826044924
2011-06-01T04:34:55Z,1306902895,10C,56.3824436,27.2306434,8.94,0.5,-0.4,89.7,14609.83,117199.33,90,Air+FixedWing,Red,Allies,F-15C,Red F-15C #003,xu,=CNF=307(女生）,0.0078125,0,2.29523384720729e-05,8.9399995803833,2.15130805969238,0.0078125,0,NaN,NaN,0,0.0197823405926261,NaN,0.999944487284445,0.00792970076828351,-0.00698126053923778,3.0517578125e-06,8.76714468849659,8.7671477402544,,,102.27999997139,6.78869152069092,0.416077507474324,0.543799826044924
2011-06-01T04:34:56Z,1306902896,10C,56.3824436,27.2306434,8.94,0.5,-0.4,89.7,14609.83,117199.33,90,Air+FixedWing,Red,Allies,F-15C,Red F-15C #003,xu,=CNF=307(女生）,0,0,0,8.9399995803833,2.15130805969238,0,0,NaN,NaN,0,0.0197823405926261,NaN,0.999937535260781,0.00872632355819075,-0.00698126060888171,0,8.76714468849659,8.76714468849659,,,103.27999997139,6.78869152069092,0.416077507474324,0.543799826044924
2011-06-01T04:34:57Z,1306902897,10C,56.3824436,27.2306434,8.94,0.5,-0.4,89.7,14609.83,117199.33,90,Air+FixedWing,Red,Allies,F-15C,Red F-15C #003,xu,=CNF=307(女生）,0,0,0,8.9399995803833,2.15130805969238,0,0,NaN,NaN,0,0.0197823405926261,NaN,0.999944487284445,0.00792970076828351,-0.00698126053923778,0,8.76714468849659,8.76714468849659,,,104.27999997139,6.78869152069092,0.416077507474324,0.543799826044924
2011-06-01T04:34:58Z,1306902898,10C,56.3824436,27.2306434,8.94,0.5,-0.4,89.7,14609.83,117199.32,90,Air+FixedWing,Red,Allies,F-15C,Red F-15C #003,xu,=CNF=307(女生）,0.0078125,0,2.29523384720729e-05,8.9399995803833,2.15130805969238,0.0078125,0,NaN,NaN,0,0.0197823405926261,NaN,0.999930583237116,0.009522946348098,-0.00698126067852565,3.0517578125e-06,8.76714468849659,8.7671477402544,,,105.27999997139,6.78869152069092,0.416077507474324,0.543799826044924
2011-06-01T04:34:59Z,1306902899,10C,56.3824436,27.2306434,8.94,0.5,-0.4,89.7,14609.83,117199.32,90,Air+FixedWing,Red,Allies,F-15C,Red F-15C #003,xu,=CNF=307(女生）,0,0,0,8.9399995803833,2.15130805969238,0,0,NaN,NaN,0,0.0197823405926261,NaN,0.999937535260781,0.00872632355819075,-0.00698126060888171,0,8.76714468849659,8.76714468849659,,,106.27999997139,6.78869152069092,0.416077507474324,0.543799826044924
2011-06-01T04:35:00Z,1306902900,10C,56.3824436,27.2306434,8.94,0.5,-0.4,89.7,14609.83,117199.32,90,Air+FixedWing,Red,Allies,F-15C,Red F-15C #003,xu,=CNF=307(女生）,0,0,0,8.9399995803833,2.15130805969238,0,0,NaN,NaN,0,0.0197823405926261,NaN,0.999937535260781,0.00872632355819075,-0.00698126060888171,0,8.76714468849659,8.76714468849659,,,107.27999997139,6.78869152069092,0.416077507474324,0.543799826044924
2011-06-01T04:35:01Z,1306902901,10C,56.3824436,27.2306434,8.94,0.5,-0.4,89.7,14609.83,117199.32,90,Air+FixedWing,Red,Allies,F-15C,Red F-15C #003,xu,=CNF=307(女生）,0,0,0,8.9399995803833,2.15130805969238,0,0,NaN,NaN,0,0.0197823405926261,NaN,0.999937535260781,0.00872632355819075,-0.00698126060888171,0,8.76714468849659,8.76714468849659,,,108.27999997139,6.78869152069092,0.416077507474324,0.543799826044924
2011-06-01T04:35:02Z,1306902902,10C,56.3824436,27.2306434,8.94,0.5,-0.4,89.7,14609.83,117199.32,90,Air+FixedWing,Red,Allies,F-15C,Red F-15C #003,xu,=CNF=307(女生）,0,0,0,8.9399995803833,2.15130805969238,0,0,NaN,NaN,0,0.0197823405926261,NaN,0.999937535260781,0.00872632355819075,-0.00698126060888171,0,8.76714468849659,8.76714468849659,,,109.27999997139,6.78869152069092,0.416077507474324,0.543799826044924
2011-06-01T04:35:03Z,1306902903,10C,56.3824436,27.2306434,8.94,0.5,-0.4,89.7,14609.83,117199.32,90,Air+FixedWing,Red,Allies,F-15C,Red F-15C #003,xu,=CNF=307(女生）,0,0,0,8.9399995803833,2.15130805969238,0,0,NaN,NaN,0,0.0197823405926261,NaN,0.999930583237116,0.009522946348098,-0.00698126067852565,0,8.76714468849659,8.76714468849659,,,110.27999997139,6.78869152069092,0.416077507474324,0.543799826044924
2011-06-01T04:35:04Z,1306902904,10C,56.3824436,27.2306434,8.94,0.5,-0.4,89.7,14609.83,117199.33,90,Air+FixedWing,Red,Allies,F-15C,Red F-15C #003,xu,=CNF=307(女生）,0.0078125,0,2.29523384720729e-05,8.9399995803833,2.15130805969238,0.0078125,0,NaN,NaN,0,0.0197823405926261,NaN,0.999944487284445,0.00792970076828351,-0.00698126053923778,3.0517578125e-06,8.76714468849659,8.7671477402544,,,111.27999997139,6.78869152069092,0.416077507474324,0.543799826044924
2011-06-01T04:35:05Z,1306902905,10C,56.3824436,27.2306434,8.94,0.5,-0.4,89.7,14609.83,117199.33,90,Air+FixedWing,Red,Allies,F-15C,Red F-15C #003,xu,=CNF=307(女生）,0,0,0,8.9399995803833,2.15130805969238,0,0,NaN,NaN,0,0.0197823405926261,NaN,0.999937535260781,0.00872632355819075,-0.00698126060888171,0,8.76714468849659,8.76714468849659,,,112.27999997139,6.78869152069092,0.416077507474324,0.543799826044924
2011-06-01T04:35:06Z,1306902906,10C,56.3824436,27.2306434,8.94,0.5,-0.4,89.7,14609.83,117199.33,90,Air+FixedWing,Red,Allies,F-15C,Red F-15C #003,xu,=CNF=307(女生）,0,0,0,8.9399995803833,2.15130805969238,0,0,NaN,NaN,0,0.0197823405926261,NaN,0.999937535260781,0.00872632355819075,-0.00698126060888171,0,8.76714468849659,8.76714468849659,,,113.27999997139,6.78869152069092,0.416077507474324,0.543799826044924
2011-06-01T04:35:07Z,1306902907,10C,56.3824436,27.2306434,8.94,0.5,-0.4,89.7,14609.83,117199.33,90,Air+FixedWing,Red,Allies,F-15C,Red F-15C #003,xu,=CNF=307(女生）,0,0,0,8.9399995803833,2.15130805969238,0,0,NaN,NaN,0,0.0197823405926261,NaN,0.999937535260781,0.00872632355819075,-0.00698126060888171,0,8.76714468849659,8.76714468849659,,,114.27999997139,6.78869152069092,0.416077507474324,0.543799826044924
2011-06-01T04:35:08Z,1306902908,10C,56.3824436,27.2306434,8.94,0.5,-0.4,89.7,14609.83,117199.33,90,Air+FixedWing,Red,Allies,F-15C,Red F-15C #003,xu,=CNF=307(女生）,0,0,0,8.9399995803833,2.15130805969238,0,0,NaN,NaN,0,0.0197823405926261,NaN,0.999937535260781,0.00872632355819075,-0.00698126060888171,0,8.76714468849659,8.76714468849659,,,115.27999997139,6.78869152069092,0.416077507474324,0.543799826044924
2011-06-01T04:35:09Z,1306902909,10C,56.3824436,27.2306434,8.94,0.5,-0.4,89.7,14609.83,117199.33,90,Air+FixedWing,Red,Allies,F-15C,Red F-15C #003,xu,=CNF=307(女生）,0,0,0,8.9399995803833,2.15130805969238,0,0,NaN,NaN,0,0.0197823405926261,NaN,0.999944487284445,0.00792970076828351,-0.00698126053923778,0,8.76714468849659,8.76714468849659,,,116.27999997139,6.78869152069092,0.416077507474324,0.543799826044924
2011-06-01T04:35:10Z,1306902910,10C,56.3824436,27.2306434,8.94,0.5,-0.4,89.7,14609.83,117199.32,90,Air+FixedWing,Red,Allies,F-15C,Red F-15C #003,xu,=CNF=307(女生）,0.0078125,0,2.29523384720729e-05,8.9399995803833,2.15130805969238,0.0078125,0,NaN,NaN,0,0.0197823405926261,NaN,0.999930583237116,0.009522946348098,-0.00698126067852565,3.0517578125e-06,8.76714468849659,8.7671477402544,,,117.27999997139,6.78869152069092,0.416077507474324,0.543799826044924
2011-06-01T04:35:11Z,1306902911,10C,56.3824436,27.2306434,8.94,0.5,-0.4,89.7,14609.83,117199.32,90,Air+FixedWing,Red,Allies,F-15C,Red F-15C #003,xu,=CNF=307(女生）,0,0,0,8.9399995803833,2.15130805969238,0,0,NaN,NaN,0,0.0197823405926261,NaN,0.999937535260781,0.00872632355819075,-0.00698126060888171,0,8.76714468849659,8.76714468849659,,,118.27999997139,6.78869152069092,0.416077507474324,0.543799826044924
2011-06-01T04:35:12Z,1306902912,10C,56.3824436,27.2306434,8.94,0.5,-0.4,89.7,14609.83,117199.32,90,Air+FixedWing,Red,Allies,F-15C,Red F-15C #003,xu,=CNF=307(女生）,0,0,0,8.9399995803833,2.15130805969238,0,0,NaN,NaN,0,0.0197823405926261,NaN,0.999930583237116,0.009522946348098,-0.00698126067852565,0,8.76714468849659,8.76714468849659,,,119.27999997139,6.78869152069092,0.416077507474324,0.543799826044924
2011-06-01T04:35:13Z,1306902913,10C,56.3824436,27.2306434,8.94,0.5,-0.4,89.7,14609.83,117199.33,90,Air+FixedWing,Red,Allies,F-15C,Red F-15C #003,xu,=CNF=307(女生）,0.0078125,0,2.29523384720729e-05,8.9399995803833,2.15130805969238,0.0078125,0,NaN,NaN,0,0.0197823405926261,NaN,0.999944487284445,0.00792970076828351,-0.00698126053923778,3.0517578125e-06,8.76714468849659,8.7671477402544,,,120.27999997139,6.78869152069092,0.416077507474324,0.543799826044924
2011-06-01T04:35:14Z,1306902914,10C,56.3824436,27.2306434,8.94,0.5,-0.4,89.7,14609.83,117199.33,90,Air+FixedWing,Red,Allies,F-15C,Red F-15C #003,xu,=CNF=307(女生）,0,0,0,8.9399995803833,2.15130805969238,0,0,NaN,NaN,0,0.0197823405926261,NaN,0.999944487284445,0.00792970076828351,-0.00698126053923778,0,8.76714468849659,8.76714468849659,,,121.27999997139,6.78869152069092,0.416077507474324,0.543799826044924
2011-06-01T04:35:15Z,1306902915,10C,56.3824436,27.2306434,8.94,0.5,-0.4,89.7,14609.83,117199.32,90,Air+FixedWing,Red,Allies,F-15C,Red F-15C #003,xu,=CNF=307(女生）,0.0078125,0,2.29523384720729e-05,8.9399995803833,2.15130805969238,0.0078125,0,NaN,NaN,0,0.0197823405926261,NaN,0.999930583237116,0.009522946348098,-0.00698126067852565,3.0517578125e-06,8.76714468849659,8.7671477402544,,,122.27999997139,6.78869152069092,0.416077507474324,0.543799826044924
2011-06-01T04:35:16Z,1306902916,10C,56.3824436,27.2306434,8.94,0.5,-0.4,89.7,14609.83,117199.32,90,Air+FixedWing,Red,Allies,F-15C,Red F-15C #003,xu,=CNF=307(女生）,0,0,0,8.9399995803833,2.15130805969238,0,0,NaN,NaN,0,0.0197823405926261,NaN,0.999930583237116,0.009522946348098,-0.00698126067852565,0,8.76714468849659,8.76714468849659,,,123.27999997139,6.78869152069092,0.416077507474324,0.543799826044924
2011-06-01T04:35:17Z,1306902917,10C,56.3824436,27.2306434,8.94,0.5,-0.4,89.7,14609.83,117199.33,90,Air+FixedWing,Red,Allies,F-15C,Red F-15C #003,xu,=CNF=307(女生）,0.0078125,0,2.29523384720729e-05,8.9399995803833,2.15130805969238,0.0078125,0,NaN,NaN,0,0.0197823405926261,NaN,0.999944487284445,0.00792970076828351,-0.00698126053923778,3.0517578125e-06,8.76714468849659,8.7671477402544,,,124.27999997139,6.78869152069092,0.416077507474324,0.543799826044924
2011-06-01T04:35:18Z,1306902918,10C,56.3824436,27.2306434,8.94,0.5,-0.4,89.7,14609.83,117199.33,90,Air+FixedWing,Red,Allies,F-15C,Red F-15C #003,xu,=CNF=307(女生）,0,0,0,8.9399995803833,2.15130805969238,0,0,NaN,NaN,0,0.0197823405926261,NaN,0.999937535260781,0.00872632355819075,-0.00698126060888171,0,8.76714468849659,8.76714468849659,,,125.27999997139,6.78869152069092,0.416077507474324,0.543799826044924
2011-06-01T04:35:19Z,1306902919,10C,56.3824436,27.2306434,8.94,0.5,-0.4,89.7,14609.83,117199.33,90,Air+FixedWing,Red,Allies,F-15C,Red F-15C #003,xu,=CNF=307(女生）,0,0,0,8.9399995803833,2.15130805969238,0,0,NaN,NaN,0,0.0197823405926261,NaN,0.999944487284445,0.00792970076828351,-0.00698126053923778,0,8.76714468849659,8.76714468849659,,,126.27999997139,6.78869152069092,0.416077507474324,0.543799826044924
2011-06-01T04:35:20Z,1306902920,10C,56.3824436,27.2306434,8.94,0.5,-0.4,89.7,14609.83,117199.32,90,Air+FixedWing,Red,Allies,F-15C,Red F-15C #003,xu,=CNF=307(女生）,0.0078125,0,2.29523384720729e-05,8.9399995803833,2.15130805969238,0.0078125,0,NaN,NaN,0,0.0197823405926261,NaN,0.999930583237116,0.009522946348098,-0.00698126067852565,3.0517578125e-06,8.76714468849659,8.7671477402544,,,127.27999997139,6.78869152069092,0.416077507474324,0.543799826044924
2011-06-01T04:35:21Z,1306902921,10C,56.3824436,27.2306434,8.94,0.5,-0.4,89.7,14609.83,117199.32,90,Air+FixedWing,Red,Allies,F-15C,Red F-15C #003,xu,=CNF=307(女生）,0,0,0,8.9399995803833,2.15130805969238,0,0,NaN,NaN,0,0.0197823405926261,NaN,0.999937535260781,0.00872632355819075,-0.00698126060888171,0,8.76714468849659,8.76714468849659,,,128.27999997139,6.78869152069092,0.416077507474324,0.543799826044924
2011-06-01T04:35:22Z,1306902922,10C,56.3824436,27.2306434,8.94,0.5,-0.4,89.7,14609.83,117199.32,90,Air+FixedWing,Red,Allies,F-15C,Red F-15C #003,xu,=CNF=307(女生）,0,0,0,8.9399995803833,2.15130805969238,0,0,NaN,NaN,0,0.0197823405926261,NaN,0.999930583237116,0.009522946348098,-0.00698126067852565,0,8.76714468849659,8.76714468849659,,,129.27999997139,6.78869152069092,0.416077507474324,0.543799826044924
2011-06-01T04:35:23Z,1306902923,10C,56.3824436,27.2306434,8.94,0.5,-0.4,89.7,14609.83,117199.33,90,Air+FixedWing,Red,Allies,F-15C,Red F-15C #003,xu,=CNF=307(女生）,0.0078125,0,2.29523384720729e-05,8.9399995803833,2.15130805969238,0.0078125,0,NaN,NaN,0,0.0197823405926261,NaN,0.999944487284445,0.00792970076828351,-0.00698126053923778,3.0517578125e-06,8.76714468849659,8.7671477402544,,,130.27999997139,6.78869152069092,0.416077507474324,0.543799826044924
2011-06-01T04:35:24Z,1306902924,10C,56.3824436,27.2306434,8.94,0.5,-0.4,89.7,14609.83,117199.33,90,Air+FixedWing,Red,Allies,F-15C,Red F-15C #003,xu,=CNF=307(女生）,0,0,0,8.9399995803833,2.15130805969238,0,0,NaN,NaN,0,0.0197823405926261,NaN,0.999944487284445,0.00792970076828351,-0.00698126053923778,0,8.76714468849659,8.76714468849659,,,131.27999997139,6.78869152069092,0.416077507474324,0.543799826044924
2011-06-01T04:35:25Z,1306902925,10C,56.3824436,27.2306434,8.94,0.5,-0.4,89.7,14609.83,117199.32,90,Air+FixedWing,Red,Allies,F-15C,Red F-15C #003,xu,=CNF=307(女生）,0.0078125,0,2.29523384720729e-05,8.9399995803833,2.15130805969238,0.0078125,0,NaN,NaN,0,0.0197823405926261,NaN,0.999923631213452,0.0103195691380052,-0.00698126074816958,3.0517578125e-06,8.76714468849659,8.7671477402544,,,132.27999997139,6.78869152069092,0.416077507474324,0.543799826044924
2011-06-01T04:35:26Z,1306902926,10C,56.3824436,27.2306434,8.94,0.5,-0.4,89.7,14609.83,117199.33,90,Air+FixedWing,Red,Allies,F-15C,Red F-15C #003,xu,=CNF=307(女生）,0.0078125,0,2.29523384720729e-05,8.9399995803833,2.15130805969238,0.0078125,0,NaN,NaN,0,0.0197823405926261,NaN,0.999944487284445,0.00792970076828351,-0.00698126053923778,3.0517578125e-06,8.76714468849659,8.7671477402544,,,133.27999997139,6.78869152069092,0.416077507474324,0.543799826044924
2011-06-01T04:35:27Z,1306902927,10C,56.3824436,27.2306434,8.94,0.5,-0.4,89.7,14609.83,117199.33,90,Air+FixedWing,Red,Allies,F-15C,Red F-15C #003,xu,=CNF=307(女生）,0,0,0,8.9399995803833,2.15130805969238,0,0,NaN,NaN,0,0.0197823405926261,NaN,0.999937535260781,0.00872632355819075,-0.00698126060888171,0,8.76714468849659,8.76714468849659,,,134.27999997139,6.78869152069092,0.416077507474324,0.543799826044924
2011-06-01T04:35:28Z,1306902928,10C,56.3824436,27.2306434,8.94,0.5,-0.4,89.7,14609.83,117199.33,90,Air+FixedWing,Red,Allies,F-15C,Red F-15C #003,xu,=CNF=307(女生）,0,0,0,8.9399995803833,2.15130805969238,0,0,NaN,NaN,0,0.0197823405926261,NaN,0.999944487284445,0.00792970076828351,-0.00698126053923778,0,8.76714468849659,8.76714468849659,,,135.27999997139,6.78869152069092,0.416077507474324,0.543799826044924
2011-06-01T04:35:29Z,1306902929,10C,56.3824436,27.2306434,8.94,0.5,-0.4,89.7,14609.83,117199.32,90,Air+FixedWing,Red,Allies,F-15C,Red F-15C #003,xu,=CNF=307(女生）,0.0078125,0,2.29523384720729e-05,8.9399995803833,2.15130805969238,0.0078125,0,NaN,NaN,0,0.0197823405926261,NaN,0.999930583237116,0.009522946348098,-0.00698126067852565,3.0517578125e-06,8.76714468849659,8.7671477402544,,,136.27999997139,6.78869152069092,0.416077507474324,0.543799826044924
