ISOTime,UnixTime,Id,Longitude,Latitude,Altitude,Roll,Pitch,Yaw,U,V,Heading,Type,Color,Coalition,Name,Group,Country,Pilot,TAS,CAS,M,ASL,AGL,GS,VS,AOA,AOS,RRT,TRT,TRD,G,LatG,LonG,Ek,Ep,Em,FFW,FFV,RelativeTime,Elev,GroundDistance,AirDistance
2011-06-01T04:35:20Z,1306902920,10E,56.3843454,27.233566,9.2,-0.1,0.9,265.4,14799.73,117522.13,265.7,Air+FixedWing,Red,Allies,J-11A,Red J-11A #001,xu,=CNF=707（七夕）,0.140247184614451,0,0.000412033337638859,9.20476150512695,2.20476150512695,NaN,NaN,NaN,NaN,0.485708412257947,NaN,NaN,NaN,NaN,NaN,NaN,9.02678744142532,NaN,,,0.940000057220459,7,NaN,NaN
2011-06-01T04:35:21Z,1306902921,10E,56.3843448,27.2335661,9.24,0,0,265.4,14799.67,117522.13,265.7,Air+FixedWing,Red,Allies,J-11A,Red J-11A #001,xu,=CNF=707（七夕）,0.0702952668747708,0,0.000206521115993927,9.24047565460205,2.24047565460205,0.060546875,0.0357141494750977,NaN,NaN,0.161902804085982,0.13380539353232,NaN,0.994270099873986,0.000620323339905096,-0.0071496957094949,0.000247071227249762,9.06181105782032,9.06205812904757,,,1.94000005722046,7,0.0613488227847804,0.0709872480412516
2011-06-01T04:35:22Z,1306902922,10E,56.3843449,27.2335661,9.22,-0.1,-0.1,265.4,14799.68,117522.13,265.7,Air+FixedWing,Red,Allies,J-11A,Red J-11A #001,xu,=CNF=707（七夕）,0.022684993451952,0,6.66464371196525e-05,9.22000026702881,2.22000026702881,0.009765625,-0.0204753875732422,NaN,NaN,0.199987938897973,0.0261695779877396,NaN,1.0024257642644,-0.00182412453993233,-0.00125650559795611,2.57304463957553e-05,9.04173156186581,9.0417572923122,,,2.94000005722046,7,0.06889012291244,0.0928072589114678
2011-06-01T04:35:23Z,1306902923,10E,56.3843449,27.2335661,9.22,-0.2,-0.1,265.4,14799.68,117522.13,265.7,Air+FixedWing,Red,Allies,J-11A,Red J-11A #001,xu,=CNF=707（七夕）,0.00333309173583984,0,9.79231920858049e-06,9.22333335876465,2.22333335876465,0,0.00333309173583984,NaN,NaN,0.199987938897973,0.100384470840548,NaN,1.00033357403886,-0.00355882561138578,-0.000852210936197868,5.55475025976193e-07,9.04500020827293,9.04500076374796,,,3.94000005722046,7,0.0717181100725236,0.097178418229514
2011-06-01T04:35:24Z,1306902924,10E,56.3843448,27.2335661,9.23,-0.2,-0.1,265.4,14799.67,117522.13,265.7,Air+FixedWing,Red,Allies,J-11A,Red J-11A #001,xu,=CNF=707（七夕）,0.0110311206006916,0,3.24084276166967e-05,9.22999954223633,2.22999954223633,0.0087890625,0.00666618347167969,NaN,NaN,0,0.0139882274201861,NaN,0.999309963766946,-0.00335365558898439,-0.00353156339830561,6.08428108535009e-06,9.05153750108719,9.05154358536827,,,4.94000005722046,7,0.0816160649389218,0.109111891889915
2011-06-01T04:35:25Z,1306902925,10E,56.3843449,27.2335661,9.23,-0.2,-0.1,265.4,14799.68,117522.13,265.7,Air+FixedWing,Red,Allies,J-11A,Red J-11A #001,xu,=CNF=707（七夕）,0.0087890625,0,2.58214651222303e-05,9.22999954223633,2.22999954223633,0.0087890625,0,NaN,NaN,0,0.0139882274201861,NaN,0.999993695873698,-0.00355763927945936,-0.000851617732682256,3.86238098144531e-06,9.05153750108719,9.05154136346817,,,5.94000005722046,7,0.09151401980532,0.119009860963604
2011-06-01T04:35:26Z,1306902926,10E,56.3843449,27.2335661,9.23,-0.3,-0.1,265.5,14799.68,117522.13,265.7,Air+FixedWing,Red,Allies,J-11A,Red J-11A #001,xu,=CNF=707（七夕）,0,0,0,9.22999954223633,2.22999954223633,0,0,NaN,NaN,0.200042580411333,0.0139882274201861,NaN,0.999977582654323,-0.00523607979934624,-0.00174531603333632,0,9.05153750108719,9.05153750108719,,,6.94000005722046,7,0.09151401980532,0.119009860963604
2011-06-01T04:35:27Z,1306902927,10E,56.3843449,27.2335661,9.23,-0.3,-0.1,265.4,14799.68,117522.13,265.7,Air+FixedWing,Red,Allies,J-11A,Red J-11A #001,xu,=CNF=707（七夕）,6.96182250976562e-05,0,2.04532004388538e-07,9.22992992401123,2.22992992401123,0,-6.96182250976562e-05,NaN,NaN,0,0.0139882274201861,NaN,0.999962314999401,-0.00523599985489277,-0.00174528938585364,2.42334863287397e-10,9.05146922893047,9.05146922917281,,,7.94000005722046,7,0.09151401980532,0.119079479446433
2011-06-01T04:35:28Z,1306902928,10E,56.3843449,27.2335661,9.23,-0.3,-0.1,265.4,14799.68,117522.13,265.7,Air+FixedWing,Red,Allies,J-11A,Red J-11A #001,xu,=CNF=707（七夕）,0.000288963317871094,0,8.48947905863359e-07,9.22964096069336,2.22964096069336,0,-0.000288963317871094,NaN,NaN,0,0.0139882274201861,NaN,0.99998468162763,-0.00523611697097109,-0.00174532842356712,4.17498995375354e-09,9.05118585271835,9.05118585689334,,,8.94000005722046,7,0.09151401980532,0.119368442388881
2011-06-01T04:35:29Z,1306902929,10E,56.3843449,27.2335661,9.23,-0.3,-0.1,265.4,14799.68,117522.13,265.7,Air+FixedWing,Red,Allies,J-11A,Red J-11A #001,xu,=CNF=707（七夕）,0.000288963317871094,0,8.48947903100323e-07,9.22935199737549,2.22935199737549,0,-0.000288963317871094,NaN,NaN,0,0.0139882274201861,NaN,0.999984584381421,-0.00523611646177075,-0.00174532825383793,4.17498995375354e-09,9.05090247650623,9.05090248068122,,,9.94000005722046,7,0.09151401980532,0.119657405807837
2011-06-01T04:35:30Z,1306902930,10E,56.3843449,27.2335661,9.23,-0.3,-0.1,265.4,14799.68,117522.13,265.7,Air+FixedWing,Red,Allies,J-11A,Red J-11A #001,xu,=CNF=707（七夕）,0.0002899169921875,0,8.51749708580076e-07,9.2290620803833,2.2290620803833,0,-0.0002899169921875,NaN,NaN,0,0.0139882274201861,NaN,0.99998477887384,-0.00523611748017143,-0.00174532859329631,4.20259311795235e-09,9.05061816505909,9.05061816926168,,,10.9400000572205,7,0.09151401980532,0.119947322655874
2011-06-01T04:35:31Z,1306902931,10E,56.3843449,27.2335661,9.23,-0.3,-0.1,265.4,14799.68,117522.13,265.7,Air+FixedWing,Red,Allies,J-11A,Red J-11A #001,xu,=CNF=707（七夕）,0.000288963317871094,0,8.48947897565132e-07,9.22877311706543,2.22877311706543,0,-0.000288963317871094,NaN,NaN,0,0.0139882274201861,NaN,0.99998468162763,-0.00523611697097109,-0.00174532842356712,4.17498995375354e-09,9.05033478884697,9.05033479302196,,,11.9400000572205,7,0.09151401980532,0.120236286287925
2011-06-01T04:35:32Z,1306902932,10E,56.3843449,27.2335661,9.23,-0.3,-0.1,265.4,14799.68,117522.13,265.7,Air+FixedWing,Red,Allies,J-11A,Red J-11A #001,xu,=CNF=707（七夕）,0.000288963317871094,0,8.48947894802096e-07,9.22848415374756,2.22848415374756,0,-0.000288963317871094,NaN,NaN,0,0.0139882274201861,NaN,0.999984584381421,-0.00523611646177075,-0.00174532825383793,4.17498995375354e-09,9.05005141263485,9.05005141680984,,,12.9400000572205,7,0.09151401980532,0.120525249690755
2011-06-01T04:35:33Z,1306902933,10E,56.3843449,27.2335661,9.23,-0.3,-0.1,265.4,14799.68,117522.13,265.7,Air+FixedWing,Red,Allies,J-11A,Red J-11A #001,xu,=CNF=707（七夕）,0.0002899169921875,0,8.51749700254462e-07,9.22819423675537,2.22819423675537,0,-0.0002899169921875,NaN,NaN,0,0.0139882274201861,NaN,0.99998477887384,-0.00523611748017143,-0.00174532859329631,4.20259311795235e-09,9.04976710118771,9.0497671053903,,,13.9400000572205,7,0.09151401980532,0.120815166554918
2011-06-01T04:35:34Z,1306902934,10E,56.3843449,27.2335661,9.23,-0.3,-0.1,265.4,14799.68,117522.13,265.7,Air+FixedWing,Red,Allies,J-11A,Red J-11A #001,xu,=CNF=707（七夕）,0.000288963317871094,0,8.48947889266905e-07,9.2279052734375,2.2279052734375,0,-0.000288963317871094,NaN,NaN,0,0.0139882274201861,NaN,0.99998468162763,-0.00523611697097109,-0.00174532842356712,4.17498995375354e-09,9.04948372497559,9.04948372915057,,,14.9400000572205,7,0.09151401980532,0.121104129957748
2011-06-01T04:35:35Z,1306902935,10E,56.3843449,27.2335661,9.23,-0.3,-0.1,265.4,14799.68,117522.13,265.7,Air+FixedWing,Red,Allies,J-11A,Red J-11A #001,xu,=CNF=707（七夕）,0.000288963317871094,0,8.48947886503869e-07,9.22761631011963,2.22761631011963,0,-0.000288963317871094,NaN,NaN,0,0.0139882274201861,NaN,0.99998468162763,-0.00523611697097109,-0.00174532842356712,4.17498995375354e-09,9.04920034876347,9.04920035293845,,,15.9400000572205,7,0.09151401980532,0.121393093589799
2011-06-01T04:35:36Z,1306902936,10E,56.3843449,27.2335661,9.23,-0.3,-0.1,265.4,14799.68,117522.13,265.7,Air+FixedWing,Red,Allies,J-11A,Red J-11A #001,xu,=CNF=707（七夕）,0.000288963317871094,0,8.48947883740833e-07,9.22732734680176,2.22732734680176,0,-0.000288963317871094,NaN,NaN,0,0.0139882274201861,NaN,0.999984584381421,-0.00523611646177075,-0.00174532825383793,4.17498995375354e-09,9.04891697255134,9.04891697672633,,,16.9400000572205,7,0.09151401980532,0.121682056319152
2011-06-01T04:35:37Z,1306902937,10E,56.3843449,27.2335661,9.23,-0.3,-0.1,265.4,14799.68,117522.13,265.7,Air+FixedWing,Red,Allies,J-11A,Red J-11A #001,xu,=CNF=707（七夕）,0.0002899169921875,0,8.51749689156693e-07,9.22703742980957,2.22703742980957,0,-0.0002899169921875,NaN,NaN,0,0.0139882274201861,NaN,0.99998477887384,-0.00523611748017143,-0.00174532859329631,4.20259311795235e-09,9.0486326611042,9.0486326653068,,,17.9400000572205,7,0.09151401980532,0.121971973167189
2011-06-01T04:35:38Z,1306902938,10E,56.3843449,27.2335661,9.23,-0.3,-0.1,265.4,14799.68,117522.13,265.7,Air+FixedWing,Red,Allies,J-11A,Red J-11A #001,xu,=CNF=707（七夕）,0.000288963317871094,0,8.48947878205642e-07,9.2267484664917,2.2267484664917,0,-0.000288963317871094,NaN,NaN,0,0.0139882274201861,NaN,0.99998468162763,-0.00523611697097109,-0.00174532842356712,4.17498995375354e-09,9.04834928489208,9.04834928906707,,,18.9400000572205,7,0.09151401980532,0.122260936570018
2011-06-01T04:35:39Z,1306902939,10E,56.3843449,27.2335661,9.23,-0.3,-0.1,265.4,14799.68,117522.13,265.7,Air+FixedWing,Red,Allies,J-11A,Red J-11A #001,xu,=CNF=707（七夕）,0.000288963317871094,0,8.48947875442606e-07,9.22645950317383,2.22645950317383,0,-0.000288963317871094,NaN,NaN,0,0.0139882274201861,NaN,0.999984584381421,-0.00523611646177075,-0.00174532825383793,4.17498995375354e-09,9.04806590867996,9.04806591285495,,,19.9400000572205,7,0.09151401980532,0.122549900202069
2011-06-01T04:35:40Z,1306902940,10E,56.3843449,27.2335661,9.23,-0.3,-0.1,265.4,14799.68,117522.13,265.7,Air+FixedWing,Red,Allies,J-11A,Red J-11A #001,xu,=CNF=707（七夕）,0.0002899169921875,0,8.5174968083108e-07,9.22616958618164,2.22616958618164,0,-0.0002899169921875,NaN,NaN,0,0.0139882274201861,NaN,0.99998477887384,-0.00523611748017143,-0.00174532859329631,4.20259311795235e-09,9.04778159723282,9.04778160143541,,,20.9400000572205,7,0.09151401980532,0.122839816837011
2011-06-01T04:35:41Z,1306902941,10E,56.3843449,27.2335661,9.23,-0.3,-0.1,265.4,14799.68,117522.13,265.7,Air+FixedWing,Red,Allies,J-11A,Red J-11A #001,xu,=CNF=707（七夕）,0.000288963317871094,0,8.48947869907416e-07,9.22588062286377,2.22588062286377,0,-0.000288963317871094,NaN,NaN,0,0.0139882274201861,NaN,0.99998468162763,-0.00523611697097109,-0.00174532842356712,4.17498995375354e-09,9.0474982210207,9.04749822519569,,,21.9400000572205,7,0.09151401980532,0.123128780469062
2011-06-01T04:35:42Z,1306902942,10E,56.3843449,27.2335661,9.23,-0.3,-0.1,265.4,14799.68,117522.13,265.7,Air+FixedWing,Red,Allies,J-11A,Red J-11A #001,xu,=CNF=707（七夕）,0.000288963317871094,0,8.4894786714438e-07,9.2255916595459,2.2255916595459,0,-0.000288963317871094,NaN,NaN,0,0.0139882274201861,NaN,0.999984584381421,-0.00523611646177075,-0.00174532825383793,4.17498995375354e-09,9.04721484480858,9.04721484898357,,,22.9400000572205,7,0.09151401980532,0.123417744101113
2011-06-01T04:35:43Z,1306902943,10E,56.3843449,27.2335661,9.23,-0.3,-0.1,265.4,14799.68,117522.13,265.7,Air+FixedWing,Red,Allies,J-11A,Red J-11A #001,xu,=CNF=707（七夕）,0.0002899169921875,0,8.51749672505467e-07,9.22530174255371,2.22530174255371,0,-0.0002899169921875,NaN,NaN,0,0.0139882274201861,NaN,0.99998477887384,-0.00523611748017143,-0.00174532859329631,4.20259311795235e-09,9.04693053336143,9.04693053756403,,,23.9400000572205,7,0.09151401980532,0.123707660259547
2011-06-01T04:35:44Z,1306902944,10E,56.3843449,27.2335661,9.23,-0.3,-0.1,265.4,14799.68,117522.13,265.7,Air+FixedWing,Red,Allies,J-11A,Red J-11A #001,xu,=CNF=707（七夕）,0.000288963317871094,0,8.48947861609189e-07,9.22501277923584,2.22501277923584,0,-0.000288963317871094,NaN,NaN,0,0.0139882274201861,NaN,0.99998468162763,-0.00523611697097109,-0.00174532842356712,4.17498995375354e-09,9.04664715714931,9.0466471613243,,,24.9400000572205,7,0.09151401980532,0.123996623678503
2011-06-01T04:35:45Z,1306902945,10E,56.3843449,27.2335661,9.22,-0.3,-0.1,265.4,14799.68,117522.13,265.7,Air+FixedWing,Red,Allies,J-11A,Red J-11A #001,xu,=CNF=707（七夕）,0.000288963317871094,0,8.48947858846154e-07,9.22472381591797,2.22472381591797,0,-0.000288963317871094,NaN,NaN,0,0.0139882274201861,NaN,0.99998468162763,-0.00523611697097109,-0.00174532842356712,4.17498995375354e-09,9.0463637809372,9.04636378511218,,,25.9400000572205,7,0.09151401980532,0.124285587081333
2011-06-01T04:35:46Z,1306902946,10E,56.3843449,27.2335661,9.22,-0.3,-0.1,265.4,14799.68,117522.13,265.7,Air+FixedWing,Red,Allies,J-11A,Red J-11A #001,xu,=CNF=707（七夕）,0.000288963317871094,0,8.48947856083118e-07,9.2244348526001,2.2244348526001,0,-0.000288963317871094,NaN,NaN,0,0.0139882274201861,NaN,0.999984584381421,-0.00523611646177075,-0.00174532825383793,4.17498995375354e-09,9.04608040472507,9.04608040890006,,,26.9400000572205,7,0.09151401980532,0.124574550713384
2011-06-01T04:35:47Z,1306902947,10E,56.3843449,27.2335661,9.22,-0.3,-0.1,265.4,14799.68,117522.13,265.7,Air+FixedWing,Red,Allies,J-11A,Red J-11A #001,xu,=CNF=707（七夕）,0.0002899169921875,0,8.51749661407699e-07,9.22414493560791,2.22414493560791,0,-0.0002899169921875,NaN,NaN,0,0.0139882274201861,NaN,0.99998477887384,-0.00523611748017143,-0.00174532859329631,4.20259311795235e-09,9.04579609327793,9.04579609748052,,,27.9400000572205,7,0.09151401980532,0.124864467561421
2011-06-01T04:35:48Z,1306902948,10E,56.3843449,27.2335661,9.22,-0.3,-0.1,265.4,14799.68,117522.13,265.7,Air+FixedWing,Red,Allies,J-11A,Red J-11A #001,xu,=CNF=707（七夕）,0.000288963317871094,0,8.48947850547928e-07,9.22385597229004,2.22385597229004,0,-0.000288963317871094,NaN,NaN,0,0.0139882274201861,NaN,0.99998468162763,-0.00523611697097109,-0.00174532842356712,4.17498995375354e-09,9.04551271706581,9.0455127212408,,,28.9400000572205,7,0.09151401980532,0.125153430980377
2011-06-01T04:35:49Z,1306902949,10E,56.3843449,27.2335661,9.22,-0.3,-0.1,265.4,14799.68,117522.13,265.7,Air+FixedWing,Red,Allies,J-11A,Red J-11A #001,xu,=CNF=707（七夕）,0.000288963317871094,0,8.48947847784892e-07,9.22356700897217,2.22356700897217,0,-0.000288963317871094,NaN,NaN,0,0.0139882274201861,NaN,0.999984584381421,-0.00523611646177075,-0.00174532825383793,4.17498995375354e-09,9.04522934085369,9.04522934502868,,,29.9400000572205,7,0.09151401980532,0.125442394612428
2011-06-01T04:35:50Z,1306902950,10E,56.3843449,27.2335661,9.22,-0.3,-0.1,265.4,14799.68,117522.13,265.7,Air+FixedWing,Red,Allies,J-11A,Red J-11A #001,xu,=CNF=707（七夕）,0.0002899169921875,0,8.51749653082087e-07,9.22327709197998,2.22327709197998,0,-0.0002899169921875,NaN,NaN,0,0.0139882274201861,NaN,0.99998477887384,-0.00523611748017143,-0.00174532859329631,4.20259311795235e-09,9.04494502940655,9.04494503360914,,,30.9400000572205,7,0.09151401980532,0.125732311460465
2011-06-01T04:35:51Z,1306902951,10E,56.3843449,27.2335661,9.22,-0.3,-0.1,265.4,14799.68,117522.13,265.7,Air+FixedWing,Red,Allies,J-11A,Red J-11A #001,xu,=CNF=707（七夕）,0.000288963317871094,0,8.48947842249702e-07,9.22298812866211,2.22298812866211,0,-0.000288963317871094,NaN,NaN,0,0.0139882274201861,NaN,0.99998468162763,-0.00523611697097109,-0.00174532842356712,4.17498995375354e-09,9.04466165319443,9.04466165736942,,,31.9400000572205,7,0.09151401980532,0.126021273960596
2011-06-01T04:35:52Z,1306902952,10E,56.3843449,27.2335661,9.22,-0.3,-0.1,265.4,14799.68,117522.13,265.7,Air+FixedWing,Red,Allies,J-11A,Red J-11A #001,xu,=CNF=707（七夕）,0.000288963317871094,0,8.48947839486667e-07,9.22269916534424,2.22269916534424,0,-0.000288963317871094,NaN,NaN,0,0.0139882274201861,NaN,0.999984584381421,-0.00523611646177075,-0.00174532825383793,4.17498995375354e-09,9.04437827698231,9.0443782811573,,,32.9400000572205,7,0.09151401980532,0.126310237592647
2011-06-01T04:35:53Z,1306902953,10E,56.3843449,27.2335661,9.22,-0.3,-0.1,265.4,14799.68,117522.13,265.7,Air+FixedWing,Red,Allies,J-11A,Red J-11A #001,xu,=CNF=707（七夕）,0.0002899169921875,0,8.51749644756474e-07,9.22240924835205,2.22240924835205,0,-0.0002899169921875,NaN,NaN,0,0.0139882274201861,NaN,0.99998477887384,-0.00523611748017143,-0.00174532859329631,4.20259311795235e-09,9.04409396553516,9.04409396973776,,,33.9400000572205,7,0.09151401980532,0.126600154440684
2011-06-01T04:35:54Z,1306902954,10E,56.3843449,27.2335661,9.22,-0.3,-0.1,265.4,14799.68,117522.13,265.7,Air+FixedWing,Red,Allies,J-11A,Red J-11A #001,xu,=CNF=707（七夕）,0.000288963317871094,0,8.48947833951477e-07,9.22212028503418,2.22212028503418,0,-0.000288963317871094,NaN,NaN,0,0.0139882274201861,NaN,0.99998468162763,-0.00523611697097109,-0.00174532842356712,4.17498995375354e-09,9.04381058932304,9.04381059349803,,,34.9400000572205,7,0.09151401980532,0.126889118072735
2011-06-01T04:35:55Z,1306902955,10E,56.3843449,27.2335661,9.22,-0.3,-0.1,265.4,14799.68,117522.13,265.7,Air+FixedWing,Red,Allies,J-11A,Red J-11A #001,xu,=CNF=707（七夕）,0.000288963317871094,0,8.48947831188441e-07,9.22183132171631,2.22183132171631,0,-0.000288963317871094,NaN,NaN,0,0.0139882274201861,NaN,0.99998468162763,-0.00523611697097109,-0.00174532842356712,4.17498995375354e-09,9.04352721311092,9.04352721728591,,,35.9400000572205,7,0.09151401980532,0.127178081491691
2011-06-01T04:35:56Z,1306902956,10E,56.3843449,27.2335661,9.22,-0.3,-0.1,265.4,14799.68,117522.13,265.7,Air+FixedWing,Red,Allies,J-11A,Red J-11A #001,xu,=CNF=707（七夕）,0.000288963317871094,0,8.48947828425406e-07,9.22154235839844,2.22154235839844,0,-0.000288963317871094,NaN,NaN,0,0.0139882274201861,NaN,0.999984584381421,-0.00523611646177075,-0.00174532825383793,4.17498995375354e-09,9.0432438368988,9.04324384107379,,,36.9400000572205,7,0.09151401980532,0.12746704489452
2011-06-01T04:35:57Z,1306902957,10E,56.3843449,27.2335661,9.22,-0.3,-0.1,265.4,14799.68,117522.13,265.7,Air+FixedWing,Red,Allies,J-11A,Red J-11A #001,xu,=CNF=707（七夕）,0.0002899169921875,0,8.51749633658708e-07,9.22125244140625,2.22125244140625,0,-0.0002899169921875,NaN,NaN,0,0.0139882274201861,NaN,0.99998477887384,-0.00523611748017143,-0.00174532859329631,4.20259311795235e-09,9.04295952545166,9.04295952965425,,,37.9400000572205,7,0.09151401980532,0.127756961971779
2011-06-01T04:35:58Z,1306902958,10E,56.3843449,27.2335661,9.22,-0.3,-0.1,265.4,14799.68,117522.13,265.7,Air+FixedWing,Red,Allies,J-11A,Red J-11A #001,xu,=CNF=707（七夕）,0.000288963317871094,0,8.48947822890216e-07,9.22096347808838,2.22096347808838,0,-0.000288963317871094,NaN,NaN,0,0.0139882274201861,NaN,0.99998468162763,-0.00523611697097109,-0.00174532842356712,4.17498995375354e-09,9.04267614923954,9.04267615341453,,,38.9400000572205,7,0.09151401980532,0.128045925161513
2011-06-01T04:35:59Z,1306902959,10E,56.3843449,27.2335661,9.22,-0.3,-0.1,265.4,14799.68,117522.13,265.7,Air+FixedWing,Red,Allies,J-11A,Red J-11A #001,xu,=CNF=707（七夕）,0.000288963317871094,0,8.48947820127181e-07,9.22067451477051,2.22067451477051,0,-0.000288963317871094,NaN,NaN,0,0.0139882274201861,NaN,0.999984584381421,-0.00523611646177075,-0.00174532825383793,4.17498995375354e-09,9.04239277302742,9.04239277720241,,,39.9400000572205,7,0.09151401980532,0.128334888103962
2011-06-01T04:36:00Z,1306902960,10E,56.3843449,27.2335661,9.22,-0.3,-0.1,265.4,14799.68,117522.13,265.7,Air+FixedWing,Red,Allies,J-11A,Red J-11A #001,xu,=CNF=707（七夕）,0.0002899169921875,0,8.51749625333096e-07,9.22038459777832,2.22038459777832,0,-0.0002899169921875,NaN,NaN,0,0.0139882274201861,NaN,0.99998477887384,-0.00523611748017143,-0.00174532859329631,4.20259311795235e-09,9.04210846158028,9.04210846578287,,,40.9400000572205,7,0.09151401980532,0.128624804951999
2011-06-01T04:36:01Z,1306902961,10E,56.3843449,27.2335661,9.22,-0.3,-0.1,265.4,14799.68,117522.13,265.7,Air+FixedWing,Red,Allies,J-11A,Red J-11A #001,xu,=CNF=707（七夕）,0.000288963317871094,0,8.48947814591991e-07,9.22009563446045,2.22009563446045,0,-0.000288963317871094,NaN,NaN,0,0.0431146153104601,NaN,1.00019741534991,-0.00517003133959372,-0.00263941251866781,4.17498995375354e-09,9.04182508536816,9.04182508954315,,,41.9400000572205,7,0.09151401980532,0.12891376858405
2011-06-01T04:36:02Z,1306902962,10E,56.3843449,27.2335661,9.22,-0.3,-0,265.4,14799.69,117522.13,265.7,Air+FixedWing,Red,Allies,J-11A,Red J-11A #001,xu,=CNF=707（七夕）,0.00897332354527344,0,2.63628048872663e-05,9.22190475463867,2.22190475463867,0.0087890625,0.00180912017822266,NaN,NaN,0,0.0139882274201861,NaN,1.0001635368164,-0.0053714525862248,0.00145492181832768,4.02602677240793e-06,9.04359922620773,9.0436032522345,,,42.9400000572205,7,0.09151401980532,0.130722889088111
2011-06-01T04:36:03Z,1306902963,10E,56.3843449,27.2335661,9.23,-0.3,-0.1,265.4,14799.68,117522.13,265.7,Air+FixedWing,Red,Allies,J-11A,Red J-11A #001,xu,=CNF=707（七夕）,0.00947877144091269,0,2.78477657467057e-05,9.22545433044434,2.22545433044434,0.0087890625,0.00354957580566406,NaN,NaN,0,0.0431146153104601,NaN,1.00008352236155,-0.00508730219362314,-0.00373152937836236,4.4923554014531e-06,9.04708017096519,9.04708466332059,,,43.9400000572205,7,0.09151401980532,0.134272464584045
2011-06-01T04:36:04Z,1306902964,10E,56.3843449,27.2335661,9.23,-0.3,-0.1,265.4,14799.69,117522.13,265.7,Air+FixedWing,Red,Allies,J-11A,Red J-11A #001,xu,=CNF=707（七夕）,0.0116641991803647,0,3.42683548233427e-05,9.22999954223633,2.22999954223633,0.0107421875,0.00454521179199219,NaN,NaN,0,0.0139882274201861,NaN,0.998504532423497,-0.00539263217733132,0.000441886249568673,6.80267712596105e-06,9.05153750108719,9.05154430376431,,,44.9400000572205,7,0.0962273261848483,0.140820309251841
2011-06-01T04:36:05Z,1306902965,10E,56.3843449,27.2335661,9.22,-0.2,-0.1,265.4,14799.68,117522.13,265.7,Air+FixedWing,Red,Allies,J-11A,Red J-11A #001,xu,=CNF=707（七夕）,0.0146758337739588,0,4.31162581054418e-05,9.22000026702881,2.22000026702881,0.0107421875,-0.00999927520751953,NaN,NaN,0.15241345685344,0.0139882274201861,NaN,1.00100823178985,-0.00379805023407384,-0.00323662585225539,1.07690048480436e-05,9.04173156186581,9.04174233087066,,,45.9400000572205,7,0.100940632564377,0.151874757733647
2011-06-01T04:36:06Z,1306902966,10E,56.3843449,27.2335661,9.22,-0.3,-0.1,265.4,14799.68,117522.13,265.7,Air+FixedWing,Red,Allies,J-11A,Red J-11A #001,xu,=CNF=707（七夕）,0.00390625,0,1.1476205428494e-05,9.22000026702881,2.22000026702881,0.00390625,0,NaN,NaN,0,0.0139882274201861,NaN,0.99998454741218,-0.00522864965184592,-0.00184462961144321,7.62939453125e-07,9.04173156186581,9.04173232480526,,,46.9400000572205,7,0.100940632564377,0.151874757733647
2011-06-01T04:36:07Z,1306902967,10E,56.3843449,27.2335661,9.22,-0.3,-0.1,265.4,14799.69,117522.13,265.7,Air+FixedWing,Red,Allies,J-11A,Red J-11A #001,xu,=CNF=707（七夕）,0.0048828125,0,1.43452567856175e-05,9.22000026702881,2.22000026702881,0.0048828125,0,NaN,NaN,0,0.0139882274201861,NaN,0.99998508427398,-0.00525851892834662,-0.00144742485993883,1.19209289550781e-06,9.04173156186581,9.0417327539587,,,47.9400000572205,7,0.100940632564377,0.151874757733647
2011-06-01T04:36:08Z,1306902968,10E,56.3843449,27.2335661,9.22,-0.3,-0.1,265.4,14799.69,117522.13,265.7,Air+FixedWing,Red,Allies,J-11A,Red J-11A #001,xu,=CNF=707（七夕）,0.001953125,0,5.738102714247e-06,9.22000026702881,2.22000026702881,0.001953125,0,NaN,NaN,0,0.0139882274201861,NaN,0.999986426428478,-0.00533319211959835,-0.000454412981177874,1.9073486328125e-07,9.04173156186581,9.04173175260067,,,48.9400000572205,7,0.103260465229711,0.15419459375691
2011-06-01T04:36:09Z,1306902969,10E,56.3843449,27.2335661,9.22,-0.3,-0.1,265.4,14799.68,117522.13,265.7,Air+FixedWing,Red,Allies,J-11A,Red J-11A #001,xu,=CNF=707（七夕）,0.0107421875,0,3.15595649283585e-05,9.22000026702881,2.22000026702881,0.0107421875,0,NaN,NaN,0.0543593945308688,0.0139882274201861,NaN,0.999986135609939,-0.00454678580048674,-0.00283764149020417,5.76972961425781e-06,9.04173156186581,9.04173733159542,,,49.9400000572205,7,0.105580297895046,0.156514429780173
2011-06-01T04:36:10Z,1306902970,10E,56.3843449,27.2335661,9.22,-0.2,-0.1,265.4,14799.68,117522.13,265.7,Air+FixedWing,Red,Allies,J-11A,Red J-11A #001,xu,=CNF=707（七夕）,0,0,0,9.22000026702881,2.22000026702881,0,0,NaN,NaN,0.0543593945308688,0.0523391626455858,NaN,0.999988627526724,-0.00447458886078648,-0.00180506045050052,0,9.04173156186581,9.04173156186581,,,50.9400000572205,7,0.105580297895046,0.156514429780173
2011-06-01T04:36:11Z,1306902971,10E,56.3843449,27.2335661,9.22,-0.2,0,265.4,14799.68,117522.14,265.7,Air+FixedWing,Red,Allies,J-11A,Red J-11A #001,xu,=CNF=707（七夕）,0.0078125,0,2.2952410856988e-05,9.22000026702881,2.22000026702881,0.0078125,0,NaN,NaN,0.00950762332465775,0.0523391626455858,NaN,0.999998191568949,-0.00203118929831434,5.9732112002373e-05,3.0517578125e-06,9.04173156186581,9.04173461362362,,,51.9400000572205,7,0.10982104127395,0.160755178659324
2011-06-01T04:36:12Z,1306902972,10E,56.3843449,27.2335661,9.22,-0.2,0,265.4,14799.68,117522.14,265.7,Air+FixedWing,Red,Allies,J-11A,Red J-11A #001,xu,=CNF=707（七夕）,0,0,0,9.22000026702881,2.22000026702881,0,0,NaN,NaN,0,0.0171320104161963,NaN,0.999996633565727,-0.00269603483943946,5.9732112002373e-05,0,9.04173156186581,9.04173156186581,,,52.9400000572205,7,0.114061784652853,0.164995927538475
2011-06-01T04:36:13Z,1306902973,10E,56.3843449,27.2335661,9.22,-0.2,0,265.4,14799.68,117522.13,265.7,Air+FixedWing,Red,Allies,J-11A,Red J-11A #001,xu,=CNF=707（七夕）,0.0078125,0,2.2952410856988e-05,9.22000026702881,2.22000026702881,0.0078125,0,NaN,NaN,0,0.0171320104161963,NaN,0.999991087878174,-0.00428484677072268,-5.9732112002373e-05,3.0517578125e-06,9.04173156186581,9.04173461362362,,,53.9400000572205,7,0.114061784652853,0.164995927538475
2011-06-01T04:36:14Z,1306902974,10E,56.3843449,27.2335661,9.22,-0.3,0,265.4,14799.68,117522.13,265.7,Air+FixedWing,Red,Allies,J-11A,Red J-11A #001,xu,=CNF=707（七夕）,0,0,0,9.22000026702881,2.22000026702881,0,0,NaN,NaN,0.171418271456015,0.0171320104161963,NaN,0.999985754490744,-0.00531922901009146,0,0,9.04173156186581,9.04173156186581,,,54.9400000572205,7,0.114591875808829,0.165526019995426
2011-06-01T04:36:15Z,1306902975,10E,56.3843449,27.2335661,9.22,-0.3,0,265.4,14799.68,117522.13,265.7,Air+FixedWing,Red,Allies,J-11A,Red J-11A #001,xu,=CNF=707（七夕）,0,0,0,9.22000026702881,2.22000026702881,0,0,NaN,NaN,0,0.0171320104161963,NaN,0.999982012089906,-0.00603052451641397,-5.9732112002373e-05,0,9.04173156186581,9.04173156186581,,,55.9400000572205,7,0.115121966964805,0.166056112452378
2011-06-01T04:36:16Z,1306902976,10E,56.3843449,27.2335661,9.22,-0.3,0,265.4,14799.68,117522.14,265.7,Air+FixedWing,Red,Allies,J-11A,Red J-11A #001,xu,=CNF=707（七夕）,0.0078125,0,2.2952410856988e-05,9.22000026702881,2.22000026702881,0.0078125,0,NaN,NaN,0,0.0171320104161963,NaN,0.99999033135656,-0.004441725030397,5.9732112002373e-05,3.0517578125e-06,9.04173156186581,9.04173461362362,,,56.9400000572205,7,0.115121966964805,0.166056112452378
2011-06-01T04:36:17Z,1306902977,10E,56.3843449,27.2335661,9.22,-0.2,0,265.4,14799.68,117522.14,265.7,Air+FixedWing,Red,Allies,J-11A,Red J-11A #001,xu,=CNF=707（七夕）,0,0,0,9.22000026702881,2.22000026702881,0,0,NaN,NaN,0,0.0171320104161963,NaN,0.999992609024485,-0.0038229525138913,0,0,9.04173156186581,9.04173156186581,,,57.9400000572205,7,0.115121966964805,0.166056112452378
2011-06-01T04:36:18Z,1306902978,10E,56.3843449,27.2335661,9.22,-0.3,0,265.4,14799.68,117522.14,265.7,Air+FixedWing,Red,Allies,J-11A,Red J-11A #001,xu,=CNF=707（七夕）,0,0,0,9.22000026702881,2.22000026702881,0,0,NaN,NaN,0.0476291502383203,0.0171320104161963,NaN,0.999992146937133,-0.00402608563839747,5.9732112002373e-05,0,9.04173156186581,9.04173156186581,,,58.9400000572205,7,0.115121966964805,0.166056112452378
2011-06-01T04:36:19Z,1306902979,10E,56.3843449,27.2335661,9.22,-0.3,0,265.4,14799.68,117522.13,265.7,Air+FixedWing,Red,Allies,J-11A,Red J-11A #001,xu,=CNF=707（七夕）,0.0078125,0,2.2952410856988e-05,9.22000026702881,2.22000026702881,0.0078125,0,NaN,NaN,0,0.0171320104161963,NaN,0.999982012089906,-0.00603052451641397,-5.9732112002373e-05,3.0517578125e-06,9.04173156186581,9.04173461362362,,,59.9400000572205,7,0.115121966964805,0.166056112452378
2011-06-01T04:36:20Z,1306902980,10E,56.3843449,27.2335661,9.22,-0.3,0,265.4,14799.68,117522.13,265.7,Air+FixedWing,Red,Allies,J-11A,Red J-11A #001,xu,=CNF=707（七夕）,0,0,0,9.22000026702881,2.22000026702881,0,0,NaN,NaN,0,0.0171320104161963,NaN,0.999986171723233,-0.00523612477340549,0,0,9.04173156186581,9.04173156186581,,,60.9400000572205,7,0.11685360453927,0.167787753160812
2011-06-01T04:36:21Z,1306902981,10E,56.3843449,27.2335661,9.22,-0.3,0,265.4,14799.68,117522.13,265.7,Air+FixedWing,Red,Allies,J-11A,Red J-11A #001,xu,=CNF=707（七夕）,0,0,0,9.22000026702881,2.22000026702881,0,0,NaN,NaN,0,0.0171320104161963,NaN,0.999982012089906,-0.00603052451641397,-5.9732112002373e-05,0,9.04173156186581,9.04173156186581,,,61.9400000572205,7,0.118585242113735,0.169519393869247
2011-06-01T04:36:22Z,1306902982,10E,56.3843449,27.2335661,9.22,-0.3,0,265.4,14799.68,117522.14,265.7,Air+FixedWing,Red,Allies,J-11A,Red J-11A #001,xu,=CNF=707（七夕）,0.0078125,0,2.2952410856988e-05,9.22000026702881,2.22000026702881,0.0078125,0,NaN,NaN,0,0.0171320104161963,NaN,0.999994490989886,-0.00364732528738852,0.000119464224004746,3.0517578125e-06,9.04173156186581,9.04173461362362,,,62.9400000572205,7,0.118585242113735,0.169519393869247
2011-06-01T04:36:23Z,1306902983,10E,56.3843449,27.2335661,9.22,-0.2,0,265.4,14799.68,117522.13,265.7,Air+FixedWing,Red,Allies,J-11A,Red J-11A #001,xu,=CNF=707（七夕）,0.0078125,0,2.2952410856988e-05,9.22000026702881,2.22000026702881,0.0078125,0,NaN,NaN,0.019051638750987,0.0171320104161963,NaN,0.999991087878174,-0.00428484677072268,-5.9732112002373e-05,3.0517578125e-06,9.04173156186581,9.04173461362362,,,63.9400000572205,7,0.118585242113735,0.169519393869247
2011-06-01T04:36:24Z,1306902984,10E,56.3843449,27.2335661,9.22,-0.3,0,265.4,14799.68,117522.13,265.7,Air+FixedWing,Red,Allies,J-11A,Red J-11A #001,xu,=CNF=707（七夕）,0,0,0,9.22000026702881,2.22000026702881,0,0,NaN,NaN,0.128243631856159,0.0171320104161963,NaN,0.999989032746011,-0.00465423166950155,0,0,9.04173156186581,9.04173156186581,,,64.9400000572205,7,0.118585242113735,0.169519393869247
2011-06-01T04:36:25Z,1306902985,10E,56.3843449,27.2335661,9.22,-0.3,0,265.4,14799.68,117522.13,265.7,Air+FixedWing,Red,Allies,J-11A,Red J-11A #001,xu,=CNF=707（七夕）,0,0,0,9.22000026702881,2.22000026702881,0,0,NaN,NaN,0.044478191875123,0.0171320104161963,NaN,0.999988615513523,-0.0047512135430447,0,0,9.04173156186581,9.04173156186581,,,65.9400000572205,7,0.118585242113735,0.169519393869247
2011-06-01T04:36:26Z,1306902986,10E,56.3843449,27.2335661,9.22,-0.3,0,265.4,14799.68,117522.13,265.7,Air+FixedWing,Red,Allies,J-11A,Red J-11A #001,xu,=CNF=707（七夕）,0,0,0,9.22000026702881,2.22000026702881,0,0,NaN,NaN,0,0.0171320104161963,NaN,0.999986171723233,-0.00523612477340549,0,0,9.04173156186581,9.04173156186581,,,66.9400000572205,7,0.12303802041796,0.173972178678626
2011-06-01T04:36:27Z,1306902987,10E,56.3843449,27.233566,9.22,-0.3,0,265.4,14799.68,117522.13,265.7,Air+FixedWing,Red,Allies,J-11A,Red J-11A #001,xu,=CNF=707（七夕）,0,0,0,9.22000026702881,2.22000026702881,0,0,NaN,NaN,0,0.0171320104161963,NaN,0.999986171723233,-0.00523612477340549,0,0,9.04173156186581,9.04173156186581,,,67.9400000572205,7,0.127985552694899,0.178919718288806
2011-06-01T04:36:28Z,1306902988,10E,56.3843449,27.2335661,9.22,-0.3,0,265.4,14799.68,117522.13,265.7,Air+FixedWing,Red,Allies,J-11A,Red J-11A #001,xu,=CNF=707（七夕）,0,0,0,9.22000026702881,2.22000026702881,0,0,NaN,NaN,0,0.0171320104161963,NaN,0.999986171723233,-0.00523612477340549,0,0,9.04173156186581,9.04173156186581,,,68.9400000572205,7,0.137385863276063,0.188320042708365
2011-06-01T04:36:29Z,1306902989,10E,56.3843449,27.2335661,9.22,-0.3,0,265.4,14799.68,117522.13,265.7,Air+FixedWing,Red,Allies,J-11A,Red J-11A #001,xu,=CNF=707（七夕）,0,0,0,9.22000026702881,2.22000026702881,0,0,NaN,NaN,0,0.0171320104161963,NaN,0.999986171723233,-0.00523612477340549,0,0,9.04173156186581,9.04173156186581,,,69.9400000572205,7,0.137385863276063,0.188320042708365
2011-06-01T04:36:30Z,1306902990,10E,56.3843449,27.2335661,9.22,-0.3,0,265.4,14799.68,117522.13,265.7,Air+FixedWing,Red,Allies,J-11A,Red J-11A #001,xu,=CNF=707（七夕）,0,0,0,9.22000026702881,2.22000026702881,0,0,NaN,NaN,0,0.0171320104161963,NaN,0.999986171723233,-0.00523612477340549,0,0,9.04173156186581,9.04173156186581,,,70.9400000572205,7,0.137385863276063,0.188320042708365
2011-06-01T04:36:31Z,1306902991,10E,56.3843449,27.2335661,9.22,-0.3,0,265.4,14799.68,117522.13,265.7,Air+FixedWing,Red,Allies,J-11A,Red J-11A #001,xu,=CNF=707（七夕）,0,0,0,9.22000026702881,2.22000026702881,0,0,NaN,NaN,0,0.0171320104161963,NaN,0.999986171723233,-0.00523612477340549,0,0,9.04173156186581,9.04173156186581,,,71.9400000572205,7,0.137385863276063,0.188320042708365
2011-06-01T04:36:32Z,1306902992,10E,56.3843449,27.2335661,9.22,-0.3,0,265.4,14799.68,117522.13,265.7,Air+FixedWing,Red,Allies,J-11A,Red J-11A #001,xu,=CNF=707（七夕）,0,0,0,9.22000026702881,2.22000026702881,0,0,NaN,NaN,0,0.0171320104161963,NaN,0.999986171723233,-0.00523612477340549,0,0,9.04173156186581,9.04173156186581,,,72.9400000572205,7,0.137385863276063,0.188320042708365
2011-06-01T04:36:33Z,1306902993,10E,56.3843449,27.2335661,9.22,-0.3,0,265.4,14799.68,117522.13,265.7,Air+FixedWing,Red,Allies,J-11A,Red J-11A #001,xu,=CNF=707（七夕）,0,0,0,9.22000026702881,2.22000026702881,0,0,NaN,NaN,0,0.0171320104161963,NaN,0.999986171723233,-0.00523612477340549,0,0,9.04173156186581,9.04173156186581,,,73.9400000572205,7,0.137385863276063,0.188320042708365
2011-06-01T04:36:34Z,1306902994,10E,56.3843449,27.2335661,9.22,-0.3,0,265.4,14799.68,117522.13,265.7,Air+FixedWing,Red,Allies,J-11A,Red J-11A #001,xu,=CNF=707（七夕）,0,0,0,9.22000026702881,2.22000026702881,0,0,NaN,NaN,0,0.0171320104161963,NaN,0.999986171723233,-0.00523612477340549,0,0,9.04173156186581,9.04173156186581,,,74.9400000572205,7,0.137385863276063,0.188320042708365
2011-06-01T04:36:35Z,1306902995,10E,56.3843449,27.2335661,9.22,-0.3,0,265.4,14799.68,117522.13,265.7,Air+FixedWing,Red,Allies,J-11A,Red J-11A #001,xu,=CNF=707（七夕）,0,0,0,9.22000026702881,2.22000026702881,0,0,NaN,NaN,0,0.0171320104161963,NaN,0.999986171723233,-0.00523612477340549,0,0,9.04173156186581,9.04173156186581,,,75.9400000572205,7,0.137385863276063,0.188320042708365
2011-06-01T04:36:36Z,1306902996,10E,56.3843449,27.2335661,9.22,-0.3,0,265.4,14799.68,117522.13,265.7,Air+FixedWing,Red,Allies,J-11A,Red J-11A #001,xu,=CNF=707（七夕）,0,0,0,9.22000026702881,2.22000026702881,0,0,NaN,NaN,0,0.0171320104161963,NaN,0.999986171723233,-0.00523612477340549,0,0,9.04173156186581,9.04173156186581,,,76.9400000572205,7,0.137385863276063,0.188320042708365
2011-06-01T04:36:37Z,1306902997,10E,56.3843449,27.2335661,9.22,-0.3,0,265.4,14799.68,117522.13,265.7,Air+FixedWing,Red,Allies,J-11A,Red J-11A #001,xu,=CNF=707（七夕）,0,0,0,9.22000026702881,2.22000026702881,0,0,NaN,NaN,0,0.0171320104161963,NaN,0.999986171723233,-0.00523612477340549,0,0,9.04173156186581,9.04173156186581,,,77.9400000572205,7,0.137385863276063,0.188320042708365
2011-06-01T04:36:38Z,1306902998,10E,56.3843449,27.2335661,9.22,-0.3,0,265.4,14799.68,117522.13,265.7,Air+FixedWing,Red,Allies,J-11A,Red J-11A #001,xu,=CNF=707（七夕）,0,0,0,9.22000026702881,2.22000026702881,0,0,NaN,NaN,0,0.0171320104161963,NaN,0.999986171723233,-0.00523612477340549,0,0,9.04173156186581,9.04173156186581,,,78.9400000572205,7,0.137385863276063,0.188320042708365
2011-06-01T04:36:39Z,1306902999,10E,56.3843449,27.2335661,9.22,-0.3,0,265.4,14799.68,117522.13,265.7,Air+FixedWing,Red,Allies,J-11A,Red J-11A #001,xu,=CNF=707（七夕）,0,0,0,9.22000026702881,2.22000026702881,0,0,NaN,NaN,0,0.0171320104161963,NaN,0.999986171723233,-0.00523612477340549,0,0,9.04173156186581,9.04173156186581,,,79.9400000572205,7,0.137385863276063,0.188320042708365
2011-06-01T04:36:40Z,1306903000,10E,56.3843449,27.2335661,9.22,-0.3,0,265.4,14799.68,117522.13,265.7,Air+FixedWing,Red,Allies,J-11A,Red J-11A #001,xu,=CNF=707（七夕）,0,0,0,9.22000026702881,2.22000026702881,0,0,NaN,NaN,0,0.0171320104161963,NaN,0.999986171723233,-0.00523612477340549,0,0,9.04173156186581,9.04173156186581,,,80.9400000572205,7,0.137385863276063,0.188320042708365
2011-06-01T04:36:41Z,1306903001,10E,56.3843449,27.2335661,9.22,-0.3,0,265.4,14799.68,117522.13,265.7,Air+FixedWing,Red,Allies,J-11A,Red J-11A #001,xu,=CNF=707（七夕）,0,0,0,9.22000026702881,2.22000026702881,0,0,NaN,NaN,0,0.0171320104161963,NaN,0.999986171723233,-0.00523612477340549,0,0,9.04173156186581,9.04173156186581,,,81.9400000572205,7,0.137385863276063,0.188320042708365
2011-06-01T04:36:42Z,1306903002,10E,56.3843449,27.2335661,9.22,-0.3,0,265.4,14799.68,117522.13,265.7,Air+FixedWing,Red,Allies,J-11A,Red J-11A #001,xu,=CNF=707（七夕）,0,0,0,9.22000026702881,2.22000026702881,0,0,NaN,NaN,0,0.0171320104161963,NaN,0.999986171723233,-0.00523612477340549,0,0,9.04173156186581,9.04173156186581,,,82.9400000572205,7,0.137385863276063,0.188320042708365
2011-06-01T04:36:43Z,1306903003,10E,56.3843449,27.2335661,9.22,-0.3,0,265.4,14799.68,117522.13,265.7,Air+FixedWing,Red,Allies,J-11A,Red J-11A #001,xu,=CNF=707（七夕）,0,0,0,9.22000026702881,2.22000026702881,0,0,NaN,NaN,0,0.0171320104161963,NaN,0.999986171723233,-0.00523612477340549,0,0,9.04173156186581,9.04173156186581,,,83.9400000572205,7,0.137385863276063,0.188320042708365
2011-06-01T04:36:44Z,1306903004,10E,56.3843449,27.2335661,9.22,-0.3,0,265.4,14799.68,117522.13,265.7,Air+FixedWing,Red,Allies,J-11A,Red J-11A #001,xu,=CNF=707（七夕）,0,0,0,9.22000026702881,2.22000026702881,0,0,NaN,NaN,0,0.0171320104161963,NaN,0.999986171723233,-0.00523612477340549,0,0,9.04173156186581,9.04173156186581,,,84.9400000572205,7,0.137385863276063,0.188320042708365
2011-06-01T04:36:45Z,1306903005,10E,56.3843449,27.2335661,9.22,-0.3,0,265.4,14799.68,117522.13,265.7,Air+FixedWing,Red,Allies,J-11A,Red J-11A #001,xu,=CNF=707（七夕）,0,0,0,9.22000026702881,2.22000026702881,0,0,NaN,NaN,0,0.0171320104161963,NaN,0.999986171723233,-0.00523612477340549,0,0,9.04173156186581,9.04173156186581,,,85.9400000572205,7,0.137385863276063,0.188320042708365
2011-06-01T04:36:46Z,1306903006,10E,56.3843449,27.2335661,9.22,-0.3,0,265.4,14799.68,117522.13,265.7,Air+FixedWing,Red,Allies,J-11A,Red J-11A #001,xu,=CNF=707（七夕）,0,0,0,9.22000026702881,2.22000026702881,0,0,NaN,NaN,0,0.0171320104161963,NaN,0.999986171723233,-0.00523612477340549,0,0,9.04173156186581,9.04173156186581,,,86.9400000572205,7,0.137385863276063,0.188320042708365
2011-06-01T04:36:47Z,1306903007,10E,56.3843449,27.2335661,9.22,-0.3,0,265.4,14799.68,117522.13,265.7,Air+FixedWing,Red,Allies,J-11A,Red J-11A #001,xu,=CNF=707（七夕）,0,0,0,9.22000026702881,2.22000026702881,0,0,NaN,NaN,0,0.0171320104161963,NaN,0.999986171723233,-0.00523612477340549,0,0,9.04173156186581,9.04173156186581,,,87.9400000572205,7,0.137385863276063,0.188320042708365
2011-06-01T04:36:48Z,1306903008,10E,56.3843449,27.2335661,9.22,-0.3,0,265.4,14799.68,117522.13,265.7,Air+FixedWing,Red,Allies,J-11A,Red J-11A #001,xu,=CNF=707（七夕）,0,0,0,9.22000026702881,2.22000026702881,0,0,NaN,NaN,0,0.0171320104161963,NaN,0.999986171723233,-0.00523612477340549,0,0,9.04173156186581,9.04173156186581,,,88.9400000572205,7,0.137385863276063,0.188320042708365
2011-06-01T04:36:49Z,1306903009,10E,56.3843449,27.2335661,9.22,-0.3,0,265.4,14799.68,117522.13,265.7,Air+FixedWing,Red,Allies,J-11A,Red J-11A #001,xu,=CNF=707（七夕）,0,0,0,9.22000026702881,2.22000026702881,0,0,NaN,NaN,0,0.0171320104161963,NaN,0.999986171723233,-0.00523612477340549,0,0,9.04173156186581,9.04173156186581,,,89.9400000572205,7,0.137385863276063,0.188320042708365
2011-06-01T04:36:50Z,1306903010,10E,56.3843449,27.2335661,9.22,-0.3,0,265.4,14799.68,117522.13,265.7,Air+FixedWing,Red,Allies,J-11A,Red J-11A #001,xu,=CNF=707（七夕）,0,0,0,9.22000026702881,2.22000026702881,0,0,NaN,NaN,0,0.0171320104161963,NaN,0.999986171723233,-0.00523612477340549,0,0,9.04173156186581,9.04173156186581,,,90.9400000572205,7,0.137385863276063,0.188320042708365
2011-06-01T04:36:51Z,1306903011,10E,56.3843449,27.2335661,9.22,-0.3,0,265.4,14799.68,117522.13,265.7,Air+FixedWing,Red,Allies,J-11A,Red J-11A #001,xu,=CNF=707（七夕）,0,0,0,9.22000026702881,2.22000026702881,0,0,NaN,NaN,0,0.0171320104161963,NaN,0.999986171723233,-0.00523612477340549,0,0,9.04173156186581,9.04173156186581,,,91.9400000572205,7,0.137385863276063,0.188320042708365
2011-06-01T04:36:52Z,1306903012,10E,56.3843449,27.2335661,9.22,-0.3,0,265.4,14799.68,117522.13,265.7,Air+FixedWing,Red,Allies,J-11A,Red J-11A #001,xu,=CNF=707（七夕）,0,0,0,9.22000026702881,2.22000026702881,0,0,NaN,NaN,0,0.0171320104161963,NaN,0.999986171723233,-0.00523612477340549,0,0,9.04173156186581,9.04173156186581,,,92.9400000572205,7,0.137385863276063,0.188320042708365
2011-06-01T04:36:53Z,1306903013,10E,56.3843449,27.2335661,9.22,-0.3,0,265.4,14799.68,117522.13,265.7,Air+FixedWing,Red,Allies,J-11A,Red J-11A #001,xu,=CNF=707（七夕）,0,0,0,9.22000026702881,2.22000026702881,0,0,NaN,NaN,0,0.0171320104161963,NaN,0.999986171723233,-0.00523612477340549,0,0,9.04173156186581,9.04173156186581,,,93.9400000572205,7,0.137385863276063,0.188320042708365
2011-06-01T04:36:54Z,1306903014,10E,56.3843449,27.2335661,9.22,-0.3,0,265.4,14799.68,117522.13,265.7,Air+FixedWing,Red,Allies,J-11A,Red J-11A #001,xu,=CNF=707（七夕）,0,0,0,9.22000026702881,2.22000026702881,0,0,NaN,NaN,0,0.0171320104161963,NaN,0.999986171723233,-0.00523612477340549,0,0,9.04173156186581,9.04173156186581,,,94.9400000572205,7,0.137385863276063,0.188320042708365
2011-06-01T04:36:55Z,1306903015,10E,56.3843449,27.2335661,9.22,-0.3,0,265.4,14799.68,117522.13,265.7,Air+FixedWing,Red,Allies,J-11A,Red J-11A #001,xu,=CNF=707（七夕）,0,0,0,9.22000026702881,2.22000026702881,0,0,NaN,NaN,0,0.0171320104161963,NaN,0.999986171723233,-0.00523612477340549,0,0,9.04173156186581,9.04173156186581,,,95.9400000572205,7,0.137385863276063,0.188320042708365
2011-06-01T04:36:56Z,1306903016,10E,56.3843449,27.2335661,9.22,-0.3,0,265.4,14799.68,117522.13,265.7,Air+FixedWing,Red,Allies,J-11A,Red J-11A #001,xu,=CNF=707（七夕）,0,0,0,9.22000026702881,2.22000026702881,0,0,NaN,NaN,0,0.0171320104161963,NaN,0.999986171723233,-0.00523612477340549,0,0,9.04173156186581,9.04173156186581,,,96.9400000572205,7,0.137385863276063,0.188320042708365
2011-06-01T04:36:57Z,1306903017,10E,56.3843449,27.2335661,9.22,-0.3,0,265.4,14799.68,117522.13,265.7,Air+FixedWing,Red,Allies,J-11A,Red J-11A #001,xu,=CNF=707（七夕）,0,0,0,9.22000026702881,2.22000026702881,0,0,NaN,NaN,0,0.0171320104161963,NaN,0.999986171723233,-0.00523612477340549,0,0,9.04173156186581,9.04173156186581,,,97.9400000572205,7,0.137385863276063,0.188320042708365
2011-06-01T04:36:58Z,1306903018,10E,56.3843449,27.2335661,9.22,-0.3,0,265.4,14799.68,117522.13,265.7,Air+FixedWing,Red,Allies,J-11A,Red J-11A #001,xu,=CNF=707（七夕）,0,0,0,9.22000026702881,2.22000026702881,0,0,NaN,NaN,0,0.0171320104161963,NaN,0.999986171723233,-0.00523612477340549,0,0,9.04173156186581,9.04173156186581,,,98.9400000572205,7,0.137385863276063,0.188320042708365
2011-06-01T04:36:59Z,1306903019,10E,56.3843449,27.2335661,9.22,-0.3,0,265.4,14799.68,117522.13,265.7,Air+FixedWing,Red,Allies,J-11A,Red J-11A #001,xu,=CNF=707（七夕）,0,0,0,9.22000026702881,2.22000026702881,0,0,NaN,NaN,0,0.0171320104161963,NaN,0.999986171723233,-0.00523612477340549,0,0,9.04173156186581,9.04173156186581,,,99.9400000572205,7,0.137385863276063,0.188320042708365
2011-06-01T04:37:00Z,1306903020,10E,56.3843449,27.2335661,9.22,-0.3,0,265.5,14799.68,117522.13,265.7,Air+FixedWing,Red,Allies,J-11A,Red J-11A #001,xu,=CNF=707（七夕）,0,0,0,9.22000026702881,2.22000026702881,0,0,NaN,NaN,0,0.0171320104161963,NaN,0.999986171723233,-0.00523612477340549,0,0,9.04173156186581,9.04173156186581,,,100.94000005722,7,0.137385863276063,0.188320042708365
2011-06-01T04:37:01Z,1306903021,10E,56.3843449,27.2335661,9.22,-0.3,0,265.5,14799.68,117522.13,265.7,Air+FixedWing,Red,Allies,J-11A,Red J-11A #001,xu,=CNF=707（七夕）,0,0,0,9.22000026702881,2.22000026702881,0,0,NaN,NaN,0,0.0171320104161963,NaN,0.999986171723233,-0.00523612477340549,0,0,9.04173156186581,9.04173156186581,,,101.94000005722,7,0.137385863276063,0.188320042708365
2011-06-01T04:37:02Z,1306903022,10E,56.3843449,27.2335661,9.22,-0.3,0,265.5,14799.68,117522.13,265.7,Air+FixedWing,Red,Allies,J-11A,Red J-11A #001,xu,=CNF=707（七夕）,0,0,0,9.22000026702881,2.22000026702881,0,0,NaN,NaN,0,0.0171320104161963,NaN,0.999986171723233,-0.00523612477340549,0,0,9.04173156186581,9.04173156186581,,,102.94000005722,7,0.137385863276063,0.188320042708365
2011-06-01T04:37:03Z,1306903023,10E,56.3843449,27.2335661,9.22,-0.3,0,265.5,14799.68,117522.13,265.7,Air+FixedWing,Red,Allies,J-11A,Red J-11A #001,xu,=CNF=707（七夕）,0,0,0,9.22000026702881,2.22000026702881,0,0,NaN,NaN,0,0.0171320104161963,NaN,0.999986171723233,-0.00523612477340549,0,0,9.04173156186581,9.04173156186581,,,103.94000005722,7,0.137385863276063,0.188320042708365
2011-06-01T04:37:04Z,1306903024,10E,56.3843449,27.2335661,9.22,-0.3,0,265.5,14799.68,117522.13,265.7,Air+FixedWing,Red,Allies,J-11A,Red J-11A #001,xu,=CNF=707（七夕）,0,0,0,9.22000026702881,2.22000026702881,0,0,NaN,NaN,0,0.0171320104161963,NaN,0.999986171723233,-0.00523612477340549,0,0,9.04173156186581,9.04173156186581,,,104.94000005722,7,0.137385863276063,0.188320042708365
2011-06-01T04:37:05Z,1306903025,10E,56.3843449,27.2335661,9.22,-0.3,0,265.5,14799.68,117522.13,265.7,Air+FixedWing,Red,Allies,J-11A,Red J-11A #001,xu,=CNF=707（七夕）,0,0,0,9.22000026702881,2.22000026702881,0,0,NaN,NaN,0,0.0171320104161963,NaN,0.999986171723233,-0.00523612477340549,0,0,9.04173156186581,9.04173156186581,,,105.94000005722,7,0.137385863276063,0.188320042708365
2011-06-01T04:37:06Z,1306903026,10E,56.3843449,27.2335661,9.22,-0.3,0,265.5,14799.68,117522.13,265.7,Air+FixedWing,Red,Allies,J-11A,Red J-11A #001,xu,=CNF=707（七夕）,0,0,0,9.22000026702881,2.22000026702881,0,0,NaN,NaN,0,0.0171320104161963,NaN,0.999986171723233,-0.00523612477340549,0,0,9.04173156186581,9.04173156186581,,,106.94000005722,7,0.137385863276063,0.188320042708365
2011-06-01T04:37:07Z,1306903027,10E,56.3843449,27.2335661,9.22,-0.3,0,265.5,14799.68,117522.13,265.7,Air+FixedWing,Red,Allies,J-11A,Red J-11A #001,xu,=CNF=707（七夕）,0,0,0,9.22000026702881,2.22000026702881,0,0,NaN,NaN,0,0.0171320104161963,NaN,0.999986171723233,-0.00523612477340549,0,0,9.04173156186581,9.04173156186581,,,107.94000005722,7,0.137385863276063,0.188320042708365
2011-06-01T04:37:08Z,1306903028,10E,56.3843449,27.2335661,9.22,-0.3,0,265.5,14799.68,117522.13,265.7,Air+FixedWing,Red,Allies,J-11A,Red J-11A #001,xu,=CNF=707（七夕）,0,0,0,9.22000026702881,2.22000026702881,0,0,NaN,NaN,0,0.0171320104161963,NaN,0.999986171723233,-0.00523612477340549,0,0,9.04173156186581,9.04173156186581,,,108.94000005722,7,0.137385863276063,0.188320042708365
2011-06-01T04:37:09Z,1306903029,10E,56.3843449,27.2335661,9.22,-0.3,0,265.5,14799.68,117522.13,265.7,Air+FixedWing,Red,Allies,J-11A,Red J-11A #001,xu,=CNF=707（七夕）,0,0,0,9.22000026702881,2.22000026702881,0,0,NaN,NaN,0,0.0171320104161963,NaN,0.999986171723233,-0.00523612477340549,0,0,9.04173156186581,9.04173156186581,,,109.94000005722,7,0.137385863276063,0.188320042708365
2011-06-01T04:37:10Z,1306903030,10E,56.3843449,27.2335661,9.22,-0.3,0,265.5,14799.68,117522.13,265.7,Air+FixedWing,Red,Allies,J-11A,Red J-11A #001,xu,=CNF=707（七夕）,0,0,0,9.22000026702881,2.22000026702881,0,0,NaN,NaN,0,0.0171320104161963,NaN,0.999986171723233,-0.00523612477340549,0,0,9.04173156186581,9.04173156186581,,,110.94000005722,7,0.137385863276063,0.188320042708365
2011-06-01T04:37:11Z,1306903031,10E,56.3843449,27.2335661,9.22,-0.3,0,265.5,14799.68,117522.13,265.7,Air+FixedWing,Red,Allies,J-11A,Red J-11A #001,xu,=CNF=707（七夕）,0,0,0,9.22000026702881,2.22000026702881,0,0,NaN,NaN,0,0.0171320104161963,NaN,0.999986171723233,-0.00523612477340549,0,0,9.04173156186581,9.04173156186581,,,111.94000005722,7,0.137385863276063,0.188320042708365
2011-06-01T04:37:12Z,1306903032,10E,56.3843449,27.2335661,9.22,-0.3,0,265.5,14799.68,117522.13,265.7,Air+FixedWing,Red,Allies,J-11A,Red J-11A #001,xu,=CNF=707（七夕）,0,0,0,9.22000026702881,2.22000026702881,0,0,NaN,NaN,0,0.0171320104161963,NaN,0.999986171723233,-0.00523612477340549,0,0,9.04173156186581,9.04173156186581,,,112.94000005722,7,0.137385863276063,0.188320042708365
2011-06-01T04:37:13Z,1306903033,10E,56.3843449,27.2335661,9.22,-0.3,0,265.5,14799.68,117522.13,265.7,Air+FixedWing,Red,Allies,J-11A,Red J-11A #001,xu,=CNF=707（七夕）,0,0,0,9.22000026702881,2.22000026702881,0,0,NaN,NaN,0,0.0171320104161963,NaN,0.999986171723233,-0.00523612477340549,0,0,9.04173156186581,9.04173156186581,,,113.94000005722,7,0.137385863276063,0.188320042708365
2011-06-01T04:37:14Z,1306903034,10E,56.3843449,27.2335661,9.22,-0.3,0,265.5,14799.68,117522.13,265.7,Air+FixedWing,Red,Allies,J-11A,Red J-11A #001,xu,=CNF=707（七夕）,0,0,0,9.22000026702881,2.22000026702881,0,0,NaN,NaN,0,0.0171320104161963,NaN,0.999986171723233,-0.00523612477340549,0,0,9.04173156186581,9.04173156186581,,,114.94000005722,7,0.137385863276063,0.188320042708365
2011-06-01T04:37:15Z,1306903035,10E,56.3843449,27.2335661,9.22,-0.3,0,265.5,14799.68,117522.13,265.7,Air+FixedWing,Red,Allies,J-11A,Red J-11A #001,xu,=CNF=707（七夕）,0,0,0,9.22000026702881,2.22000026702881,0,0,NaN,NaN,0,0.0171320104161963,NaN,0.999986171723233,-0.00523612477340549,0,0,9.04173156186581,9.04173156186581,,,115.94000005722,7,0.137385863276063,0.188320042708365
2011-06-01T04:37:16Z,1306903036,10E,56.3843449,27.2335661,9.22,-0.3,0,265.5,14799.68,117522.13,265.7,Air+FixedWing,Red,Allies,J-11A,Red J-11A #001,xu,=CNF=707（七夕）,0,0,0,9.22000026702881,2.22000026702881,0,0,NaN,NaN,0,0.0171320104161963,NaN,0.999986171723233,-0.00523612477340549,0,0,9.04173156186581,9.04173156186581,,,116.94000005722,7,0.137385863276063,0.188320042708365
2011-06-01T04:37:17Z,1306903037,10E,56.3843449,27.2335661,9.22,-0.3,0,265.5,14799.68,117522.13,265.7,Air+FixedWing,Red,Allies,J-11A,Red J-11A #001,xu,=CNF=707（七夕）,0,0,0,9.22000026702881,2.22000026702881,0,0,NaN,NaN,0,0.0171320104161963,NaN,0.999986171723233,-0.00523612477340549,0,0,9.04173156186581,9.04173156186581,,,117.94000005722,7,0.137385863276063,0.188320042708365
2011-06-01T04:37:18Z,1306903038,10E,56.3843449,27.2335661,9.22,-0.3,0,265.5,14799.68,117522.13,265.7,Air+FixedWing,Red,Allies,J-11A,Red J-11A #001,xu,=CNF=707（七夕）,0,0,0,9.22000026702881,2.22000026702881,0,0,NaN,NaN,0,0.0171320104161963,NaN,0.999986171723233,-0.00523612477340549,0,0,9.04173156186581,9.04173156186581,,,118.94000005722,7,0.137385863276063,0.188320042708365
2011-06-01T04:37:19Z,1306903039,10E,56.3843449,27.2335661,9.22,-0.3,0,265.5,14799.68,117522.13,265.7,Air+FixedWing,Red,Allies,J-11A,Red J-11A #001,xu,=CNF=707（七夕）,0,0,0,9.22000026702881,2.22000026702881,0,0,NaN,NaN,0,0.0171320104161963,NaN,0.999986171723233,-0.00523612477340549,0,0,9.04173156186581,9.04173156186581,,,119.94000005722,7,0.137385863276063,0.188320042708365
2011-06-01T04:37:20Z,1306903040,10E,56.3843449,27.2335661,9.22,-0.3,0,265.5,14799.68,117522.13,265.7,Air+FixedWing,Red,Allies,J-11A,Red J-11A #001,xu,=CNF=707（七夕）,0,0,0,9.22000026702881,2.22000026702881,0,0,NaN,NaN,0,0.0171320104161963,NaN,0.999986171723233,-0.00523612477340549,0,0,9.04173156186581,9.04173156186581,,,120.94000005722,7,0.137385863276063,0.188320042708365
2011-06-01T04:37:21Z,1306903041,10E,56.3843449,27.2335661,9.22,-0.3,0,265.5,14799.68,117522.13,265.7,Air+FixedWing,Red,Allies,J-11A,Red J-11A #001,xu,=CNF=707（七夕）,0,0,0,9.22000026702881,2.22000026702881,0,0,NaN,NaN,0,0.0171320104161963,NaN,0.999986171723233,-0.00523612477340549,0,0,9.04173156186581,9.04173156186581,,,121.94000005722,7,0.137385863276063,0.188320042708365
2011-06-01T04:37:22Z,1306903042,10E,56.3843449,27.2335661,9.22,-0.3,0,265.5,14799.68,117522.13,265.7,Air+FixedWing,Red,Allies,J-11A,Red J-11A #001,xu,=CNF=707（七夕）,0,0,0,9.22000026702881,2.22000026702881,0,0,NaN,NaN,0,0.0171320104161963,NaN,0.999986171723233,-0.00523612477340549,0,0,9.04173156186581,9.04173156186581,,,122.94000005722,7,0.137385863276063,0.188320042708365
2011-06-01T04:37:23Z,1306903043,10E,56.3843449,27.2335661,9.22,-0.3,0,265.5,14799.68,117522.13,265.7,Air+FixedWing,Red,Allies,J-11A,Red J-11A #001,xu,=CNF=707（七夕）,0,0,0,9.22000026702881,2.22000026702881,0,0,NaN,NaN,0,0.0171320104161963,NaN,0.999986171723233,-0.00523612477340549,0,0,9.04173156186581,9.04173156186581,,,123.94000005722,7,0.137385863276063,0.188320042708365
2011-06-01T04:37:24Z,1306903044,10E,56.3843449,27.2335661,9.22,-0.3,0,265.5,14799.68,117522.13,265.7,Air+FixedWing,Red,Allies,J-11A,Red J-11A #001,xu,=CNF=707（七夕）,0,0,0,9.22000026702881,2.22000026702881,0,0,NaN,NaN,0,0.0171320104161963,NaN,0.999986171723233,-0.00523612477340549,0,0,9.04173156186581,9.04173156186581,,,124.94000005722,7,0.137385863276063,0.188320042708365
2011-06-01T04:37:25Z,1306903045,10E,56.3843449,27.2335661,9.22,-0.3,0,265.5,14799.68,117522.13,265.7,Air+FixedWing,Red,Allies,J-11A,Red J-11A #001,xu,=CNF=707（七夕）,0,0,0,9.22000026702881,2.22000026702881,0,0,NaN,NaN,0,0.0171320104161963,NaN,0.999986171723233,-0.00523612477340549,0,0,9.04173156186581,9.04173156186581,,,125.94000005722,7,0.137385863276063,0.188320042708365
2011-06-01T04:37:26Z,1306903046,10E,56.3843449,27.2335661,9.22,-0.3,0,265.5,14799.68,117522.13,265.7,Air+FixedWing,Red,Allies,J-11A,Red J-11A #001,xu,=CNF=707（七夕）,0,0,0,9.22000026702881,2.22000026702881,0,0,NaN,NaN,0,0.0171320104161963,NaN,0.999986171723233,-0.00523612477340549,0,0,9.04173156186581,9.04173156186581,,,126.94000005722,7,0.137385863276063,0.188320042708365
2011-06-01T04:37:27Z,1306903047,10E,56.3843449,27.2335661,9.22,-0.3,0,265.5,14799.68,117522.13,265.7,Air+FixedWing,Red,Allies,J-11A,Red J-11A #001,xu,=CNF=707（七夕）,0,0,0,9.22000026702881,2.22000026702881,0,0,NaN,NaN,0,0.0171320104161963,NaN,0.999986171723233,-0.00523612477340549,0,0,9.04173156186581,9.04173156186581,,,127.94000005722,7,0.137385863276063,0.188320042708365
2011-06-01T04:37:28Z,1306903048,10E,56.3843449,27.2335661,9.22,-0.3,0,265.5,14799.68,117522.13,265.7,Air+FixedWing,Red,Allies,J-11A,Red J-11A #001,xu,=CNF=707（七夕）,0,0,0,9.22000026702881,2.22000026702881,0,0,NaN,NaN,0,0.0171320104161963,NaN,0.999986171723233,-0.00523612477340549,0,0,9.04173156186581,9.04173156186581,,,128.94000005722,7,0.137385863276063,0.188320042708365
2011-06-01T04:37:29Z,1306903049,10E,56.3843449,27.2335661,9.22,-0.3,0,265.5,14799.68,117522.13,265.7,Air+FixedWing,Red,Allies,J-11A,Red J-11A #001,xu,=CNF=707（七夕）,0,0,0,9.22000026702881,2.22000026702881,0,0,NaN,NaN,0,0.0171320104161963,NaN,0.999986171723233,-0.00523612477340549,0,0,9.04173156186581,9.04173156186581,,,129.94000005722,7,0.137385863276063,0.188320042708365
2011-06-01T04:37:30Z,1306903050,10E,56.3843449,27.2335661,9.22,-0.3,0,265.5,14799.68,117522.13,265.7,Air+FixedWing,Red,Allies,J-11A,Red J-11A #001,xu,=CNF=707（七夕）,0,0,0,9.22000026702881,2.22000026702881,0,0,NaN,NaN,0,0.0296735133902291,NaN,0.99998492066403,-0.00547504994570294,0.00317764253755329,0,9.04173156186581,9.04173156186581,,,130.94000005722,7,0.137385863276063,0.188320042708365
2011-06-01T04:37:31Z,1306903051,10E,56.3843446,27.2335661,9.22,-0.3,-0.3,265.5,14799.65,117522.13,265.8,Air+FixedWing,Red,Allies,J-11A,Red J-11A #001,xu,=CNF=707（七夕）,0.03125,0,9.1809643427952e-05,9.22000026702881,2.22000026702881,0.03125,0,NaN,NaN,0,0.100870594880489,NaN,1.00092315798022,-0.00522315684893869,0.0929136943349979,4.8828125e-05,9.04173156186581,9.04178038999081,,,131.94000005722,7,0.168493722424772,0.219427946801319
2011-06-01T04:37:32Z,1306903052,10E,56.3843346,27.2335654,9.22,-0.2,0.1,265.7,14798.66,117522.06,266,Air+FixedWing,Red,Allies,J-11A,Red J-11A #001,xu,=CNF=707（七夕）,0.988842602020031,0.983016848564148,0.00290512933013851,9.22476196289062,2.22476196289062,0.988831137162592,0.00476169586181641,-0.428898907414789,-0.173613333909243,0.276223202040776,0.336737824313443,NaN,1.00199527912235,-0.00557305126455268,0.355072782454663,0.0488904845784873,9.04640119033814,9.09529167491662,,,132.94000005722,7,1.1584495736539,1.20939668137698
2011-06-01T04:37:33Z,1306903053,10E,56.3842897,27.2335626,9.25,-0.3,-0.1,266.8,14794.21,117521.78,267.1,Air+FixedWing,Red,Allies,J-11A,Red J-11A #001,xu,=CNF=707（七夕）,4.46208321944756,4.46627950668335,0.0131091973994697,9.25238132476807,2.25238132476807,4.4619977395921,0.0276193618774414,-0.380443698750757,0.216451407360712,0.0285775114873334,1.05628683415177,NaN,1.0002769050829,-0.0238406496818726,0.221554659904298,0.995509332863776,9.07348653185367,10.0689958647175,,,133.94000005722,7,5.61813566998289,5.66917476148043
2011-06-01T04:37:34Z,1306903054,10E,56.3842226,27.2335605,9.28,-0.4,-0,269,14787.56,117521.57,269.3,Air+FixedWing,Red,Allies,J-11A,Red J-11A #001,xu,=CNF=707（七夕）,6.65281630438949,6.64640712738037,0.0195453793748512,9.27999973297119,2.27999973297119,6.65275897680647,0.027618408203125,-0.262319481379022,0.288844745666507,0.199987938897973,2.11017349714051,NaN,1.00075633694535,-0.0412131418351529,-0.00270882130198553,2.21299823899753,9.10057093813419,11.3135691771317,,,134.94000005722,7,12.26061144616,12.3117176042197
2011-06-01T04:37:35Z,1306903055,10E,56.3841556,27.2335612,9.32,-0.3,0,271.7,14780.93,117521.7,272,Air+FixedWing,Red,Allies,J-11A,Red J-11A #001,xu,=CNF=707（七夕）,6.6282386712311,6.62560415267944,0.0194731807374228,9.31761837005615,2.31382179260254,6.62813191788963,0.0376186370849609,-0.24951900374396,0.135694398085486,0,2.68858337124799,NaN,0.999307586589903,-0.0328312572650589,0.100894676448819,2.19667739414017,9.13746221887112,11.3341396130113,,,135.94000005722,7.00379657745361,18.8955657809184,18.9467882556572
2011-06-01T04:37:36Z,1306903056,10E,56.3840787,27.2335649,9.35,-0.3,0,274.4,14773.33,117522.12,274.7,Air+FixedWing,Red,Allies,J-11A,Red J-11A #001,xu,=CNF=707（七夕）,7.61864096624915,7.61441659927368,0.022382903509829,9.34999942779541,2.32040405273438,7.61857215229399,0.0323810577392578,-0.362446113890838,-0.169532342531915,0.104755465074132,2.83537011292708,NaN,1.00052972985758,-0.0437543957554826,-0.13707969141147,2.90218450863049,9.16921718885899,12.0714016974895,,,136.94000005722,7.02959537506104,26.5141498820141,26.5654523195169
2011-06-01T04:37:37Z,1306903057,10E,56.3840157,27.2335708,9.39,-0.4,-0.8,278,14767.09,117522.81,278.3,Air+FixedWing,Red,Allies,J-11A,Red J-11A #001,xu,=CNF=707（七夕）,6.27423658540338,6.26690483093262,0.0184331688527579,9.38999938964844,2.33801984786987,6.27410907879884,0.0399999618530273,-1.03324705809484,0.704045368142701,0.199987938897973,3.69780251805555,NaN,0.993676581188344,-0.051218832518379,-0.28504848628348,1.96830223648071,9.20844375144958,11.1767459879303,,,137.94000005722,7.05197954177856,32.7880496142231,32.8394887787441
2011-06-01T04:37:38Z,1306903058,10E,56.3839799,27.2335772,9.41,-0.3,-0.5,282.5,14763.54,117523.55,282.8,Air+FixedWing,Red,Allies,J-11A,Red J-11A #001,xu,=CNF=707（七夕）,3.62024553846687,3.62137722969055,0.0106359732253551,9.40999984741211,2.34403371810913,3.62019029064475,0.0200004577636719,-0.870013625632323,0.0925782661994687,0,4.04115271253751,NaN,0.997179719008831,-0.0127107450360196,-0.206488760428658,0.655308887939464,9.22805750036239,9.88336638830186,,,138.94000005722,7.06596612930298,36.395080443848,36.4465803738992
2011-06-01T04:37:39Z,1306903059,10E,56.3839633,27.2335805,9.42,-0.1,-0.5,285,14761.91,117523.92,285.3,Air+FixedWing,Red,Allies,J-11A,Red J-11A #001,xu,=CNF=707（七夕）,1.67915850091028,1.68224370479584,0.00493322529608893,9.42000007629395,2.34717893600464,1.6791287224634,0.0100002288818359,NaN,NaN,0.114278909891672,2.45762948908729,NaN,0.995233865008769,-0.00517055515945332,-0.199078665708412,0.140978663558963,9.2378643748188,9.37884303837776,,,139.94000005722,7.07282114028931,38.0846079048806,38.1361399241326
2011-06-01T04:37:40Z,1306903060,10E,56.383965,27.2335798,9.4,-0.1,0.4,285,14762.08,117523.84,285.3,Air+FixedWing,Red,Allies,J-11A,Red J-11A #001,xu,=CNF=707（七夕）,0.194069407366792,0.262722313404083,0.000570159334826626,9.39999961853027,2.32800960540771,0.193036049910221,-0.0200004577636719,NaN,NaN,0,0.463309020318302,NaN,1.00259642082473,-0.00336973229346342,0.0650320080466291,0.00188314674378489,9.21825062590599,9.22013377264978,,,140.94000005722,7.07199001312256,38.2736455718413,38.3262329626029
