ISOTime,UnixTime,Id,Longitude,Latitude,Altitude,Roll,Pitch,Yaw,U,V,Heading,Type,Color,Coalition,Name,Group,Country,Pilot,TAS,CAS,M,ASL,AGL,GS,VS,AOA,AOS,RRT,TRT,TRD,G,LatG,LonG,Ek,Ep,Em,FFW,FFV,RelativeTime,Elev,GroundDistance,AirDistance
2011-06-01T04:37:08Z,1306903028,10F,56.383649,27.2337221,9.69,0.2,-1.1,144.1,14730.86,117539.76,144.4,Air+FixedWing,Red,Allies,J-11A,Red J-11A #002,xu,=CNF= 909,0.0244140649946143,0,7.17266709580578e-05,9.6899995803833,2.39925861358643,NaN,NaN,NaN,NaN,NaN,NaN,NaN,NaN,NaN,NaN,NaN,9.50264343849659,NaN,,,0.279999971389771,7.29074096679688,NaN,NaN
2011-06-01T04:37:09Z,1306903029,10F,56.3836488,27.2337225,9.61,-0.1,-0.8,144.1,14730.84,117539.8,144.3,Air+FixedWing,Red,Allies,J-11A,Red J-11A #002,xu,=CNF= 909,0.091647521983723,0,0.000269253226241295,9.61047554016113,2.31931686401367,0.0455543116784789,-0.079524040222168,NaN,NaN,0.266650585197298,NaN,NaN,1.01214739797359,-0.0018463758672187,-0.00642601230610929,0.000419963414287849,9.42465699559212,9.42507695900641,,,1.27999997138977,7.29115867614746,0.0480545143453841,0.0929156403210993
2011-06-01T04:37:10Z,1306903030,10F,56.383649,27.2337222,9.65,-0.1,-1.2,144,14730.86,117539.77,144.3,Air+FixedWing,Red,Allies,J-11A,Red J-11A #002,xu,=CNF= 909,0.0503193755000509,0,0.000147834441500054,9.64999961853027,2.35918283462524,0.031143005310746,0.0395240783691406,NaN,NaN,0,0.252177174222203,NaN,0.99301772711801,-0.00201676980120206,-0.0262314028812905,0.000126601977535756,9.46341687590599,9.46354347788353,,,2.27999997138977,7.29081678390503,0.0861805716070926,0.147831515270962
2011-06-01T04:37:11Z,1306903031,10F,56.3836488,27.2337224,9.62,-0.1,-0.9,144,14730.84,117539.8,144.3,Air+FixedWing,Red,Allies,J-11A,Red J-11A #002,xu,=CNF= 909,0.0385504085058508,0,0.000113258092013959,9.62428569793701,2.33320283889771,0.0287215647848686,-0.0257139205932617,NaN,NaN,0,0.0261695779877396,NaN,1.00211095712981,-0.00255713827141423,-0.012398824881942,7.43066997983988e-05,9.4382001339674,9.4382744406672,,,3.27999997138977,7.29108285903931,0.115972484981648,0.187185885191925
2011-06-01T04:37:12Z,1306903032,10F,56.3836488,27.2337224,9.62,-0.1,-0.9,144,14730.84,117539.79,144.3,Air+FixedWing,Red,Allies,J-11A,Red J-11A #002,xu,=CNF= 909,0.00972944669810752,0,2.85843538083028e-05,9.61999988555908,2.32891702651978,0.00873464053710855,-0.00428581237792969,NaN,NaN,0,0.181038446159632,NaN,1.00030712197909,-0.000492525465383443,-0.0161935945173237,4.73310665256577e-06,9.4339971877718,9.43400192087845,,,4.27999997138977,7.29108285903931,0.115972484981648,0.191471697488642
2011-06-01T04:37:13Z,1306903033,10F,56.3836488,27.2337224,9.62,-0.1,-0.8,144,14730.84,117539.8,144.3,Air+FixedWing,Red,Allies,J-11A,Red J-11A #002,xu,=CNF= 909,0.0078125,0,2.29525142648454e-05,9.61999988555908,2.32891702651978,0.0078125,0,NaN,NaN,0,0.0484566469995765,NaN,0.999918623858308,-0.00140127664371059,-0.0127342521835596,3.0517578125e-06,9.4339971877718,9.43400023952961,,,5.27999997138977,7.29108285903931,0.115972484981648,0.191471697488642
2011-06-01T04:37:14Z,1306903034,10F,56.3836488,27.2337224,9.62,-0.1,-0.8,144,14730.85,117539.8,144.3,Air+FixedWing,Red,Allies,J-11A,Red J-11A #002,xu,=CNF= 909,0.009765625,0,2.86906428310567e-05,9.61999988555908,2.32893133163452,0.009765625,0,NaN,NaN,0,0.00989117029631303,NaN,0.999891352882042,-0.00255372387606272,-0.0145432243955661,4.76837158203125e-06,9.4339971877718,9.43400195614338,,,6.27999997138977,7.29106855392456,0.119743129947819,0.195242347879491
2011-06-01T04:37:15Z,1306903035,10F,56.3836489,27.2337224,9.62,-0.1,-0.8,144,14730.85,117539.8,144.3,Air+FixedWing,Red,Allies,J-11A,Red J-11A #002,xu,=CNF= 909,0,0,0,9.61999988555908,2.32897424697876,0,0,NaN,NaN,0,0.0504352774299245,NaN,0.999902904181731,-0.00174505631818905,-0.0138206910341978,0,9.4339971877718,9.4339971877718,,,7.27999997138977,7.29102563858032,0.125870427035645,0.201369654265532
2011-06-01T04:37:16Z,1306903036,10F,56.3836488,27.2337224,9.62,-0.1,-0.7,144,14730.85,117539.8,144.3,Air+FixedWing,Red,Allies,J-11A,Red J-11A #002,xu,=CNF= 909,0,0,0,9.61999988555908,2.32891702651978,0,0,NaN,NaN,0,0.0504352774299245,NaN,0.999930858221861,-0.00220998571293523,-0.011570101136046,0,9.4339971877718,9.4339971877718,,,8.27999997138977,7.29108285903931,0.135768369089642,0.211267611042422
2011-06-01T04:37:17Z,1306903037,10F,56.3836488,27.2337224,9.62,-0.1,-0.7,144,14730.85,117539.79,144.3,Air+FixedWing,Red,Allies,J-11A,Red J-11A #002,xu,=CNF= 909,0.0078125,0,2.29525142648454e-05,9.61999988555908,2.32891702651978,0.0078125,0,NaN,NaN,0,0,NaN,0.999916673328284,-0.00128019973982358,-0.0128639028429217,3.0517578125e-06,9.4339971877718,9.43400023952961,,,9.27999997138977,7.29108285903931,0.135768369089642,0.211267611042422
2011-06-01T04:37:18Z,1306903038,10F,56.3836488,27.2337224,9.62,-0.1,-0.7,144,14730.85,117539.79,144.3,Air+FixedWing,Red,Allies,J-11A,Red J-11A #002,xu,=CNF= 909,0,0,0,9.61999988555908,2.32891702651978,0,0,NaN,NaN,0,0,NaN,0.999916673328284,-0.00128019973982358,-0.0128639028429217,0,9.4339971877718,9.4339971877718,,,10.2799999713898,7.29108285903931,0.135768369089642,0.211267611042422
2011-06-01T04:37:19Z,1306903039,10F,56.3836488,27.2337224,9.62,-0.1,-0.7,144,14730.85,117539.8,144.3,Air+FixedWing,Red,Allies,J-11A,Red J-11A #002,xu,=CNF= 909,0.0078125,0,2.29525142648454e-05,9.61999988555908,2.32891702651978,0.0078125,0,NaN,NaN,0,0,NaN,0.999930858221861,-0.00220998571293523,-0.011570101136046,3.0517578125e-06,9.4339971877718,9.43400023952961,,,11.2799999713898,7.29108285903931,0.135768369089642,0.211267611042422
2011-06-01T04:37:20Z,1306903040,10F,56.3836488,27.2337224,9.62,-0.1,-0.7,144,14730.85,117539.8,144.3,Air+FixedWing,Red,Allies,J-11A,Red J-11A #002,xu,=CNF= 909,0,0,0,9.61999988555908,2.32891702651978,0,0,NaN,NaN,0,0,NaN,0.999923765775072,-0.0017450927263794,-0.0122170019894838,0,9.4339971877718,9.4339971877718,,,12.2799999713898,7.29108285903931,0.135768369089642,0.211267611042422
2011-06-01T04:37:21Z,1306903041,10F,56.3836488,27.2337224,9.62,-0.1,-0.7,144,14730.85,117539.8,144.3,Air+FixedWing,Red,Allies,J-11A,Red J-11A #002,xu,=CNF= 909,0,0,0,9.61999988555908,2.32891702651978,0,0,NaN,NaN,0,0,NaN,0.999930858221861,-0.00220998571293523,-0.011570101136046,0,9.4339971877718,9.4339971877718,,,13.2799999713898,7.29108285903931,0.135768369089642,0.211267611042422
2011-06-01T04:37:22Z,1306903042,10F,56.3836488,27.2337224,9.62,-0.1,-0.7,144,14730.85,117539.79,144.3,Air+FixedWing,Red,Allies,J-11A,Red J-11A #002,xu,=CNF= 909,0.0078125,0,2.29525142648454e-05,9.61999988555908,2.32891702651978,0.0078125,0,NaN,NaN,0,0,NaN,0.999916673328284,-0.00128019973982358,-0.0128639028429217,3.0517578125e-06,9.4339971877718,9.43400023952961,,,14.2799999713898,7.29108285903931,0.135768369089642,0.211267611042422
2011-06-01T04:37:23Z,1306903043,10F,56.3836488,27.2337224,9.62,-0.1,-0.7,144,14730.85,117539.79,144.3,Air+FixedWing,Red,Allies,J-11A,Red J-11A #002,xu,=CNF= 909,0,0,0,9.61999988555908,2.32891702651978,0,0,NaN,NaN,0,0,NaN,0.999923765775072,-0.0017450927263794,-0.0122170019894838,0,9.4339971877718,9.4339971877718,,,15.2799999713898,7.29108285903931,0.135768369089642,0.211267611042422
2011-06-01T04:37:24Z,1306903044,10F,56.3836488,27.2337224,9.62,-0.1,-0.7,144,14730.85,117539.79,144.3,Air+FixedWing,Red,Allies,J-11A,Red J-11A #002,xu,=CNF= 909,0,0,0,9.61999988555908,2.32891702651978,0,0,NaN,NaN,0,0,NaN,0.999923765775072,-0.0017450927263794,-0.0122170019894838,0,9.4339971877718,9.4339971877718,,,16.2799999713898,7.29108285903931,0.135768369089642,0.211267611042422
2011-06-01T04:37:25Z,1306903045,10F,56.3836488,27.2337224,9.62,-0.1,-0.7,144,14730.85,117539.79,144.3,Air+FixedWing,Red,Allies,J-11A,Red J-11A #002,xu,=CNF= 909,0,0,0,9.61999988555908,2.32891702651978,0,0,NaN,NaN,0,0,NaN,0.999923765775072,-0.0017450927263794,-0.0122170019894838,0,9.4339971877718,9.4339971877718,,,17.2799999713898,7.29108285903931,0.135768369089642,0.211267611042422
2011-06-01T04:37:26Z,1306903046,10F,56.3836488,27.2337224,9.62,-0.1,-0.7,144,14730.85,117539.79,144.3,Air+FixedWing,Red,Allies,J-11A,Red J-11A #002,xu,=CNF= 909,0,0,0,9.61999988555908,2.32891702651978,0,0,NaN,NaN,0,0,NaN,0.999916673328284,-0.00128019973982358,-0.0128639028429217,0,9.4339971877718,9.4339971877718,,,18.2799999713898,7.29108285903931,0.135768369089642,0.211267611042422
2011-06-01T04:37:27Z,1306903047,10F,56.3836488,27.2337224,9.62,-0.1,-0.7,144,14730.85,117539.8,144.3,Air+FixedWing,Red,Allies,J-11A,Red J-11A #002,xu,=CNF= 909,0.0078125,0,2.29525142648454e-05,9.61999988555908,2.32891702651978,0.0078125,0,NaN,NaN,0,0,NaN,0.999930858221861,-0.00220998571293523,-0.011570101136046,3.0517578125e-06,9.4339971877718,9.43400023952961,,,19.2799999713898,7.29108285903931,0.135768369089642,0.211267611042422
2011-06-01T04:37:28Z,1306903048,10F,56.3836488,27.2337224,9.62,-0.1,-0.7,144,14730.85,117539.8,144.3,Air+FixedWing,Red,Allies,J-11A,Red J-11A #002,xu,=CNF= 909,0,0,0,9.61999988555908,2.32891702651978,0,0,NaN,NaN,0,0,NaN,0.999923765775072,-0.0017450927263794,-0.0122170019894838,0,9.4339971877718,9.4339971877718,,,20.2799999713898,7.29108285903931,0.135768369089642,0.211267611042422
2011-06-01T04:37:29Z,1306903049,10F,56.3836488,27.2337224,9.62,-0.1,-0.7,144,14730.85,117539.8,144.3,Air+FixedWing,Red,Allies,J-11A,Red J-11A #002,xu,=CNF= 909,0,0,0,9.61999988555908,2.32891702651978,0,0,NaN,NaN,0,0,NaN,0.999923765775072,-0.0017450927263794,-0.0122170019894838,0,9.4339971877718,9.4339971877718,,,21.2799999713898,7.29108285903931,0.135768369089642,0.211267611042422
2011-06-01T04:37:30Z,1306903050,10F,56.3836488,27.2337224,9.62,-0.1,-0.7,144,14730.85,117539.8,144.3,Air+FixedWing,Red,Allies,J-11A,Red J-11A #002,xu,=CNF= 909,0,0,0,9.61999988555908,2.32891702651978,0,0,NaN,NaN,0,0,NaN,0.999930858221861,-0.00220998571293523,-0.011570101136046,0,9.4339971877718,9.4339971877718,,,22.2799999713898,7.29108285903931,0.135768369089642,0.211267611042422
2011-06-01T04:37:31Z,1306903051,10F,56.3836488,27.2337224,9.62,-0.1,-0.7,144,14730.85,117539.79,144.3,Air+FixedWing,Red,Allies,J-11A,Red J-11A #002,xu,=CNF= 909,0.0078125,0,2.29525142648454e-05,9.61999988555908,2.32891702651978,0.0078125,0,NaN,NaN,0,0,NaN,0.999916673328284,-0.00128019973982358,-0.0128639028429217,3.0517578125e-06,9.4339971877718,9.43400023952961,,,23.2799999713898,7.29108285903931,0.135768369089642,0.211267611042422
2011-06-01T04:37:32Z,1306903052,10F,56.3836488,27.2337224,9.62,-0.1,-0.7,144,14730.85,117539.79,144.3,Air+FixedWing,Red,Allies,J-11A,Red J-11A #002,xu,=CNF= 909,0,0,0,9.61999988555908,2.32891702651978,0,0,NaN,NaN,0,0,NaN,0.999923765775072,-0.0017450927263794,-0.0122170019894838,0,9.4339971877718,9.4339971877718,,,24.2799999713898,7.29108285903931,0.135768369089642,0.211267611042422
2011-06-01T04:37:33Z,1306903053,10F,56.3836488,27.2337224,9.62,-0.1,-0.7,144,14730.85,117539.79,144.3,Air+FixedWing,Red,Allies,J-11A,Red J-11A #002,xu,=CNF= 909,0,0,0,9.61999988555908,2.32891702651978,0,0,NaN,NaN,0,0,NaN,0.999923765775072,-0.0017450927263794,-0.0122170019894838,0,9.4339971877718,9.4339971877718,,,25.2799999713898,7.29108285903931,0.135768369089642,0.211267611042422
2011-06-01T04:37:34Z,1306903054,10F,56.3836488,27.2337224,9.62,-0.1,-0.7,144,14730.85,117539.79,144.3,Air+FixedWing,Red,Allies,J-11A,Red J-11A #002,xu,=CNF= 909,0,0,0,9.61999988555908,2.32891702651978,0,0,NaN,NaN,0,0,NaN,0.999916673328284,-0.00128019973982358,-0.0128639028429217,0,9.4339971877718,9.4339971877718,,,26.2799999713898,7.29108285903931,0.135768369089642,0.211267611042422
2011-06-01T04:37:35Z,1306903055,10F,56.3836488,27.2337224,9.62,-0.1,-0.7,144,14730.85,117539.8,144.3,Air+FixedWing,Red,Allies,J-11A,Red J-11A #002,xu,=CNF= 909,0.0078125,0,2.29525142648454e-05,9.61999988555908,2.32891702651978,0.0078125,0,NaN,NaN,0,0,NaN,0.999930858221861,-0.00220998571293523,-0.011570101136046,3.0517578125e-06,9.4339971877718,9.43400023952961,,,27.2799999713898,7.29108285903931,0.135768369089642,0.211267611042422
2011-06-01T04:37:36Z,1306903056,10F,56.3836488,27.2337224,9.62,-0.1,-0.7,144,14730.85,117539.8,144.3,Air+FixedWing,Red,Allies,J-11A,Red J-11A #002,xu,=CNF= 909,0,0,0,9.61999988555908,2.32891702651978,0,0,NaN,NaN,0,0,NaN,0.999923765775072,-0.0017450927263794,-0.0122170019894838,0,9.4339971877718,9.4339971877718,,,28.2799999713898,7.29108285903931,0.135768369089642,0.211267611042422
2011-06-01T04:37:37Z,1306903057,10F,56.3836488,27.2337224,9.62,-0.1,-0.7,144,14730.85,117539.8,144.3,Air+FixedWing,Red,Allies,J-11A,Red J-11A #002,xu,=CNF= 909,0,0,0,9.61999988555908,2.32891702651978,0,0,NaN,NaN,0,0,NaN,0.999923765775072,-0.0017450927263794,-0.0122170019894838,0,9.4339971877718,9.4339971877718,,,29.2799999713898,7.29108285903931,0.135768369089642,0.211267611042422
2011-06-01T04:37:38Z,1306903058,10F,56.3836488,27.2337224,9.62,-0.1,-0.7,144,14730.85,117539.8,144.3,Air+FixedWing,Red,Allies,J-11A,Red J-11A #002,xu,=CNF= 909,0,0,0,9.61999988555908,2.32891702651978,0,0,NaN,NaN,0,0,NaN,0.999930858221861,-0.00220998571293523,-0.011570101136046,0,9.4339971877718,9.4339971877718,,,30.2799999713898,7.29108285903931,0.135768369089642,0.211267611042422
2011-06-01T04:37:39Z,1306903059,10F,56.3836488,27.2337224,9.62,-0.1,-0.7,144,14730.85,117539.79,144.3,Air+FixedWing,Red,Allies,J-11A,Red J-11A #002,xu,=CNF= 909,0.0078125,0,2.29525142648454e-05,9.61999988555908,2.32891702651978,0.0078125,0,NaN,NaN,0,0,NaN,0.999916673328284,-0.00128019973982358,-0.0128639028429217,3.0517578125e-06,9.4339971877718,9.43400023952961,,,31.2799999713898,7.29108285903931,0.135768369089642,0.211267611042422
2011-06-01T04:37:40Z,1306903060,10F,56.3836488,27.2337224,9.62,-0.1,-0.7,144,14730.85,117539.79,144.3,Air+FixedWing,Red,Allies,J-11A,Red J-11A #002,xu,=CNF= 909,0,0,0,9.61999988555908,2.32891702651978,0,0,NaN,NaN,0,0,NaN,0.999916673328284,-0.00128019973982358,-0.0128639028429217,0,9.4339971877718,9.4339971877718,,,32.2799999713898,7.29108285903931,0.135768369089642,0.211267611042422
2011-06-01T04:37:41Z,1306903061,10F,56.3836488,27.2337224,9.62,-0.1,-0.7,144,14730.85,117539.8,144.3,Air+FixedWing,Red,Allies,J-11A,Red J-11A #002,xu,=CNF= 909,0.0078125,0,2.29525142648454e-05,9.61999988555908,2.32891702651978,0.0078125,0,NaN,NaN,0,0,NaN,0.999930858221861,-0.00220998571293523,-0.011570101136046,3.0517578125e-06,9.4339971877718,9.43400023952961,,,33.2799999713898,7.29108285903931,0.135768369089642,0.211267611042422
2011-06-01T04:37:42Z,1306903062,10F,56.3836488,27.2337224,9.62,-0.1,-0.7,144,14730.85,117539.8,144.3,Air+FixedWing,Red,Allies,J-11A,Red J-11A #002,xu,=CNF= 909,0,0,0,9.61999988555908,2.32891702651978,0,0,NaN,NaN,0,0,NaN,0.999921212587869,-0.00198769458574178,-0.0123913189275699,0,9.4339971877718,9.4339971877718,,,34.2799999713898,7.29108285903931,0.135768369089642,0.211267611042422
2011-06-01T04:37:43Z,1306903063,10F,56.3836488,27.2337224,9.62,-0.1,-0.7,144,14730.85,117539.8,144.3,Air+FixedWing,Red,Allies,J-11A,Red J-11A #002,xu,=CNF= 909,0.0029296875,0,8.60719284931702e-06,9.61999988555908,2.32891702651978,0.0029296875,0,NaN,NaN,0,0,NaN,0.99938622062973,-0.00206762967553449,-0.0124428984746299,4.29153442382813e-07,9.4339971877718,9.43399761692524,,,35.2799999713898,7.29108285903931,0.135768369089642,0.211267611042422
2011-06-01T04:37:44Z,1306903064,10F,56.3836488,27.2337224,9.61,-0.1,-0.6,144,14730.84,117539.8,144.3,Air+FixedWing,Red,Allies,J-11A,Red J-11A #002,xu,=CNF= 909,0.00861233241960279,0,2.53023578945364e-05,9.61476135253906,2.32367849349976,0.0068359375,-0.00523853302001953,NaN,NaN,0,0.0504352774299245,NaN,1.00101641264859,-0.000372230522374806,-0.0103271703242109,3.70861348528706e-06,9.42885994178772,9.4288636504012,,,36.2799999713898,7.29108285903931,0.135768369089642,0.216506144835541
2011-06-01T04:37:45Z,1306903065,10F,56.3836488,27.2337224,9.62,-0.1,-0.7,144,14730.85,117539.8,144.3,Air+FixedWing,Red,Allies,J-11A,Red J-11A #002,xu,=CNF= 909,0.0110819519870129,0,3.25579086162235e-05,9.61999988555908,2.32891702651978,0.009765625,0.00523853302001953,NaN,NaN,0,0.0504352774299245,NaN,0.999375872058666,-0.003361511962877,-0.0131234103206166,6.140482992123e-06,9.4339971877718,9.43400332825479,,,37.2799999713898,7.29108285903931,0.135768369089642,0.221744678628661
2011-06-01T04:37:46Z,1306903066,10F,56.3836488,27.2337224,9.62,-0.1,-0.6,144,14730.84,117539.8,144.3,Air+FixedWing,Red,Allies,J-11A,Red J-11A #002,xu,=CNF= 909,0.009765625,0,2.86906428310567e-05,9.61999988555908,2.32891702651978,0.009765625,0,NaN,NaN,0,0,NaN,0.999957014348015,-0.00140134364377882,-0.00924380292139338,4.76837158203125e-06,9.4339971877718,9.43400195614338,,,38.2799999713898,7.29108285903931,0.135768369089642,0.221744678628661
2011-06-01T04:37:47Z,1306903067,10F,56.3836488,27.2337224,9.62,-0.1,-0.6,144,14730.84,117539.79,144.3,Air+FixedWing,Red,Allies,J-11A,Red J-11A #002,xu,=CNF= 909,0.0078125,0,2.29525142648454e-05,9.61999988555908,2.32891702651978,0.0078125,0,NaN,NaN,0,0,NaN,0.999931627723288,-0.000815345229984709,-0.0117656117928248,3.0517578125e-06,9.4339971877718,9.43400023952961,,,39.2799999713898,7.29108285903931,0.135768369089642,0.221744678628661
2011-06-01T04:37:48Z,1306903068,10F,56.3836488,27.2337224,9.62,-0.1,-0.6,144,14730.84,117539.8,144.3,Air+FixedWing,Red,Allies,J-11A,Red J-11A #002,xu,=CNF= 909,0.0078125,0,2.29525142648454e-05,9.61999988555908,2.32891702651978,0.0078125,0,NaN,NaN,0,0,NaN,0.999949517868062,-0.00221001827823045,-0.00982487086816524,3.0517578125e-06,9.4339971877718,9.43400023952961,,,40.2799999713898,7.29108285903931,0.135768369089642,0.221744678628661
2011-06-01T04:37:49Z,1306903069,10F,56.3836488,27.2337224,9.62,-0.1,-0.6,144,14730.84,117539.8,144.3,Air+FixedWing,Red,Allies,J-11A,Red J-11A #002,xu,=CNF= 909,0,0,0,9.61999988555908,2.32891702651978,0,0,NaN,NaN,0,0,NaN,0.999949517868062,-0.00221001827823045,-0.00982487086816524,0,9.4339971877718,9.4339971877718,,,41.2799999713898,7.29108285903931,0.135768369089642,0.221744678628661
2011-06-01T04:37:50Z,1306903070,10F,56.3836488,27.2337224,9.62,-0.1,-0.6,144,14730.84,117539.79,144.3,Air+FixedWing,Red,Allies,J-11A,Red J-11A #002,xu,=CNF= 909,0.0078125,0,2.29525142648454e-05,9.61999988555908,2.32891702651978,0.0078125,0,NaN,NaN,0,0,NaN,0.99993759110488,-0.00128023624606662,-0.0111186981512716,3.0517578125e-06,9.4339971877718,9.43400023952961,,,42.2799999713898,7.29108285903931,0.135768369089642,0.221744678628661
2011-06-01T04:37:51Z,1306903071,10F,56.3836488,27.2337224,9.62,-0.1,-0.6,144,14730.84,117539.79,144.3,Air+FixedWing,Red,Allies,J-11A,Red J-11A #002,xu,=CNF= 909,0,0,0,9.61999988555908,2.32891702651978,0,0,NaN,NaN,0,0,NaN,0.99993759110488,-0.00128023624606662,-0.0111186981512716,0,9.4339971877718,9.4339971877718,,,43.2799999713898,7.29108285903931,0.135768369089642,0.221744678628661
2011-06-01T04:37:52Z,1306903072,10F,56.3836488,27.2337224,9.62,-0.1,-0.6,144,14730.84,117539.8,144.3,Air+FixedWing,Red,Allies,J-11A,Red J-11A #002,xu,=CNF= 909,0.0078125,0,2.29525142648454e-05,9.61999988555908,2.32891702651978,0.0078125,0,NaN,NaN,0,0,NaN,0.999955481249654,-0.00267490929431237,-0.00917795722661207,3.0517578125e-06,9.4339971877718,9.43400023952961,,,44.2799999713898,7.29108285903931,0.135768369089642,0.221744678628661
2011-06-01T04:37:53Z,1306903073,10F,56.3836488,27.2337224,9.62,0,-0.6,144,14730.84,117539.79,144.3,Air+FixedWing,Red,Allies,J-11A,Red J-11A #002,xu,=CNF= 909,0.0078125,0,2.29525142648454e-05,9.61999988555908,2.32891702651978,0.0078125,0,NaN,NaN,0.0957688771274189,0,NaN,0.998917896993442,0.00173844611628669,-0.0111738653534176,3.0517578125e-06,9.4339971877718,9.43400023952961,,,45.2799999713898,7.29108285903931,0.135768369089642,0.221744678628661
2011-06-01T04:37:54Z,1306903074,10F,56.3836488,27.2337225,9.61,0,-0.6,144,14730.85,117539.8,144.3,Air+FixedWing,Red,Allies,J-11A,Red J-11A #002,xu,=CNF= 909,0.0160127188690656,0,4.70441109585798e-05,9.60999965667725,2.31884098052979,0.012506102026236,-0.0100002288818359,NaN,NaN,0.199987938897973,0,NaN,1.00095933218733,-0.00208225266775768,-0.0109976852543443,1.28203582789865e-05,9.42419031331539,9.42420313367367,,,46.2799999713898,7.29115867614746,0.146370227345481,0.23631877712888
2011-06-01T04:37:55Z,1306903075,10F,56.3836487,27.2337224,9.61,0,-0.6,144,14730.84,117539.8,144.3,Air+FixedWing,Red,Allies,J-11A,Red J-11A #002,xu,=CNF= 909,0.009765625,0,2.86906395994628e-05,9.60999965667725,2.3188738822937,0.009765625,0,NaN,NaN,0,0,NaN,0.999954780761771,0.00129389825025529,-0.00954207579488343,4.76837158203125e-06,9.42419031331539,9.42419508168697,,,47.2799999713898,7.29112577438354,0.159113216126811,0.249061785026048
2011-06-01T04:37:56Z,1306903076,10F,56.3836489,27.2337225,9.61,-0.1,-0.6,144,14730.85,117539.8,144.3,Air+FixedWing,Red,Allies,J-11A,Red J-11A #002,xu,=CNF= 909,0.005859375,0,1.72143837596777e-05,9.60999965667725,2.31890773773193,0.005859375,0,NaN,NaN,0.146166048238273,0,NaN,0.999940522092119,-0.00318042783957241,-0.0105221524042915,1.71661376953125e-06,9.42419031331539,9.42419202992916,,,48.2799999713898,7.29109191894531,0.173340408241952,0.263288998273043
2011-06-01T04:37:57Z,1306903077,10F,56.3836488,27.2337224,9.61,-0.1,-0.6,144,14730.84,117539.79,144.3,Air+FixedWing,Red,Allies,J-11A,Red J-11A #002,xu,=CNF= 909,0.009765625,0,2.86906395994628e-05,9.60999965667725,2.31891679763794,0.009765625,0,NaN,NaN,0.199987938897973,0,NaN,0.99993612561126,-0.000330140449313729,-0.0114169710247617,4.76837158203125e-06,9.42419031331539,9.42419508168697,,,49.2799999713898,7.29108285903931,0.181852382989525,0.271800985852751
2011-06-01T04:37:58Z,1306903078,10F,56.3836488,27.2337224,9.61,-0.1,-0.6,144,14730.84,117539.8,144.3,Air+FixedWing,Red,Allies,J-11A,Red J-11A #002,xu,=CNF= 909,0.0078125,0,2.29525116795703e-05,9.60999965667725,2.31891679763794,0.0078125,0,NaN,NaN,0.018517389891845,0,NaN,0.999949831396809,-0.00204843165836864,-0.00982487086816524,3.0517578125e-06,9.42419031331539,9.4241933650732,,,50.2799999713898,7.29108285903931,0.181852382989525,0.271800985852751
2011-06-01T04:37:59Z,1306903079,10F,56.3836488,27.2337224,9.61,0,-0.6,144,14730.84,117539.8,144.3,Air+FixedWing,Red,Allies,J-11A,Red J-11A #002,xu,=CNF= 909,0,0,0,9.60999965667725,2.31891679763794,0,0,NaN,NaN,0.088883532845837,0,NaN,0.999951819230984,-0.000464879854938567,-0.00982487086816524,0,9.42419031331539,9.42419031331539,,,51.2799999713898,7.29108285903931,0.181852382989525,0.271800985852751
2011-06-01T04:38:00Z,1306903080,10F,56.3836488,27.2337224,9.61,-0.1,-0.6,144,14730.84,117539.79,144.3,Air+FixedWing,Red,Allies,J-11A,Red J-11A #002,xu,=CNF= 909,0.0078125,0,2.29525116795703e-05,9.60999965667725,2.31891679763794,0.0078125,0,NaN,NaN,0.103436384790673,0,NaN,0.999931627723288,-0.000815345229984709,-0.0117656117928248,3.0517578125e-06,9.42419031331539,9.4241933650732,,,52.2799999713898,7.29108285903931,0.181852382989525,0.271800985852751
2011-06-01T04:38:01Z,1306903081,10F,56.3836488,27.2337224,9.61,-0.1,-0.6,144,14730.84,117539.8,144.3,Air+FixedWing,Red,Allies,J-11A,Red J-11A #002,xu,=CNF= 909,0.0078125,0,2.29525116795703e-05,9.60999965667725,2.31891679763794,0.0078125,0,NaN,NaN,0.106714875592279,0,NaN,0.99995684065112,-0.00211030282236649,-0.00917795722661207,3.0517578125e-06,9.42419031331539,9.4241933650732,,,53.2799999713898,7.29108285903931,0.181852382989525,0.271800985852751
2011-06-01T04:38:02Z,1306903082,10F,56.3836488,27.2337224,9.61,-0.1,-0.6,144,14730.84,117539.79,144.3,Air+FixedWing,Red,Allies,J-11A,Red J-11A #002,xu,=CNF= 909,0.0078125,0,2.29525116795703e-05,9.60999965667725,2.31887912750244,0.0078125,0,NaN,NaN,0.166656615748311,0,NaN,0.99993759110488,-0.00128023624606662,-0.0111186981512716,3.0517578125e-06,9.42419031331539,9.4241933650732,,,54.2799999713898,7.2911205291748,0.186623213778523,0.276571823560947
2011-06-01T04:38:03Z,1306903083,10F,56.3836488,27.2337224,9.61,-0.1,-0.6,144,14730.84,117539.79,144.3,Air+FixedWing,Red,Allies,J-11A,Red J-11A #002,xu,=CNF= 909,0,0,0,9.60999965667725,2.31891679763794,0,0,NaN,NaN,0,0,NaN,0.999943554486471,-0.00174512726214854,-0.0104717845097184,0,9.42419031331539,9.42419031331539,,,55.2799999713898,7.29108285903931,0.191394044567521,0.281342661269144
2011-06-01T04:38:04Z,1306903084,10F,56.3836488,27.2337224,9.61,-0.1,-0.6,144,14730.84,117539.79,144.3,Air+FixedWing,Red,Allies,J-11A,Red J-11A #002,xu,=CNF= 909,0,0,0,9.60999965667725,2.31891679763794,0,0,NaN,NaN,0,0,NaN,0.99993759110488,-0.00128023624606662,-0.0111186981512716,0,9.42419031331539,9.42419031331539,,,56.2799999713898,7.29108285903931,0.191394044567521,0.281342661269144
2011-06-01T04:38:05Z,1306903085,10F,56.3836488,27.2337224,9.61,-0,-0.6,144,14730.84,117539.8,144.3,Air+FixedWing,Red,Allies,J-11A,Red J-11A #002,xu,=CNF= 909,0.0078125,0,2.29525116795703e-05,9.60999965667725,2.31891679763794,0.0078125,0,NaN,NaN,0.133325292598649,0,NaN,0.999957985185051,-0.000237910275848834,-0.00924380292139338,3.0517578125e-06,9.42419031331539,9.4241933650732,,,57.2799999713898,7.29108285903931,0.191394044567521,0.281342661269144
2011-06-01T04:38:06Z,1306903086,10F,56.3836488,27.2337224,9.61,-0.1,-0.6,144,14730.85,117539.8,144.3,Air+FixedWing,Red,Allies,J-11A,Red J-11A #002,xu,=CNF= 909,0.009765625,0,2.86906395994628e-05,9.60999965667725,2.31891679763794,0.009765625,0,NaN,NaN,0.114255404435973,0,NaN,0.999930784455422,-0.00261457603125126,-0.0116339204032621,4.76837158203125e-06,9.42419031331539,9.42419508168697,,,58.2799999713898,7.29108285903931,0.191394044567521,0.281342661269144
2011-06-01T04:38:07Z,1306903087,10F,56.3836488,27.2337224,9.61,0,-0.6,144,14730.84,117539.8,144.3,Air+FixedWing,Red,Allies,J-11A,Red J-11A #002,xu,=CNF= 909,0.009765625,0,2.86906395994628e-05,9.60999965667725,2.31891679763794,0.009765625,0,NaN,NaN,0,0,NaN,0.999951129671403,0.000808686406409558,-0.00989071656294655,4.76837158203125e-06,9.42419031331539,9.42419508168697,,,59.2799999713898,7.29108285903931,0.191394044567521,0.281342661269144
2011-06-01T04:38:08Z,1306903088,10F,56.3836488,27.2337225,9.61,-0.1,-0.6,144,14730.84,117539.8,144.3,Air+FixedWing,Red,Allies,J-11A,Red J-11A #002,xu,=CNF= 909,0,0,0,9.60999965667725,2.31884098052979,0,0,NaN,NaN,0.14999095417348,0,NaN,0.999949517868062,-0.00221001827823045,-0.00982487086816524,0,9.42419031331539,9.42419031331539,,,60.2799999713898,7.29115867614746,0.20199590282336,0.291944535492439
2011-06-01T04:38:09Z,1306903089,10F,56.3836488,27.2337224,9.61,-0.1,-0.6,144,14730.84,117539.79,144.3,Air+FixedWing,Red,Allies,J-11A,Red J-11A #002,xu,=CNF= 909,0.0078125,0,2.29525116795703e-05,9.60999965667725,2.31891679763794,0.0078125,0,NaN,NaN,0,0,NaN,0.999931627723288,-0.000815345229984709,-0.0117656117928248,3.0517578125e-06,9.42419031331539,9.4241933650732,,,61.2799999713898,7.29108285903931,0.212597761079198,0.302546409715734
2011-06-01T04:38:10Z,1306903090,10F,56.3836488,27.2337225,9.61,-0.1,-0.6,144,14730.84,117539.8,144.3,Air+FixedWing,Red,Allies,J-11A,Red J-11A #002,xu,=CNF= 909,0.0078125,0,2.29525116795703e-05,9.60999965667725,2.31884098052979,0.0078125,0,NaN,NaN,0,0,NaN,0.999949517868062,-0.00221001827823045,-0.00982487086816524,3.0517578125e-06,9.42419031331539,9.4241933650732,,,62.2799999713898,7.29115867614746,0.223371158790124,0.313319823394116
2011-06-01T04:38:11Z,1306903091,10F,56.3836488,27.2337225,9.61,-0.1,-0.6,144,14730.84,117539.8,144.3,Air+FixedWing,Red,Allies,J-11A,Red J-11A #002,xu,=CNF= 909,0,0,0,9.60999965667725,2.31884098052979,0,0,NaN,NaN,0,0,NaN,0.999943554486471,-0.00174512726214854,-0.0104717845097184,0,9.42419031331539,9.42419031331539,,,63.2799999713898,7.29115867614746,0.223931399092857,0.31388006375597
2011-06-01T04:38:12Z,1306903092,10F,56.3836488,27.2337225,9.61,-0.1,-0.6,144,14730.84,117539.8,144.3,Air+FixedWing,Red,Allies,J-11A,Red J-11A #002,xu,=CNF= 909,0,0,0,9.60999965667725,2.31886005401611,0,0,NaN,NaN,0,0,NaN,0.999943554486471,-0.00174512726214854,-0.0104717845097184,0,9.42419031331539,9.42419031331539,,,64.2799999713898,7.29113960266113,0.224491637504011,0.314440303823017
2011-06-01T04:38:13Z,1306903093,10F,56.3836488,27.2337225,9.61,-0.1,-0.6,144,14730.84,117539.8,144.3,Air+FixedWing,Red,Allies,J-11A,Red J-11A #002,xu,=CNF= 909,0,0,0,9.60999965667725,2.31886005401611,0,0,NaN,NaN,0,0,NaN,0.999943554486471,-0.00174512726214854,-0.0104717845097184,0,9.42419031331539,9.42419031331539,,,65.2799999713898,7.29113960266113,0.22505187644691,0.315000543239082
2011-06-01T04:38:14Z,1306903094,10F,56.3836488,27.2337225,9.61,-0.1,-0.6,144,14730.84,117539.8,144.3,Air+FixedWing,Red,Allies,J-11A,Red J-11A #002,xu,=CNF= 909,0,0,0,9.60999965667725,2.31886005401611,0,0,NaN,NaN,0,0,NaN,0.999943554486471,-0.00174512726214854,-0.0104717845097184,0,9.42419031331539,9.42419031331539,,,66.2799999713898,7.29113960266113,0.225612114916915,0.315560782478046
2011-06-01T04:38:15Z,1306903095,10F,56.3836488,27.2337225,9.61,-0.1,-0.6,144,14730.84,117539.8,144.3,Air+FixedWing,Red,Allies,J-11A,Red J-11A #002,xu,=CNF= 909,0,0,0,9.60999965667725,2.31886005401611,0,0,NaN,NaN,0,0,NaN,0.999943554486471,-0.00174512726214854,-0.0104717845097184,0,9.42419031331539,9.42419031331539,,,67.2799999713898,7.29113960266113,0.226172355160792,0.316121023253941
2011-06-01T04:38:16Z,1306903096,10F,56.3836488,27.2337225,9.61,-0.1,-0.6,144,14730.84,117539.8,144.3,Air+FixedWing,Red,Allies,J-11A,Red J-11A #002,xu,=CNF= 909,0,0,0,9.60999965667725,2.31886005401611,0,0,NaN,NaN,0,0,NaN,0.999943554486471,-0.00174512726214854,-0.0104717845097184,0,9.42419031331539,9.42419031331539,,,68.2799999713898,7.29113960266113,0.226732593512821,0.316681262434053
2011-06-01T04:38:17Z,1306903097,10F,56.3836488,27.2337225,9.61,-0.1,-0.6,144,14730.84,117539.8,144.3,Air+FixedWing,Red,Allies,J-11A,Red J-11A #002,xu,=CNF= 909,0,0,0,9.60999965667725,2.31887912750244,0,0,NaN,NaN,0,0,NaN,0.999943554486471,-0.00174512726214854,-0.0104717845097184,0,9.42419031331539,9.42419031331539,,,69.2799999713898,7.2911205291748,0.227292832869761,0.317241502737053
2011-06-01T04:38:18Z,1306903098,10F,56.3836488,27.2337225,9.61,-0.1,-0.6,144,14730.84,117539.8,144.3,Air+FixedWing,Red,Allies,J-11A,Red J-11A #002,xu,=CNF= 909,0,0,0,9.60999965667725,2.31887912750244,0,0,NaN,NaN,0,0,NaN,0.999943554486471,-0.00174512726214854,-0.0104717845097184,0,9.42419031331539,9.42419031331539,,,70.2799999713898,7.2911205291748,0.227853071339766,0.317801742390058
2011-06-01T04:38:19Z,1306903099,10F,56.3836488,27.2337225,9.61,-0.1,-0.6,144,14730.84,117539.8,144.3,Air+FixedWing,Red,Allies,J-11A,Red J-11A #002,xu,=CNF= 909,0,0,0,9.60999965667725,2.31887912750244,0,0,NaN,NaN,0,0,NaN,0.999943554486471,-0.00174512726214854,-0.0104717845097184,0,9.42419031331539,9.42419031331539,,,71.2799999713898,7.2911205291748,0.228413310696707,0.318361982279017
2011-06-01T04:38:20Z,1306903100,10F,56.3836488,27.2337224,9.61,-0.1,-0.6,144,14730.84,117539.8,144.3,Air+FixedWing,Red,Allies,J-11A,Red J-11A #002,xu,=CNF= 909,0,0,0,9.60999965667725,2.31887912750244,0,0,NaN,NaN,0,0,NaN,0.999943554486471,-0.00174512726214854,-0.0104717845097184,0,9.42419031331539,9.42419031331539,,,72.2799999713898,7.2911205291748,0.228973549580753,0.318922221932022
2011-06-01T04:38:21Z,1306903101,10F,56.3836488,27.2337224,9.61,-0.1,-0.6,144,14730.84,117539.8,144.3,Air+FixedWing,Red,Allies,J-11A,Red J-11A #002,xu,=CNF= 909,0,0,0,9.60999965667725,2.31887912750244,0,0,NaN,NaN,0,0,NaN,0.999943554486471,-0.00174512726214854,-0.0104717845097184,0,9.42419031331539,9.42419031331539,,,73.2799999713898,7.2911205291748,0.229533788523652,0.319482461820981
2011-06-01T04:38:22Z,1306903102,10F,56.3836488,27.2337224,9.61,-0.1,-0.6,144,14730.84,117539.8,144.3,Air+FixedWing,Red,Allies,J-11A,Red J-11A #002,xu,=CNF= 909,0,0,0,9.60999965667725,2.31889820098877,0,0,NaN,NaN,0,0,NaN,0.999943554486471,-0.00174512726214854,-0.0104717845097184,0,9.42419031331539,9.42419031331539,,,74.2799999713898,7.29110145568848,0.230094027289722,0.320042701415135
2011-06-01T04:38:23Z,1306903103,10F,56.3836488,27.2337224,9.61,-0.1,-0.6,144,14730.84,117539.8,144.3,Air+FixedWing,Red,Allies,J-11A,Red J-11A #002,xu,=CNF= 909,0,0,0,9.60999965667725,2.31889820098877,0,0,NaN,NaN,0,0,NaN,0.999943554486471,-0.00174512726214854,-0.0104717845097184,0,9.42419031331539,9.42419031331539,,,75.2799999713898,7.29110145568848,0.230654266350598,0.320602941776989
2011-06-01T04:38:24Z,1306903104,10F,56.3836488,27.2337224,9.61,-0.1,-0.6,144,14730.84,117539.8,144.3,Air+FixedWing,Red,Allies,J-11A,Red J-11A #002,xu,=CNF= 909,0,0,0,9.60999965667725,2.31889820098877,0,0,NaN,NaN,0,0,NaN,0.999943554486471,-0.00174512726214854,-0.0104717845097184,0,9.42419031331539,9.42419031331539,,,76.2799999713898,7.29110145568848,0.231214505589563,0.321163181429994
2011-06-01T04:38:25Z,1306903105,10F,56.3836488,27.2337224,9.61,-0.1,-0.6,144,14730.84,117539.8,144.3,Air+FixedWing,Red,Allies,J-11A,Red J-11A #002,xu,=CNF= 909,0,0,0,9.60999965667725,2.31889820098877,0,0,NaN,NaN,0,0,NaN,0.999943554486471,-0.00174512726214854,-0.0104717845097184,0,9.42419031331539,9.42419031331539,,,77.2799999713898,7.29110145568848,0.231774744946503,0.321723421497041
2011-06-01T04:38:26Z,1306903106,10F,56.3836488,27.2337224,9.61,-0.1,-0.6,144,14730.84,117539.8,144.3,Air+FixedWing,Red,Allies,J-11A,Red J-11A #002,xu,=CNF= 909,0,0,0,9.60999965667725,2.31889820098877,0,0,NaN,NaN,0,0,NaN,0.999943554486471,-0.00174512726214854,-0.0104717845097184,0,9.42419031331539,9.42419031331539,,,78.2799999713898,7.29110145568848,0.232334982943615,0.322283660499064
2011-06-01T04:38:27Z,1306903107,10F,56.3836488,27.2337224,9.61,-0.1,-0.6,144,14730.84,117539.8,144.3,Air+FixedWing,Red,Allies,J-11A,Red J-11A #002,xu,=CNF= 909,0,0,0,9.60999965667725,2.31889820098877,0,0,NaN,NaN,0,0,NaN,0.999943554486471,-0.00174512726214854,-0.0104717845097184,0,9.42419031331539,9.42419031331539,,,79.2799999713898,7.29110145568848,0.232895222832308,0.322843900860918
2011-06-01T04:38:28Z,1306903108,10F,56.3836488,27.2337224,9.61,-0.1,-0.6,144,14730.84,117539.8,144.3,Air+FixedWing,Red,Allies,J-11A,Red J-11A #002,xu,=CNF= 909,0,0,0,9.60999965667725,2.31891679763794,0,0,NaN,NaN,0,0,NaN,0.999943554486471,-0.00174512726214854,-0.0104717845097184,0,9.42419031331539,9.42419031331539,,,80.2799999713898,7.29108285903931,0.233455461657503,0.323404140927965
2011-06-01T04:38:29Z,1306903109,10F,56.3836488,27.2337224,9.61,-0.1,-0.6,144,14730.84,117539.8,144.3,Air+FixedWing,Red,Allies,J-11A,Red J-11A #002,xu,=CNF= 909,0,0,0,9.60999965667725,2.31891679763794,0,0,NaN,NaN,0,0,NaN,0.999943554486471,-0.00174512726214854,-0.0104717845097184,0,9.42419031331539,9.42419031331539,,,81.2799999713898,7.29108285903931,0.234015700600403,0.323964380226054
2011-06-01T04:38:30Z,1306903110,10F,56.3836488,27.2337224,9.61,-0.1,-0.6,144,14730.84,117539.8,144.3,Air+FixedWing,Red,Allies,J-11A,Red J-11A #002,xu,=CNF= 909,0,0,0,9.60999965667725,2.31891679763794,0,0,NaN,NaN,0,0,NaN,0.999943554486471,-0.00174512726214854,-0.0104717845097184,0,9.42419031331539,9.42419031331539,,,82.2799999713898,7.29108285903931,0.23414455650107,0.324093237072526
2011-06-01T04:38:31Z,1306903111,10F,56.3836488,27.2337224,9.61,-0.1,-0.6,144,14730.84,117539.8,144.3,Air+FixedWing,Red,Allies,J-11A,Red J-11A #002,xu,=CNF= 909,0,0,0,9.60999965667725,2.31891679763794,0,0,NaN,NaN,0,0,NaN,0.999949517868062,-0.00221001827823045,-0.00982487086816524,0,9.42419031331539,9.42419031331539,,,83.2799999713898,7.29108285903931,0.23414455650107,0.324093237072526
2011-06-01T04:38:32Z,1306903112,10F,56.3836488,27.2337224,9.61,-0.1,-0.6,144,14730.84,117539.79,144.3,Air+FixedWing,Red,Allies,J-11A,Red J-11A #002,xu,=CNF= 909,0.0078125,0,2.29525116795703e-05,9.60999965667725,2.31891679763794,0.0078125,0,NaN,NaN,0,0,NaN,0.999931627723288,-0.000815345229984709,-0.0117656117928248,3.0517578125e-06,9.42419031331539,9.4241933650732,,,84.2799999713898,7.29108285903931,0.23414455650107,0.324093237072526
2011-06-01T04:38:33Z,1306903113,10F,56.3836488,27.2337224,9.61,-0.1,-0.6,144,14730.84,117539.8,144.3,Air+FixedWing,Red,Allies,J-11A,Red J-11A #002,xu,=CNF= 909,0.0078125,0,2.29525116795703e-05,9.60999965667725,2.31891679763794,0.0078125,0,NaN,NaN,0,0,NaN,0.999955481249654,-0.00267490929431237,-0.00917795722661207,3.0517578125e-06,9.42419031331539,9.4241933650732,,,85.2799999713898,7.29108285903931,0.23414455650107,0.324093237072526
2011-06-01T04:38:34Z,1306903114,10F,56.3836488,27.2337224,9.61,-0.1,-0.6,144,14730.84,117539.79,144.3,Air+FixedWing,Red,Allies,J-11A,Red J-11A #002,xu,=CNF= 909,0.0078125,0,2.29525116795703e-05,9.60999965667725,2.31891679763794,0.0078125,0,NaN,NaN,0,0,NaN,0.99993759110488,-0.00128023624606662,-0.0111186981512716,3.0517578125e-06,9.42419031331539,9.4241933650732,,,86.2799999713898,7.29108285903931,0.23414455650107,0.324093237072526
2011-06-01T04:38:35Z,1306903115,10F,56.3836488,27.2337224,9.61,-0.1,-0.6,144,14730.84,117539.79,144.3,Air+FixedWing,Red,Allies,J-11A,Red J-11A #002,xu,=CNF= 909,0,0,0,9.60999965667725,2.31891679763794,0,0,NaN,NaN,0,0,NaN,0.999943554486471,-0.00174512726214854,-0.0104717845097184,0,9.42419031331539,9.42419031331539,,,87.2799999713898,7.29108285903931,0.23414455650107,0.324093237072526
2011-06-01T04:38:36Z,1306903116,10F,56.3836488,27.2337224,9.61,-0.1,-0.6,144,14730.84,117539.79,144.3,Air+FixedWing,Red,Allies,J-11A,Red J-11A #002,xu,=CNF= 909,0,0,0,9.60999965667725,2.31891679763794,0,0,NaN,NaN,0,0,NaN,0.99993759110488,-0.00128023624606662,-0.0111186981512716,0,9.42419031331539,9.42419031331539,,,88.2799999713898,7.29108285903931,0.23414455650107,0.324093237072526
2011-06-01T04:38:37Z,1306903117,10F,56.3836488,27.2337224,9.61,-0.1,-0.6,144,14730.84,117539.8,144.3,Air+FixedWing,Red,Allies,J-11A,Red J-11A #002,xu,=CNF= 909,0.0078125,0,2.29525116795703e-05,9.60999965667725,2.31891679763794,0.0078125,0,NaN,NaN,0,0,NaN,0.999949517868062,-0.00221001827823045,-0.00982487086816524,3.0517578125e-06,9.42419031331539,9.4241933650732,,,89.2799999713898,7.29108285903931,0.23414455650107,0.324093237072526
2011-06-01T04:38:38Z,1306903118,10F,56.3836488,27.2337224,9.61,-0.1,-0.6,144,14730.84,117539.8,144.3,Air+FixedWing,Red,Allies,J-11A,Red J-11A #002,xu,=CNF= 909,0,0,0,9.60999965667725,2.31891679763794,0,0,NaN,NaN,0,0,NaN,0.999943554486471,-0.00174512726214854,-0.0104717845097184,0,9.42419031331539,9.42419031331539,,,90.2799999713898,7.29108285903931,0.23414455650107,0.324093237072526
2011-06-01T04:38:39Z,1306903119,10F,56.3836488,27.2337224,9.61,-0.1,-0.6,144,14730.84,117539.8,144.3,Air+FixedWing,Red,Allies,J-11A,Red J-11A #002,xu,=CNF= 909,0,0,0,9.60999965667725,2.31891679763794,0,0,NaN,NaN,0,0,NaN,0.999943554486471,-0.00174512726214854,-0.0104717845097184,0,9.42419031331539,9.42419031331539,,,91.2799999713898,7.29108285903931,0.23414455650107,0.324093237072526
2011-06-01T04:38:40Z,1306903120,10F,56.3836488,27.2337224,9.61,-0.1,-0.6,144,14730.84,117539.8,144.3,Air+FixedWing,Red,Allies,J-11A,Red J-11A #002,xu,=CNF= 909,0,0,0,9.60999965667725,2.31891679763794,0,0,NaN,NaN,0,0,NaN,0.999949517868062,-0.00221001827823045,-0.00982487086816524,0,9.42419031331539,9.42419031331539,,,92.2799999713898,7.29108285903931,0.23414455650107,0.324093237072526
2011-06-01T04:38:41Z,1306903121,10F,56.3836488,27.2337224,9.61,-0.1,-0.6,144,14730.84,117539.79,144.3,Air+FixedWing,Red,Allies,J-11A,Red J-11A #002,xu,=CNF= 909,0.0078125,0,2.29525116795703e-05,9.60999965667725,2.31891679763794,0.0078125,0,NaN,NaN,0,0,NaN,0.99993759110488,-0.00128023624606662,-0.0111186981512716,3.0517578125e-06,9.42419031331539,9.4241933650732,,,93.2799999713898,7.29108285903931,0.23414455650107,0.324093237072526
2011-06-01T04:38:42Z,1306903122,10F,56.3836488,27.2337224,9.61,-0.1,-0.6,144,14730.84,117539.79,144.3,Air+FixedWing,Red,Allies,J-11A,Red J-11A #002,xu,=CNF= 909,0,0,0,9.60999965667725,2.31891679763794,0,0,NaN,NaN,0,0,NaN,0.99993759110488,-0.00128023624606662,-0.0111186981512716,0,9.42419031331539,9.42419031331539,,,94.2799999713898,7.29108285903931,0.23414455650107,0.324093237072526
2011-06-01T04:38:43Z,1306903123,10F,56.3836488,27.2337224,9.61,-0.1,-0.6,144,14730.84,117539.8,144.3,Air+FixedWing,Red,Allies,J-11A,Red J-11A #002,xu,=CNF= 909,0.0078125,0,2.29525116795703e-05,9.60999965667725,2.31891679763794,0.0078125,0,NaN,NaN,0,0,NaN,0.999955481249654,-0.00267490929431237,-0.00917795722661207,3.0517578125e-06,9.42419031331539,9.4241933650732,,,95.2799999713898,7.29108285903931,0.23414455650107,0.324093237072526
2011-06-01T04:38:44Z,1306903124,10F,56.3836488,27.2337224,9.61,-0.1,-0.6,144,14730.84,117539.79,144.3,Air+FixedWing,Red,Allies,J-11A,Red J-11A #002,xu,=CNF= 909,0.0078125,0,2.29525116795703e-05,9.60999965667725,2.31891679763794,0.0078125,0,NaN,NaN,0,0,NaN,0.999931627723288,-0.000815345229984709,-0.0117656117928248,3.0517578125e-06,9.42419031331539,9.4241933650732,,,96.2799999713898,7.29108285903931,0.23414455650107,0.324093237072526
2011-06-01T04:38:45Z,1306903125,10F,56.3836488,27.2337224,9.61,-0.1,-0.6,144,14730.84,117539.8,144.3,Air+FixedWing,Red,Allies,J-11A,Red J-11A #002,xu,=CNF= 909,0.0078125,0,2.29525116795703e-05,9.60999965667725,2.31891679763794,0.0078125,0,NaN,NaN,0,0.0197823405926261,NaN,0.999949517868062,-0.00221001827823045,-0.00982487086816524,3.0517578125e-06,9.42419031331539,9.4241933650732,,,97.2799999713898,7.29108285903931,0.23414455650107,0.324093237072526
2011-06-01T04:38:46Z,1306903126,10F,56.3836488,27.2337225,9.61,-0.1,-0.6,144,14730.84,117539.8,144.3,Air+FixedWing,Red,Allies,J-11A,Red J-11A #002,xu,=CNF= 909,0,0,0,9.60999965667725,2.31884098052979,0,0,NaN,NaN,0,0,NaN,0.999943733300128,-0.00174512757421874,-0.0104603292420506,0,9.42419031331539,9.42419031331539,,,98.2799999713898,7.29115867614746,0.24527650644264,0.335225203868489
2011-06-01T04:38:47Z,1306903127,10F,56.3836488,27.2337225,9.61,-0.1,-0.6,144,14730.84,117539.8,144.3,Air+FixedWing,Red,Allies,J-11A,Red J-11A #002,xu,=CNF= 909,0,0,0,9.60999965667725,2.31884098052979,0,0,NaN,NaN,0,0.00989117029631303,NaN,0.999945700250358,-0.00174513100699097,-0.0102693950757384,0,9.42419031331539,9.42419031331539,,,99.2799999713898,7.29115867614746,0.24527650644264,0.335225203868489
2011-06-01T04:38:48Z,1306903128,10F,56.3836488,27.2337225,9.61,-0.1,-0.6,144,14730.84,117539.8,144.3,Air+FixedWing,Red,Allies,J-11A,Red J-11A #002,xu,=CNF= 909,0,0,0,9.60999965667725,2.31884098052979,0,0,NaN,NaN,0,0,NaN,0.999947667200587,-0.00174513443976321,-0.0100784618407488,0,9.42419031331539,9.42419031331539,,,100.27999997139,7.29115867614746,0.24527650644264,0.335225203868489
2011-06-01T04:38:49Z,1306903129,10F,56.3836488,27.2337225,9.61,-0.1,-0.6,144,14730.84,117539.8,144.3,Air+FixedWing,Red,Allies,J-11A,Red J-11A #002,xu,=CNF= 909,0,0,0,9.60999965667725,2.31884098052979,0,0,NaN,NaN,0,0,NaN,0.999949574546264,-0.00174513776851204,-0.00988752767443657,0,9.42419031331539,9.42419031331539,,,101.27999997139,7.29115867614746,0.24527650644264,0.335225203868489
2011-06-01T04:38:50Z,1306903130,10F,56.3836488,27.2337225,9.61,-0.1,-0.6,144,14730.84,117539.8,144.3,Air+FixedWing,Red,Allies,J-11A,Red J-11A #002,xu,=CNF= 909,0,0,0,9.60999965667725,2.31884098052979,0,0,NaN,NaN,0,0.0139882274201861,NaN,0.999951362682836,-0.00174514088921407,-0.00969659350812435,0,9.42419031331539,9.42419031331539,,,102.27999997139,7.29115867614746,0.24527650644264,0.335225203868489
2011-06-01T04:38:51Z,1306903131,10F,56.3836488,27.2337225,9.61,-0.1,-0.5,144,14730.84,117539.8,144.3,Air+FixedWing,Red,Allies,J-11A,Red J-11A #002,xu,=CNF= 909,0,0,0,9.60999965667725,2.31884098052979,0,0,NaN,NaN,0,0,NaN,0.999953210423961,-0.0017451441139395,-0.00950565841048956,0,9.42419031331539,9.42419031331539,,,103.27999997139,7.29115867614746,0.24527650644264,0.335225203868489
2011-06-01T04:38:52Z,1306903132,10F,56.3836488,27.2337225,9.61,-0.1,-0.5,144,14730.84,117539.8,144.3,Air+FixedWing,Red,Allies,J-11A,Red J-11A #002,xu,=CNF= 909,0,0,0,9.60999965667725,2.31884098052979,0,0,NaN,NaN,0,0,NaN,0.999954998560533,-0.00174514723464153,-0.00931472331285477,0,9.42419031331539,9.42419031331539,,,104.27999997139,7.29115867614746,0.24527650644264,0.335225203868489
2011-06-01T04:38:53Z,1306903133,10F,56.3836488,27.2337225,9.61,-0.1,-0.5,144,14730.84,117539.8,144.3,Air+FixedWing,Red,Allies,J-11A,Red J-11A #002,xu,=CNF= 909,0,0,0,9.60999965667725,2.31884098052979,0,0,NaN,NaN,0,0,NaN,0.999956786697105,-0.00174515035534356,-0.00912378821521997,0,9.42419031331539,9.42419031331539,,,105.27999997139,7.29115867614746,0.24527650644264,0.335225203868489
2011-06-01T04:38:54Z,1306903134,10F,56.3836488,27.2337225,9.61,-0.1,-0.5,144,14730.84,117539.8,144.3,Air+FixedWing,Red,Allies,J-11A,Red J-11A #002,xu,=CNF= 909,0,0,0,9.60999965667725,2.31884098052979,0,0,NaN,NaN,0,0,NaN,0.999958515229125,-0.00174515337202219,-0.00893285218626261,0,9.42419031331539,9.42419031331539,,,106.27999997139,7.29115867614746,0.24527650644264,0.335225203868489
2011-06-01T04:38:55Z,1306903135,10F,56.3836488,27.2337225,9.61,-0.1,-0.5,144,14730.84,117539.8,144.3,Air+FixedWing,Red,Allies,J-11A,Red J-11A #002,xu,=CNF= 909,0,0,0,9.60999965667725,2.31884098052979,0,0,NaN,NaN,0,0.0139882274201861,NaN,0.999960243761144,-0.00174515638870082,-0.00874191615730524,0,9.42419031331539,9.42419031331539,,,107.27999997139,7.29115867614746,0.24527650644264,0.335225203868489
2011-06-01T04:38:56Z,1306903136,10F,56.3836488,27.2337225,9.61,-0.1,-0.6,144,14730.84,117539.8,144.3,Air+FixedWing,Red,Allies,J-11A,Red J-11A #002,xu,=CNF= 909,0,0,0,9.60999965667725,2.31884098052979,0,0,NaN,NaN,0,0.0463937064216612,NaN,0.999943554486471,-0.00174512726214854,-0.0104717845097184,0,9.42419031331539,9.42419031331539,,,108.27999997139,7.29115867614746,0.245691684259663,0.335640382099552
2011-06-01T04:38:57Z,1306903137,10F,56.3836488,27.2337225,9.61,-0.1,-0.6,144,14730.84,117539.8,144.3,Air+FixedWing,Red,Allies,J-11A,Red J-11A #002,xu,=CNF= 909,0,0,0,9.60999965667725,2.31886005401611,0,0,NaN,NaN,0,0.0197823405926261,NaN,0.999943554486471,-0.00174512726214854,-0.0104717845097184,0,9.42419031331539,9.42419031331539,,,109.27999997139,7.29113960266113,0.248286543992167,0.338235246149029
2011-06-01T04:38:58Z,1306903138,10F,56.3836488,27.2337224,9.61,-0.1,-0.6,144,14730.84,117539.8,144.3,Air+FixedWing,Red,Allies,J-11A,Red J-11A #002,xu,=CNF= 909,0,0,0,9.60999965667725,2.31887912750244,0,0,NaN,NaN,0,0,NaN,0.999943554486471,-0.00174512726214854,-0.0104717845097184,0,9.42419031331539,9.42419031331539,,,110.27999997139,7.2911205291748,0.250881403842377,0.340830109902441
2011-06-01T04:38:59Z,1306903139,10F,56.3836488,27.2337224,9.61,-0.1,-0.6,144,14730.84,117539.8,144.3,Air+FixedWing,Red,Allies,J-11A,Red J-11A #002,xu,=CNF= 909,0,0,0,9.60999965667725,2.31889820098877,0,0,NaN,NaN,0,0,NaN,0.999943554486471,-0.00174512726214854,-0.0104717845097184,0,9.42419031331539,9.42419031331539,,,111.27999997139,7.29110145568848,0.253476264224604,0.343424973655853
2011-06-01T04:39:00Z,1306903140,10F,56.3836488,27.2337224,9.61,-0.1,-0.6,144,14730.84,117539.8,144.3,Air+FixedWing,Red,Allies,J-11A,Red J-11A #002,xu,=CNF= 909,0,0,0,9.60999965667725,2.31891679763794,0,0,NaN,NaN,0,0.0370093733476075,NaN,1.0000190323174,-0.00136032851968959,-0.00332858325837279,0,9.42419031331539,9.42419031331539,,,112.27999997139,7.29108285903931,0.256071123129025,0.346019836936371
2011-06-01T04:39:01Z,1306903141,10F,56.3836492,27.233722,9.61,-0.1,-0.8,144,14730.88,117539.74,144.3,Air+FixedWing,Red,Allies,J-11A,Red J-11A #002,xu,=CNF= 909,0.0701563478736789,0,0.000206113842427726,9.60999965667725,2.31940126419067,0.0701563478736789,0,NaN,NaN,0,0.0261695779877396,NaN,1.00096043133894,-0.00232412905162964,0.0633640149674051,0.000246095657348633,9.42419031331539,9.42443640897274,,,113.27999997139,7.29059839248657,0.310726498637899,0.400675294587503
2011-06-01T04:39:02Z,1306903142,10F,56.3836541,27.233716,9.61,-0.1,-0.6,144,14731.36,117539.07,144.3,Air+FixedWing,Red,Allies,J-11A,Red J-11A #002,xu,=CNF= 909,0.825994089174712,0.830800890922546,0.00242670578931694,9.60999965667725,2.32659387588501,0.825994089174712,0,-0.181442811408566,-0.122613816338966,0,0.0370093733476075,NaN,0.999956505973875,-0.00116758556986061,0.088048412640357,0.0341133117675781,9.42419031331539,9.45830362508297,,,114.27999997139,7.28340578079224,1.14045327909576,1.23040332466067
2011-06-01T04:39:03Z,1306903143,10F,56.3836648,27.2337028,9.6,-0.1,-0.6,144,14732.41,117537.62,144.3,Air+FixedWing,Red,Allies,J-11A,Red J-11A #002,xu,=CNF= 909,1.79212519261175,1.80113363265991,0.0052651225320369,9.59999942779541,2.33208274841309,1.79209729128081,-0.0100002288818359,-0.33959164001815,0.0712938554544966,0.142832915923307,0.0261695779877396,NaN,1.00037111476985,-0.00268632106030904,0.0722373915618061,0.160585635299685,9.41438343885899,9.57496907415867,,,115.27999997139,7.26791667938232,2.95252760743945,3.04250797602686
2011-06-01T04:39:04Z,1306903144,10F,56.3836802,27.2336838,9.59,-0.1,-0.6,144,14733.93,117535.5,144.3,Air+FixedWing,Red,Allies,J-11A,Red J-11A #002,xu,=CNF= 909,2.60323776538079,2.60081815719604,0.00764810609545705,9.58571434020996,2.33930635452271,2.60319857086958,-0.0142850875854492,-0.299807539207603,-0.0287355238855256,0,0,NaN,0.999715376529634,-0.000744326126753361,0.0728918216811409,0.338842343155238,9.400374553442,9.73921689659724,,,116.27999997139,7.24640798568726,5.55621880744419,5.64624227951304
2011-06-01T04:39:05Z,1306903145,10F,56.3837006,27.2336588,9.56,-0.1,-0.6,144,14735.93,117532.72,144.3,Air+FixedWing,Red,Allies,J-11A,Red J-11A #002,xu,=CNF= 909,3.42806841764392,3.42547988891602,0.0100713902185892,9.55999946594238,2.34075307846069,3.42797196915159,-0.0257148742675781,-0.27160062214477,-0.0329870884474966,0.161895040081887,0,NaN,1.00139457861718,-0.00117193259483437,0.072335187758421,0.587582653802383,9.37515687626839,9.96273953007077,,,117.27999997139,7.21924638748169,9.00264587904318,9.09277045523083
2011-06-01T04:39:06Z,1306903146,10F,56.3837257,27.2336278,9.54,-0.1,-0.6,144,14738.41,117529.28,144.3,Air+FixedWing,Red,Allies,J-11A,Red J-11A #002,xu,=CNF= 909,4.24019157534684,4.24440860748291,0.0124573401503394,9.53999996185303,2.35223340988159,4.24014440974344,-0.0199995040893555,-0.311400226987144,-0.0576731679523199,0.199987938897973,0,NaN,0.99972404149476,-0.00408075222844197,0.0663360138130383,0.898961229782117,9.3555440625906,10.2545052923727,,,118.27999997139,7.18776655197144,13.2494642464578,13.3396422730344
2011-06-01T04:39:07Z,1306903147,10F,56.3837553,27.2335913,9.51,-0.1,-0.6,144.1,14741.32,117525.22,144.3,Air+FixedWing,Red,Allies,J-11A,Red J-11A #002,xu,=CNF= 909,4.99340315525929,4.99172401428223,0.0146702099395349,9.51000022888184,2.35645580291748,4.99331303715029,-0.0299997329711914,-0.305834916186893,0.194099986389209,0.0571394015849829,0.273756036326947,NaN,1.00027742914501,-0.0121337732816649,0.0690148768572113,1.24670375354767,9.32612437445641,10.5728281280041,,,119.27999997139,7.15354442596436,18.2589405135456,18.349215848075
2011-06-01T04:39:08Z,1306903148,10F,56.3837886,27.2335485,9.48,-0.3,-0.7,146.3,14744.59,117520.46,146.6,Air+FixedWing,Red,Allies,J-11A,Red J-11A #002,xu,=CNF= 909,5.77413181562934,5.76793670654297,0.0169639202270797,9.47523784637451,2.3574423789978,5.77402717356139,-0.0347623825073242,-0.31482208381825,2.08832312240499,0.295282738197991,3.97342669116178,NaN,1.00103465612167,-0.113502689729501,-0.00964917829877839,1.66702991121315,9.29203412261486,10.959064033828,,,120.27999997139,7.11779546737671,24.0524141658484,24.1428024137204
2011-06-01T04:39:09Z,1306903149,10F,56.3838132,27.2335002,9.46,-1.2,-0.9,162.6,14747,117515.1,162.9,Air+FixedWing,Red,Allies,J-11A,Red J-11A #002,xu,=CNF= 909,5.87479785924354,5.86877202987671,0.0172596652863533,9.45761871337891,2.37210083007812,5.87477143837316,-0.0176191329956055,-0.570192113383402,4.46647899056131,1.12381200527722,15.2782930600506,NaN,0.992463468695292,-0.263301243305251,-0.00805192385726235,1.72566249434863,9.27475565555572,11.0004181499044,,,121.27999997139,7.08551788330078,29.9573798421206,30.0478031401637
2011-06-01T04:39:10Z,1306903150,10F,56.3838151,27.2334449,9.42,-1.4,-0.6,187.3,14747.16,117508.97,187.6,Air+FixedWing,Red,Allies,J-11A,Red J-11A #002,xu,=CNF= 909,6.1351481004262,6.12768459320068,0.0180245449061939,9.42000007629395,2.36297273635864,6.13503276701169,-0.0376186370849609,-0.390267454695323,0.0443656984150764,0,22.492565965208,NaN,0.997740882524659,-0.205587533152512,0.0586840116101692,1.88200211070816,9.2378643748188,11.119866485527,,,122.27999997139,7.0570273399353,36.1136577294432,36.2042050731772
2011-06-01T04:39:11Z,1306903151,10F,56.3837984,27.2333856,9.4,-0.5,-0.6,200.3,14745.47,117502.4,200.6,Air+FixedWing,Red,Allies,J-11A,Red J-11A #002,xu,=CNF= 909,6.7831021394189,6.78006839752197,0.0199281744420575,9.39999961853027,2.3717679977417,6.78307265297067,-0.0200004577636719,-0.442893187366539,-3.68615492447532,0.952365505930024,12.3401804668638,NaN,0.999894121180998,-0.0464070404338311,-0.0242796906574513,2.30052373168946,9.21825062590599,11.5187743575955,,,123.27999997139,7.02823162078857,42.9232802490575,43.0138670105746
2011-06-01T04:39:12Z,1306903152,10F,56.3837788,27.2333284,9.38,-0.4,-0.4,200.3,14743.5,117496.09,200.6,Air+FixedWing,Red,Allies,J-11A,Red J-11A #002,xu,=CNF= 909,6.61414927444471,6.60996007919312,0.0194318020274379,9.38476181030273,2.38476181030273,6.61413172183907,-0.0152378082275391,-0.323915895752864,-1.77029259496883,0.17141042741064,2.68810952687432,NaN,1.00058478359514,-0.0590258451072502,-0.0172037704785991,2.18734853123187,9.20330744070053,11.3906559719324,,,124.27999997139,7,49.5723058638373,49.6629198768073
2011-06-01T04:39:13Z,1306903153,10F,56.3837547,27.2332738,9.38,-0.6,-0.3,204.8,14741.08,117490.05,205,Air+FixedWing,Red,Allies,J-11A,Red J-11A #002,xu,=CNF= 909,6.50477899602206,6.49939060211182,0.0191104805257749,9.38000011444092,2.38000011444092,6.5047772531688,-0.00476169586181641,-0.244429359257358,-0.109693271851953,0.199987938897973,3.6070997403119,NaN,0.99797888006357,-0.0747854029437606,0.0427089842210526,2.11560748935449,9.1986378122282,11.3142453015827,,,125.27999997139,7,56.1036157866981,56.1942411434506
2011-06-01T04:39:14Z,1306903154,10F,56.3837227,27.2332177,9.36,-0.6,-0.3,209.2,14737.89,117483.84,209.5,Air+FixedWing,Red,Allies,J-11A,Red J-11A #002,xu,=CNF= 909,6.97508215152395,6.97081089019775,0.0204921860798026,9.35999965667725,2.35999965667725,6.97505347665502,-0.0200004577636719,-0.22082107565151,-0.131372811137157,0.133325292598649,4.46927409235578,NaN,1.00162651867014,-0.05890889709469,0.025856613668758,2.4325885510254,9.17902406331539,11.6116126143408,,,126.27999997139,7,63.101512250732,63.1921764688068
2011-06-01T04:39:15Z,1306903155,10F,56.3836852,27.2331612,9.36,-0.4,-0.3,212,14734.14,117477.61,212.3,Air+FixedWing,Red,Allies,J-11A,Red J-11A #002,xu,=CNF= 909,7.27680650285164,7.27128744125366,0.0213786260410673,9.35999965667725,2.35999965667725,7.27680650285164,0,-0.291584231922452,-0.844907404432699,0.276173896612705,2.23130241975904,NaN,0.999124790520479,-0.010397114360011,0.0344216545497703,2.64759564399719,9.17902406331539,11.8266197073126,,,127.27999997139,7,70.4081552822262,70.4988302233116
2011-06-01T04:39:16Z,1306903156,10F,56.3836453,27.2331019,9.35,-0.4,-0.3,211.1,14730.15,117471.06,211.3,Air+FixedWing,Red,Allies,J-11A,Red J-11A #002,xu,=CNF= 909,7.66501690737657,7.65960597991943,0.0225191519851189,9.34999942779541,2.34999942779541,7.66501038393237,-0.0100002288818359,-0.242578828788624,-0.213505055399984,0.114255404435973,0.121544830446177,NaN,1.0009486900159,-0.00486082593000229,0.0508192513042674,2.93762420951844,9.16921718885899,12.1068413983774,,,128.27999997139,7,78.1049458051682,78.1956385318512
2011-06-01T04:39:17Z,1306903157,10F,56.3836026,27.2330384,9.35,-0.3,-0.3,211,14725.89,117464.04,211.3,Air+FixedWing,Red,Allies,J-11A,Red J-11A #002,xu,=CNF= 909,8.21477993705547,8.21191120147705,0.0241343069712002,9.34666633605957,2.34666633605957,8.21477926086566,-0.00333309173583984,-0.231439341141807,0.133290203389703,0.199987938897973,0.181038446159632,NaN,0.999723822818705,-0.00859042297784854,0.0340999759954058,3.37413047071245,9.16594854245186,12.5400790131643,,,129.27999997139,7,86.3419732996737,86.4326787737975
2011-06-01T04:39:18Z,1306903158,10F,56.3835575,27.2329719,9.34,-0.4,-0.3,211.1,14721.4,117456.7,211.3,Air+FixedWing,Red,Allies,J-11A,Red J-11A #002,xu,=CNF= 909,8.60055072415124,8.59788608551025,0.0252676657288824,9.3390474319458,2.3390474319458,8.60054734950041,-0.00761890411376953,-0.23388158679298,0.236877609681574,0.0190464627482566,0.0740187600354282,NaN,0.999973876854899,-0.00401371679193487,0.0210316701822282,3.69847363793492,9.15847694984913,12.8569505877841,,,130.27999997139,7,94.9818033727901,95.0725248621613
2011-06-01T04:39:19Z,1306903159,10F,56.3835115,27.2329034,9.33,-0.4,-0.3,210.6,14716.8,117449.13,210.9,Air+FixedWing,Red,Allies,J-11A,Red J-11A #002,xu,=CNF= 909,8.85811038583565,8.85494995117188,0.0260243508339176,9.32999992370605,2.32999992370605,8.85810576535662,-0.00904750823974609,-0.233731038033795,0.00667102418223313,0.17141042741064,0.312004882235607,NaN,0.999711973230469,0.000339445717294623,-0.0438253792819153,3.92330598038247,9.1496043751812,13.0729103555637,,,131.27999997139,7,103.863137440743,103.953876536047
2011-06-01T04:39:20Z,1306903160,10F,56.383468,27.2328374,9.32,-0.4,-0.3,210.2,14712.46,117441.85,210.5,Air+FixedWing,Red,Allies,J-11A,Red J-11A #002,xu,=CNF= 909,8.47949510393823,8.47661209106445,0.0249120095609417,9.31999969482422,2.31999969482422,8.47948920708876,-0.0100002288818359,-0.299148608570887,0.123004859064071,0.0475927581366489,0.476324639472848,NaN,1.00035155675554,0.00232438089256441,0.0567934544436936,3.59509186088562,9.13979750072479,12.7348893616104,,,132.27999997139,7,112.377069203782,112.467826619781
2011-06-01T04:39:21Z,1306903161,10F,56.3834222,27.2327664,9.31,-0.4,-0.3,209.5,14707.88,117434,209.7,Air+FixedWing,Red,Allies,J-11A,Red J-11A #002,xu,=CNF= 909,9.08782057071578,9.08578681945801,0.0266992131808103,9.30999946594238,2.30999946594238,9.08781506859307,-0.0100002288818359,-0.193835467573921,0.0767917321421592,0.123817669273991,0.764463640129241,NaN,1.00048782630121,0.00895436305921644,0.0759431407144224,4.12942413627625,9.12999062626839,13.2594147625446,,,133.27999997139,7,121.488543401424,121.579319611842
2011-06-01T04:39:22Z,1306903162,10F,56.3833737,27.2326884,9.3,-0.3,-0.3,208.5,14703.04,117425.38,208.8,Air+FixedWing,Red,Allies,J-11A,Red J-11A #002,xu,=CNF= 909,9.88380299750929,9.88268947601318,0.029037735889899,9.30000019073486,2.30000019073486,9.88379793945975,-0.00999927520751953,-0.271566347290368,0.0109786163727946,0,1.00370056740161,NaN,1.00042741549503,0.0116788636024589,0.0615632594799248,4.88447808467868,9.120184687047,14.0046627717257,,,134.27999997139,7,131.409909703553,131.500705427283
2011-06-01T04:39:23Z,1306903163,10F,56.3833236,27.2326044,9.29,-0.3,-0.3,207.6,14698.03,117416.11,207.9,Air+FixedWing,Red,Allies,J-11A,Red J-11A #002,xu,=CNF= 909,10.5410657857773,10.5351324081421,0.0309687121330006,9.28999996185303,2.28846025466919,10.5410610422058,-0.0100002288818359,-0.221290685776043,0.234080972027681,0,0.673850401896738,1730.97644342237,1.00041296633679,0.00113054325050077,0.072525394914728,5.55570339500428,9.1103778125906,14.6660812075949,,,135.27999997139,7.00153970718384,141.996848452048,142.08766432778
2011-06-01T04:39:24Z,1306903164,10F,56.3832704,27.2325141,9.28,-0.3,-0.4,207.5,14692.72,117406.13,207.8,Air+FixedWing,Red,Allies,J-11A,Red J-11A #002,xu,=CNF= 909,11.3033151111177,11.2970600128174,0.0332081289986192,9.27999973297119,2.27862596511841,11.3033106874333,-0.0100002288818359,-0.314230969869292,0.144793938951471,0.00950762332465775,0.252951920445323,2917.39722375515,0.999385919169765,-0.00142972794461366,0.058856401611052,6.38824662506104,9.10057093813419,15.4888175631952,,,136.27999997139,7.00137376785278,153.345616054943,153.436452857459
2011-06-01T04:39:25Z,1306903165,10F,56.3832146,27.2324184,9.26,-0.4,-0.3,207.4,14687.14,117395.57,207.7,Air+FixedWing,Red,Allies,J-11A,Red J-11A #002,xu,=CNF= 909,11.9431453521681,11.9386987686157,0.0350878851262011,9.26000022888184,2.26000022888184,11.9431286069795,-0.0199995040893555,-0.216670313216,0.0401131009434337,0,0.108352406775683,5000,1.00027395412664,-0.00444353928678824,0.0510153178345826,7.13193604515077,9.08095812445641,16.2128941696072,,,137.27999997139,7,165.341366972548,165.432237881747
