ISOTime,UnixTime,Id,Longitude,Latitude,Altitude,Roll,Pitch,Yaw,U,V,Heading,Type,Color,Coalition,Name,Group,Country,Pilot,TAS,CAS,M,ASL,AGL,GS,VS,AOA,AOS,RRT,TRT,TRD,G,LatG,LonG,Ek,Ep,Em,FFW,FFV,RelativeTime,Elev,GroundDistance,AirDistance
2011-06-01T04:34:43Z,1306902883,104,54.6572347,24.4245605,30.26,-0.1,-0.4,217.1,-161784.77,-191691.55,218.1,Air+FixedWing,Blue,Enemies,J-11A,Blue J-11A #002,cn,=CNF=707（七夕）,0.205323316239796,0.262722313404083,0.000603364158212265,30.2633323669434,2.26333236694336,NaN,NaN,NaN,NaN,NaN,NaN,NaN,NaN,NaN,NaN,NaN,29.6781908356285,NaN,,,0.349999904632568,28,NaN,NaN
2011-06-01T04:34:44Z,1306902884,104,54.6572349,24.4245608,30.19,0.2,-0.1,217.1,-161784.75,-191691.52,218.1,Air+FixedWing,Blue,Enemies,J-11A,Blue J-11A #002,cn,=CNF=707（七夕）,0.0773842326722238,0,0.000227401529117483,30.1942844390869,2.19428443908691,0.0349385621484342,-0.0690479278564453,NaN,NaN,0.190476206787643,NaN,NaN,1.01170320810388,0.00397325302324117,0.00396197967248759,0.000299415973313444,29.6104779494572,29.6107773654305,,,1.34999990463257,28,0.0341552252547999,0.0770338027341012
2011-06-01T04:34:45Z,1306902885,104,54.6572348,24.4245607,30.24,0.1,-0.2,217.1,-161784.77,-191691.53,218.1,Air+FixedWing,Blue,Enemies,J-11A,Blue J-11A #002,cn,=CNF=707（七夕）,0.050775711050929,0,0.000149209727671967,30.2399997711182,2.23999977111816,0.0220970869120796,0.04571533203125,NaN,NaN,0.199987938897973,0.0523391626455858,NaN,0.996351540738701,0.00173896335761875,-0.00314672805701531,0.000128908641636372,29.6553093755436,29.6554382841852,,,2.34999990463257,28,0.0508392468335961,0.125698479694035
2011-06-01T04:34:46Z,1306902886,104,54.6572347,24.4245606,30.25,0.1,-0.3,217.1,-161784.78,-191691.55,218.1,Air+FixedWing,Blue,Enemies,J-11A,Blue J-11A #002,cn,=CNF=707（七夕）,0.0242546042575241,0,7.12746947107784e-05,30.25,2.25,0.0220970869120796,0.0100002288818359,NaN,NaN,0,0.0279764548403722,NaN,0.997920863989847,0.00228310574749955,-0.00969913684508175,2.94142913844553e-05,29.66511625,29.6651456642914,,,3.34999990463257,28,0.0647595975098479,0.142838566909821
2011-06-01T04:34:47Z,1306902887,104,54.6572348,24.4245606,30.24,0.1,-0.3,217.1,-161784.77,-191691.53,218.1,Air+FixedWing,Blue,Enemies,J-11A,Blue J-11A #002,cn,=CNF=707（七夕）,0.0242546042575241,0,7.12746866789626e-05,30.2399997711182,2.23999977111816,0.0220970869120796,-0.0100002288818359,NaN,NaN,0,0.0513960362511687,NaN,1.00102143955796,0.00245954124206529,-0.00175056668791837,2.94142913844553e-05,29.6553093755436,29.655338789835,,,4.34999990463257,28,0.0749091617145098,0.157087047903281
2011-06-01T04:34:48Z,1306902888,104,54.6572347,24.4245606,30.24,0.1,-0.3,217.1,-161784.77,-191691.55,218.1,Air+FixedWing,Blue,Enemies,J-11A,Blue J-11A #002,cn,=CNF=707（七夕）,0.015625,0,4.59156936775547e-05,30.2399997711182,2.23999977111816,0.015625,0,NaN,NaN,0,0.0419646855956116,NaN,0.999982319359087,-0.00147478862102297,-0.00676047352005429,1.220703125e-05,29.6553093755436,29.6553215825748,,,5.34999990463257,28,0.0843577058646423,0.166535636385996
2011-06-01T04:34:49Z,1306902889,104,54.6572347,24.4245606,30.24,0.1,-0.3,217.1,-161784.78,-191691.53,218.1,Air+FixedWing,Blue,Enemies,J-11A,Blue J-11A #002,cn,=CNF=707（七夕）,0.0220970869120796,0,6.49345967245665e-05,30.2399997711182,2.23999977111816,0.0220970869120796,0,NaN,NaN,0,0,NaN,0.999974858830412,0.00523607783993227,-0.00594838087120423,2.44140625e-05,29.6553093755436,29.6553337896061,,,6.34999990463257,28,0.0850448737319278,0.167222807609816
2011-06-01T04:34:50Z,1306902890,104,54.6572347,24.4245606,30.24,0.1,-0.3,217.1,-161784.77,-191691.53,218.1,Air+FixedWing,Blue,Enemies,J-11A,Blue J-11A #002,cn,=CNF=707（七夕）,0.015625,0,4.59156936775547e-05,30.2399997711182,2.23999977111816,0.015625,0,NaN,NaN,0,0,NaN,0.999992017581957,0.000491486432474553,-0.00425285044389657,1.220703125e-05,29.6553093755436,29.6553215825748,,,7.34999990463257,28,0.0850448737319278,0.167222807609816
2011-06-01T04:34:51Z,1306902891,104,54.6572347,24.4245606,30.24,0.1,-0.3,217.1,-161784.77,-191691.53,218.1,Air+FixedWing,Blue,Enemies,J-11A,Blue J-11A #002,cn,=CNF=707（七夕）,0,0,0,30.2399997711182,2.23999977111816,0,0,NaN,NaN,0,0,NaN,0.999989530739065,0.00272844191945963,-0.00398215289427988,0,29.6553093755436,29.6553093755436,,,8.34999990463257,28,0.0850448737319278,0.167222807609816
2011-06-01T04:34:52Z,1306902892,104,54.6572347,24.4245606,30.24,0.1,-0.3,217.1,-161784.77,-191691.55,218.1,Air+FixedWing,Blue,Enemies,J-11A,Blue J-11A #002,cn,=CNF=707（七夕）,0.015625,0,4.59156936775547e-05,30.2399997711182,2.23999977111816,0.015625,0,NaN,NaN,0,0,NaN,0.999987168470522,-0.000491651094274206,-0.00550666198197543,1.220703125e-05,29.6553093755436,29.6553215825748,,,9.34999990463257,28,0.0850448737319278,0.167222807609816
2011-06-01T04:34:53Z,1306902893,104,54.6572347,24.4245606,30.24,0.1,-0.3,217.1,-161784.78,-191691.55,218.1,Air+FixedWing,Blue,Enemies,J-11A,Blue J-11A #002,cn,=CNF=707（七夕）,0.015625,0,4.59156936775547e-05,30.2399997711182,2.23999977111816,0.015625,0,NaN,NaN,0,0,NaN,0.999977345673304,0.00299912235294719,-0.00621907842082091,1.220703125e-05,29.6553093755436,29.6553215825748,,,10.3499999046326,28,0.0850448737319278,0.167222807609816
2011-06-01T04:34:54Z,1306902894,104,54.6572347,24.4245606,30.24,0.1,-0.3,217.1,-161784.78,-191691.55,218.1,Air+FixedWing,Blue,Enemies,J-11A,Blue J-11A #002,cn,=CNF=707（七夕）,0,0,0,30.2399997711182,2.23999977111816,0,0,NaN,NaN,0,0,NaN,0.99998468162763,0.00174530439271087,-0.00523596443235874,0,29.6553093755436,29.6553093755436,,,11.3499999046326,28,0.0850448737319278,0.167222807609816
2011-06-01T04:34:55Z,1306902895,104,54.6572347,24.4245606,30.24,0.1,-0.3,217.1,-161784.78,-191691.55,218.1,Air+FixedWing,Blue,Enemies,J-11A,Blue J-11A #002,cn,=CNF=707（七夕）,0,0,0,30.2399997711182,2.23999977111816,0,0,NaN,NaN,0,0,NaN,0.999977345673304,0.00299912235294719,-0.00621907842082091,0,29.6553093755436,29.6553093755436,,,12.3499999046326,28,0.0850448737319278,0.167222807609816
2011-06-01T04:34:56Z,1306902896,104,54.6572347,24.4245606,30.24,0.1,-0.3,217.1,-161784.77,-191691.55,218.1,Air+FixedWing,Blue,Enemies,J-11A,Blue J-11A #002,cn,=CNF=707（七夕）,0.015625,0,4.59156936775547e-05,30.2399997711182,2.23999977111816,0.015625,0,NaN,NaN,0,0,NaN,0.999992017581957,0.000491486432474553,-0.00425285044389657,1.220703125e-05,29.6553093755436,29.6553215825748,,,13.3499999046326,28,0.0850448737319278,0.167222807609816
2011-06-01T04:34:57Z,1306902897,104,54.6572347,24.4245606,30.24,0.1,-0.3,217.1,-161784.77,-191691.55,218.1,Air+FixedWing,Blue,Enemies,J-11A,Blue J-11A #002,cn,=CNF=707（七夕）,0,0,0,30.2399997711182,2.23999977111816,0,0,NaN,NaN,0,0,NaN,0.99998468162763,0.00174530439271087,-0.00523596443235874,0,29.6553093755436,29.6553093755436,,,14.3499999046326,28,0.0850448737319278,0.167222807609816
2011-06-01T04:34:58Z,1306902898,104,54.6572347,24.4245606,30.24,0.1,-0.3,217.1,-161784.77,-191691.55,218.1,Air+FixedWing,Blue,Enemies,J-11A,Blue J-11A #002,cn,=CNF=707（七夕）,0,0,0,30.2399997711182,2.23999977111816,0,0,NaN,NaN,0,0,NaN,0.999979832516195,0.000762166865962115,-0.0064897759704376,0,29.6553093755436,29.6553093755436,,,15.3499999046326,28,0.0850448737319278,0.167222807609816
2011-06-01T04:34:59Z,1306902899,104,54.6572347,24.4245606,30.24,0.1,-0.3,217.1,-161784.77,-191691.53,218.1,Air+FixedWing,Blue,Enemies,J-11A,Blue J-11A #002,cn,=CNF=707（七夕）,0.015625,0,4.59156936775547e-05,30.2399997711182,2.23999977111816,0.015625,0,NaN,NaN,0,0,NaN,0.999989530739065,0.00272844191945963,-0.00398215289427988,1.220703125e-05,29.6553093755436,29.6553215825748,,,16.3499999046326,28,0.0850448737319278,0.167222807609816
2011-06-01T04:35:00Z,1306902900,104,54.6572347,24.4245606,30.24,0.1,-0.3,217.1,-161784.77,-191691.53,218.1,Air+FixedWing,Blue,Enemies,J-11A,Blue J-11A #002,cn,=CNF=707（七夕）,0,0,0,30.2399997711182,2.23999977111816,0,0,NaN,NaN,0,0,NaN,0.999996866693392,0.00147462395922331,-0.00299903890581771,0,29.6553093755436,29.6553093755436,,,17.3499999046326,28,0.0850448737319278,0.167222807609816
2011-06-01T04:35:01Z,1306902901,104,54.6572347,24.4245606,30.24,0.1,-0.3,217.1,-161784.78,-191691.55,218.1,Air+FixedWing,Blue,Enemies,J-11A,Blue J-11A #002,cn,=CNF=707（七夕）,0.0220970869120796,0,6.49345967245665e-05,30.2399997711182,2.23999977111816,0.0220970869120796,0,NaN,NaN,0,0,NaN,0.999967647450434,0.00103284729944968,-0.00872670149697864,2.44140625e-05,29.6553093755436,29.6553337896061,,,18.3499999046326,28,0.0850448737319278,0.167222807609816
2011-06-01T04:35:02Z,1306902902,104,54.6572347,24.4245606,30.24,0.1,-0.3,217.1,-161784.78,-191691.53,218.1,Air+FixedWing,Blue,Enemies,J-11A,Blue J-11A #002,cn,=CNF=707（七夕）,0.015625,0,4.59156936775547e-05,30.2399997711182,2.23999977111816,0.015625,0,NaN,NaN,0,0,NaN,0.999987043896173,0.00496539740644471,-0.00371145534466319,1.220703125e-05,29.6553093755436,29.6553215825748,,,19.3499999046326,28,0.0850448737319278,0.167222807609816
2011-06-01T04:35:03Z,1306902903,104,54.6572347,24.4245606,30.24,0.1,-0.3,217.1,-161784.77,-191691.55,218.1,Air+FixedWing,Blue,Enemies,J-11A,Blue J-11A #002,cn,=CNF=707（七夕）,0.0220970869120796,0,6.49345967245665e-05,30.2399997711182,2.23999977111816,0.0220970869120796,0,NaN,NaN,0,0,NaN,0.999987168470522,-0.000491651094274206,-0.00550666198197543,2.44140625e-05,29.6553093755436,29.6553337896061,,,20.3499999046326,28,0.0850448737319278,0.167222807609816
2011-06-01T04:35:04Z,1306902904,104,54.6572347,24.4245606,30.24,0.1,-0.3,217.1,-161784.77,-191691.55,218.1,Air+FixedWing,Blue,Enemies,J-11A,Blue J-11A #002,cn,=CNF=707（七夕）,0,0,0,30.2399997711182,2.23999977111816,0,0,NaN,NaN,0,0,NaN,0.999979832516195,0.000762166865962115,-0.0064897759704376,0,29.6553093755436,29.6553093755436,,,21.3499999046326,28,0.0850448737319278,0.167222807609816
2011-06-01T04:35:05Z,1306902905,104,54.6572347,24.4245606,30.24,0.1,-0.3,217.1,-161784.77,-191691.53,218.1,Air+FixedWing,Blue,Enemies,J-11A,Blue J-11A #002,cn,=CNF=707（七夕）,0.015625,0,4.59156936775547e-05,30.2399997711182,2.23999977111816,0.015625,0,NaN,NaN,0,0,NaN,0.999989530739065,0.00272844191945963,-0.00398215289427988,1.220703125e-05,29.6553093755436,29.6553215825748,,,22.3499999046326,28,0.0850448737319278,0.167222807609816
2011-06-01T04:35:06Z,1306902906,104,54.6572347,24.4245606,30.24,0.1,-0.3,217.1,-161784.77,-191691.53,218.1,Air+FixedWing,Blue,Enemies,J-11A,Blue J-11A #002,cn,=CNF=707（七夕）,0,0,0,30.2399997711182,2.23999977111816,0,0,NaN,NaN,0,0,NaN,0.999992017581957,0.000491486432474553,-0.00425285044389657,0,29.6553093755436,29.6553093755436,,,23.3499999046326,28,0.0850448737319278,0.167222807609816
2011-06-01T04:35:07Z,1306902907,104,54.6572347,24.4245606,30.24,0.1,-0.3,217.1,-161784.78,-191691.53,218.1,Air+FixedWing,Blue,Enemies,J-11A,Blue J-11A #002,cn,=CNF=707（七夕）,0.015625,0,4.59156936775547e-05,30.2399997711182,2.23999977111816,0.015625,0,NaN,NaN,0,0,NaN,0.999970009718977,0.00425294031318351,-0.00720219240928309,1.220703125e-05,29.6553093755436,29.6553215825748,,,24.3499999046326,28,0.0850448737319278,0.167222807609816
2011-06-01T04:35:08Z,1306902908,104,54.6572347,24.4245606,30.24,0.1,-0.3,217.1,-161784.77,-191691.53,218.1,Air+FixedWing,Blue,Enemies,J-11A,Blue J-11A #002,cn,=CNF=707（七夕）,0.015625,0,4.59156936775547e-05,30.2399997711182,2.23999977111816,0.015625,0,NaN,NaN,0,0,NaN,0.999999353536283,-0.000762331527761767,-0.0032697364554344,1.220703125e-05,29.6553093755436,29.6553215825748,,,25.3499999046326,28,0.0850448737319278,0.167222807609816
2011-06-01T04:35:09Z,1306902909,104,54.6572347,24.4245606,30.24,0.1,-0.3,217.1,-161784.78,-191691.53,218.1,Air+FixedWing,Blue,Enemies,J-11A,Blue J-11A #002,cn,=CNF=707（七夕）,0.015625,0,4.59156936775547e-05,30.2399997711182,2.23999977111816,0.015625,0,NaN,NaN,0,0,NaN,0.999970009718977,0.00425294031318351,-0.00720219240928309,1.220703125e-05,29.6553093755436,29.6553215825748,,,26.3499999046326,28,0.0850448737319278,0.167222807609816
2011-06-01T04:35:10Z,1306902910,104,54.6572347,24.4245606,30.24,0.1,-0.3,217.1,-161784.77,-191691.53,218.1,Air+FixedWing,Blue,Enemies,J-11A,Blue J-11A #002,cn,=CNF=707（七夕）,0.015625,0,4.59156936775547e-05,30.2399997711182,2.23999977111816,0.015625,0,NaN,NaN,0,0,NaN,0.999996866693392,0.00147462395922331,-0.00299903890581771,1.220703125e-05,29.6553093755436,29.6553215825748,,,27.3499999046326,28,0.0850448737319278,0.167222807609816
2011-06-01T04:35:11Z,1306902911,104,54.6572347,24.4245606,30.24,0.1,-0.3,217.1,-161784.77,-191691.55,218.1,Air+FixedWing,Blue,Enemies,J-11A,Blue J-11A #002,cn,=CNF=707（七夕）,0.015625,0,4.59156936775547e-05,30.2399997711182,2.23999977111816,0.015625,0,NaN,NaN,0,0,NaN,0.999987168470522,-0.000491651094274206,-0.00550666198197543,1.220703125e-05,29.6553093755436,29.6553215825748,,,28.3499999046326,28,0.0850448737319278,0.167222807609816
2011-06-01T04:35:12Z,1306902912,104,54.6572347,24.4245606,30.24,0.1,-0.3,217.1,-161784.78,-191691.55,218.1,Air+FixedWing,Blue,Enemies,J-11A,Blue J-11A #002,cn,=CNF=707（七夕）,0.015625,0,4.59156936775547e-05,30.2399997711182,2.23999977111816,0.015625,0,NaN,NaN,0,0,NaN,0.999977345673304,0.00299912235294719,-0.00621907842082091,1.220703125e-05,29.6553093755436,29.6553215825748,,,29.3499999046326,28,0.0850448737319278,0.167222807609816
2011-06-01T04:35:13Z,1306902913,104,54.6572347,24.4245606,30.24,0.1,-0.3,217.1,-161784.78,-191691.55,218.1,Air+FixedWing,Blue,Enemies,J-11A,Blue J-11A #002,cn,=CNF=707（七夕）,0,0,0,30.2399997711182,2.23999977111816,0,0,NaN,NaN,0,0,NaN,0.999977345673304,0.00299912235294719,-0.00621907842082091,0,29.6553093755436,29.6553093755436,,,30.3499999046326,28,0.0850448737319278,0.167222807609816
2011-06-01T04:35:14Z,1306902914,104,54.6572347,24.4245606,30.24,0.1,-0.3,217.1,-161784.77,-191691.55,218.1,Air+FixedWing,Blue,Enemies,J-11A,Blue J-11A #002,cn,=CNF=707（七夕）,0.015625,0,4.59156936775547e-05,30.2399997711182,2.23999977111816,0.015625,0,NaN,NaN,0,0,NaN,0.999987168470522,-0.000491651094274206,-0.00550666198197543,1.220703125e-05,29.6553093755436,29.6553215825748,,,31.3499999046326,28,0.0850448737319278,0.167222807609816
2011-06-01T04:35:15Z,1306902915,104,54.6572347,24.4245606,30.24,0.1,-0.3,217.1,-161784.77,-191691.53,218.1,Air+FixedWing,Blue,Enemies,J-11A,Blue J-11A #002,cn,=CNF=707（七夕）,0.015625,0,4.59156936775547e-05,30.2399997711182,2.23999977111816,0.015625,0,NaN,NaN,0,0,NaN,0.999989530739065,0.00272844191945963,-0.00398215289427988,1.220703125e-05,29.6553093755436,29.6553215825748,,,32.3499999046326,28,0.0850448737319278,0.167222807609816
2011-06-01T04:35:16Z,1306902916,104,54.6572347,24.4245606,30.24,0.1,-0.3,217.1,-161784.77,-191691.53,218.1,Air+FixedWing,Blue,Enemies,J-11A,Blue J-11A #002,cn,=CNF=707（七夕）,0,0,0,30.2399997711182,2.23999977111816,0,0,NaN,NaN,0,0,NaN,0.99998468162763,0.00174530439271087,-0.00523596443235874,0,29.6553093755436,29.6553093755436,,,33.3499999046326,28,0.0850448737319278,0.167222807609816
2011-06-01T04:35:17Z,1306902917,104,54.6572347,24.4245606,30.24,0.1,-0.3,217.1,-161784.77,-191691.53,218.1,Air+FixedWing,Blue,Enemies,J-11A,Blue J-11A #002,cn,=CNF=707（七夕）,0,0,0,30.2399997711182,2.23999977111816,0,0,NaN,NaN,0,0,NaN,0.999989530739065,0.00272844191945963,-0.00398215289427988,0,29.6553093755436,29.6553093755436,,,34.3499999046326,28,0.0850448737319278,0.167222807609816
2011-06-01T04:35:18Z,1306902918,104,54.6572347,24.4245606,30.24,0.1,-0.3,217.1,-161784.77,-191691.55,218.1,Air+FixedWing,Blue,Enemies,J-11A,Blue J-11A #002,cn,=CNF=707（七夕）,0.015625,0,4.59156936775547e-05,30.2399997711182,2.23999977111816,0.015625,0,NaN,NaN,0,0,NaN,0.999987168470522,-0.000491651094274206,-0.00550666198197543,1.220703125e-05,29.6553093755436,29.6553215825748,,,35.3499999046326,28,0.0850448737319278,0.167222807609816
2011-06-01T04:35:19Z,1306902919,104,54.6572347,24.4245606,30.24,0.1,-0.3,217.1,-161784.78,-191691.55,218.1,Air+FixedWing,Blue,Enemies,J-11A,Blue J-11A #002,cn,=CNF=707（七夕）,0.015625,0,4.59156936775547e-05,30.2399997711182,2.23999977111816,0.015625,0,NaN,NaN,0,0,NaN,0.999965160607542,0.00326980278643476,-0.00845600394736195,1.220703125e-05,29.6553093755436,29.6553215825748,,,36.3499999046326,28,0.0850448737319278,0.167222807609816
2011-06-01T04:35:20Z,1306902920,104,54.6572347,24.4245606,30.24,0.1,-0.3,217.1,-161784.77,-191691.53,218.1,Air+FixedWing,Blue,Enemies,J-11A,Blue J-11A #002,cn,=CNF=707（七夕）,0.0220970869120796,0,6.49345967245665e-05,30.2399997711182,2.23999977111816,0.0220970869120796,0,NaN,NaN,0,0,NaN,1.00000171580483,0.00245776148597207,-0.00174522736773885,2.44140625e-05,29.6553093755436,29.6553337896061,,,37.3499999046326,28,0.0850448737319278,0.167222807609816
2011-06-01T04:35:21Z,1306902921,104,54.6572347,24.4245606,30.24,0.1,-0.3,217.1,-161784.77,-191691.55,218.1,Air+FixedWing,Blue,Enemies,J-11A,Blue J-11A #002,cn,=CNF=707（七夕）,0.015625,0,4.59156936775547e-05,30.2399997711182,2.23999977111816,0.015625,0,NaN,NaN,0,0,NaN,0.999982319359087,-0.00147478862102297,-0.00676047352005429,1.220703125e-05,29.6553093755436,29.6553215825748,,,38.3499999046326,28,0.0850448737319278,0.167222807609816
2011-06-01T04:35:22Z,1306902922,104,54.6572347,24.4245606,30.24,0.1,-0.3,217.1,-161784.78,-191691.53,218.1,Air+FixedWing,Blue,Enemies,J-11A,Blue J-11A #002,cn,=CNF=707（七夕）,0.0220970869120796,0,6.49345967245665e-05,30.2399997711182,2.23999977111816,0.0220970869120796,0,NaN,NaN,0,0,NaN,0.999982194784739,0.00398225987969595,-0.00496526688274205,2.44140625e-05,29.6553093755436,29.6553337896061,,,39.3499999046326,28,0.0850448737319278,0.167222807609816
2011-06-01T04:35:23Z,1306902923,104,54.6572347,24.4245606,30.24,0.1,-0.3,217.1,-161784.78,-191691.53,218.1,Air+FixedWing,Blue,Enemies,J-11A,Blue J-11A #002,cn,=CNF=707（七夕）,0,0,0,30.2399997711182,2.23999977111816,0,0,NaN,NaN,0,0,NaN,0.999989530739065,0.00272844191945963,-0.00398215289427988,0,29.6553093755436,29.6553093755436,,,40.3499999046326,28,0.0850448737319278,0.167222807609816
2011-06-01T04:35:24Z,1306902924,104,54.6572347,24.4245606,30.24,0.1,-0.3,217.1,-161784.78,-191691.55,218.1,Air+FixedWing,Blue,Enemies,J-11A,Blue J-11A #002,cn,=CNF=707（七夕）,0.015625,0,4.59156936775547e-05,30.2399997711182,2.23999977111816,0.015625,0,NaN,NaN,0,0,NaN,0.999979832516195,0.000762166865962115,-0.0064897759704376,1.220703125e-05,29.6553093755436,29.6553215825748,,,41.3499999046326,28,0.0850448737319278,0.167222807609816
2011-06-01T04:35:25Z,1306902925,104,54.6572347,24.4245606,30.24,0.1,-0.3,217.1,-161784.78,-191691.55,218.1,Air+FixedWing,Blue,Enemies,J-11A,Blue J-11A #002,cn,=CNF=707（七夕）,0,0,0,30.2399997711182,2.23999977111816,0,0,NaN,NaN,0,0,NaN,0.999979832516195,0.000762166865962115,-0.0064897759704376,0,29.6553093755436,29.6553093755436,,,42.3499999046326,28,0.0850448737319278,0.167222807609816
2011-06-01T04:35:26Z,1306902926,104,54.6572347,24.4245606,30.24,0.1,-0.3,217.1,-161784.78,-191691.53,218.1,Air+FixedWing,Blue,Enemies,J-11A,Blue J-11A #002,cn,=CNF=707（七夕）,0.015625,0,4.59156936775547e-05,30.2399997711182,2.23999977111816,0.015625,0,NaN,NaN,0,0,NaN,0.999982194784739,0.00398225987969595,-0.00496526688274205,1.220703125e-05,29.6553093755436,29.6553215825748,,,43.3499999046326,28,0.0850448737319278,0.167222807609816
2011-06-01T04:35:27Z,1306902927,104,54.6572347,24.4245606,30.24,0.1,-0.3,217.1,-161784.77,-191691.53,218.1,Air+FixedWing,Blue,Enemies,J-11A,Blue J-11A #002,cn,=CNF=707（七夕）,0.015625,0,4.59156936775547e-05,30.2399997711182,2.23999977111816,0.015625,0,NaN,NaN,0,0,NaN,0.999992017581957,0.000491486432474553,-0.00425285044389657,1.220703125e-05,29.6553093755436,29.6553215825748,,,44.3499999046326,28,0.0850448737319278,0.167222807609816
2011-06-01T04:35:28Z,1306902928,104,54.6572347,24.4245606,30.24,0.1,-0.3,217.1,-161784.77,-191691.53,218.1,Air+FixedWing,Blue,Enemies,J-11A,Blue J-11A #002,cn,=CNF=707（七夕）,0,0,0,30.2399997711182,2.23999977111816,0,0,NaN,NaN,0,0,NaN,0.999989530739065,0.00272844191945963,-0.00398215289427988,0,29.6553093755436,29.6553093755436,,,45.3499999046326,28,0.0850448737319278,0.167222807609816
2011-06-01T04:35:29Z,1306902929,104,54.6572347,24.4245606,30.24,0.1,-0.3,217.1,-161784.77,-191691.55,218.1,Air+FixedWing,Blue,Enemies,J-11A,Blue J-11A #002,cn,=CNF=707（七夕）,0.015625,0,4.59156936775547e-05,30.2399997711182,2.23999977111816,0.015625,0,NaN,NaN,0,0,NaN,0.999979832516195,0.000762166865962115,-0.0064897759704376,1.220703125e-05,29.6553093755436,29.6553215825748,,,46.3499999046326,28,0.0850448737319278,0.167222807609816
2011-06-01T04:35:30Z,1306902930,104,54.6572347,24.4245606,30.24,0.1,-0.3,217.1,-161784.77,-191691.55,218.1,Air+FixedWing,Blue,Enemies,J-11A,Blue J-11A #002,cn,=CNF=707（七夕）,0,0,0,30.2399997711182,2.23999977111816,0,0,NaN,NaN,0,0,NaN,0.999987168470522,-0.000491651094274206,-0.00550666198197543,0,29.6553093755436,29.6553093755436,,,47.3499999046326,28,0.0850448737319278,0.167222807609816
2011-06-01T04:35:31Z,1306902931,104,54.6572347,24.4245606,30.24,0.1,-0.3,217.1,-161784.78,-191691.53,218.1,Air+FixedWing,Blue,Enemies,J-11A,Blue J-11A #002,cn,=CNF=707（七夕）,0.0220970869120796,0,6.49345967245665e-05,30.2399997711182,2.23999977111816,0.0220970869120796,0,NaN,NaN,0,0,NaN,0.999982194784739,0.00398225987969595,-0.00496526688274205,2.44140625e-05,29.6553093755436,29.6553337896061,,,48.3499999046326,28,0.0850448737319278,0.167222807609816
2011-06-01T04:35:32Z,1306902932,104,54.6572347,24.4245606,30.24,0.1,-0.3,217.1,-161784.78,-191691.53,218.1,Air+FixedWing,Blue,Enemies,J-11A,Blue J-11A #002,cn,=CNF=707（七夕）,0,0,0,30.2399997711182,2.23999977111816,0,0,NaN,NaN,0,0,NaN,0.999977345673304,0.00299912235294719,-0.00621907842082091,0,29.6553093755436,29.6553093755436,,,49.3499999046326,28,0.0850448737319278,0.167222807609816
2011-06-01T04:35:33Z,1306902933,104,54.6572347,24.4245606,30.24,0.1,-0.3,217.1,-161784.77,-191691.53,218.1,Air+FixedWing,Blue,Enemies,J-11A,Blue J-11A #002,cn,=CNF=707（七夕）,0.015625,0,4.59156936775547e-05,30.2399997711182,2.23999977111816,0.015625,0,NaN,NaN,0,0,NaN,0.999996866693392,0.00147462395922331,-0.00299903890581771,1.220703125e-05,29.6553093755436,29.6553215825748,,,50.3499999046326,28,0.0850448737319278,0.167222807609816
2011-06-01T04:35:34Z,1306902934,104,54.6572347,24.4245606,30.24,0.1,-0.3,217.1,-161784.77,-191691.55,218.1,Air+FixedWing,Blue,Enemies,J-11A,Blue J-11A #002,cn,=CNF=707（七夕）,0.015625,0,4.59156936775547e-05,30.2399997711182,2.23999977111816,0.015625,0,NaN,NaN,0,0,NaN,0.999974983404761,-0.000220970660786644,-0.00774358750851646,1.220703125e-05,29.6553093755436,29.6553215825748,,,51.3499999046326,28,0.0850448737319278,0.167222807609816
2011-06-01T04:35:35Z,1306902935,104,54.6572347,24.4245606,30.24,0.1,-0.3,217.1,-161784.77,-191691.53,218.1,Air+FixedWing,Blue,Enemies,J-11A,Blue J-11A #002,cn,=CNF=707（七夕）,0.015625,0,4.59156936775547e-05,30.2399997711182,2.23999977111816,0.015625,0,NaN,NaN,0,0,NaN,0.999989530739065,0.00272844191945963,-0.00398215289427988,1.220703125e-05,29.6553093755436,29.6553215825748,,,52.3499999046326,28,0.0850448737319278,0.167222807609816
2011-06-01T04:35:36Z,1306902936,104,54.6572347,24.4245606,30.24,0.1,-0.3,217.1,-161784.77,-191691.53,218.1,Air+FixedWing,Blue,Enemies,J-11A,Blue J-11A #002,cn,=CNF=707（七夕）,0,0,0,30.2399997711182,2.23999977111816,0,0,NaN,NaN,0,0,NaN,0.999992017581957,0.000491486432474553,-0.00425285044389657,0,29.6553093755436,29.6553093755436,,,53.3499999046326,28,0.0850448737319278,0.167222807609816
2011-06-01T04:35:37Z,1306902937,104,54.6572347,24.4245606,30.24,0.1,-0.3,217.1,-161784.78,-191691.53,218.1,Air+FixedWing,Blue,Enemies,J-11A,Blue J-11A #002,cn,=CNF=707（七夕）,0.015625,0,4.59156936775547e-05,30.2399997711182,2.23999977111816,0.015625,0,NaN,NaN,0,0,NaN,0.999982194784739,0.00398225987969595,-0.00496526688274205,1.220703125e-05,29.6553093755436,29.6553215825748,,,54.3499999046326,28,0.0850448737319278,0.167222807609816
2011-06-01T04:35:38Z,1306902938,104,54.6572347,24.4245606,30.24,0.1,-0.3,217.1,-161784.78,-191691.55,218.1,Air+FixedWing,Blue,Enemies,J-11A,Blue J-11A #002,cn,=CNF=707（七夕）,0.015625,0,4.59156936775547e-05,30.2399997711182,2.23999977111816,0.015625,0,NaN,NaN,0,0,NaN,0.999972496561869,0.00201598482619843,-0.00747288995889978,1.220703125e-05,29.6553093755436,29.6553215825748,,,55.3499999046326,28,0.0850448737319278,0.167222807609816
2011-06-01T04:35:39Z,1306902939,104,54.6572347,24.4245606,30.24,0.1,-0.3,217.1,-161784.77,-191691.55,218.1,Air+FixedWing,Blue,Enemies,J-11A,Blue J-11A #002,cn,=CNF=707（七夕）,0.015625,0,4.59156936775547e-05,30.2399997711182,2.23999977111816,0.015625,0,NaN,NaN,0,0,NaN,0.999999353536283,-0.000762331527761767,-0.0032697364554344,1.220703125e-05,29.6553093755436,29.6553215825748,,,56.3499999046326,28,0.0850448737319278,0.167222807609816
2011-06-01T04:35:40Z,1306902940,104,54.6572347,24.4245606,30.24,0.1,-0.3,217.1,-161784.78,-191691.55,218.1,Air+FixedWing,Blue,Enemies,J-11A,Blue J-11A #002,cn,=CNF=707（七夕）,0.015625,0,4.59156936775547e-05,30.2399997711182,2.23999977111816,0.015625,0,NaN,NaN,0,0,NaN,0.999965160607542,0.00326980278643476,-0.00845600394736195,1.220703125e-05,29.6553093755436,29.6553215825748,,,57.3499999046326,28,0.0850448737319278,0.167222807609816
2011-06-01T04:35:41Z,1306902941,104,54.6572347,24.4245606,30.24,0.1,-0.3,217.1,-161784.77,-191691.53,218.1,Air+FixedWing,Blue,Enemies,J-11A,Blue J-11A #002,cn,=CNF=707（七夕）,0.0220970869120796,0,6.49345967245665e-05,30.2399997711182,2.23999977111816,0.0220970869120796,0,NaN,NaN,0,0,NaN,1.00000171580483,0.00245776148597207,-0.00174522736773885,2.44140625e-05,29.6553093755436,29.6553337896061,,,58.3499999046326,28,0.0850448737319278,0.167222807609816
2011-06-01T04:35:42Z,1306902942,104,54.6572347,24.4245606,30.24,0.1,-0.3,217.1,-161784.77,-191691.55,218.1,Air+FixedWing,Blue,Enemies,J-11A,Blue J-11A #002,cn,=CNF=707（七夕）,0.015625,0,4.59156936775547e-05,30.2399997711182,2.23999977111816,0.015625,0,NaN,NaN,0,0,NaN,0.999979832516195,0.000762166865962115,-0.0064897759704376,1.220703125e-05,29.6553093755436,29.6553215825748,,,59.3499999046326,28,0.0850448737319278,0.167222807609816
2011-06-01T04:35:43Z,1306902943,104,54.6572347,24.4245606,30.24,0.1,-0.3,217.1,-161784.77,-191691.55,218.1,Air+FixedWing,Blue,Enemies,J-11A,Blue J-11A #002,cn,=CNF=707（七夕）,0,0,0,30.2399997711182,2.23999977111816,0,0,NaN,NaN,0,0,NaN,0.999979832516195,0.000762166865962115,-0.0064897759704376,0,29.6553093755436,29.6553093755436,,,60.3499999046326,28,0.0850448737319278,0.167222807609816
2011-06-01T04:35:44Z,1306902944,104,54.6572347,24.4245606,30.24,0.1,-0.3,217.1,-161784.77,-191691.53,218.1,Air+FixedWing,Blue,Enemies,J-11A,Blue J-11A #002,cn,=CNF=707（七夕）,0.015625,0,4.59156936775547e-05,30.2399997711182,2.23999977111816,0.015625,0,NaN,NaN,0,0,NaN,0.999989530739065,0.00272844191945963,-0.00398215289427988,1.220703125e-05,29.6553093755436,29.6553215825748,,,61.3499999046326,28,0.0850448737319278,0.167222807609816
2011-06-01T04:35:45Z,1306902945,104,54.6572347,24.4245606,30.24,0.1,-0.3,217.1,-161784.77,-191691.53,218.1,Air+FixedWing,Blue,Enemies,J-11A,Blue J-11A #002,cn,=CNF=707（七夕）,0,0,0,30.2399997711182,2.23999977111816,0,0,NaN,NaN,0,0,NaN,0.999989530739065,0.00272844191945963,-0.00398215289427988,0,29.6553093755436,29.6553093755436,,,62.3499999046326,28,0.0850448737319278,0.167222807609816
2011-06-01T04:35:46Z,1306902946,104,54.6572347,24.4245606,30.24,0.1,-0.3,217.1,-161784.77,-191691.55,218.1,Air+FixedWing,Blue,Enemies,J-11A,Blue J-11A #002,cn,=CNF=707（七夕）,0.015625,0,4.59156936775547e-05,30.2399997711182,2.23999977111816,0.015625,0,NaN,NaN,0,0,NaN,0.999979832516195,0.000762166865962115,-0.0064897759704376,1.220703125e-05,29.6553093755436,29.6553215825748,,,63.3499999046326,28,0.0850448737319278,0.167222807609816
2011-06-01T04:35:47Z,1306902947,104,54.6572347,24.4245606,30.24,0.1,-0.3,217.1,-161784.77,-191691.55,218.1,Air+FixedWing,Blue,Enemies,J-11A,Blue J-11A #002,cn,=CNF=707（七夕）,0,0,0,30.2399997711182,2.23999977111816,0,0,NaN,NaN,0,0,NaN,0.99998468162763,0.00174530439271087,-0.00523596443235874,0,29.6553093755436,29.6553093755436,,,64.3499999046326,28,0.0896158826481682,0.171793837963688
2011-06-01T04:35:48Z,1306902948,104,54.6572347,24.4245606,30.24,0.1,-0.3,217.1,-161784.77,-191691.55,218.1,Air+FixedWing,Blue,Enemies,J-11A,Blue J-11A #002,cn,=CNF=707（七夕）,0,0,0,30.2399997711182,2.23999977111816,0,0,NaN,NaN,0,0,NaN,0.999979832516195,0.000762166865962115,-0.0064897759704376,0,29.6553093755436,29.6553093755436,,,65.3499999046326,28,0.0941868915644087,0.176364868317559
2011-06-01T04:35:49Z,1306902949,104,54.6572347,24.4245606,30.24,0.1,-0.3,217.1,-161784.77,-191691.53,218.1,Air+FixedWing,Blue,Enemies,J-11A,Blue J-11A #002,cn,=CNF=707（七夕）,0.015625,0,4.59156936775547e-05,30.2399997711182,2.23999977111816,0.015625,0,NaN,NaN,0,0,NaN,1.00000171580483,0.00245776148597207,-0.00174522736773885,1.220703125e-05,29.6553093755436,29.6553215825748,,,66.3499999046326,28,0.0941868915644087,0.176364868317559
2011-06-01T04:35:50Z,1306902950,104,54.6572347,24.4245606,30.24,0.1,-0.3,217.1,-161784.78,-191691.55,218.1,Air+FixedWing,Blue,Enemies,J-11A,Blue J-11A #002,cn,=CNF=707（七夕）,0.0220970869120796,0,6.49345967245665e-05,30.2399997711182,2.23999977111816,0.0220970869120796,0,NaN,NaN,0,0,NaN,0.999960311496108,0.002286665259686,-0.00970981548544081,2.44140625e-05,29.6553093755436,29.6553337896061,,,67.3499999046326,28,0.0941868915644087,0.176364868317559
2011-06-01T04:35:51Z,1306902951,104,54.6572348,24.4245606,30.24,0.1,-0.3,217.1,-161784.77,-191691.53,218.1,Air+FixedWing,Blue,Enemies,J-11A,Blue J-11A #002,cn,=CNF=707（七夕）,0.0220970869120796,0,6.49345967245665e-05,30.2399997711182,2.23999977111816,0.0220970869120796,0,NaN,NaN,0,0,NaN,1.00000905175915,0.00120394352573575,-0.000762113379276673,2.44140625e-05,29.6553093755436,29.6553337896061,,,68.3499999046326,28,0.102821018528105,0.184999036637147
2011-06-01T04:35:52Z,1306902952,104,54.6572347,24.4245606,30.24,0.1,-0.3,217.1,-161784.78,-191691.55,218.1,Air+FixedWing,Blue,Enemies,J-11A,Blue J-11A #002,cn,=CNF=707（七夕）,0.0220970869120796,0,6.49345967245665e-05,30.2399997711182,2.23999977111816,0.0220970869120796,0,NaN,NaN,0,0,NaN,0.999965160607542,0.00326980278643476,-0.00845600394736195,2.44140625e-05,29.6553093755436,29.6553337896061,,,69.3499999046326,28,0.111455145491801,0.193633204956735
2011-06-01T04:35:53Z,1306902953,104,54.6572347,24.4245606,30.24,0.1,-0.3,217.1,-161784.77,-191691.55,218.1,Air+FixedWing,Blue,Enemies,J-11A,Blue J-11A #002,cn,=CNF=707（七夕）,0.015625,0,4.59156936775547e-05,30.2399997711182,2.23999977111816,0.015625,0,NaN,NaN,0,0,NaN,0.999992017581957,0.000491486432474553,-0.00425285044389657,1.220703125e-05,29.6553093755436,29.6553215825748,,,70.3499999046326,28,0.111455145491801,0.193633204956735
2011-06-01T04:35:54Z,1306902954,104,54.6572348,24.4245606,30.24,0,-0.3,217.1,-161784.77,-191691.55,218.1,Air+FixedWing,Blue,Enemies,J-11A,Blue J-11A #002,cn,=CNF=707（七夕）,0,0,0,30.2399997711182,2.23999977111816,0,0,NaN,NaN,0.104747781111316,0,NaN,0.999985873704112,0.000831096747793726,-0.00523596443235874,0,29.6553093755436,29.6553093755436,,,71.3499999046326,28,0.121590857509219,0.20376896466327
2011-06-01T04:35:55Z,1306902955,104,54.6572347,24.4245606,30.24,0.1,-0.3,217.1,-161784.77,-191691.55,218.1,Air+FixedWing,Blue,Enemies,J-11A,Blue J-11A #002,cn,=CNF=707（七夕）,0,0,0,30.2399997711182,2.23999977111816,0,0,NaN,NaN,0,0,NaN,0.999987168470522,-0.000491651094274206,-0.00550666198197543,0,29.6553093755436,29.6553093755436,,,72.3499999046326,28,0.129108177550757,0.211286319727473
2011-06-01T04:35:56Z,1306902956,104,54.6572347,24.4245606,30.24,0.1,-0.3,217.1,-161784.78,-191691.53,218.1,Air+FixedWing,Blue,Enemies,J-11A,Blue J-11A #002,cn,=CNF=707（七夕）,0.0220970869120796,0,6.49345967245665e-05,30.2399997711182,2.23999977111816,0.0220970869120796,0,NaN,NaN,0,0,NaN,0.9999943798505,0.00371157944620839,-0.00272834135620102,2.44140625e-05,29.6553093755436,29.6553337896061,,,73.3499999046326,28,0.135751042007921,0.217929215312028
2011-06-01T04:35:57Z,1306902957,104,54.6572345,24.4245606,30.24,0.2,-0.3,217.1,-161784.8,-191691.55,218.1,Air+FixedWing,Blue,Enemies,J-11A,Blue J-11A #002,cn,=CNF=707（七夕）,0.0220970869120796,0,6.49345967245665e-05,30.2399997711182,2.23999977111816,0.0220970869120796,0,NaN,NaN,0.114285820122121,0,NaN,0.999948326528816,0.00626886824529081,-0.00943911793582412,2.44140625e-05,29.6553093755436,29.6553337896061,,,74.3499999046326,28,0.151997992642891,0.234176244003822
2011-06-01T04:35:58Z,1306902958,104,54.6572347,24.4245606,30.24,0.2,-0.3,217.1,-161784.77,-191691.55,218.1,Air+FixedWing,Blue,Enemies,J-11A,Blue J-11A #002,cn,=CNF=707（七夕）,0.03125,0,9.18313873551095e-05,30.2399997711182,2.23999977111816,0.03125,0,NaN,NaN,0,0,NaN,0.999360155193686,-2.36583154429695e-06,-0.00452021893807422,4.8828125e-05,29.6553093755436,29.6553582036686,,,75.3499999046326,28,0.172269415759145,0.254447763637839
2011-06-01T04:35:59Z,1306902959,104,54.6572348,24.4245606,30.23,0.2,-0.3,217.1,-161784.77,-191691.53,218.1,Air+FixedWing,Blue,Enemies,J-11A,Blue J-11A #002,cn,=CNF=707（七夕）,0.0168231203955429,0,4.94364920646218e-05,30.2337646484375,2.2337646484375,0.015625,-0.00623512268066406,NaN,NaN,0,0,NaN,1.00101474856455,0.00447734883986779,-0.00398755433510235,1.41508689921466e-05,29.64919480896,29.649208959829,,,76.3499999046326,28,0.182405127776563,0.266347779661889
2011-06-01T04:36:00Z,1306902960,104,54.6572348,24.4245606,30.24,0,-0.2,217.1,-161784.77,-191691.53,218.1,Air+FixedWing,Blue,Enemies,J-11A,Blue J-11A #002,cn,=CNF=707（七夕）,0.00388145446777344,0,1.14060588568857e-05,30.2376461029053,2.23764610290527,0,0.00388145446777344,NaN,NaN,0.228565450385307,0.0513960362511687,NaN,0.999205067732013,-0,-0.0034878987213953,7.53284439269919e-07,29.6530012155056,29.65300196879,,,77.3499999046326,28,0.182405127776563,0.270229234498716
2011-06-01T04:36:01Z,1306902961,104,54.6572348,24.4245606,30.23,0,-0.2,217.1,-161784.77,-191691.53,218.1,Air+FixedWing,Blue,Enemies,J-11A,Blue J-11A #002,cn,=CNF=707（七夕）,0.00385284423828125,0,1.13219842214222e-05,30.233793258667,2.23379325866699,0,-0.00385284423828125,NaN,NaN,0.199987938897973,0.0197823405926261,NaN,1.00000414750917,0.000983127468807834,-0.00223685185635224,7.42220436222851e-07,29.6492228660107,29.6492236082311,,,78.3499999046326,28,0.182405127776563,0.274082078900772
2011-06-01T04:36:02Z,1306902962,104,54.6572348,24.4245606,30.23,0.1,-0.2,217.1,-161784.77,-191691.55,218.1,Air+FixedWing,Blue,Enemies,J-11A,Blue J-11A #002,cn,=CNF=707（七夕）,0.0160789585905397,0,4.72496930625463e-05,30.2299995422363,2.22999954223633,0.015625,-0.00379371643066406,NaN,NaN,0,0.0171320104161963,NaN,1.00037939822886,-0.0014740955866635,-0.00501652257730097,1.29266454678145e-05,29.6455025010872,29.6455154277327,,,79.3499999046326,28,0.185838191690449,0.279198554236081
2011-06-01T04:36:03Z,1306902963,104,54.6572346,24.4245607,30.23,0.1,-0.2,217.1,-161784.78,-191691.53,218.1,Air+FixedWing,Blue,Enemies,J-11A,Blue J-11A #002,cn,=CNF=707（七夕）,0.0220970869120796,0,6.49345894072065e-05,30.2299995422363,2.22999954223633,0.0220970869120796,0,NaN,NaN,0.096975919630127,0.0370093733476075,NaN,0.999978870130879,0.00608235201683509,-0.00420307349161894,2.44140625e-05,29.6455025010872,29.6455269151497,,,80.3499999046326,28,0.206023598398542,0.299384056832661
2011-06-01T04:36:04Z,1306902964,104,54.6572348,24.4245606,30.23,0.1,-0.2,217.1,-161784.77,-191691.53,218.1,Air+FixedWing,Blue,Enemies,J-11A,Blue J-11A #002,cn,=CNF=707（七夕）,0.015625,0,4.59156885033999e-05,30.2299995422363,2.22999954223633,0.015625,0,NaN,NaN,0,0.0171320104161963,NaN,0.999997871497646,0.000491496649496256,-0.00250753038403222,1.220703125e-05,29.6455025010872,29.6455147081184,,,81.3499999046326,28,0.227309695510913,0.32067025521283
2011-06-01T04:36:05Z,1306902965,104,54.6572348,24.4245607,30.23,0.1,-0.2,217.1,-161784.77,-191691.53,218.1,Air+FixedWing,Blue,Enemies,J-11A,Blue J-11A #002,cn,=CNF=707（七夕）,0,0,0,30.2299995422363,2.22999954223633,0,0,NaN,NaN,0,0.0171320104161963,NaN,0.999994912197474,0.00272845131188562,-0.00223683080996323,0,29.6455025010872,29.6455025010872,,,82.3499999046326,28,0.234084248192928,0.327444839962679
2011-06-01T04:36:06Z,1306902966,104,54.6572348,24.4245606,30.23,0,-0.2,217.1,-161784.77,-191691.55,218.1,Air+FixedWing,Blue,Enemies,J-11A,Blue J-11A #002,cn,=CNF=707（七夕）,0.015625,0,4.59156885033999e-05,30.2299995422363,2.22999954223633,0.015625,0,NaN,NaN,0.104747781111316,0.0171320104161963,NaN,0.999986324309602,-0.00113515778418805,-0.00599829355465375,1.220703125e-05,29.6455025010872,29.6455147081184,,,83.3499999046326,28,0.245382369160482,0.338743014462337
2011-06-01T04:36:07Z,1306902967,104,54.6572348,24.4245606,30.23,0.1,-0.2,217.1,-161784.77,-191691.53,218.1,Air+FixedWing,Blue,Enemies,J-11A,Blue J-11A #002,cn,=CNF=707（七夕）,0.015625,0,4.59156885033999e-05,30.2299995422363,2.22999954223633,0.015625,0,NaN,NaN,0,0.0171320104161963,NaN,0.999994912197474,0.00272845131188562,-0.00223683080996323,1.220703125e-05,29.6455025010872,29.6455147081184,,,84.3499999046326,28,0.245382369160482,0.338743014462337
2011-06-01T04:36:08Z,1306902968,104,54.6572348,24.4245607,30.23,0.1,-0.2,217.1,-161784.77,-191691.53,218.1,Air+FixedWing,Blue,Enemies,J-11A,Blue J-11A #002,cn,=CNF=707（七夕）,0,0,0,30.2299995422363,2.22999954223633,0,0,NaN,NaN,0,0.0171320104161963,NaN,0.999997871497646,0.000491496649496256,-0.00250753038403222,0,29.6455025010872,29.6455025010872,,,85.3499999046326,28,0.252239649253943,0.34560032746541
2011-06-01T04:36:09Z,1306902969,104,54.6572347,24.4245607,30.23,0.2,-0.2,217.1,-161784.78,-191691.53,218.1,Air+FixedWing,Blue,Enemies,J-11A,Blue J-11A #002,cn,=CNF=707（七夕）,0.015625,0,4.59156885033999e-05,30.2299995422363,2.22999954223633,0.015625,0,NaN,NaN,0.20000001179094,0.0171320104161963,NaN,0.999971985451042,0.00599824795837905,-0.00545689440651578,1.220703125e-05,29.6455025010872,29.6455147081184,,,86.3499999046326,28,0.263239896510979,0.35660062750586
2011-06-01T04:36:10Z,1306902970,104,54.6572347,24.4245606,30.23,0.1,-0.2,217.1,-161784.77,-191691.53,218.1,Air+FixedWing,Blue,Enemies,J-11A,Blue J-11A #002,cn,=CNF=707（七夕）,0.015625,0,4.59156885033999e-05,30.2299995422363,2.22999954223633,0.015625,0,NaN,NaN,0,0.0171320104161963,NaN,1.00000349158951,-0.000762324305487811,-0.00152440904320437,1.220703125e-05,29.6455025010872,29.6455147081184,,,87.3499999046326,28,0.274371845294469,0.367732629248412
2011-06-01T04:36:11Z,1306902971,104,54.6572347,24.4245606,30.23,0.1,-0.2,217.1,-161784.78,-191691.53,218.1,Air+FixedWing,Blue,Enemies,J-11A,Blue J-11A #002,cn,=CNF=707（七夕）,0.015625,0,4.59156885033999e-05,30.2299995422363,2.22999954223633,0.015625,0,NaN,NaN,0,0.0171320104161963,NaN,0.999981011222066,0.00425295951444846,-0.00545689440651578,1.220703125e-05,29.6455025010872,29.6455147081184,,,88.3499999046326,28,0.274371845294469,0.367732629248412
2011-06-01T04:36:12Z,1306902972,104,54.6572348,24.4245606,30.23,0.1,-0.2,217.1,-161784.77,-191691.53,218.1,Air+FixedWing,Blue,Enemies,J-11A,Blue J-11A #002,cn,=CNF=707（七夕）,0.015625,0,4.59156885033999e-05,30.2299995422363,2.22999954223633,0.015625,0,NaN,NaN,0.0922895160652123,0.0171320104161963,NaN,1.00000138711478,0.00066909208207535,-0.00125370946913538,1.220703125e-05,29.6455025010872,29.6455147081184,,,89.3499999046326,28,0.284507557311887,0.37786838933479
2011-06-01T04:36:13Z,1306902973,104,54.6572348,24.4245606,30.23,0.1,-0.2,217.1,-161784.77,-191691.55,218.1,Air+FixedWing,Blue,Enemies,J-11A,Blue J-11A #002,cn,=CNF=707（七夕）,0.015625,0,4.59156885033999e-05,30.2299995422363,2.22999954223633,0.015625,0,NaN,NaN,0,0.0171320104161963,NaN,0.999986929822409,-0.000220949810330272,-0.00599829355465375,1.220703125e-05,29.6455025010872,29.6455147081184,,,90.3499999046326,28,0.284507557311887,0.37786838933479
2011-06-01T04:36:14Z,1306902974,104,54.6572348,24.4245606,30.23,0.1,-0.2,217.1,-161784.77,-191691.53,218.1,Air+FixedWing,Blue,Enemies,J-11A,Blue J-11A #002,cn,=CNF=707（七夕）,0.015625,0,4.59156885033999e-05,30.2299995422363,2.22999954223633,0.015625,0,NaN,NaN,0,0.0171320104161963,NaN,0.999994912197474,0.00272845131188562,-0.00223683080996323,1.220703125e-05,29.6455025010872,29.6455147081184,,,91.3499999046326,28,0.284507557311887,0.37786838933479
2011-06-01T04:36:15Z,1306902975,104,54.6572348,24.4245606,30.23,0.1,-0.2,217.1,-161784.77,-191691.53,218.1,Air+FixedWing,Blue,Enemies,J-11A,Blue J-11A #002,cn,=CNF=707（七夕）,0,0,0,30.2299995422363,2.22999954223633,0,0,NaN,NaN,0,0.0171320104161963,NaN,0.999994912197474,0.00272845131188562,-0.00223683080996323,0,29.6455025010872,29.6455025010872,,,92.3499999046326,28,0.284507557311887,0.37786838933479
2011-06-01T04:36:16Z,1306902976,104,54.6572348,24.4245606,30.23,0.1,-0.2,217.1,-161784.77,-191691.55,218.1,Air+FixedWing,Blue,Enemies,J-11A,Blue J-11A #002,cn,=CNF=707（七夕）,0.015625,0,4.59156885033999e-05,30.2299995422363,2.22999954223633,0.015625,0,NaN,NaN,0,0.0171320104161963,NaN,0.999989590614097,0.000762183897075025,-0.00474447263975691,1.220703125e-05,29.6455025010872,29.6455147081184,,,93.3499999046326,28,0.284507557311887,0.37786838933479
2011-06-01T04:36:17Z,1306902977,104,54.6572348,24.4245606,30.23,0.1,-0.2,217.1,-161784.77,-191691.55,218.1,Air+FixedWing,Blue,Enemies,J-11A,Blue J-11A #002,cn,=CNF=707（七夕）,0,0,0,30.2299995422363,2.22999954223633,0,0,NaN,NaN,0,0.0171320104161963,NaN,0.999992251405786,0.00174531760448032,-0.00349065172486007,0,29.6455025010872,29.6455025010872,,,94.3499999046326,28,0.284507557311887,0.37786838933479
2011-06-01T04:36:18Z,1306902978,104,54.6572348,24.4245606,30.23,0.1,-0.2,217.1,-161784.77,-191691.55,218.1,Air+FixedWing,Blue,Enemies,J-11A,Blue J-11A #002,cn,=CNF=707（七夕）,0,0,0,30.2299995422363,2.22999954223633,0,0,NaN,NaN,0,0.0171320104161963,NaN,0.999992251405786,0.00174531760448032,-0.00349065172486007,0,29.6455025010872,29.6455025010872,,,95.3499999046326,28,0.284507557311887,0.37786838933479
2011-06-01T04:36:19Z,1306902979,104,54.6572348,24.4245606,30.23,0.1,-0.2,217.1,-161784.77,-191691.55,218.1,Air+FixedWing,Blue,Enemies,J-11A,Blue J-11A #002,cn,=CNF=707（七夕）,0,0,0,30.2299995422363,2.22999954223633,0,0,NaN,NaN,0,0.0171320104161963,NaN,0.999989590614097,0.000762183897075025,-0.00474447263975691,0,29.6455025010872,29.6455025010872,,,96.3499999046326,28,0.284507557311887,0.37786838933479
2011-06-01T04:36:20Z,1306902980,104,54.6572348,24.4245606,30.23,0.1,-0.2,217.1,-161784.77,-191691.53,218.1,Air+FixedWing,Blue,Enemies,J-11A,Blue J-11A #002,cn,=CNF=707（七夕）,0.015625,0,4.59156885033999e-05,30.2299995422363,2.22999954223633,0.015625,0,NaN,NaN,0,0.0171320104161963,NaN,0.999994912197474,0.00272845131188562,-0.00223683080996323,1.220703125e-05,29.6455025010872,29.6455147081184,,,97.3499999046326,28,0.284507557311887,0.37786838933479
2011-06-01T04:36:21Z,1306902981,104,54.6572348,24.4245606,30.23,0.1,-0.2,217.1,-161784.77,-191691.53,218.1,Air+FixedWing,Blue,Enemies,J-11A,Blue J-11A #002,cn,=CNF=707（七夕）,0,0,0,30.2299995422363,2.22999954223633,0,0,NaN,NaN,0,0.0171320104161963,NaN,0.999994912197474,0.00272845131188562,-0.00223683080996323,0,29.6455025010872,29.6455025010872,,,98.3499999046326,28,0.284507557311887,0.37786838933479
2011-06-01T04:36:22Z,1306902982,104,54.6572348,24.4245606,30.23,0.1,-0.2,217.1,-161784.77,-191691.55,218.1,Air+FixedWing,Blue,Enemies,J-11A,Blue J-11A #002,cn,=CNF=707（七夕）,0.015625,0,4.59156885033999e-05,30.2299995422363,2.22999954223633,0.015625,0,NaN,NaN,0,0.0171320104161963,NaN,0.999989590614097,0.000762183897075025,-0.00474447263975691,1.220703125e-05,29.6455025010872,29.6455147081184,,,99.3499999046326,28,0.284507557311887,0.37786838933479
2011-06-01T04:36:23Z,1306902983,104,54.6572348,24.4245606,30.23,0.1,-0.2,217.1,-161784.77,-191691.55,218.1,Air+FixedWing,Blue,Enemies,J-11A,Blue J-11A #002,cn,=CNF=707（七夕）,0,0,0,30.2299995422363,2.22999954223633,0,0,NaN,NaN,0,0.0171320104161963,NaN,0.999989590614097,0.000762183897075025,-0.00474447263975691,0,29.6455025010872,29.6455025010872,,,100.349999904633,28,0.284507557311887,0.37786838933479
2011-06-01T04:36:24Z,1306902984,104,54.6572348,24.4245606,30.23,0.1,-0.2,217.1,-161784.77,-191691.53,218.1,Air+FixedWing,Blue,Enemies,J-11A,Blue J-11A #002,cn,=CNF=707（七夕）,0.015625,0,4.59156885033999e-05,30.2299995422363,2.22999954223633,0.015625,0,NaN,NaN,0,0.0171320104161963,NaN,0.999994912197474,0.00272845131188562,-0.00223683080996323,1.220703125e-05,29.6455025010872,29.6455147081184,,,101.349999904633,28,0.284507557311887,0.37786838933479
2011-06-01T04:36:25Z,1306902985,104,54.6572348,24.4245606,30.23,0.1,-0.2,217.1,-161784.77,-191691.53,218.1,Air+FixedWing,Blue,Enemies,J-11A,Blue J-11A #002,cn,=CNF=707（七夕）,0,0,0,30.2299995422363,2.22999954223633,0,0,NaN,NaN,0,0.0171320104161963,NaN,0.999994912197474,0.00272845131188562,-0.00223683080996323,0,29.6455025010872,29.6455025010872,,,102.349999904633,28,0.284507557311887,0.37786838933479
2011-06-01T04:36:26Z,1306902986,104,54.6572348,24.4245606,30.23,0.1,-0.2,217.1,-161784.77,-191691.55,218.1,Air+FixedWing,Blue,Enemies,J-11A,Blue J-11A #002,cn,=CNF=707（七夕）,0.015625,0,4.59156885033999e-05,30.2299995422363,2.22999954223633,0.015625,0,NaN,NaN,0,0.0171320104161963,NaN,0.999986929822409,-0.000220949810330272,-0.00599829355465375,1.220703125e-05,29.6455025010872,29.6455147081184,,,103.349999904633,28,0.284507557311887,0.37786838933479
2011-06-01T04:36:27Z,1306902987,104,54.6572348,24.4245606,30.23,0.1,-0.2,217.1,-161784.77,-191691.53,218.1,Air+FixedWing,Blue,Enemies,J-11A,Blue J-11A #002,cn,=CNF=707（七夕）,0.015625,0,4.59156885033999e-05,30.2299995422363,2.22999954223633,0.015625,0,NaN,NaN,0,0.0171320104161963,NaN,0.999994912197474,0.00272845131188562,-0.00223683080996323,1.220703125e-05,29.6455025010872,29.6455147081184,,,104.349999904633,28,0.284507557311887,0.37786838933479
2011-06-01T04:36:28Z,1306902988,104,54.6572348,24.4245606,30.23,0.1,-0.2,217.1,-161784.77,-191691.53,218.1,Air+FixedWing,Blue,Enemies,J-11A,Blue J-11A #002,cn,=CNF=707（七夕）,0,0,0,30.2299995422363,2.22999954223633,0,0,NaN,NaN,0,0.0171320104161963,NaN,0.999994912197474,0.00272845131188562,-0.00223683080996323,0,29.6455025010872,29.6455025010872,,,105.349999904633,28,0.284507557311887,0.37786838933479
2011-06-01T04:36:29Z,1306902989,104,54.6572348,24.4245606,30.23,0.1,-0.2,217.1,-161784.77,-191691.55,218.1,Air+FixedWing,Blue,Enemies,J-11A,Blue J-11A #002,cn,=CNF=707（七夕）,0.015625,0,4.59156885033999e-05,30.2299995422363,2.22999954223633,0.015625,0,NaN,NaN,0,0.0171320104161963,NaN,0.999986929822409,-0.000220949810330272,-0.00599829355465375,1.220703125e-05,29.6455025010872,29.6455147081184,,,106.349999904633,28,0.284507557311887,0.37786838933479
2011-06-01T04:36:30Z,1306902990,104,54.6572348,24.4245606,30.23,0.1,-0.2,217.1,-161784.77,-191691.53,218.1,Air+FixedWing,Blue,Enemies,J-11A,Blue J-11A #002,cn,=CNF=707（七夕）,0.015625,0,4.59156885033999e-05,30.2299995422363,2.22999954223633,0.015625,0,NaN,NaN,0,0.0171320104161963,NaN,0.999994912197474,0.00272845131188562,-0.00223683080996323,1.220703125e-05,29.6455025010872,29.6455147081184,,,107.349999904633,28,0.284507557311887,0.37786838933479
2011-06-01T04:36:31Z,1306902991,104,54.6572348,24.4245606,30.23,0.1,-0.2,217.1,-161784.77,-191691.53,218.1,Air+FixedWing,Blue,Enemies,J-11A,Blue J-11A #002,cn,=CNF=707（七夕）,0,0,0,30.2299995422363,2.22999954223633,0,0,NaN,NaN,0,0.0171320104161963,NaN,0.999994912197474,0.00272845131188562,-0.00223683080996323,0,29.6455025010872,29.6455025010872,,,108.349999904633,28,0.284507557311887,0.37786838933479
2011-06-01T04:36:32Z,1306902992,104,54.6572348,24.4245606,30.23,0.1,-0.2,217.1,-161784.77,-191691.55,218.1,Air+FixedWing,Blue,Enemies,J-11A,Blue J-11A #002,cn,=CNF=707（七夕）,0.015625,0,4.59156885033999e-05,30.2299995422363,2.22999954223633,0.015625,0,NaN,NaN,0,0.0171320104161963,NaN,0.999989590614097,0.000762183897075025,-0.00474447263975691,1.220703125e-05,29.6455025010872,29.6455147081184,,,109.349999904633,28,0.284507557311887,0.37786838933479
2011-06-01T04:36:33Z,1306902993,104,54.6572348,24.4245606,30.23,0.1,-0.2,217.1,-161784.77,-191691.55,218.1,Air+FixedWing,Blue,Enemies,J-11A,Blue J-11A #002,cn,=CNF=707（七夕）,0,0,0,30.2299995422363,2.22999954223633,0,0,NaN,NaN,0,0.0171320104161963,NaN,0.999992251405786,0.00174531760448032,-0.00349065172486007,0,29.6455025010872,29.6455025010872,,,110.349999904633,28,0.284507557311887,0.37786838933479
2011-06-01T04:36:34Z,1306902994,104,54.6572348,24.4245606,30.23,0.1,-0.2,217.1,-161784.77,-191691.55,218.1,Air+FixedWing,Blue,Enemies,J-11A,Blue J-11A #002,cn,=CNF=707（七夕）,0,0,0,30.2299995422363,2.22999954223633,0,0,NaN,NaN,0,0.0171320104161963,NaN,0.999992251405786,0.00174531760448032,-0.00349065172486007,0,29.6455025010872,29.6455025010872,,,111.349999904633,28,0.284507557311887,0.37786838933479
2011-06-01T04:36:35Z,1306902995,104,54.6572348,24.4245606,30.23,0.1,-0.2,217.1,-161784.77,-191691.55,218.1,Air+FixedWing,Blue,Enemies,J-11A,Blue J-11A #002,cn,=CNF=707（七夕）,0,0,0,30.2299995422363,2.22999954223633,0,0,NaN,NaN,0,0.0171320104161963,NaN,0.999992251405786,0.00174531760448032,-0.00349065172486007,0,29.6455025010872,29.6455025010872,,,112.349999904633,28,0.284507557311887,0.37786838933479
2011-06-01T04:36:36Z,1306902996,104,54.6572348,24.4245606,30.23,0.1,-0.2,217.1,-161784.77,-191691.55,218.1,Air+FixedWing,Blue,Enemies,J-11A,Blue J-11A #002,cn,=CNF=707（七夕）,0,0,0,30.2299995422363,2.22999954223633,0,0,NaN,NaN,0,0.0171320104161963,NaN,0.999989590614097,0.000762183897075025,-0.00474447263975691,0,29.6455025010872,29.6455025010872,,,113.349999904633,28,0.284507557311887,0.37786838933479
2011-06-01T04:36:37Z,1306902997,104,54.6572348,24.4245606,30.23,0.1,-0.2,217.1,-161784.77,-191691.53,218.1,Air+FixedWing,Blue,Enemies,J-11A,Blue J-11A #002,cn,=CNF=707（七夕）,0.015625,0,4.59156885033999e-05,30.2299995422363,2.22999954223633,0.015625,0,NaN,NaN,0,0.0171320104161963,NaN,0.999994912197474,0.00272845131188562,-0.00223683080996323,1.220703125e-05,29.6455025010872,29.6455147081184,,,114.349999904633,28,0.284507557311887,0.37786838933479
2011-06-01T04:36:38Z,1306902998,104,54.6572348,24.4245606,30.23,0.1,-0.2,217.1,-161784.77,-191691.53,218.1,Air+FixedWing,Blue,Enemies,J-11A,Blue J-11A #002,cn,=CNF=707（七夕）,0,0,0,30.2299995422363,2.22999954223633,0,0,NaN,NaN,0,0.0171320104161963,NaN,0.999992251405786,0.00174531760448032,-0.00349065172486007,0,29.6455025010872,29.6455025010872,,,115.349999904633,28,0.284507557311887,0.37786838933479
2011-06-01T04:36:39Z,1306902999,104,54.6572348,24.4245606,30.23,0.1,-0.2,217.1,-161784.77,-191691.53,218.1,Air+FixedWing,Blue,Enemies,J-11A,Blue J-11A #002,cn,=CNF=707（七夕）,0,0,0,30.2299995422363,2.22999954223633,0,0,NaN,NaN,0,0.0171320104161963,NaN,0.999992251405786,0.00174531760448032,-0.00349065172486007,0,29.6455025010872,29.6455025010872,,,116.349999904633,28,0.284507557311887,0.37786838933479
2011-06-01T04:36:40Z,1306903000,104,54.6572348,24.4245606,30.23,0.1,-0.2,217.1,-161784.77,-191691.53,218.1,Air+FixedWing,Blue,Enemies,J-11A,Blue J-11A #002,cn,=CNF=707（七夕）,0,0,0,30.2299995422363,2.22999954223633,0,0,NaN,NaN,0,0.0171320104161963,NaN,0.999992251405786,0.00174531760448032,-0.00349065172486007,0,29.6455025010872,29.6455025010872,,,117.349999904633,28,0.284507557311887,0.37786838933479
2011-06-01T04:36:41Z,1306903001,104,54.6572348,24.4245606,30.23,0.1,-0.2,217.1,-161784.77,-191691.53,218.1,Air+FixedWing,Blue,Enemies,J-11A,Blue J-11A #002,cn,=CNF=707（七夕）,0,0,0,30.2299995422363,2.22999954223633,0,0,NaN,NaN,0,0.0171320104161963,NaN,0.999994912197474,0.00272845131188562,-0.00223683080996323,0,29.6455025010872,29.6455025010872,,,118.349999904633,28,0.284507557311887,0.37786838933479
2011-06-01T04:36:42Z,1306903002,104,54.6572348,24.4245606,30.23,0.1,-0.2,217.1,-161784.77,-191691.55,218.1,Air+FixedWing,Blue,Enemies,J-11A,Blue J-11A #002,cn,=CNF=707（七夕）,0.015625,0,4.59156885033999e-05,30.2299995422363,2.22999954223633,0.015625,0,NaN,NaN,0,0.0171320104161963,NaN,0.999986929822409,-0.000220949810330272,-0.00599829355465375,1.220703125e-05,29.6455025010872,29.6455147081184,,,119.349999904633,28,0.284507557311887,0.37786838933479
2011-06-01T04:36:43Z,1306903003,104,54.6572348,24.4245606,30.23,0.1,-0.2,217.1,-161784.77,-191691.53,218.1,Air+FixedWing,Blue,Enemies,J-11A,Blue J-11A #002,cn,=CNF=707（七夕）,0.015625,0,4.59156885033999e-05,30.2299995422363,2.22999954223633,0.015625,0,NaN,NaN,0,0.0171320104161963,NaN,0.999997572989163,0.00371158501929092,-0.000983009895066396,1.220703125e-05,29.6455025010872,29.6455147081184,,,120.349999904633,28,0.284507557311887,0.37786838933479
2011-06-01T04:36:44Z,1306903004,104,54.6572348,24.4245606,30.23,0.1,-0.2,217.1,-161784.77,-191691.55,218.1,Air+FixedWing,Blue,Enemies,J-11A,Blue J-11A #002,cn,=CNF=707（七夕）,0.015625,0,4.59156885033999e-05,30.2299995422363,2.22999954223633,0.015625,0,NaN,NaN,0,0.0171320104161963,NaN,0.999989590614097,0.000762183897075025,-0.00474447263975691,1.220703125e-05,29.6455025010872,29.6455147081184,,,121.349999904633,28,0.284507557311887,0.37786838933479
2011-06-01T04:36:45Z,1306903005,104,54.6572348,24.4245606,30.23,0.1,-0.2,217.1,-161784.77,-191691.55,218.1,Air+FixedWing,Blue,Enemies,J-11A,Blue J-11A #002,cn,=CNF=707（七夕）,0,0,0,30.2299995422363,2.22999954223633,0,0,NaN,NaN,0,0.0171320104161963,NaN,0.999989590614097,0.000762183897075025,-0.00474447263975691,0,29.6455025010872,29.6455025010872,,,122.349999904633,28,0.284507557311887,0.37786838933479
2011-06-01T04:36:46Z,1306903006,104,54.6572348,24.4245606,30.23,0.1,-0.2,217.1,-161784.77,-191691.53,218.1,Air+FixedWing,Blue,Enemies,J-11A,Blue J-11A #002,cn,=CNF=707（七夕）,0.015625,0,4.59156885033999e-05,30.2299995422363,2.22999954223633,0.015625,0,NaN,NaN,0,0.0171320104161963,NaN,0.999997572989163,0.00371158501929092,-0.000983009895066396,1.220703125e-05,29.6455025010872,29.6455147081184,,,123.349999904633,28,0.284507557311887,0.37786838933479
2011-06-01T04:36:47Z,1306903007,104,54.6572348,24.4245606,30.23,0.1,-0.2,217.1,-161784.77,-191691.55,218.1,Air+FixedWing,Blue,Enemies,J-11A,Blue J-11A #002,cn,=CNF=707（七夕）,0.015625,0,4.59156885033999e-05,30.2299995422363,2.22999954223633,0.015625,0,NaN,NaN,0,0.0171320104161963,NaN,0.999989590614097,0.000762183897075025,-0.00474447263975691,1.220703125e-05,29.6455025010872,29.6455147081184,,,124.349999904633,28,0.284507557311887,0.37786838933479
2011-06-01T04:36:48Z,1306903008,104,54.6572348,24.4245606,30.23,0.1,-0.2,217.1,-161784.77,-191691.55,218.1,Air+FixedWing,Blue,Enemies,J-11A,Blue J-11A #002,cn,=CNF=707（七夕）,0,0,0,30.2299995422363,2.22999954223633,0,0,NaN,NaN,0,0.0171320104161963,NaN,0.999989590614097,0.000762183897075025,-0.00474447263975691,0,29.6455025010872,29.6455025010872,,,125.349999904633,28,0.284507557311887,0.37786838933479
2011-06-01T04:36:49Z,1306903009,104,54.6572348,24.4245606,30.23,0.1,-0.2,217.1,-161784.77,-191691.53,218.1,Air+FixedWing,Blue,Enemies,J-11A,Blue J-11A #002,cn,=CNF=707（七夕）,0.015625,0,4.59156885033999e-05,30.2299995422363,2.22999954223633,0.015625,0,NaN,NaN,0,0.0171320104161963,NaN,0.999994912197474,0.00272845131188562,-0.00223683080996323,1.220703125e-05,29.6455025010872,29.6455147081184,,,126.349999904633,28,0.284507557311887,0.37786838933479
2011-06-01T04:36:50Z,1306903010,104,54.6572348,24.4245606,30.23,0.1,-0.2,217.1,-161784.77,-191691.53,218.1,Air+FixedWing,Blue,Enemies,J-11A,Blue J-11A #002,cn,=CNF=707（七夕）,0,0,0,30.2299995422363,2.22999954223633,0,0,NaN,NaN,0,0.0171320104161963,NaN,0.999992251405786,0.00174531760448032,-0.00349065172486007,0,29.6455025010872,29.6455025010872,,,127.349999904633,28,0.284507557311887,0.37786838933479
2011-06-01T04:36:51Z,1306903011,104,54.6572348,24.4245606,30.23,0.1,-0.2,217.1,-161784.77,-191691.53,218.1,Air+FixedWing,Blue,Enemies,J-11A,Blue J-11A #002,cn,=CNF=707（七夕）,0,0,0,30.2299995422363,2.22999954223633,0,0,NaN,NaN,0,0.0171320104161963,NaN,0.999994912197474,0.00272845131188562,-0.00223683080996323,0,29.6455025010872,29.6455025010872,,,128.349999904633,28,0.284507557311887,0.37786838933479
2011-06-01T04:36:52Z,1306903012,104,54.6572348,24.4245606,30.23,0.1,-0.2,217.1,-161784.77,-191691.55,218.1,Air+FixedWing,Blue,Enemies,J-11A,Blue J-11A #002,cn,=CNF=707（七夕）,0.015625,0,4.59156885033999e-05,30.2299995422363,2.22999954223633,0.015625,0,NaN,NaN,0,0.0171320104161963,NaN,0.999989590614097,0.000762183897075025,-0.00474447263975691,1.220703125e-05,29.6455025010872,29.6455147081184,,,129.349999904633,28,0.284507557311887,0.37786838933479
2011-06-01T04:36:53Z,1306903013,104,54.6572348,24.4245606,30.23,0.1,-0.2,217.1,-161784.77,-191691.55,218.1,Air+FixedWing,Blue,Enemies,J-11A,Blue J-11A #002,cn,=CNF=707（七夕）,0,0,0,30.2299995422363,2.22999954223633,0,0,NaN,NaN,0,0.0171320104161963,NaN,0.999989590614097,0.000762183897075025,-0.00474447263975691,0,29.6455025010872,29.6455025010872,,,130.349999904633,28,0.284507557311887,0.37786838933479
2011-06-01T04:36:54Z,1306903014,104,54.6572348,24.4245606,30.23,0.1,-0.2,217.1,-161784.77,-191691.53,218.1,Air+FixedWing,Blue,Enemies,J-11A,Blue J-11A #002,cn,=CNF=707（七夕）,0.015625,0,4.59156885033999e-05,30.2299995422363,2.22999954223633,0.015625,0,NaN,NaN,0,0.0171320104161963,NaN,0.999997572989163,0.00371158501929092,-0.000983009895066396,1.220703125e-05,29.6455025010872,29.6455147081184,,,131.349999904633,28,0.284507557311887,0.37786838933479
2011-06-01T04:36:55Z,1306903015,104,54.6572348,24.4245606,30.23,0.1,-0.2,217.1,-161784.77,-191691.55,218.1,Air+FixedWing,Blue,Enemies,J-11A,Blue J-11A #002,cn,=CNF=707（七夕）,0.015625,0,4.59156885033999e-05,30.2299995422363,2.22999954223633,0.015625,0,NaN,NaN,0,0.0171320104161963,NaN,0.999986929822409,-0.000220949810330272,-0.00599829355465375,1.220703125e-05,29.6455025010872,29.6455147081184,,,132.349999904633,28,0.284507557311887,0.37786838933479
2011-06-01T04:36:56Z,1306903016,104,54.6572348,24.4245606,30.23,0.1,-0.2,217.1,-161784.77,-191691.53,218.1,Air+FixedWing,Blue,Enemies,J-11A,Blue J-11A #002,cn,=CNF=707（七夕）,0.015625,0,4.59156885033999e-05,30.2299995422363,2.22999954223633,0.015625,0,NaN,NaN,0,0.0171320104161963,NaN,0.999994912197474,0.00272845131188562,-0.00223683080996323,1.220703125e-05,29.6455025010872,29.6455147081184,,,133.349999904633,28,0.284507557311887,0.37786838933479
2011-06-01T04:36:57Z,1306903017,104,54.6572348,24.4245606,30.23,0.1,-0.2,217.1,-161784.77,-191691.53,218.1,Air+FixedWing,Blue,Enemies,J-11A,Blue J-11A #002,cn,=CNF=707（七夕）,0,0,0,30.2299995422363,2.22999954223633,0,0,NaN,NaN,0,0.0171320104161963,NaN,0.999992251405786,0.00174531760448032,-0.00349065172486007,0,29.6455025010872,29.6455025010872,,,134.349999904633,28,0.284507557311887,0.37786838933479
2011-06-01T04:36:58Z,1306903018,104,54.6572348,24.4245606,30.23,0.1,-0.2,217.1,-161784.77,-191691.53,218.1,Air+FixedWing,Blue,Enemies,J-11A,Blue J-11A #002,cn,=CNF=707（七夕）,0,0,0,30.2299995422363,2.22999954223633,0,0,NaN,NaN,0,0.0171320104161963,NaN,0.999992251405786,0.00174531760448032,-0.00349065172486007,0,29.6455025010872,29.6455025010872,,,135.349999904633,28,0.284507557311887,0.37786838933479
2011-06-01T04:36:59Z,1306903019,104,54.6572348,24.4245606,30.23,0.1,-0.2,217.1,-161784.77,-191691.53,218.1,Air+FixedWing,Blue,Enemies,J-11A,Blue J-11A #002,cn,=CNF=707（七夕）,0,0,0,30.2299995422363,2.22999954223633,0,0,NaN,NaN,0,0.0171320104161963,NaN,0.999992251405786,0.00174531760448032,-0.00349065172486007,0,29.6455025010872,29.6455025010872,,,136.349999904633,28,0.284507557311887,0.37786838933479
2011-06-01T04:37:00Z,1306903020,104,54.6572348,24.4245606,30.23,0.1,-0.2,217.1,-161784.77,-191691.53,218.1,Air+FixedWing,Blue,Enemies,J-11A,Blue J-11A #002,cn,=CNF=707（七夕）,0,0,0,30.2299995422363,2.22999954223633,0,0,NaN,NaN,0,0.0171320104161963,NaN,0.999994912197474,0.00272845131188562,-0.00223683080996323,0,29.6455025010872,29.6455025010872,,,137.349999904633,28,0.284507557311887,0.37786838933479
2011-06-01T04:37:01Z,1306903021,104,54.6572348,24.4245606,30.23,0.1,-0.2,217.1,-161784.77,-191691.55,218.1,Air+FixedWing,Blue,Enemies,J-11A,Blue J-11A #002,cn,=CNF=707（七夕）,0.015625,0,4.59156885033999e-05,30.2299995422363,2.22999954223633,0.015625,0,NaN,NaN,0,0.0171320104161963,NaN,0.999989590614097,0.000762183897075025,-0.00474447263975691,1.220703125e-05,29.6455025010872,29.6455147081184,,,138.349999904633,28,0.284507557311887,0.37786838933479
