ISOTime,UnixTime,Id,Longitude,Latitude,Altitude,Roll,Pitch,Yaw,U,V,Heading,Type,Color,Coalition,Name,Group,Country,Pilot,TAS,CAS,M,ASL,AGL,GS,VS,AOA,AOS,RRT,TRT,TRD,G,LatG,LonG,Ek,Ep,Em,FFW,FFV,RelativeTime,Elev,GroundDistance,AirDistance
2011-06-01T04:31:18Z,1306902678,107,54.6611932,24.4171957,30.37,0.1,-0.2,308.5,-161397.05,-192514.22,309.5,Air+FixedWing,Blue,Enemies,F-15C,Blue F-15C #002,us,=CNF=307(女生）,0.26727496742894,0.262722313404083,0.000785416519346497,30.3671436309814,2.36714363098145,NaN,NaN,NaN,NaN,NaN,NaN,NaN,NaN,NaN,NaN,NaN,29.7799949088764,NaN,,,0.309999942779541,28,NaN,NaN
2011-06-01T04:31:19Z,1306902679,107,54.6611934,24.4171958,30.15,0.6,-0.1,308.5,-161397.02,-192514.2,309.5,Air+FixedWing,Blue,Enemies,F-15C,Blue F-15C #002,us,=CNF=307(女生）,0.220878482651363,0.262722313404083,0.000649073814713018,30.1490459442139,2.14904594421387,0.0349385621484342,-0.218097686767578,NaN,NaN,0.00952661978828685,NaN,NaN,1.05077310929749,0.0170804678203253,0.00149332667178094,0.00243936520491843,29.5661141408825,29.5685535060874,,,1.30999994277954,28,0.0231278801511619,0.219320553469352
2011-06-01T04:31:20Z,1306902680,107,54.6611932,24.4171957,30.43,0.3,0,308.5,-161397.05,-192514.22,309.5,Air+FixedWing,Blue,Enemies,F-15C,Blue F-15C #002,us,=CNF=307(女生）,0.283116556061851,0.262722313404083,0.000831969337300823,30.4299983978271,2.42999839782715,0.0349385621484342,0.280952453613281,NaN,NaN,0.199987938897973,0.0139882274201861,NaN,0.960385892917784,0.000758720817934963,-0.00267483440682654,0.00400774921581615,29.8416343788052,29.845642128021,,,2.30999994277954,28,0.0462557603023239,0.50122334757583
2011-06-01T04:31:21Z,1306902681,107,54.6611933,24.4171957,30.32,0.3,-0.1,308.5,-161397.03,-192514.22,309.5,Air+FixedWing,Blue,Enemies,F-15C,Blue F-15C #002,us,=CNF=307(女生）,0.108746705641662,0,0.000319563843833466,30.322380065918,2.32238006591797,0.015625,-0.10761833190918,NaN,NaN,0,0.0513960362511687,NaN,1.01407949837212,0.00632323862112513,-0.00054050220231361,0.000591292299395718,29.7360968473434,29.7366881396428,,,3.30999994277954,28,0.0563920632556945,0.609317986616748
2011-06-01T04:31:22Z,1306902682,107,54.6611933,24.4171957,30.35,0.3,-0.1,308.5,-161397.03,-192514.22,309.5,Air+FixedWing,Blue,Enemies,F-15C,Blue F-15C #002,us,=CNF=307(女生）,0.0306377410888672,0,9.00323152885253e-05,30.3530178070068,2.35301780700684,0,0.0306377410888672,NaN,NaN,0,0.0139882274201861,NaN,0.996537109007401,0.00521790470299278,-0.00173931118485423,4.6933558951423e-05,29.7661422077084,29.7661891412673,,,4.30999994277954,28,0.0563920632556945,0.639955727994404
2011-06-01T04:31:23Z,1306902683,107,54.6611933,24.4171957,30.35,0.3,-0.1,308.5,-161397.03,-192514.22,309.5,Air+FixedWing,Blue,Enemies,F-15C,Blue F-15C #002,us,=CNF=307(女生）,0.00317192077636719,0,9.32103187282773e-06,30.3498458862305,2.34984588623047,0,-0.00317192077636719,NaN,NaN,0,0.0139882274201861,NaN,1.00026727911252,0.00523743600874027,-0.00174582165654973,5.03054070577491e-07,29.7630316160202,29.7630321190743,,,5.30999994277954,28,0.0563920632556945,0.64312764871409
2011-06-01T04:31:24Z,1306902684,107,54.6611933,24.4171957,30.35,0.3,-0.1,308.5,-161397.03,-192514.22,309.5,Air+FixedWing,Blue,Enemies,F-15C,Blue F-15C #002,us,=CNF=307(女生）,0.000400543212890625,0,1.17703949757e-06,30.3494453430176,2.34944534301758,0,-0.000400543212890625,NaN,NaN,0,0.0139882274201861,NaN,0.999984487135211,0.00523595529970659,-0.00174532808410877,8.02174326963723e-09,29.7626388173103,29.7626388253321,,,6.30999994277954,28,0.0563920632556945,0.643528192638396
2011-06-01T04:31:25Z,1306902685,107,54.6611933,24.4171957,30.35,0.3,-0.1,308.5,-161397.03,-192514.22,309.5,Air+FixedWing,Blue,Enemies,F-15C,Blue F-15C #002,us,=CNF=307(女生）,0.000402450561523438,0,1.18264444219508e-06,30.3490428924561,2.34904289245605,0,-0.000402450561523438,NaN,NaN,0,0.0139882274201861,NaN,0.999984876120049,0.00523595733644529,-0.00174532876302547,8.09832272352651e-09,29.7622441481304,29.7622441562287,,,7.30999994277954,28,0.0563920632556945,0.643930642960679
2011-06-01T04:31:26Z,1306902686,107,54.6611933,24.4171957,30.35,0.3,-0.1,308.5,-161397.03,-192514.22,309.5,Air+FixedWing,Blue,Enemies,F-15C,Blue F-15C #002,us,=CNF=307(女生）,0.000400543212890625,0,1.17703948691944e-06,30.3486423492432,2.34864234924316,0,-0.000400543212890625,NaN,NaN,0,0.0139882274201861,NaN,0.99998468162763,0.00523595631807594,-0.00174532842356712,8.02174326963723e-09,29.7618513494205,29.7618513574423,,,8.30999994277954,28,0.0563920632556945,0.644331186193212
2011-06-01T04:31:27Z,1306902687,107,54.6611933,24.4171957,30.35,0.3,-0.1,308.5,-161397.03,-192514.22,309.5,Air+FixedWing,Blue,Enemies,F-15C,Blue F-15C #002,us,=CNF=307(女生）,0.000400543212890625,0,1.1770394816068e-06,30.3482418060303,2.34824180603027,0,-0.000400543212890625,NaN,NaN,0,0.0139882274201861,NaN,0.999984487135211,0.00523595529970659,-0.00174532808410877,8.02174326963723e-09,29.7614585507107,29.7614585587324,,,9.30999994277954,28,0.0563920632556945,0.644731729180492
2011-06-01T04:31:28Z,1306902688,107,54.6611933,24.4171957,30.35,0.3,-0.1,308.5,-161397.03,-192514.22,309.5,Air+FixedWing,Blue,Enemies,F-15C,Blue F-15C #002,us,=CNF=307(女生）,0.000402450561523438,0,1.18264442615586e-06,30.3478393554688,2.34783935546875,0,-0.000402450561523438,NaN,NaN,0,0.0139882274201861,NaN,0.999984876120049,0.00523595733644529,-0.00174532876302547,8.09832272352651e-09,29.7610638815308,29.7610638896291,,,10.3099999427795,28,0.0563920632556945,0.645134179257522
2011-06-01T04:31:29Z,1306902689,107,54.6611933,24.4171957,30.35,0.3,-0.1,308.5,-161397.03,-192514.22,309.5,Air+FixedWing,Blue,Enemies,F-15C,Blue F-15C #002,us,=CNF=307(女生）,0.000400543212890625,0,1.17703947095624e-06,30.3474388122559,2.34743881225586,0,-0.000400543212890625,NaN,NaN,0,0.0139882274201861,NaN,0.99998468162763,0.00523595631807594,-0.00174532842356712,8.02174326963723e-09,29.7606710828209,29.7606710908426,,,11.3099999427795,28,0.0563920632556945,0.645534723181828
2011-06-01T04:31:30Z,1306902690,107,54.6611933,24.4171957,30.35,0.3,-0.1,308.5,-161397.03,-192514.22,309.5,Air+FixedWing,Blue,Enemies,F-15C,Blue F-15C #002,us,=CNF=307(女生）,0.000400543212890625,0,1.1770394656436e-06,30.347038269043,2.34703826904297,0,-0.000400543212890625,NaN,NaN,0,0.0139882274201861,NaN,0.999984487135211,0.00523595529970659,-0.00174532808410877,8.02174326963723e-09,29.760278284111,29.7602782921328,,,12.3099999427795,28,0.0563920632556945,0.645935266169108
2011-06-01T04:31:31Z,1306902691,107,54.6611933,24.4171957,30.35,0.3,-0.1,308.5,-161397.03,-192514.22,309.5,Air+FixedWing,Blue,Enemies,F-15C,Blue F-15C #002,us,=CNF=307(女生）,0.000402450561523438,0,1.18264441011665e-06,30.3466358184814,2.34663581848145,0,-0.000402450561523438,NaN,NaN,0,0.0139882274201861,NaN,0.999984876120049,0.00523595733644529,-0.00174532876302547,8.09832272352651e-09,29.7598836149311,29.7598836230294,,,13.3099999427795,28,0.0563920632556945,0.646337716736645
2011-06-01T04:31:32Z,1306902692,107,54.6611933,24.4171957,30.35,0.3,-0.1,308.5,-161397.03,-192514.22,309.5,Air+FixedWing,Blue,Enemies,F-15C,Blue F-15C #002,us,=CNF=307(女生）,0.000400543212890625,0,1.17703945499304e-06,30.3462352752686,2.34623527526855,0,-0.000400543212890625,NaN,NaN,0,0.0139882274201861,NaN,0.99998468162763,0.00523595631807594,-0.00174532842356712,8.02174326963723e-09,29.7594908162212,29.759490824243,,,14.3099999427795,28,0.0563920632556945,0.646738259723924
2011-06-01T04:31:33Z,1306902693,107,54.6611933,24.4171957,30.35,0.3,-0.1,308.5,-161397.03,-192514.22,309.5,Air+FixedWing,Blue,Enemies,F-15C,Blue F-15C #002,us,=CNF=307(女生）,0.000400543212890625,0,1.1770394496804e-06,30.3458347320557,2.34583473205566,0,-0.000400543212890625,NaN,NaN,0,0.0139882274201861,NaN,0.999984487135211,0.00523595529970659,-0.00174532808410877,8.02174326963723e-09,29.7590980175114,29.7590980255331,,,15.3099999427795,28,0.0563920632556945,0.64713880364823
2011-06-01T04:31:34Z,1306902694,107,54.6611933,24.4171957,30.35,0.3,-0.1,308.5,-161397.03,-192514.22,309.5,Air+FixedWing,Blue,Enemies,F-15C,Blue F-15C #002,us,=CNF=307(女生）,0.000402450561523438,0,1.18264439407744e-06,30.3454322814941,2.34543228149414,0,-0.000402450561523438,NaN,NaN,0,0.0139882274201861,NaN,0.999984876120049,0.00523595733644529,-0.00174532876302547,8.09832272352651e-09,29.7587033483315,29.7587033564298,,,16.3099999427795,28,0.0563920632556945,0.64754125372526
2011-06-01T04:31:35Z,1306902695,107,54.6611933,24.4171957,30.35,0.3,-0.1,308.5,-161397.03,-192514.22,309.5,Air+FixedWing,Blue,Enemies,F-15C,Blue F-15C #002,us,=CNF=307(女生）,0.000400543212890625,0,1.17703943902984e-06,30.3450317382812,2.34503173828125,0,-0.000400543212890625,NaN,NaN,0,0.0139882274201861,NaN,0.999984487135211,0.00523595529970659,-0.00174532808410877,8.02174326963723e-09,29.7583105496216,29.7583105576433,,,17.3099999427795,28,0.0563920632556945,0.647941796957793
2011-06-01T04:31:36Z,1306902696,107,54.6611933,24.4171957,30.34,0.3,-0.1,308.5,-161397.03,-192514.22,309.5,Air+FixedWing,Blue,Enemies,F-15C,Blue F-15C #002,us,=CNF=307(女生）,0.000402450561523438,0,1.18264438337616e-06,30.3446292877197,2.34462928771973,0,-0.000402450561523438,NaN,NaN,0,0.0139882274201861,NaN,0.999984876120049,0.00523595733644529,-0.00174532876302547,8.09832272352651e-09,29.7579158804417,29.75791588854,,,18.3099999427795,28,0.0563920632556945,0.64834424797185
2011-06-01T04:31:37Z,1306902697,107,54.6611933,24.4171957,30.34,0.3,-0.1,308.5,-161397.03,-192514.22,309.5,Air+FixedWing,Blue,Enemies,F-15C,Blue F-15C #002,us,=CNF=307(女生）,0.000400543212890625,0,1.17703942837928e-06,30.3442287445068,2.34422874450684,0,-0.000400543212890625,NaN,NaN,0,0.0139882274201861,NaN,0.99998468162763,0.00523595631807594,-0.00174532842356712,8.02174326963723e-09,29.7575230817318,29.7575230897535,,,19.3099999427795,28,0.0563920632556945,0.648744790267357
2011-06-01T04:31:38Z,1306902698,107,54.6611933,24.4171957,30.34,0.3,-0.1,308.5,-161397.03,-192514.22,309.5,Air+FixedWing,Blue,Enemies,F-15C,Blue F-15C #002,us,=CNF=307(女生）,0.000400543212890625,0,1.17703942306664e-06,30.3438282012939,2.34382820129395,0,-0.000400543212890625,NaN,NaN,0,0.0139882274201861,NaN,0.999984487135211,0.00523595529970659,-0.00174532808410877,8.02174326963723e-09,29.7571302830219,29.7571302910437,,,20.3099999427795,28,0.0563920632556945,0.649145334191663
2011-06-01T04:31:39Z,1306902699,107,54.6611933,24.4171957,30.34,0.3,-0.1,308.5,-161397.03,-192514.22,309.5,Air+FixedWing,Blue,Enemies,F-15C,Blue F-15C #002,us,=CNF=307(女生）,0.000402450561523438,0,1.18264436733694e-06,30.3434257507324,2.34342575073242,0,-0.000402450561523438,NaN,NaN,0,0.0139882274201861,NaN,0.999984876120049,0.00523595733644529,-0.00174532876302547,8.09832272352651e-09,29.756735613842,29.7567356219403,,,21.3099999427795,28,0.0563920632556945,0.649547784461187
2011-06-01T04:31:40Z,1306902700,107,54.6611933,24.4171957,30.34,0.3,-0.1,308.5,-161397.03,-192514.22,309.5,Air+FixedWing,Blue,Enemies,F-15C,Blue F-15C #002,us,=CNF=307(女生）,0.000400543212890625,0,1.17703941241608e-06,30.3430252075195,2.34302520751953,0,-0.000400543212890625,NaN,NaN,0,0.0139882274201861,NaN,0.99998468162763,0.00523595631807594,-0.00174532842356712,8.02174326963723e-09,29.7563428151321,29.7563428231539,,,22.3099999427795,28,0.0563920632556945,0.649948328385493
2011-06-01T04:31:41Z,1306902701,107,54.6611933,24.4171957,30.34,0.3,-0.1,308.5,-161397.03,-192514.22,309.5,Air+FixedWing,Blue,Enemies,F-15C,Blue F-15C #002,us,=CNF=307(女生）,0.000400543212890625,0,1.17703940710345e-06,30.3426246643066,2.34262466430664,0,-0.000400543212890625,NaN,NaN,0,0.0139882274201861,NaN,0.999984487135211,0.00523595529970659,-0.00174532808410877,8.02174326963723e-09,29.7559500164223,29.755950024444,,,23.3099999427795,28,0.0563920632556945,0.650348870681001
2011-06-01T04:31:42Z,1306902702,107,54.6611933,24.4171957,30.34,0.3,-0.1,308.5,-161397.03,-192514.22,309.5,Air+FixedWing,Blue,Enemies,F-15C,Blue F-15C #002,us,=CNF=307(女生）,0.000402450561523438,0,1.18264435129773e-06,30.3422222137451,2.34222221374512,0,-0.000402450561523438,NaN,NaN,0,0.0139882274201861,NaN,0.999984876120049,0.00523595733644529,-0.00174532876302547,8.09832272352651e-09,29.7555553472424,29.7555553553407,,,24.3099999427795,28,0.0563920632556945,0.650751321003284
2011-06-01T04:31:43Z,1306902703,107,54.6611933,24.4171957,30.34,0.3,-0.1,308.5,-161397.03,-192514.22,309.5,Air+FixedWing,Blue,Enemies,F-15C,Blue F-15C #002,us,=CNF=307(女生）,0.000400543212890625,0,1.17703939645288e-06,30.3418216705322,2.34182167053223,0,-0.000400543212890625,NaN,NaN,0,0.0139882274201861,NaN,0.99998468162763,0.00523595631807594,-0.00174532842356712,8.02174326963723e-09,29.7551625485325,29.7551625565542,,,25.3099999427795,28,0.0563920632556945,0.65115186492759
2011-06-01T04:31:44Z,1306902704,107,54.6611933,24.4171957,30.34,0.3,-0.1,308.5,-161397.03,-192514.22,309.5,Air+FixedWing,Blue,Enemies,F-15C,Blue F-15C #002,us,=CNF=307(女生）,0.000400543212890625,0,1.17703939114025e-06,30.3414211273193,2.34142112731934,0,-0.000400543212890625,NaN,NaN,0,0.0139882274201861,NaN,0.999984487135211,0.00523595529970659,-0.00174532808410877,8.02174326963723e-09,29.7547697498226,29.7547697578444,,,26.3099999427795,28,0.0563920632556945,0.65155240791487
2011-06-01T04:31:45Z,1306902705,107,54.6611933,24.4171957,30.34,0.3,-0.1,308.5,-161397.03,-192514.22,309.5,Air+FixedWing,Blue,Enemies,F-15C,Blue F-15C #002,us,=CNF=307(女生）,0.000402450561523438,0,1.18264433525852e-06,30.3410186767578,2.34101867675781,0,-0.000402450561523438,NaN,NaN,0,0.0139882274201861,NaN,0.999984876120049,0.00523595733644529,-0.00174532876302547,8.09832272352651e-09,29.7543750806427,29.754375088741,,,27.3099999427795,28,0.0563920632556945,0.651954858928926
2011-06-01T04:31:46Z,1306902706,107,54.6611933,24.4171957,30.34,0.3,-0.1,308.5,-161397.03,-192514.22,309.5,Air+FixedWing,Blue,Enemies,F-15C,Blue F-15C #002,us,=CNF=307(女生）,0.000400543212890625,0,1.17703938048969e-06,30.3406181335449,2.34061813354492,0,-0.000400543212890625,NaN,NaN,0,0.0139882274201861,NaN,0.99998468162763,0.00523595631807594,-0.00174532842356712,8.02174326963723e-09,29.7539822819328,29.7539822899546,,,28.3099999427795,28,0.0563920632556945,0.652355401224433
2011-06-01T04:31:47Z,1306902707,107,54.6611933,24.4171957,30.34,0.3,-0.1,308.5,-161397.03,-192514.22,309.5,Air+FixedWing,Blue,Enemies,F-15C,Blue F-15C #002,us,=CNF=307(女生）,0.000400543212890625,0,1.17703937517705e-06,30.340217590332,2.34021759033203,0,-0.000400543212890625,NaN,NaN,0,0.0139882274201861,NaN,1.00000839823905,0.00502011103296468,0.000497537187894943,8.02174326963723e-09,29.753589483223,29.7535894912447,,,29.3099999427795,28,0.0563920632556945,0.652755945393992
2011-06-01T04:31:48Z,1306902708,107,54.6611932,24.4171958,30.34,0.3,-0.1,308.5,-161397.05,-192514.2,309.5,Air+FixedWing,Blue,Enemies,F-15C,Blue F-15C #002,us,=CNF=307(女生）,0.0220981566917374,0,6.49378135596537e-05,30.3400001525879,2.34000015258789,0.0220970869120796,-0.000217437744140625,NaN,NaN,0,0.0504352774299245,NaN,1.0009249325406,0.00567281843781183,-0.00656554439068382,2.44164264586288e-05,29.7533762496376,29.7534006660641,,,30.3099999427795,28,0.0714474576850733,0.667812982404964
2011-06-01T04:31:49Z,1306902709,107,54.6611932,24.4171958,30.35,0.3,-0.1,308.5,-161397.03,-192514.22,309.5,Air+FixedWing,Blue,Enemies,F-15C,Blue F-15C #002,us,=CNF=307(女生）,0.0239062254433851,0,7.02510255495255e-05,30.3491230010986,2.34912300109863,0.0220970869120796,0.00912284851074219,NaN,NaN,0,0.0139882274201861,NaN,0.998137418568684,0.00378086371733818,0.00151428303472191,2.85753807474975e-05,29.7623227078724,29.7623512832531,,,31.3099999427795,28,0.0714474576850733,0.676935832011061
2011-06-01T04:31:50Z,1306902710,107,54.6611932,24.4171958,30.34,0.3,-0.1,308.5,-161397.03,-192514.2,309.5,Air+FixedWing,Blue,Enemies,F-15C,Blue F-15C #002,us,=CNF=307(女生）,0.0180932857698637,0,5.31690690040341e-05,30.3400001525879,2.34000015258789,0.015625,-0.00912284851074219,NaN,NaN,0,0.0504352774299245,NaN,1.00090673278541,0.00647023500964791,-0.00276041805310422,1.63683494974975e-05,29.7533762496376,29.7533926179871,,,32.3099999427795,28,0.0714474576850733,0.686058681617157
2011-06-01T04:31:51Z,1306902711,107,54.6611933,24.4171958,30.34,0.3,-0.1,308.5,-161397.03,-192514.2,309.5,Air+FixedWing,Blue,Enemies,F-15C,Blue F-15C #002,us,=CNF=307(女生）,0,0,0,30.3400001525879,2.34000015258789,0,0,NaN,NaN,0,0.0139882274201861,NaN,0.999976475545055,0.00646536414905088,-0.00275879442381596,0,29.7533762496376,29.7533762496376,,,33.3099999427795,28,0.081583760638444,0.696195033178163
2011-06-01T04:31:52Z,1306902712,107,54.6611933,24.4171958,30.34,0.3,-0.1,308.5,-161397.03,-192514.22,309.5,Air+FixedWing,Blue,Enemies,F-15C,Blue F-15C #002,us,=CNF=307(女生）,0.015625,0,4.59157454182129e-05,30.3400001525879,2.34000015258789,0.015625,0,NaN,NaN,0,0.0139882274201861,NaN,0.999992887710206,0.004006548487101,-0.000731862423318272,1.220703125e-05,29.7533762496376,29.7533884566689,,,34.3099999427795,28,0.0843066831244904,0.698917968724124
2011-06-01T04:31:53Z,1306902713,107,54.6611933,24.4171957,30.34,0.3,-0.1,308.5,-161397.03,-192514.22,309.5,Air+FixedWing,Blue,Enemies,F-15C,Blue F-15C #002,us,=CNF=307(女生）,0,0,0,30.3400001525879,2.34000015258789,0,0,NaN,NaN,0,0.0139882274201861,NaN,0.99998468162763,0.00523595631807594,-0.00174532842356712,0,29.7533762496376,29.7533762496376,,,35.3099999427795,28,0.0923152799887443,0.706926603477497
2011-06-01T04:31:54Z,1306902714,107,54.6611933,24.4171957,30.34,0.3,-0.1,308.5,-161397.03,-192514.22,309.5,Air+FixedWing,Blue,Enemies,F-15C,Blue F-15C #002,us,=CNF=307(女生）,0,0,0,30.3400001525879,2.34000015258789,0,0,NaN,NaN,0.0774193938293012,0.0139882274201861,NaN,0.99998468162763,0.00523595631807594,-0.00174532842356712,0,29.7533762496376,29.7533762496376,,,36.3099999427795,28,0.0939884482017592,0.708599779862229
2011-06-01T04:31:55Z,1306902715,107,54.6611933,24.4171958,30.34,0.3,-0.1,308.5,-161397.03,-192514.22,309.5,Air+FixedWing,Blue,Enemies,F-15C,Blue F-15C #002,us,=CNF=307(女生）,0,0,0,30.3400001525879,2.34000015258789,0,0,NaN,NaN,0,0.0139882274201861,NaN,0.999992887710206,0.004006548487101,-0.000731862423318272,0,29.7533762496376,29.7533762496376,,,37.3099999427795,28,0.0994452860755872,0.714056643210574
2011-06-01T04:31:56Z,1306902716,107,54.6611933,24.4171958,30.34,0.3,-0.1,308.5,-161397.03,-192514.2,309.5,Air+FixedWing,Blue,Enemies,F-15C,Blue F-15C #002,us,=CNF=307(女生）,0.015625,0,4.59157454182129e-05,30.3400001525879,2.34000015258789,0.015625,0,NaN,NaN,0,0.0139882274201861,NaN,0.99996826946248,0.00769477198002583,-0.0037722604240648,1.220703125e-05,29.7533762496376,29.7533884566689,,,38.3099999427795,28,0.103046799339044,0.717658173776831
2011-06-01T04:31:57Z,1306902717,107,54.6611933,24.4171958,30.34,0.3,-0.1,308.5,-161397.03,-192514.22,309.5,Air+FixedWing,Blue,Enemies,F-15C,Blue F-15C #002,us,=CNF=307(女生）,0.015625,0,4.59157454182129e-05,30.3400001525879,2.34000015258789,0.015625,0,NaN,NaN,0,0.0139882274201861,NaN,1.00000109379278,0.00277714065612605,0.000281603576930571,1.220703125e-05,29.7533762496376,29.7533884566689,,,39.3099999427795,28,0.103046799339044,0.717658173776831
2011-06-01T04:31:58Z,1306902718,107,54.6611933,24.4171958,30.34,0.3,-0.1,308.5,-161397.03,-192514.2,309.5,Air+FixedWing,Blue,Enemies,F-15C,Blue F-15C #002,us,=CNF=307(女生）,0.015625,0,4.59157454182129e-05,30.3400001525879,2.34000015258789,0.015625,0,NaN,NaN,0,0.0139882274201861,NaN,0.999965108719096,0.00870823676243199,-0.00254282822484998,1.220703125e-05,29.7533762496376,29.7533884566689,,,40.3099999427795,28,0.103046799339044,0.717658173776831
2011-06-01T04:31:59Z,1306902719,107,54.6611931,24.4171957,30.34,0.2,-0.1,308.5,-161397.05,-192514.22,309.5,Air+FixedWing,Blue,Enemies,F-15C,Blue F-15C #002,us,=CNF=307(女生）,0.0220970869120796,0,6.49346698969069e-05,30.3400001525879,2.34000015258789,0.0220970869120796,0,NaN,NaN,0.152395180761324,0.0139882274201861,NaN,1.00000095865171,0.000649843068288336,-0.00319072682174791,2.44140625e-05,29.7533762496376,29.7534006637001,,,41.3099999427795,28,0.122817657005167,0.737429125988313
2011-06-01T04:32:00Z,1306902720,107,54.6611932,24.4171958,30.34,0.3,-0.1,308.5,-161397.03,-192514.22,309.5,Air+FixedWing,Blue,Enemies,F-15C,Blue F-15C #002,us,=CNF=307(女生）,0.015625,0,4.59157454182129e-05,30.3400001525879,2.34000015258789,0.015625,0,NaN,NaN,0,0.0139882274201861,NaN,0.999989726966822,0.00502001326950716,0.000497569775896547,1.220703125e-05,29.7533762496376,29.7533884566689,,,42.3099999427795,28,0.134288438841462,0.748899962710308
2011-06-01T04:32:01Z,1306902721,107,54.6611932,24.4171958,30.34,0.3,-0.1,308.5,-161397.03,-192514.2,309.5,Air+FixedWing,Blue,Enemies,F-15C,Blue F-15C #002,us,=CNF=307(女生）,0.015625,0,4.59157454182129e-05,30.3400001525879,2.34000015258789,0.015625,0,NaN,NaN,0,0.0139882274201861,NaN,1.00099284406238,0.00748416722358533,-0.00153114166527207,1.220703125e-05,29.7533762496376,29.7533884566689,,,43.3099999427795,28,0.137667203842825,0.752278744273341
2011-06-01T04:32:02Z,1306902722,107,54.6611932,24.4171958,30.35,0.3,-0.1,308.5,-161397.05,-192514.2,309.5,Air+FixedWing,Blue,Enemies,F-15C,Blue F-15C #002,us,=CNF=307(女生）,0.0185501228697093,0,5.45115401680257e-05,30.3499984741211,2.34999847412109,0.015625,0.00999832153320312,NaN,NaN,0,0.0139882274201861,NaN,0.99794057776703,0.00544122278238815,-0.00398466774168892,1.72053529240657e-05,29.763181253624,29.7631984589769,,,44.3099999427795,28,0.144424733624516,0.764346515372113
2011-06-01T04:32:03Z,1306902723,107,54.6611932,24.4171958,30.34,0.3,-0.1,308.5,-161397.05,-192514.22,309.5,Air+FixedWing,Blue,Enemies,F-15C,Blue F-15C #002,us,=CNF=307(女生）,0.0185501228697093,0,5.45115340263771e-05,30.3400001525879,2.34000015258789,0.015625,-0.00999832153320312,NaN,NaN,0,0.0139882274201861,NaN,1.00101557771429,0.00299842199682312,-0.00196307406320403,1.72053529240657e-05,29.7533762496376,29.7533934549905,,,45.3099999427795,28,0.147803498404843,0.774900311242401
2011-06-01T04:32:04Z,1306902724,107,54.6611932,24.4171958,30.34,0.2,-0.1,308.5,-161397.03,-192514.22,309.5,Air+FixedWing,Blue,Enemies,F-15C,Blue F-15C #002,us,=CNF=307(女生）,0.015625,0,4.59157454182129e-05,30.3400001525879,2.34000015258789,0.015625,0,NaN,NaN,0.141466878089304,0.0139882274201861,NaN,0.99998855357559,0.00501501326203229,-0.000515896224352296,1.220703125e-05,29.7533762496376,29.7533884566689,,,46.3099999427795,28,0.147803498404843,0.774900311242401
2011-06-01T04:32:05Z,1306902725,107,54.6611932,24.4171958,30.34,0.3,-0.1,308.5,-161397.03,-192514.22,309.5,Air+FixedWing,Blue,Enemies,F-15C,Blue F-15C #002,us,=CNF=307(女生）,0,0,0,30.3400001525879,2.34000015258789,0,0,NaN,NaN,0.06428574046816,0.0139882274201861,NaN,0.999989726966822,0.00502001326950716,0.000497569775896547,0,29.7533762496376,29.7533762496376,,,47.3099999427795,28,0.147803498404843,0.774900311242401
2011-06-01T04:32:06Z,1306902726,107,54.6611932,24.4171958,30.34,0.3,-0.1,308.5,-161397.05,-192514.2,309.5,Air+FixedWing,Blue,Enemies,F-15C,Blue F-15C #002,us,=CNF=307(女生）,0.0220970869120796,0,6.49346698969069e-05,30.3400001525879,2.34000015258789,0.0220970869120796,0,NaN,NaN,0,0.0139882274201861,NaN,0.999673764017801,-0.00127849858312093,-0.00463553184673283,2.44140625e-05,29.7533762496376,29.7534006637001,,,48.3099999427795,28,0.147803498404843,0.774900311242401
2011-06-01T04:32:07Z,1306902727,107,54.6611936,24.4171962,30.34,1.4,-0.2,308.5,-161397,-192514.16,309.5,Air+FixedWing,Blue,Enemies,F-15C,Blue F-15C #002,us,=CNF=307(女生）,0.0663750488421439,0,0.000195050222736437,30.3366661071777,2.33666610717773,0.0662912607362388,-0.00333404541015625,NaN,NaN,2.15238129144684,0.0979176386320491,NaN,1.00005156797179,0.037470736115354,-0.00284449111736551,0.000220282355439849,29.7501066679955,29.7503269503509,,,49.3099999427795,28,0.2086992480574,0.835887551228825
2011-06-01T04:32:08Z,1306902728,107,54.6611933,24.4171959,30.34,1,-0.2,308.5,-161397.03,-192514.2,309.5,Air+FixedWing,Blue,Enemies,F-15C,Blue F-15C #002,us,=CNF=307(女生）,0.0564353079534168,0,0.000165841230885602,30.3400001525879,2.34000015258789,0.0563367386791248,0.00333404541015625,NaN,NaN,0.199987938897973,0.0504352774299245,NaN,0.999606227672019,0.0114827972231408,-0.00290793417466492,0.000159247199189849,29.7533762496376,29.7535354968368,,,50.3099999427795,28,0.248199257469218,0.875528205044638
2011-06-01T04:32:09Z,1306902729,107,54.6611934,24.4171959,30.34,0.8,-0.2,308.5,-161397.03,-192514.2,309.5,Air+FixedWing,Blue,Enemies,F-15C,Blue F-15C #002,us,=CNF=307(女生）,0,0,0,30.3400001525879,2.34000015258789,0,0,NaN,NaN,0.314297984847307,0.0474363941624125,NaN,0.998184205192774,0.0184244284022971,-0.00305295808959279,0,29.7533762496376,29.7533762496376,,,51.3099999427795,28,0.254900647618432,0.88222962636516
2011-06-01T04:32:10Z,1306902730,107,54.661193,24.4171956,30.32,-0.3,-0.2,308.5,-161397.06,-192514.23,309.5,Air+FixedWing,Blue,Enemies,F-15C,Blue F-15C #002,us,=CNF=307(女生）,0.0470668578404262,0,0.000138311005947572,30.3238086700439,2.32380867004395,0.0441941738241592,-0.0161914825439453,NaN,NaN,1.64760555234716,0.0139882274201861,NaN,1.0032416240089,-0.0122318136129069,-0.00415007383500538,0.000110764455348544,29.7374978294086,29.737608593864,,,52.3099999427795,28,0.312286968705542,0.941856678126374
2011-06-01T04:32:11Z,1306902731,107,54.6611932,24.4171957,30.34,0.2,-0.2,308.5,-161397.05,-192514.22,309.5,Air+FixedWing,Blue,Enemies,F-15C,Blue F-15C #002,us,=CNF=307(女生）,0.0273942577371771,0,8.05009769075923e-05,30.3400001525879,2.34000015258789,0.0220970869120796,0.0161914825439453,NaN,NaN,1.07616460562721,0.0139882274201861,NaN,0.997318905894267,0.00281824380995862,-0.00348132885590496,3.75222678485443e-05,29.7533762496376,29.7534137719055,,,53.3099999427795,28,0.340901167587656,0.974734394417194
2011-06-01T04:32:12Z,1306902732,107,54.6611932,24.4171959,30.33,0.5,-0.2,308.5,-161397.03,-192514.2,309.5,Air+FixedWing,Blue,Enemies,F-15C,Blue F-15C #002,us,=CNF=307(女生）,0.0242546042575241,0,7.12747589638704e-05,30.3299999237061,2.32999992370605,0.0220970869120796,-0.0100002288818359,NaN,NaN,0.161902804085982,0.0139882274201861,NaN,1.00095789644522,0.011492559156883,-0.00204881983203489,2.94142913844553e-05,29.7435693751812,29.7435987894726,,,54.3099999427795,28,0.361574788841174,0.997699742851746
2011-06-01T04:32:13Z,1306902733,107,54.6611932,24.4171958,30.33,0.5,-0.2,308.5,-161397.05,-192514.2,309.5,Air+FixedWing,Blue,Enemies,F-15C,Blue F-15C #002,us,=CNF=307(女生）,0.015625,0,4.59157402440405e-05,30.3299999237061,2.32999992370605,0.015625,0,NaN,NaN,0.0380851348119911,0.0139882274201861,NaN,0.999966459998499,0.00645034532597993,-0.00594950429866459,1.220703125e-05,29.7435693751812,29.7435815822124,,,55.3099999427795,28,0.371116461765805,1.0072414605638
2011-06-01T04:32:14Z,1306902734,107,54.6611933,24.4171959,30.33,0.5,-0.2,308.5,-161397.03,-192514.2,309.5,Air+FixedWing,Blue,Enemies,F-15C,Blue F-15C #002,us,=CNF=307(女生）,0.015625,0,4.59157402440405e-05,30.3299999237061,2.32999992370605,0.015625,0,NaN,NaN,0.333337510684688,0.0139882274201861,NaN,0.999956638412554,0.0091582347653077,-0.00226122543795781,1.220703125e-05,29.7435693751812,29.7435815822124,,,56.3099999427795,28,0.383679120749856,1.01980417878707
2011-06-01T04:32:15Z,1306902735,107,54.6611932,24.4171958,30.33,0.3,-0.2,308.5,-161397.03,-192514.2,309.5,Air+FixedWing,Blue,Enemies,F-15C,Blue F-15C #002,us,=CNF=307(女生）,0,0,0,30.3299999237061,2.32999992370605,0,0,NaN,NaN,0.0393965311326335,0.0139882274201861,NaN,0.999967867093114,0.00679265425976022,-0.00450411285137308,0,29.7435693751812,29.7435693751812,,,57.3099999427795,28,0.396241779733906,1.03236689701035
2011-06-01T04:32:16Z,1306902736,107,54.6611932,24.4171957,30.33,0.3,-0.2,308.5,-161397.03,-192514.22,309.5,Air+FixedWing,Blue,Enemies,F-15C,Blue F-15C #002,us,=CNF=307(女生）,0.015625,0,4.59157402440405e-05,30.3299999237061,2.32999992370605,0.015625,0,NaN,NaN,0.162965245347463,0.0139882274201861,NaN,1.0000001690946,0.00346742145616372,-0.000234303184931788,1.220703125e-05,29.7435693751812,29.7435815822124,,,58.3099999427795,28,0.407373728062794,1.04349889883511
2011-06-01T04:32:17Z,1306902737,107,54.6611932,24.4171958,30.33,0.3,-0.2,308.5,-161397.05,-192514.2,309.5,Air+FixedWing,Blue,Enemies,F-15C,Blue F-15C #002,us,=CNF=307(女生）,0.0220970869120796,0,6.49346625795222e-05,30.3299999237061,2.32999992370605,0.0220970869120796,0,NaN,NaN,0.133333376767862,0.0139882274201861,NaN,0.999974544281596,0.00385661749581653,-0.0069629654251776,2.44140625e-05,29.7435693751812,29.7435937892437,,,59.3099999427795,28,0.418505676391682,1.05463090065986
2011-06-01T04:32:18Z,1306902738,107,54.6611932,24.4171958,30.33,0.3,-0.2,308.5,-161397.03,-192514.2,309.5,Air+FixedWing,Blue,Enemies,F-15C,Blue F-15C #002,us,=CNF=307(女生）,0.015625,0,4.59157402440405e-05,30.3299999237061,2.32999992370605,0.015625,0,NaN,NaN,0,0.0139882274201861,NaN,0.999979017516556,0.00624940799275148,-0.00226122543795781,1.220703125e-05,29.7435693751812,29.7435815822124,,,60.3099999427795,28,0.418505676391682,1.05463090065986
2011-06-01T04:32:19Z,1306902739,107,54.6611932,24.4171958,30.33,0.3,-0.2,308.5,-161397.03,-192514.2,309.5,Air+FixedWing,Blue,Enemies,F-15C,Blue F-15C #002,us,=CNF=307(女生）,0,0,0,30.3299999237061,2.32999992370605,0,0,NaN,NaN,0,0.0139882274201861,NaN,0.999970057644173,0.00646533054467427,-0.00450411285137308,0,29.7435693751812,29.7435693751812,,,61.3099999427795,28,0.418505676391682,1.05463090065986
2011-06-01T04:32:20Z,1306902740,107,54.6611932,24.4171958,30.33,0.3,-0.2,308.5,-161397.03,-192514.22,309.5,Air+FixedWing,Blue,Enemies,F-15C,Blue F-15C #002,us,=CNF=307(女生）,0.015625,0,4.59157402440405e-05,30.3299999237061,2.32999992370605,0.015625,0,NaN,NaN,0,0.0139882274201861,NaN,0.999988992401734,0.00502000942330475,-0.0012477643114448,1.220703125e-05,29.7435693751812,29.7435815822124,,,62.3099999427795,28,0.418505676391682,1.05463090065986
2011-06-01T04:32:21Z,1306902741,107,54.6611932,24.4171958,30.33,0.3,-0.2,308.5,-161397.05,-192514.22,309.5,Air+FixedWing,Blue,Enemies,F-15C,Blue F-15C #002,us,=CNF=307(女生）,0.015625,0,4.59157402440405e-05,30.3299999237061,2.32999992370605,0.015625,0,NaN,NaN,0,0.0139882274201861,NaN,0.999981047542145,0.0042224559577036,-0.00472007801176233,1.220703125e-05,29.7435693751812,29.7435815822124,,,63.3099999427795,28,0.418505676391682,1.05463090065986
2011-06-01T04:32:22Z,1306902742,107,54.6611932,24.4171958,30.33,0.3,-0.2,308.5,-161397.05,-192514.22,309.5,Air+FixedWing,Blue,Enemies,F-15C,Blue F-15C #002,us,=CNF=307(女生）,0,0,0,30.3299999237061,2.32999992370605,0,0,NaN,NaN,0,0.0139882274201861,NaN,0.999990007414528,0.00400653340578081,-0.00247719059834706,0,29.7435693751812,29.7435693751812,,,64.3099999427795,28,0.418505676391682,1.05463090065986
2011-06-01T04:32:23Z,1306902743,107,54.6611932,24.4171958,30.33,0.3,-0.2,308.5,-161397.05,-192514.2,309.5,Air+FixedWing,Blue,Enemies,F-15C,Blue F-15C #002,us,=CNF=307(女生）,0.015625,0,4.59157402440405e-05,30.3299999237061,2.32999992370605,0.015625,0,NaN,NaN,0,0.0139882274201861,NaN,0.999971072656967,0.00545185452715033,-0.00573353913827534,1.220703125e-05,29.7435693751812,29.7435815822124,,,65.3099999427795,28,0.418505676391682,1.05463090065986
2011-06-01T04:32:24Z,1306902744,107,54.6611932,24.4171958,30.33,0.3,-0.2,308.5,-161397.03,-192514.2,309.5,Air+FixedWing,Blue,Enemies,F-15C,Blue F-15C #002,us,=CNF=307(女生）,0.015625,0,4.59157402440405e-05,30.3299999237061,2.32999992370605,0.015625,0,NaN,NaN,0,0.0139882274201861,NaN,0.999979017516556,0.00624940799275148,-0.00226122543795781,1.220703125e-05,29.7435693751812,29.7435815822124,,,66.3099999427795,28,0.418505676391682,1.05463090065986
2011-06-01T04:32:25Z,1306902745,107,54.6611932,24.4171958,30.33,0.3,-0.2,308.5,-161397.03,-192514.2,309.5,Air+FixedWing,Blue,Enemies,F-15C,Blue F-15C #002,us,=CNF=307(女生）,0,0,0,30.3299999237061,2.32999992370605,0,0,NaN,NaN,0,0.0139882274201861,NaN,0.999980032529351,0.00523593197522754,-0.00349065172486007,0,29.7435693751812,29.7435693751812,,,67.3099999427795,28,0.418505676391682,1.05463090065986
2011-06-01T04:32:26Z,1306902746,107,54.6611932,24.4171958,30.33,0.3,-0.2,308.5,-161397.03,-192514.2,309.5,Air+FixedWing,Blue,Enemies,F-15C,Blue F-15C #002,us,=CNF=307(女生）,0,0,0,30.3299999237061,2.32999992370605,0,0,NaN,NaN,0,0.0139882274201861,NaN,0.999979017516556,0.00624940799275148,-0.00226122543795781,0,29.7435693751812,29.7435693751812,,,68.3099999427795,28,0.418505676391682,1.05463090065986
2011-06-01T04:32:27Z,1306902747,107,54.6611932,24.4171958,30.33,0.3,-0.2,308.5,-161397.05,-192514.2,309.5,Air+FixedWing,Blue,Enemies,F-15C,Blue F-15C #002,us,=CNF=307(女生）,0.015625,0,4.59157402440405e-05,30.3299999237061,2.32999992370605,0.015625,0,NaN,NaN,0,0.0139882274201861,NaN,0.999981047542145,0.0042224559577036,-0.00472007801176233,1.220703125e-05,29.7435693751812,29.7435815822124,,,69.3099999427795,28,0.418505676391682,1.05463090065986
2011-06-01T04:32:28Z,1306902748,107,54.6611932,24.4171958,30.33,0.3,-0.2,308.5,-161397.05,-192514.2,309.5,Air+FixedWing,Blue,Enemies,F-15C,Blue F-15C #002,us,=CNF=307(女生）,0,0,0,30.3299999237061,2.32999992370605,0,0,NaN,NaN,0,0.0139882274201861,NaN,0.999981047542145,0.0042224559577036,-0.00472007801176233,0,29.7435693751812,29.7435693751812,,,70.3099999427795,28,0.418505676391682,1.05463090065986
2011-06-01T04:32:29Z,1306902749,107,54.6611932,24.4171958,30.33,0.3,-0.2,308.5,-161397.03,-192514.2,309.5,Air+FixedWing,Blue,Enemies,F-15C,Blue F-15C #002,us,=CNF=307(女生）,0.015625,0,4.59157402440405e-05,30.3299999237061,2.32999992370605,0.015625,0,NaN,NaN,0,0.0139882274201861,NaN,0.999969042631378,0.00747880656219821,-0.00327468656447082,1.220703125e-05,29.7435693751812,29.7435815822124,,,71.3099999427795,28,0.418505676391682,1.05463090065986
2011-06-01T04:32:30Z,1306902750,107,54.6611932,24.4171958,30.33,0.3,-0.2,308.5,-161397.03,-192514.22,309.5,Air+FixedWing,Blue,Enemies,F-15C,Blue F-15C #002,us,=CNF=307(女生）,0.015625,0,4.59157402440405e-05,30.3299999237061,2.32999992370605,0.015625,0,NaN,NaN,0,0.0139882274201861,NaN,0.999988992401734,0.00502000942330475,-0.0012477643114448,1.220703125e-05,29.7435693751812,29.7435815822124,,,72.3099999427795,28,0.418505676391682,1.05463090065986
2011-06-01T04:32:31Z,1306902751,107,54.6611932,24.4171958,30.33,0.3,-0.2,308.5,-161397.05,-192514.22,309.5,Air+FixedWing,Blue,Enemies,F-15C,Blue F-15C #002,us,=CNF=307(女生）,0.015625,0,4.59157402440405e-05,30.3299999237061,2.32999992370605,0.015625,0,NaN,NaN,0,0.0139882274201861,NaN,0.999981047542145,0.0042224559577036,-0.00472007801176233,1.220703125e-05,29.7435693751812,29.7435815822124,,,73.3099999427795,28,0.418505676391682,1.05463090065986
2011-06-01T04:32:32Z,1306902752,107,54.6611932,24.4171958,30.33,0.3,-0.2,308.5,-161397.05,-192514.22,309.5,Air+FixedWing,Blue,Enemies,F-15C,Blue F-15C #002,us,=CNF=307(女生）,0,0,0,30.3299999237061,2.32999992370605,0,0,NaN,NaN,0,0.0139882274201861,NaN,0.999990007414528,0.00400653340578081,-0.00247719059834706,0,29.7435693751812,29.7435693751812,,,74.3099999427795,28,0.418505676391682,1.05463090065986
2011-06-01T04:32:33Z,1306902753,107,54.6611932,24.4171958,30.33,0.3,-0.2,308.5,-161397.05,-192514.2,309.5,Air+FixedWing,Blue,Enemies,F-15C,Blue F-15C #002,us,=CNF=307(女生）,0.015625,0,4.59157402440405e-05,30.3299999237061,2.32999992370605,0.015625,0,NaN,NaN,0,0.0139882274201861,NaN,0.999970057644173,0.00646533054467427,-0.00450411285137308,1.220703125e-05,29.7435693751812,29.7435815822124,,,75.3099999427795,28,0.418505676391682,1.05463090065986
2011-06-01T04:32:34Z,1306902754,107,54.6611932,24.4171958,30.33,0.3,-0.2,308.5,-161397.05,-192514.2,309.5,Air+FixedWing,Blue,Enemies,F-15C,Blue F-15C #002,us,=CNF=307(女生）,0,0,0,30.3299999237061,2.32999992370605,0,0,NaN,NaN,0,0.0139882274201861,NaN,0.999981047542145,0.0042224559577036,-0.00472007801176233,0,29.7435693751812,29.7435693751812,,,76.3099999427795,28,0.418505676391682,1.05463090065986
2011-06-01T04:32:35Z,1306902755,107,54.6611932,24.4171958,30.33,0.3,-0.2,308.5,-161397.03,-192514.2,309.5,Air+FixedWing,Blue,Enemies,F-15C,Blue F-15C #002,us,=CNF=307(女生）,0.015625,0,4.59157402440405e-05,30.3299999237061,2.32999992370605,0.015625,0,NaN,NaN,0,0.0139882274201861,NaN,0.999968027618584,0.00849228257972215,-0.00204526027756856,1.220703125e-05,29.7435693751812,29.7435815822124,,,77.3099999427795,28,0.418505676391682,1.05463090065986
2011-06-01T04:32:36Z,1306902756,107,54.6611932,24.4171958,30.33,0.3,-0.2,308.5,-161397.05,-192514.22,309.5,Air+FixedWing,Blue,Enemies,F-15C,Blue F-15C #002,us,=CNF=307(女生）,0.0220970869120796,0,6.49346625795222e-05,30.3299999237061,2.32999992370605,0.0220970869120796,0,NaN,NaN,0,0.0139882274201861,NaN,0.999992037440117,0.00197958137073292,-0.00493604317215158,2.44140625e-05,29.7435693751812,29.7435937892437,,,78.3099999427795,28,0.418505676391682,1.05463090065986
2011-06-01T04:32:37Z,1306902757,107,54.6611932,24.4171958,30.33,0.3,-0.2,308.5,-161397.03,-192514.22,309.5,Air+FixedWing,Blue,Enemies,F-15C,Blue F-15C #002,us,=CNF=307(女生）,0.015625,0,4.59157402440405e-05,30.3299999237061,2.32999992370605,0.015625,0,NaN,NaN,0,0.0139882274201861,NaN,0.999988992401734,0.00502000942330475,-0.0012477643114448,1.220703125e-05,29.7435693751812,29.7435815822124,,,79.3099999427795,28,0.418505676391682,1.05463090065986
2011-06-01T04:32:38Z,1306902758,107,54.6611932,24.4171958,30.33,0.3,-0.2,308.5,-161397.03,-192514.2,309.5,Air+FixedWing,Blue,Enemies,F-15C,Blue F-15C #002,us,=CNF=307(女生）,0.015625,0,4.59157402440405e-05,30.3299999237061,2.32999992370605,0.015625,0,NaN,NaN,0,0.0139882274201861,NaN,0.999960082758995,0.007694729114121,-0.0055175739778861,1.220703125e-05,29.7435693751812,29.7435815822124,,,80.3099999427795,28,0.418505676391682,1.05463090065986
2011-06-01T04:32:39Z,1306902759,107,54.6611932,24.4171958,30.33,0.3,-0.2,308.5,-161397.03,-192514.22,309.5,Air+FixedWing,Blue,Enemies,F-15C,Blue F-15C #002,us,=CNF=307(女生）,0.015625,0,4.59157402440405e-05,30.3299999237061,2.32999992370605,0.015625,0,NaN,NaN,0,0.0139882274201861,NaN,0.999990007414528,0.00400653340578081,-0.00247719059834706,1.220703125e-05,29.7435693751812,29.7435815822124,,,81.3099999427795,28,0.418505676391682,1.05463090065986
2011-06-01T04:32:40Z,1306902760,107,54.6611932,24.4171958,30.33,0.3,-0.2,308.5,-161397.03,-192514.22,309.5,Air+FixedWing,Blue,Enemies,F-15C,Blue F-15C #002,us,=CNF=307(女生）,0,0,0,30.3299999237061,2.32999992370605,0,0,NaN,NaN,0,0.0139882274201861,NaN,0.999979017516556,0.00624940799275148,-0.00226122543795781,0,29.7435693751812,29.7435693751812,,,82.3099999427795,28,0.418505676391682,1.05463090065986
2011-06-01T04:32:41Z,1306902761,107,54.6611932,24.4171958,30.33,0.3,-0.2,308.5,-161397.05,-192514.22,309.5,Air+FixedWing,Blue,Enemies,F-15C,Blue F-15C #002,us,=CNF=307(女生）,0.015625,0,4.59157402440405e-05,30.3299999237061,2.32999992370605,0.015625,0,NaN,NaN,0,0.0139882274201861,NaN,0.99998206255494,0.00320897994017966,-0.00594950429866459,1.220703125e-05,29.7435693751812,29.7435815822124,,,83.3099999427795,28,0.418505676391682,1.05463090065986
2011-06-01T04:32:42Z,1306902762,107,54.6611932,24.4171958,30.33,0.3,-0.2,308.5,-161397.03,-192514.22,309.5,Air+FixedWing,Blue,Enemies,F-15C,Blue F-15C #002,us,=CNF=307(女生）,0.015625,0,4.59157402440405e-05,30.3299999237061,2.32999992370605,0.015625,0,NaN,NaN,0,0.0139882274201861,NaN,0.999979017516556,0.00624940799275148,-0.00226122543795781,1.220703125e-05,29.7435693751812,29.7435815822124,,,84.3099999427795,28,0.418505676391682,1.05463090065986
2011-06-01T04:32:43Z,1306902763,107,54.6611932,24.4171958,30.33,0.3,-0.2,308.5,-161397.03,-192514.22,309.5,Air+FixedWing,Blue,Enemies,F-15C,Blue F-15C #002,us,=CNF=307(女生）,0,0,0,30.3299999237061,2.32999992370605,0,0,NaN,NaN,0,0.0139882274201861,NaN,0.999990007414528,0.00400653340578081,-0.00247719059834706,0,29.7435693751812,29.7435693751812,,,85.3099999427795,28,0.418505676391682,1.05463090065986
2011-06-01T04:32:44Z,1306902764,107,54.6611932,24.4171958,30.33,0.3,-0.2,308.5,-161397.03,-192514.2,309.5,Air+FixedWing,Blue,Enemies,F-15C,Blue F-15C #002,us,=CNF=307(女生）,0.015625,0,4.59157402440405e-05,30.3299999237061,2.32999992370605,0.015625,0,NaN,NaN,0,0.0139882274201861,NaN,0.999960082758995,0.007694729114121,-0.0055175739778861,1.220703125e-05,29.7435693751812,29.7435815822124,,,86.3099999427795,28,0.418505676391682,1.05463090065986
2011-06-01T04:32:45Z,1306902765,107,54.6611932,24.4171958,30.33,0.3,-0.2,308.5,-161397.03,-192514.22,309.5,Air+FixedWing,Blue,Enemies,F-15C,Blue F-15C #002,us,=CNF=307(女生）,0.015625,0,4.59157402440405e-05,30.3299999237061,2.32999992370605,0.015625,0,NaN,NaN,0,0.0139882274201861,NaN,0.999988992401734,0.00502000942330475,-0.0012477643114448,1.220703125e-05,29.7435693751812,29.7435815822124,,,87.3099999427795,28,0.418505676391682,1.05463090065986
2011-06-01T04:32:46Z,1306902766,107,54.6611932,24.4171958,30.33,0.3,-0.2,308.5,-161397.05,-192514.22,309.5,Air+FixedWing,Blue,Enemies,F-15C,Blue F-15C #002,us,=CNF=307(女生）,0.015625,0,4.59157402440405e-05,30.3299999237061,2.32999992370605,0.015625,0,NaN,NaN,0,0.0139882274201861,NaN,0.999981047542145,0.0042224559577036,-0.00472007801176233,1.220703125e-05,29.7435693751812,29.7435815822124,,,88.3099999427795,28,0.418505676391682,1.05463090065986
2011-06-01T04:32:47Z,1306902767,107,54.6611932,24.4171958,30.33,0.3,-0.2,308.5,-161397.05,-192514.22,309.5,Air+FixedWing,Blue,Enemies,F-15C,Blue F-15C #002,us,=CNF=307(女生）,0,0,0,30.3299999237061,2.32999992370605,0,0,NaN,NaN,0,0.0139882274201861,NaN,0.999991022427323,0.00299305738825686,-0.00370661688524932,0,29.7435693751812,29.7435693751812,,,89.3099999427795,28,0.418505676391682,1.05463090065986
2011-06-01T04:32:48Z,1306902768,107,54.6611932,24.4171958,30.33,0.3,-0.2,308.5,-161397.03,-192514.2,309.5,Air+FixedWing,Blue,Enemies,F-15C,Blue F-15C #002,us,=CNF=307(女生）,0.0220970869120796,0,6.49346625795222e-05,30.3299999237061,2.32999992370605,0.0220970869120796,0,NaN,NaN,0,0.0139882274201861,NaN,0.999958052733406,0.00972168114916888,-0.00305872140408157,2.44140625e-05,29.7435693751812,29.7435937892437,,,90.3099999427795,28,0.418505676391682,1.05463090065986
2011-06-01T04:32:49Z,1306902769,107,54.6611932,24.4171958,30.33,0.3,-0.2,308.5,-161397.05,-192514.22,309.5,Air+FixedWing,Blue,Enemies,F-15C,Blue F-15C #002,us,=CNF=307(女生）,0.0220970869120796,0,6.49346625795222e-05,30.3299999237061,2.32999992370605,0.0220970869120796,0,NaN,NaN,0,0.0139882274201861,NaN,0.999992037440117,0.00197958137073292,-0.00493604317215158,2.44140625e-05,29.7435693751812,29.7435937892437,,,91.3099999427795,28,0.418505676391682,1.05463090065986
2011-06-01T04:32:50Z,1306902770,107,54.6611932,24.4171958,30.33,0.3,-0.2,308.5,-161397.03,-192514.22,309.5,Air+FixedWing,Blue,Enemies,F-15C,Blue F-15C #002,us,=CNF=307(女生）,0.015625,0,4.59157402440405e-05,30.3299999237061,2.32999992370605,0.015625,0,NaN,NaN,0,0.0139882274201861,NaN,0.999979017516556,0.00624940799275148,-0.00226122543795781,1.220703125e-05,29.7435693751812,29.7435815822124,,,92.3099999427795,28,0.418505676391682,1.05463090065986
2011-06-01T04:32:51Z,1306902771,107,54.6611932,24.4171958,30.33,0.3,-0.2,308.5,-161397.03,-192514.22,309.5,Air+FixedWing,Blue,Enemies,F-15C,Blue F-15C #002,us,=CNF=307(女生）,0,0,0,30.3299999237061,2.32999992370605,0,0,NaN,NaN,0,0.0139882274201861,NaN,0.999979017516556,0.00624940799275148,-0.00226122543795781,0,29.7435693751812,29.7435693751812,,,93.3099999427795,28,0.418505676391682,1.05463090065986
2011-06-01T04:32:52Z,1306902772,107,54.6611932,24.4171958,30.33,0.3,-0.2,308.5,-161397.05,-192514.22,309.5,Air+FixedWing,Blue,Enemies,F-15C,Blue F-15C #002,us,=CNF=307(女生）,0.015625,0,4.59157402440405e-05,30.3299999237061,2.32999992370605,0.015625,0,NaN,NaN,0,0.0139882274201861,NaN,0.999981047542145,0.0042224559577036,-0.00472007801176233,1.220703125e-05,29.7435693751812,29.7435815822124,,,94.3099999427795,28,0.418505676391682,1.05463090065986
2011-06-01T04:32:53Z,1306902773,107,54.6611932,24.4171958,30.33,0.3,-0.2,308.5,-161397.05,-192514.22,309.5,Air+FixedWing,Blue,Enemies,F-15C,Blue F-15C #002,us,=CNF=307(女生）,0,0,0,30.3299999237061,2.32999992370605,0,0,NaN,NaN,0,0.0139882274201861,NaN,0.999990007414528,0.00400653340578081,-0.00247719059834706,0,29.7435693751812,29.7435693751812,,,95.3099999427795,28,0.418505676391682,1.05463090065986
2011-06-01T04:32:54Z,1306902774,107,54.6611932,24.4171958,30.33,0.3,-0.2,308.5,-161397.05,-192514.2,309.5,Air+FixedWing,Blue,Enemies,F-15C,Blue F-15C #002,us,=CNF=307(女生）,0.015625,0,4.59157402440405e-05,30.3299999237061,2.32999992370605,0.015625,0,NaN,NaN,0,0.0139882274201861,NaN,0.999971072656967,0.00545185452715033,-0.00573353913827534,1.220703125e-05,29.7435693751812,29.7435815822124,,,96.3099999427795,28,0.418505676391682,1.05463090065986
2011-06-01T04:32:55Z,1306902775,107,54.6611932,24.4171958,30.33,0.3,-0.2,308.5,-161397.03,-192514.2,309.5,Air+FixedWing,Blue,Enemies,F-15C,Blue F-15C #002,us,=CNF=307(女生）,0.015625,0,4.59157402440405e-05,30.3299999237061,2.32999992370605,0.015625,0,NaN,NaN,0,0.0139882274201861,NaN,0.999979017516556,0.00624940799275148,-0.00226122543795781,1.220703125e-05,29.7435693751812,29.7435815822124,,,97.3099999427795,28,0.418505676391682,1.05463090065986
2011-06-01T04:32:56Z,1306902776,107,54.6611932,24.4171958,30.33,0.3,-0.2,308.5,-161397.03,-192514.2,309.5,Air+FixedWing,Blue,Enemies,F-15C,Blue F-15C #002,us,=CNF=307(女生）,0,0,0,30.3299999237061,2.32999992370605,0,0,NaN,NaN,0,0.0139882274201861,NaN,0.999979017516556,0.00624940799275148,-0.00226122543795781,0,29.7435693751812,29.7435693751812,,,98.3099999427795,28,0.418505676391682,1.05463090065986
2011-06-01T04:32:57Z,1306902777,107,54.6611932,24.4171958,30.33,0.3,-0.2,308.5,-161397.05,-192514.2,309.5,Air+FixedWing,Blue,Enemies,F-15C,Blue F-15C #002,us,=CNF=307(女生）,0.015625,0,4.59157402440405e-05,30.3299999237061,2.32999992370605,0.015625,0,NaN,NaN,0,0.0139882274201861,NaN,0.999971072656967,0.00545185452715033,-0.00573353913827534,1.220703125e-05,29.7435693751812,29.7435815822124,,,99.3099999427795,28,0.418505676391682,1.05463090065986
2011-06-01T04:32:58Z,1306902778,107,54.6611932,24.4171958,30.33,0.3,-0.2,308.5,-161397.05,-192514.22,309.5,Air+FixedWing,Blue,Enemies,F-15C,Blue F-15C #002,us,=CNF=307(女生）,0.015625,0,4.59157402440405e-05,30.3299999237061,2.32999992370605,0.015625,0,NaN,NaN,0,0.0139882274201861,NaN,0.999990007414528,0.00400653340578081,-0.00247719059834706,1.220703125e-05,29.7435693751812,29.7435815822124,,,100.30999994278,28,0.418505676391682,1.05463090065986
2011-06-01T04:32:59Z,1306902779,107,54.6611932,24.4171958,30.33,0.3,-0.2,308.5,-161397.05,-192514.22,309.5,Air+FixedWing,Blue,Enemies,F-15C,Blue F-15C #002,us,=CNF=307(女生）,0,0,0,30.3299999237061,2.32999992370605,0,0,NaN,NaN,0,0.0139882274201861,NaN,0.999980032529351,0.00523593197522754,-0.00349065172486007,0,29.7435693751812,29.7435693751812,,,101.30999994278,28,0.418505676391682,1.05463090065986
2011-06-01T04:33:00Z,1306902780,107,54.6611932,24.4171958,30.33,0.3,-0.2,308.5,-161397.05,-192514.22,309.5,Air+FixedWing,Blue,Enemies,F-15C,Blue F-15C #002,us,=CNF=307(女生）,0,0,0,30.3299999237061,2.32999992370605,0,0,NaN,NaN,0,0.0139882274201861,NaN,0.999980032529351,0.00523593197522754,-0.00349065172486007,0,29.7435693751812,29.7435693751812,,,102.30999994278,28,0.418505676391682,1.05463090065986
2011-06-01T04:33:01Z,1306902781,107,54.6611932,24.4171958,30.33,0.3,-0.2,308.5,-161397.05,-192514.22,309.5,Air+FixedWing,Blue,Enemies,F-15C,Blue F-15C #002,us,=CNF=307(女生）,0,0,0,30.3299999237061,2.32999992370605,0,0,NaN,NaN,0,0.0139882274201861,NaN,0.999981047542145,0.0042224559577036,-0.00472007801176233,0,29.7435693751812,29.7435693751812,,,103.30999994278,28,0.418505676391682,1.05463090065986
2011-06-01T04:33:02Z,1306902782,107,54.6611932,24.4171958,30.33,0.3,-0.2,308.5,-161397.03,-192514.22,309.5,Air+FixedWing,Blue,Enemies,F-15C,Blue F-15C #002,us,=CNF=307(女生）,0.015625,0,4.59157402440405e-05,30.3299999237061,2.32999992370605,0.015625,0,NaN,NaN,0,0.0139882274201861,NaN,0.999988992401734,0.00502000942330475,-0.0012477643114448,1.220703125e-05,29.7435693751812,29.7435815822124,,,104.30999994278,28,0.418505676391682,1.05463090065986
2011-06-01T04:33:03Z,1306902783,107,54.6611932,24.4171958,30.33,0.3,-0.2,308.5,-161397.03,-192514.2,309.5,Air+FixedWing,Blue,Enemies,F-15C,Blue F-15C #002,us,=CNF=307(女生）,0.015625,0,4.59157402440405e-05,30.3299999237061,2.32999992370605,0.015625,0,NaN,NaN,0,0.0139882274201861,NaN,0.999969042631378,0.00747880656219821,-0.00327468656447082,1.220703125e-05,29.7435693751812,29.7435815822124,,,105.30999994278,28,0.418505676391682,1.05463090065986
2011-06-01T04:33:04Z,1306902784,107,54.6611932,24.4171958,30.33,0.3,-0.2,308.5,-161397.05,-192514.2,309.5,Air+FixedWing,Blue,Enemies,F-15C,Blue F-15C #002,us,=CNF=307(女生）,0.015625,0,4.59157402440405e-05,30.3299999237061,2.32999992370605,0.015625,0,NaN,NaN,0,0.0139882274201861,NaN,0.999981047542145,0.0042224559577036,-0.00472007801176233,1.220703125e-05,29.7435693751812,29.7435815822124,,,106.30999994278,28,0.418505676391682,1.05463090065986
2011-06-01T04:33:05Z,1306902785,107,54.6611932,24.4171958,30.33,0.3,-0.2,308.5,-161397.05,-192514.2,309.5,Air+FixedWing,Blue,Enemies,F-15C,Blue F-15C #002,us,=CNF=307(女生）,0,0,0,30.3299999237061,2.32999992370605,0,0,NaN,NaN,0,0.0139882274201861,NaN,0.999970057644173,0.00646533054467427,-0.00450411285137308,0,29.7435693751812,29.7435693751812,,,107.30999994278,28,0.418505676391682,1.05463090065986
2011-06-01T04:33:06Z,1306902786,107,54.6611932,24.4171958,30.33,0.3,-0.2,308.5,-161397.05,-192514.22,309.5,Air+FixedWing,Blue,Enemies,F-15C,Blue F-15C #002,us,=CNF=307(女生）,0.015625,0,4.59157402440405e-05,30.3299999237061,2.32999992370605,0.015625,0,NaN,NaN,0,0.0139882274201861,NaN,0.999990007414528,0.00400653340578081,-0.00247719059834706,1.220703125e-05,29.7435693751812,29.7435815822124,,,108.30999994278,28,0.418505676391682,1.05463090065986
2011-06-01T04:33:07Z,1306902787,107,54.6611932,24.4171958,30.33,0.3,-0.2,308.5,-161397.05,-192514.22,309.5,Air+FixedWing,Blue,Enemies,F-15C,Blue F-15C #002,us,=CNF=307(女生）,0,0,0,30.3299999237061,2.32999992370605,0,0,NaN,NaN,0,0.0139882274201861,NaN,0.999981047542145,0.0042224559577036,-0.00472007801176233,0,29.7435693751812,29.7435693751812,,,109.30999994278,28,0.418505676391682,1.05463090065986
2011-06-01T04:33:08Z,1306902788,107,54.6611932,24.4171958,30.33,0.3,-0.2,308.5,-161397.03,-192514.22,309.5,Air+FixedWing,Blue,Enemies,F-15C,Blue F-15C #002,us,=CNF=307(女生）,0.015625,0,4.59157402440405e-05,30.3299999237061,2.32999992370605,0.015625,0,NaN,NaN,0,0.0139882274201861,NaN,0.999988992401734,0.00502000942330475,-0.0012477643114448,1.220703125e-05,29.7435693751812,29.7435815822124,,,110.30999994278,28,0.418505676391682,1.05463090065986
2011-06-01T04:33:09Z,1306902789,107,54.6611932,24.4171958,30.33,0.3,-0.2,308.5,-161397.03,-192514.2,309.5,Air+FixedWing,Blue,Enemies,F-15C,Blue F-15C #002,us,=CNF=307(女生）,0.015625,0,4.59157402440405e-05,30.3299999237061,2.32999992370605,0.015625,0,NaN,NaN,0,0.0139882274201861,NaN,0.999969042631378,0.00747880656219821,-0.00327468656447082,1.220703125e-05,29.7435693751812,29.7435815822124,,,111.30999994278,28,0.418505676391682,1.05463090065986
2011-06-01T04:33:10Z,1306902790,107,54.6611932,24.4171958,30.33,0.3,-0.2,308.5,-161397.05,-192514.2,309.5,Air+FixedWing,Blue,Enemies,F-15C,Blue F-15C #002,us,=CNF=307(女生）,0.015625,0,4.59157402440405e-05,30.3299999237061,2.32999992370605,0.015625,0,NaN,NaN,0,0.0139882274201861,NaN,0.999981047542145,0.0042224559577036,-0.00472007801176233,1.220703125e-05,29.7435693751812,29.7435815822124,,,112.30999994278,28,0.418505676391682,1.05463090065986
2011-06-01T04:33:11Z,1306902791,107,54.6611932,24.4171958,30.33,0.3,-0.2,308.5,-161397.05,-192514.2,309.5,Air+FixedWing,Blue,Enemies,F-15C,Blue F-15C #002,us,=CNF=307(女生）,0,0,0,30.3299999237061,2.32999992370605,0,0,NaN,NaN,0,0.0139882274201861,NaN,0.999981047542145,0.0042224559577036,-0.00472007801176233,0,29.7435693751812,29.7435693751812,,,113.30999994278,28,0.418505676391682,1.05463090065986
2011-06-01T04:33:12Z,1306902792,107,54.6611932,24.4171958,30.33,0.3,-0.2,308.5,-161397.03,-192514.2,309.5,Air+FixedWing,Blue,Enemies,F-15C,Blue F-15C #002,us,=CNF=307(女生）,0.015625,0,4.59157402440405e-05,30.3299999237061,2.32999992370605,0.015625,0,NaN,NaN,0,0.0139882274201861,NaN,0.999969042631378,0.00747880656219821,-0.00327468656447082,1.220703125e-05,29.7435693751812,29.7435815822124,,,114.30999994278,28,0.418505676391682,1.05463090065986
2011-06-01T04:33:13Z,1306902793,107,54.6611932,24.4171958,30.33,0.3,-0.2,308.5,-161397.03,-192514.22,309.5,Air+FixedWing,Blue,Enemies,F-15C,Blue F-15C #002,us,=CNF=307(女生）,0.015625,0,4.59157402440405e-05,30.3299999237061,2.32999992370605,0.015625,0,NaN,NaN,0,0.0139882274201861,NaN,0.999988992401734,0.00502000942330475,-0.0012477643114448,1.220703125e-05,29.7435693751812,29.7435815822124,,,115.30999994278,28,0.418505676391682,1.05463090065986
2011-06-01T04:33:14Z,1306902794,107,54.6611932,24.4171958,30.33,0.3,-0.2,308.5,-161397.05,-192514.22,309.5,Air+FixedWing,Blue,Enemies,F-15C,Blue F-15C #002,us,=CNF=307(女生）,0.015625,0,4.59157402440405e-05,30.3299999237061,2.32999992370605,0.015625,0,NaN,NaN,0,0.0139882274201861,NaN,0.99998206255494,0.00320897994017966,-0.00594950429866459,1.220703125e-05,29.7435693751812,29.7435815822124,,,116.30999994278,28,0.418505676391682,1.05463090065986
2011-06-01T04:33:15Z,1306902795,107,54.6611932,24.4171958,30.33,0.3,-0.2,308.5,-161397.03,-192514.22,309.5,Air+FixedWing,Blue,Enemies,F-15C,Blue F-15C #002,us,=CNF=307(女生）,0.015625,0,4.59157402440405e-05,30.3299999237061,2.32999992370605,0.015625,0,NaN,NaN,0,0.0139882274201861,NaN,0.999979017516556,0.00624940799275148,-0.00226122543795781,1.220703125e-05,29.7435693751812,29.7435815822124,,,117.30999994278,28,0.418505676391682,1.05463090065986
2011-06-01T04:33:16Z,1306902796,107,54.6611932,24.4171958,30.33,0.3,-0.2,308.5,-161397.03,-192514.22,309.5,Air+FixedWing,Blue,Enemies,F-15C,Blue F-15C #002,us,=CNF=307(女生）,0,0,0,30.3299999237061,2.32999992370605,0,0,NaN,NaN,0,0.0139882274201861,NaN,0.999979017516556,0.00624940799275148,-0.00226122543795781,0,29.7435693751812,29.7435693751812,,,118.30999994278,28,0.418505676391682,1.05463090065986
2011-06-01T04:33:17Z,1306902797,107,54.6611932,24.4171958,30.33,0.3,-0.2,308.5,-161397.05,-192514.22,309.5,Air+FixedWing,Blue,Enemies,F-15C,Blue F-15C #002,us,=CNF=307(女生）,0.015625,0,4.59157402440405e-05,30.3299999237061,2.32999992370605,0.015625,0,NaN,NaN,0,0.0139882274201861,NaN,0.999991022427323,0.00299305738825686,-0.00370661688524932,1.220703125e-05,29.7435693751812,29.7435815822124,,,119.30999994278,28,0.418505676391682,1.05463090065986
2011-06-01T04:33:18Z,1306902798,107,54.6611932,24.4171958,30.33,0.3,-0.2,308.5,-161397.05,-192514.2,309.5,Air+FixedWing,Blue,Enemies,F-15C,Blue F-15C #002,us,=CNF=307(女生）,0.015625,0,4.59157402440405e-05,30.3299999237061,2.32999992370605,0.015625,0,NaN,NaN,0,0.0139882274201861,NaN,0.999960082758995,0.007694729114121,-0.0055175739778861,1.220703125e-05,29.7435693751812,29.7435815822124,,,120.30999994278,28,0.418505676391682,1.05463090065986
2011-06-01T04:33:19Z,1306902799,107,54.6611932,24.4171958,30.33,0.3,-0.2,308.5,-161397.05,-192514.22,309.5,Air+FixedWing,Blue,Enemies,F-15C,Blue F-15C #002,us,=CNF=307(女生）,0.015625,0,4.59157402440405e-05,30.3299999237061,2.32999992370605,0.015625,0,NaN,NaN,0,0.0139882274201861,NaN,0.999999982299706,0.00277713483633408,-0.00146372947183405,1.220703125e-05,29.7435693751812,29.7435815822124,,,121.30999994278,28,0.418505676391682,1.05463090065986
2011-06-01T04:33:20Z,1306902800,107,54.6611932,24.4171958,30.33,0.3,-0.2,308.5,-161397.05,-192514.2,309.5,Air+FixedWing,Blue,Enemies,F-15C,Blue F-15C #002,us,=CNF=307(女生）,0.015625,0,4.59157402440405e-05,30.3299999237061,2.32999992370605,0.015625,0,NaN,NaN,0,0.0139882274201861,NaN,0.999970057644173,0.00646533054467427,-0.00450411285137308,1.220703125e-05,29.7435693751812,29.7435815822124,,,122.30999994278,28,0.418505676391682,1.05463090065986
2011-06-01T04:33:21Z,1306902801,107,54.6611932,24.4171958,30.33,0.3,-0.2,308.5,-161397.05,-192514.2,309.5,Air+FixedWing,Blue,Enemies,F-15C,Blue F-15C #002,us,=CNF=307(女生）,0,0,0,30.3299999237061,2.32999992370605,0,0,NaN,NaN,0,0.0139882274201861,NaN,0.999981047542145,0.0042224559577036,-0.00472007801176233,0,29.7435693751812,29.7435693751812,,,123.30999994278,28,0.418505676391682,1.05463090065986
2011-06-01T04:33:22Z,1306902802,107,54.6611932,24.4171958,30.33,0.3,-0.2,308.5,-161397.03,-192514.2,309.5,Air+FixedWing,Blue,Enemies,F-15C,Blue F-15C #002,us,=CNF=307(女生）,0.015625,0,4.59157402440405e-05,30.3299999237061,2.32999992370605,0.015625,0,NaN,NaN,0,0.0139882274201861,NaN,0.999979017516556,0.00624940799275148,-0.00226122543795781,1.220703125e-05,29.7435693751812,29.7435815822124,,,124.30999994278,28,0.418505676391682,1.05463090065986
2011-06-01T04:33:23Z,1306902803,107,54.6611932,24.4171958,30.33,0.3,-0.2,308.5,-161397.03,-192514.2,309.5,Air+FixedWing,Blue,Enemies,F-15C,Blue F-15C #002,us,=CNF=307(女生）,0,0,0,30.3299999237061,2.32999992370605,0,0,NaN,NaN,0,0.0139882274201861,NaN,0.999970057644173,0.00646533054467427,-0.00450411285137308,0,29.7435693751812,29.7435693751812,,,125.30999994278,28,0.418505676391682,1.05463090065986
2011-06-01T04:33:24Z,1306902804,107,54.6611932,24.4171958,30.33,0.3,-0.2,308.5,-161397.03,-192514.22,309.5,Air+FixedWing,Blue,Enemies,F-15C,Blue F-15C #002,us,=CNF=307(女生）,0.015625,0,4.59157402440405e-05,30.3299999237061,2.32999992370605,0.015625,0,NaN,NaN,0,0.0139882274201861,NaN,0.999990007414528,0.00400653340578081,-0.00247719059834706,1.220703125e-05,29.7435693751812,29.7435815822124,,,126.30999994278,28,0.418505676391682,1.05463090065986
2011-06-01T04:33:25Z,1306902805,107,54.6611932,24.4171958,30.33,0.3,-0.2,308.5,-161397.03,-192514.22,309.5,Air+FixedWing,Blue,Enemies,F-15C,Blue F-15C #002,us,=CNF=307(女生）,0,0,0,30.3299999237061,2.32999992370605,0,0,NaN,NaN,0,0.0139882274201861,NaN,0.999990007414528,0.00400653340578081,-0.00247719059834706,0,29.7435693751812,29.7435693751812,,,127.30999994278,28,0.418505676391682,1.05463090065986
2011-06-01T04:33:26Z,1306902806,107,54.6611932,24.4171958,30.33,0.3,-0.2,308.5,-161397.03,-192514.2,309.5,Air+FixedWing,Blue,Enemies,F-15C,Blue F-15C #002,us,=CNF=307(女生）,0.015625,0,4.59157402440405e-05,30.3299999237061,2.32999992370605,0.015625,0,NaN,NaN,0,0.0139882274201861,NaN,0.999969042631378,0.00747880656219821,-0.00327468656447082,1.220703125e-05,29.7435693751812,29.7435815822124,,,128.30999994278,28,0.418505676391682,1.05463090065986
2011-06-01T04:33:27Z,1306902807,107,54.6611932,24.4171958,30.33,0.3,-0.2,308.5,-161397.05,-192514.2,309.5,Air+FixedWing,Blue,Enemies,F-15C,Blue F-15C #002,us,=CNF=307(女生）,0.015625,0,4.59157402440405e-05,30.3299999237061,2.32999992370605,0.015625,0,NaN,NaN,0,0.0139882274201861,NaN,0.999971072656967,0.00545185452715033,-0.00573353913827534,1.220703125e-05,29.7435693751812,29.7435815822124,,,129.30999994278,28,0.418505676391682,1.05463090065986
2011-06-01T04:33:28Z,1306902808,107,54.6611932,24.4171958,30.33,0.3,-0.2,308.5,-161397.05,-192514.22,309.5,Air+FixedWing,Blue,Enemies,F-15C,Blue F-15C #002,us,=CNF=307(女生）,0.015625,0,4.59157402440405e-05,30.3299999237061,2.32999992370605,0.015625,0,NaN,NaN,0,0.0139882274201861,NaN,1.0000009973125,0.00176365881881013,-0.00269315575873631,1.220703125e-05,29.7435693751812,29.7435815822124,,,130.30999994278,28,0.418505676391682,1.05463090065986
2011-06-01T04:33:29Z,1306902809,107,54.6611932,24.4171958,30.33,0.3,-0.2,308.5,-161397.03,-192514.2,309.5,Air+FixedWing,Blue,Enemies,F-15C,Blue F-15C #002,us,=CNF=307(女生）,0.0220970869120796,0,6.49346625795222e-05,30.3299999237061,2.32999992370605,0.0220970869120796,0,NaN,NaN,0,0.0139882274201861,NaN,0.999969042631378,0.00747880656219821,-0.00327468656447082,2.44140625e-05,29.7435693751812,29.7435937892437,,,131.30999994278,28,0.418505676391682,1.05463090065986
2011-06-01T04:33:30Z,1306902810,107,54.6611932,24.4171958,30.33,0.3,-0.2,308.5,-161397.03,-192514.2,309.5,Air+FixedWing,Blue,Enemies,F-15C,Blue F-15C #002,us,=CNF=307(女生）,0,0,0,30.3299999237061,2.32999992370605,0,0,NaN,NaN,0,0.0139882274201861,NaN,0.999970057644173,0.00646533054467427,-0.00450411285137308,0,29.7435693751812,29.7435693751812,,,132.30999994278,28,0.418505676391682,1.05463090065986
