ISOTime,UnixTime,Id,Longitude,Latitude,Altitude,Roll,Pitch,Yaw,U,V,Heading,Type,Color,Coalition,Name,Group,Country,Pilot,TAS,CAS,M,ASL,AGL,GS,VS,AOA,AOS,RRT,TRT,TRD,G,LatG,LonG,Ek,Ep,Em,FFW,FFV,RelativeTime,Elev,GroundDistance,AirDistance
2011-06-01T04:30:52Z,1306902652,10A,54.6581026,24.4209804,30.28,-0.2,-0.5,38.5,-161703.45,-192089.64,39.4,Air+FixedWing,Blue,Enemies,Su-27,Blue Su-27 #001,ru,=CNF=801（建军）,0.223181274233047,0.262722313404083,0.000655841797182327,30.2838077545166,2.2838077545166,NaN,NaN,NaN,NaN,NaN,NaN,NaN,NaN,NaN,NaN,NaN,29.698270331583,NaN,,,0.190000057220459,28,NaN,NaN
2011-06-01T04:30:53Z,1306902653,10A,54.6581025,24.4209804,30.24,0,-0.6,38.5,-161703.45,-192089.64,39.5,Air+FixedWing,Blue,Enemies,Su-27,Blue Su-27 #001,ru,=CNF=801（建军）,0.0404739379882812,0,0.000118936896538479,30.2433338165283,2.24333381652832,0,-0.0404739379882812,NaN,NaN,0,NaN,NaN,1.00944120975146,-0.000215966814800639,-0.00774088897842099,8.19069828139618e-05,29.6585789571857,29.6586608641686,,,1.19000005722046,28,0.0096767941951935,0.0416146710986796
2011-06-01T04:30:54Z,1306902654,10A,54.6581027,24.4209806,30.3,-0.1,-0.7,38.5,-161703.44,-192089.62,39.5,Air+FixedWing,Blue,Enemies,Su-27,Blue Su-27 #001,ru,=CNF=801（建军）,0.0568498425714415,0,0.000167059302138134,30.2957134246826,2.29571342468262,0.0220970869120796,0.0523796081542969,NaN,NaN,0,0.145370077735915,NaN,0.989854574773821,-0.00107961821890699,-0.0180826426992374,0.000161595230019884,29.7099458056164,29.7101074008464,,,2.19000005722046,28,0.0367873515867889,0.100594436644561
2011-06-01T04:30:55Z,1306902655,10A,54.6581025,24.4209803,30.25,-0.1,-0.5,38.5,-161703.47,-192089.66,39.5,Air+FixedWing,Blue,Enemies,Su-27,Blue Su-27 #001,ru,=CNF=801（建军）,0.0635833484193253,0,0.000186846328192331,30.25,2.25,0.0441941738241592,-0.0457134246826172,NaN,NaN,0,0.100870594880489,NaN,1.00373360976594,-0.00218367609490286,-0.00414373382767492,0.000202142109810666,29.66511625,29.6653183921098,,,3.19000005722046,28,0.0718636329999968,0.158214524811595
2011-06-01T04:30:56Z,1306902656,10A,54.6581025,24.4209803,30.24,-0.1,-0.4,38.5,-161703.47,-192089.66,39.5,Air+FixedWing,Blue,Enemies,Su-27,Blue Su-27 #001,ru,=CNF=801（建军）,0.00909042358398438,0,2.67131589734811e-05,30.240909576416,2.24090957641602,0,-0.00909042358398438,NaN,NaN,0,0.0139882274201861,NaN,1.0007978895228,-0.00276008737102564,-0.00821648881210379,4.13179004681297e-06,29.656201589756,29.6562057215461,,,4.19000005722046,28,0.0718636329999968,0.167304948278029
2011-06-01T04:30:57Z,1306902657,10A,54.6581024,24.4209802,30.24,-0.1,-0.4,38.5,-161703.47,-192089.67,39.5,Air+FixedWing,Blue,Enemies,Su-27,Blue Su-27 #001,ru,=CNF=801（建军）,0.0156514654483214,0,4.59934651603173e-05,30.2399997711182,2.23999977111816,0.015625,-0.000909805297851562,NaN,NaN,0,0.0139882274201861,NaN,1.0000771956422,-0.000731891394805258,-0.00575250379136461,1.22484185339999e-05,29.6553093755436,29.6553216239621,,,5.19000005722046,28,0.0862304243690791,0.181700586622084
2011-06-01T04:30:58Z,1306902658,10A,54.6581024,24.4209802,30.24,-0.1,-0.4,38.5,-161703.47,-192089.67,39.5,Air+FixedWing,Blue,Enemies,Su-27,Blue Su-27 #001,ru,=CNF=801（建军）,0,0,0,30.2399997711182,2.23999977111816,0,0,NaN,NaN,0,0.0139882274201861,NaN,0.999974072017302,-0.00174518052212985,-0.00698126060888171,0,29.6553093755436,29.6553093755436,,,6.19000005722046,28,0.0907556071440102,0.186225790941255
2011-06-01T04:30:59Z,1306902659,10A,54.6581024,24.4209803,30.24,-0.1,-0.4,38.5,-161703.47,-192089.67,39.5,Air+FixedWing,Blue,Enemies,Su-27,Blue Su-27 #001,ru,=CNF=801（建军）,0,0,0,30.2399997711182,2.23999977111816,0,0,NaN,NaN,0,0.0139882274201861,NaN,0.99998442373301,-0.00073172948687629,-0.0057518561096648,0,29.6553093755436,29.6553093755436,,,7.19000005722046,28,0.0952807899160379,0.19075099494634
2011-06-01T04:31:00Z,1306902660,10A,54.6581024,24.4209803,30.24,-0.1,-0.4,38.5,-161703.47,-192089.66,39.5,Air+FixedWing,Blue,Enemies,Su-27,Blue Su-27 #001,ru,=CNF=801（建军）,0.015625,0,4.59156936775547e-05,30.2399997711182,2.23999977111816,0.015625,0,NaN,NaN,0,0.0139882274201861,NaN,0.999963720301594,-0.00275863155738341,-0.00821066510809862,1.220703125e-05,29.6553093755436,29.6553215825748,,,8.19000005722046,28,0.096412085374932,0.191882296234219
2011-06-01T04:31:01Z,1306902661,10A,54.6581024,24.4209803,30.24,-0.1,-0.4,38.5,-161703.47,-192089.66,39.5,Air+FixedWing,Blue,Enemies,Su-27,Blue Su-27 #001,ru,=CNF=801（建军）,0,0,0,30.2399997711182,2.23999977111816,0,0,NaN,NaN,0.0391037801534618,0.0139882274201861,NaN,0.999974608446028,-0.00140394444992222,-0.00698126060888171,0,29.6553093755436,29.6553093755436,,,9.19000005722046,28,0.096412085374932,0.191882296234219
2011-06-01T04:31:02Z,1306902662,10A,54.6581024,24.4209803,30.24,-0,-0.4,38.5,-161703.47,-192089.66,39.5,Air+FixedWing,Blue,Enemies,Su-27,Blue Su-27 #001,ru,=CNF=801（建军）,0,0,0,30.2399997711182,2.23999977111816,0,0,NaN,NaN,0.0558625497464806,0.0139882274201861,NaN,0.999966484721684,-0.00144244704389623,-0.00821066510809862,0,29.6553093755436,29.6553093755436,,,10.1900000572205,28,0.096412085374932,0.191882296234219
2011-06-01T04:31:03Z,1306902663,10A,54.6581024,24.4209803,30.24,0,-0.4,38.5,-161703.47,-192089.67,39.5,Air+FixedWing,Blue,Enemies,Su-27,Blue Su-27 #001,ru,=CNF=801（建军）,0.015625,0,4.59156936775547e-05,30.2399997711182,2.23999977111816,0.015625,0,NaN,NaN,0,0.0197823405926261,NaN,0.999985455237331,0.00101346745823447,-0.00550850248386592,1.220703125e-05,29.6553093755436,29.6553215825748,,,11.1900000572205,28,0.096412085374932,0.191882296234219
2011-06-01T04:31:04Z,1306902664,10A,54.6581024,24.4209803,30.24,0,-0.3,38.5,-161703.47,-192089.67,39.5,Air+FixedWing,Blue,Enemies,Su-27,Blue Su-27 #001,ru,=CNF=801（建军）,0,0,0,30.2399997711182,2.23999977111816,0,0,NaN,NaN,0,0.0395646845203054,NaN,0.999981701375141,0,-0.00604261411353946,0,29.6553093755436,29.6553093755436,,,12.1900000572205,28,0.096412085374932,0.191882296234219
2011-06-01T04:31:05Z,1306902665,10A,54.6581024,24.4209803,30.24,0,-0.3,38.5,-161703.47,-192089.67,39.5,Air+FixedWing,Blue,Enemies,Su-27,Blue Su-27 #001,ru,=CNF=801（建军）,0,0,0,30.2399997711182,2.23999977111816,0,0,NaN,NaN,0,0.0342640208323925,NaN,0.999992209456281,0.00101346745823447,-0.00411790019894338,0,29.6553093755436,29.6553093755436,,,13.1900000572205,28,0.096412085374932,0.191882296234219
2011-06-01T04:31:06Z,1306902666,10A,54.6581024,24.4209803,30.24,0,-0.3,38.5,-161703.47,-192089.66,39.5,Air+FixedWing,Blue,Enemies,Su-27,Blue Su-27 #001,ru,=CNF=801（建军）,0.015625,0,4.59156936775547e-05,30.2399997711182,2.23999977111816,0.015625,0,NaN,NaN,0,0.0139882274201861,NaN,0.999979734449859,-0.00101346745823447,-0.00646538184776924,1.220703125e-05,29.6553093755436,29.6553215825748,,,14.1900000572205,28,0.096412085374932,0.191882296234219
2011-06-01T04:31:07Z,1306902667,10A,54.6581024,24.4209803,30.24,0,-0.3,38.5,-161703.47,-192089.66,39.5,Air+FixedWing,Blue,Enemies,Su-27,Blue Su-27 #001,ru,=CNF=801（建军）,0,0,0,30.2399997711182,2.23999977111816,0,0,NaN,NaN,0,0,NaN,0.999986171723233,0,-0.00523596443235874,0,29.6553093755436,29.6553093755436,,,15.1900000572205,28,0.096412085374932,0.191882296234219
2011-06-01T04:31:08Z,1306902668,10A,54.6581024,24.4209803,30.24,0,-0.3,38.5,-161703.47,-192089.66,39.5,Air+FixedWing,Blue,Enemies,Su-27,Blue Su-27 #001,ru,=CNF=801（建军）,0,0,0,30.2399997711182,2.23999977111816,0,0,NaN,NaN,0,0,NaN,0.999986171723233,0,-0.00523596443235874,0,29.6553093755436,29.6553093755436,,,16.1900000572205,28,0.096412085374932,0.191882296234219
2011-06-01T04:31:09Z,1306902669,10A,54.6581024,24.4209803,30.24,0,-0.3,38.5,-161703.47,-192089.66,39.5,Air+FixedWing,Blue,Enemies,Su-27,Blue Su-27 #001,ru,=CNF=801（建军）,0,0,0,30.2399997711182,2.23999977111816,0,0,NaN,NaN,0,0,NaN,0.999979734449859,-0.00101346745823447,-0.00646538184776924,0,29.6553093755436,29.6553093755436,,,17.1900000572205,28,0.096412085374932,0.191882296234219
2011-06-01T04:31:10Z,1306902670,10A,54.6581024,24.4209803,30.24,0,-0.3,38.5,-161703.47,-192089.67,39.5,Air+FixedWing,Blue,Enemies,Su-27,Blue Su-27 #001,ru,=CNF=801（建军）,0.015625,0,4.59156936775547e-05,30.2399997711182,2.23999977111816,0.015625,0,NaN,NaN,0,0,NaN,0.999992608996606,0.00101346745823447,-0.00400654701694825,1.220703125e-05,29.6553093755436,29.6553215825748,,,18.1900000572205,28,0.096412085374932,0.191882296234219
2011-06-01T04:31:11Z,1306902671,10A,54.6581024,24.4209803,30.24,0,-0.3,38.5,-161703.47,-192089.67,39.5,Air+FixedWing,Blue,Enemies,Su-27,Blue Su-27 #001,ru,=CNF=801（建军）,0,0,0,30.2399997711182,2.23999977111816,0,0,NaN,NaN,0,0,NaN,0.999986171723233,0,-0.00523596443235874,0,29.6553093755436,29.6553093755436,,,19.1900000572205,28,0.096412085374932,0.191882296234219
2011-06-01T04:31:12Z,1306902672,10A,54.6581024,24.4209803,30.24,0,-0.3,38.5,-161703.47,-192089.67,39.5,Air+FixedWing,Blue,Enemies,Su-27,Blue Su-27 #001,ru,=CNF=801（建军）,0,0,0,30.2399997711182,2.23999977111816,0,0,NaN,NaN,0,0,NaN,0.999986171723233,0,-0.00523596443235874,0,29.6553093755436,29.6553093755436,,,20.1900000572205,28,0.096412085374932,0.191882296234219
2011-06-01T04:31:13Z,1306902673,10A,54.6581024,24.4209803,30.24,0,-0.3,38.5,-161703.47,-192089.67,39.5,Air+FixedWing,Blue,Enemies,Su-27,Blue Su-27 #001,ru,=CNF=801（建军）,0,0,0,30.2399997711182,2.23999977111816,0,0,NaN,NaN,0,0,NaN,0.999992608996606,0.00101346745823447,-0.00400654701694825,0,29.6553093755436,29.6553093755436,,,21.1900000572205,28,0.096412085374932,0.191882296234219
2011-06-01T04:31:14Z,1306902674,10A,54.6581024,24.4209803,30.24,0,-0.3,38.5,-161703.47,-192089.66,39.5,Air+FixedWing,Blue,Enemies,Su-27,Blue Su-27 #001,ru,=CNF=801（建军）,0.015625,0,4.59156936775547e-05,30.2399997711182,2.23999977111816,0.015625,0,NaN,NaN,0,0,NaN,0.999979734449859,-0.00101346745823447,-0.00646538184776924,1.220703125e-05,29.6553093755436,29.6553215825748,,,22.1900000572205,28,0.096412085374932,0.191882296234219
2011-06-01T04:31:15Z,1306902675,10A,54.6581024,24.4209803,30.24,0,-0.3,38.5,-161703.47,-192089.66,39.5,Air+FixedWing,Blue,Enemies,Su-27,Blue Su-27 #001,ru,=CNF=801（建军）,0,0,0,30.2399997711182,2.23999977111816,0,0,NaN,NaN,0,0,NaN,0.999979734449859,-0.00101346745823447,-0.00646538184776924,0,29.6553093755436,29.6553093755436,,,23.1900000572205,28,0.096412085374932,0.191882296234219
2011-06-01T04:31:16Z,1306902676,10A,54.6581024,24.4209803,30.24,0,-0.3,38.5,-161703.47,-192089.67,39.5,Air+FixedWing,Blue,Enemies,Su-27,Blue Su-27 #001,ru,=CNF=801（建军）,0.015625,0,4.59156936775547e-05,30.2399997711182,2.23999977111816,0.015625,0,NaN,NaN,0,0,NaN,0.999992608996606,0.00101346745823447,-0.00400654701694825,1.220703125e-05,29.6553093755436,29.6553215825748,,,24.1900000572205,28,0.096412085374932,0.191882296234219
2011-06-01T04:31:17Z,1306902677,10A,54.6581024,24.4209803,30.24,0,-0.3,38.5,-161703.47,-192089.67,39.5,Air+FixedWing,Blue,Enemies,Su-27,Blue Su-27 #001,ru,=CNF=801（建军）,0,0,0,30.2399997711182,2.23999977111816,0,0,NaN,NaN,0,0,NaN,0.999992608996606,0.00101346745823447,-0.00400654701694825,0,29.6553093755436,29.6553093755436,,,25.1900000572205,28,0.096412085374932,0.191882296234219
2011-06-01T04:31:18Z,1306902678,10A,54.6581024,24.4209803,30.24,0,-0.3,38.5,-161703.47,-192089.66,39.5,Air+FixedWing,Blue,Enemies,Su-27,Blue Su-27 #001,ru,=CNF=801（建军）,0.015625,0,4.59156936775547e-05,30.2399997711182,2.23999977111816,0.015625,0,NaN,NaN,0,0,NaN,0.999973297176486,-0.00202693491646894,-0.00769479926317973,1.220703125e-05,29.6553093755436,29.6553215825748,,,26.1900000572205,28,0.096412085374932,0.191882296234219
2011-06-01T04:31:19Z,1306902679,10A,54.6581024,24.4209803,30.24,0,-0.3,38.5,-161703.47,-192089.67,39.5,Air+FixedWing,Blue,Enemies,Su-27,Blue Su-27 #001,ru,=CNF=801（建军）,0.015625,0,4.59156936775547e-05,30.2399997711182,2.23999977111816,0.015625,0,NaN,NaN,0,0,NaN,0.999992608996606,0.00101346745823447,-0.00400654701694825,1.220703125e-05,29.6553093755436,29.6553215825748,,,27.1900000572205,28,0.096412085374932,0.191882296234219
2011-06-01T04:31:20Z,1306902680,10A,54.6581024,24.4209803,30.24,0,-0.3,38.5,-161703.47,-192089.67,39.5,Air+FixedWing,Blue,Enemies,Su-27,Blue Su-27 #001,ru,=CNF=801（建军）,0,0,0,30.2399997711182,2.23999977111816,0,0,NaN,NaN,0,0,NaN,0.999986171723233,0,-0.00523596443235874,0,29.6553093755436,29.6553093755436,,,28.1900000572205,28,0.096412085374932,0.191882296234219
2011-06-01T04:31:21Z,1306902681,10A,54.6581024,24.4209803,30.24,0,-0.3,38.5,-161703.47,-192089.67,39.5,Air+FixedWing,Blue,Enemies,Su-27,Blue Su-27 #001,ru,=CNF=801（建军）,0,0,0,30.2399997711182,2.23999977111816,0,0,NaN,NaN,0,0,NaN,0.999992608996606,0.00101346745823447,-0.00400654701694825,0,29.6553093755436,29.6553093755436,,,29.1900000572205,28,0.096412085374932,0.191882296234219
2011-06-01T04:31:22Z,1306902682,10A,54.6581024,24.4209803,30.24,0,-0.3,38.5,-161703.47,-192089.66,39.5,Air+FixedWing,Blue,Enemies,Su-27,Blue Su-27 #001,ru,=CNF=801（建军）,0.015625,0,4.59156936775547e-05,30.2399997711182,2.23999977111816,0.015625,0,NaN,NaN,0,0,NaN,0.999979734449859,-0.00101346745823447,-0.00646538184776924,1.220703125e-05,29.6553093755436,29.6553215825748,,,30.1900000572205,28,0.096412085374932,0.191882296234219
2011-06-01T04:31:23Z,1306902683,10A,54.6581024,24.4209803,30.24,0,-0.3,38.5,-161703.47,-192089.66,39.5,Air+FixedWing,Blue,Enemies,Su-27,Blue Su-27 #001,ru,=CNF=801（建军）,0,0,0,30.2399997711182,2.23999977111816,0,0,NaN,NaN,0,0,NaN,0.999979734449859,-0.00101346745823447,-0.00646538184776924,0,29.6553093755436,29.6553093755436,,,31.1900000572205,28,0.096412085374932,0.191882296234219
2011-06-01T04:31:24Z,1306902684,10A,54.6581024,24.4209803,30.24,0,-0.3,38.5,-161703.47,-192089.67,39.5,Air+FixedWing,Blue,Enemies,Su-27,Blue Su-27 #001,ru,=CNF=801（建军）,0.015625,0,4.59156936775547e-05,30.2399997711182,2.23999977111816,0.015625,0,NaN,NaN,0,0,NaN,0.999992608996606,0.00101346745823447,-0.00400654701694825,1.220703125e-05,29.6553093755436,29.6553215825748,,,32.1900000572205,28,0.096412085374932,0.191882296234219
2011-06-01T04:31:25Z,1306902685,10A,54.6581024,24.4209803,30.24,0,-0.3,38.5,-161703.47,-192089.67,39.5,Air+FixedWing,Blue,Enemies,Su-27,Blue Su-27 #001,ru,=CNF=801（建军）,0,0,0,30.2399997711182,2.23999977111816,0,0,NaN,NaN,0,0,NaN,0.999986171723233,0,-0.00523596443235874,0,29.6553093755436,29.6553093755436,,,33.1900000572205,28,0.096412085374932,0.191882296234219
2011-06-01T04:31:26Z,1306902686,10A,54.6581024,24.4209803,30.24,0,-0.3,38.5,-161703.47,-192089.67,39.5,Air+FixedWing,Blue,Enemies,Su-27,Blue Su-27 #001,ru,=CNF=801（建军）,0,0,0,30.2399997711182,2.23999977111816,0,0,NaN,NaN,0,0,NaN,0.999986171723233,0,-0.00523596443235874,0,29.6553093755436,29.6553093755436,,,34.1900000572205,28,0.096412085374932,0.191882296234219
2011-06-01T04:31:27Z,1306902687,10A,54.6581024,24.4209803,30.24,0,-0.3,38.5,-161703.47,-192089.67,39.5,Air+FixedWing,Blue,Enemies,Su-27,Blue Su-27 #001,ru,=CNF=801（建军）,0,0,0,30.2399997711182,2.23999977111816,0,0,NaN,NaN,0,0,NaN,0.999992608996606,0.00101346745823447,-0.00400654701694825,0,29.6553093755436,29.6553093755436,,,35.1900000572205,28,0.096412085374932,0.191882296234219
2011-06-01T04:31:28Z,1306902688,10A,54.6581024,24.4209803,30.24,0,-0.3,38.5,-161703.47,-192089.66,39.5,Air+FixedWing,Blue,Enemies,Su-27,Blue Su-27 #001,ru,=CNF=801（建军）,0.015625,0,4.59156936775547e-05,30.2399997711182,2.23999977111816,0.015625,0,NaN,NaN,0,0,NaN,0.999979734449859,-0.00101346745823447,-0.00646538184776924,1.220703125e-05,29.6553093755436,29.6553215825748,,,36.1900000572205,28,0.096412085374932,0.191882296234219
2011-06-01T04:31:29Z,1306902689,10A,54.6581024,24.4209803,30.24,0,-0.3,38.5,-161703.47,-192089.66,39.5,Air+FixedWing,Blue,Enemies,Su-27,Blue Su-27 #001,ru,=CNF=801（建军）,0,0,0,30.2399997711182,2.23999977111816,0,0,NaN,NaN,0,0,NaN,0.999986171723233,0,-0.00523596443235874,0,29.6553093755436,29.6553093755436,,,37.1900000572205,28,0.096412085374932,0.191882296234219
2011-06-01T04:31:30Z,1306902690,10A,54.6581024,24.4209803,30.24,0,-0.3,38.5,-161703.47,-192089.66,39.5,Air+FixedWing,Blue,Enemies,Su-27,Blue Su-27 #001,ru,=CNF=801（建军）,0,0,0,30.2399997711182,2.23999977111816,0,0,NaN,NaN,0,0,NaN,0.999986171723233,0,-0.00523596443235874,0,29.6553093755436,29.6553093755436,,,38.1900000572205,28,0.096412085374932,0.191882296234219
2011-06-01T04:31:31Z,1306902691,10A,54.6581024,24.4209803,30.24,0,-0.3,38.5,-161703.47,-192089.66,39.5,Air+FixedWing,Blue,Enemies,Su-27,Blue Su-27 #001,ru,=CNF=801（建军）,0,0,0,30.2399997711182,2.23999977111816,0,0,NaN,NaN,0,0,NaN,0.999979734449859,-0.00101346745823447,-0.00646538184776924,0,29.6553093755436,29.6553093755436,,,39.1900000572205,28,0.096412085374932,0.191882296234219
2011-06-01T04:31:32Z,1306902692,10A,54.6581024,24.4209803,30.24,0,-0.3,38.5,-161703.47,-192089.67,39.5,Air+FixedWing,Blue,Enemies,Su-27,Blue Su-27 #001,ru,=CNF=801（建军）,0.015625,0,4.59156936775547e-05,30.2399997711182,2.23999977111816,0.015625,0,NaN,NaN,0,0,NaN,0.999992608996606,0.00101346745823447,-0.00400654701694825,1.220703125e-05,29.6553093755436,29.6553215825748,,,40.1900000572205,28,0.096412085374932,0.191882296234219
2011-06-01T04:31:33Z,1306902693,10A,54.6581024,24.4209803,30.24,0,-0.3,38.5,-161703.47,-192089.67,39.5,Air+FixedWing,Blue,Enemies,Su-27,Blue Su-27 #001,ru,=CNF=801（建军）,0,0,0,30.2399997711182,2.23999977111816,0,0,NaN,NaN,0,0,NaN,0.999986171723233,0,-0.00523596443235874,0,29.6553093755436,29.6553093755436,,,41.1900000572205,28,0.096412085374932,0.191882296234219
2011-06-01T04:31:34Z,1306902694,10A,54.6581024,24.4209803,30.24,0,-0.3,38.5,-161703.47,-192089.67,39.5,Air+FixedWing,Blue,Enemies,Su-27,Blue Su-27 #001,ru,=CNF=801（建军）,0,0,0,30.2399997711182,2.23999977111816,0,0,NaN,NaN,0,0,NaN,0.999992608996606,0.00101346745823447,-0.00400654701694825,0,29.6553093755436,29.6553093755436,,,42.1900000572205,28,0.096412085374932,0.191882296234219
2011-06-01T04:31:35Z,1306902695,10A,54.6581024,24.4209803,30.24,0,-0.3,38.5,-161703.47,-192089.66,39.5,Air+FixedWing,Blue,Enemies,Su-27,Blue Su-27 #001,ru,=CNF=801（建军）,0.015625,0,4.59156936775547e-05,30.2399997711182,2.23999977111816,0.015625,0,NaN,NaN,0,0,NaN,0.999979734449859,-0.00101346745823447,-0.00646538184776924,1.220703125e-05,29.6553093755436,29.6553215825748,,,43.1900000572205,28,0.096412085374932,0.191882296234219
2011-06-01T04:31:36Z,1306902696,10A,54.6581024,24.4209803,30.24,0,-0.3,38.5,-161703.47,-192089.66,39.5,Air+FixedWing,Blue,Enemies,Su-27,Blue Su-27 #001,ru,=CNF=801（建军）,0,0,0,30.2399997711182,2.23999977111816,0,0,NaN,NaN,0,0,NaN,0.999979734449859,-0.00101346745823447,-0.00646538184776924,0,29.6553093755436,29.6553093755436,,,44.1900000572205,28,0.096412085374932,0.191882296234219
2011-06-01T04:31:37Z,1306902697,10A,54.6581024,24.4209803,30.24,0,-0.3,38.5,-161703.47,-192089.67,39.5,Air+FixedWing,Blue,Enemies,Su-27,Blue Su-27 #001,ru,=CNF=801（建军）,0.015625,0,4.59156936775547e-05,30.2399997711182,2.23999977111816,0.015625,0,NaN,NaN,0,0,NaN,0.999992608996606,0.00101346745823447,-0.00400654701694825,1.220703125e-05,29.6553093755436,29.6553215825748,,,45.1900000572205,28,0.096412085374932,0.191882296234219
2011-06-01T04:31:38Z,1306902698,10A,54.6581024,24.4209803,30.24,0,-0.3,38.5,-161703.47,-192089.67,39.5,Air+FixedWing,Blue,Enemies,Su-27,Blue Su-27 #001,ru,=CNF=801（建军）,0,0,0,30.2399997711182,2.23999977111816,0,0,NaN,NaN,0,0,NaN,0.999992608996606,0.00101346745823447,-0.00400654701694825,0,29.6553093755436,29.6553093755436,,,46.1900000572205,28,0.096412085374932,0.191882296234219
2011-06-01T04:31:39Z,1306902699,10A,54.6581024,24.4209803,30.24,0,-0.3,38.5,-161703.47,-192089.66,39.5,Air+FixedWing,Blue,Enemies,Su-27,Blue Su-27 #001,ru,=CNF=801（建军）,0.015625,0,4.59156936775547e-05,30.2399997711182,2.23999977111816,0.015625,0,NaN,NaN,0,0,NaN,0.999979734449859,-0.00101346745823447,-0.00646538184776924,1.220703125e-05,29.6553093755436,29.6553215825748,,,47.1900000572205,28,0.096412085374932,0.191882296234219
2011-06-01T04:31:40Z,1306902700,10A,54.6581024,24.4209803,30.24,0,-0.3,38.5,-161703.47,-192089.66,39.5,Air+FixedWing,Blue,Enemies,Su-27,Blue Su-27 #001,ru,=CNF=801（建军）,0,0,0,30.2399997711182,2.23999977111816,0,0,NaN,NaN,0,0,NaN,0.999979734449859,-0.00101346745823447,-0.00646538184776924,0,29.6553093755436,29.6553093755436,,,48.1900000572205,28,0.096412085374932,0.191882296234219
2011-06-01T04:31:41Z,1306902701,10A,54.6581024,24.4209803,30.24,0,-0.3,38.5,-161703.47,-192089.67,39.5,Air+FixedWing,Blue,Enemies,Su-27,Blue Su-27 #001,ru,=CNF=801（建军）,0.015625,0,4.59156936775547e-05,30.2399997711182,2.23999977111816,0.015625,0,NaN,NaN,0,0,NaN,0.99999904626998,0.00202693491646894,-0.00277712960153775,1.220703125e-05,29.6553093755436,29.6553215825748,,,49.1900000572205,28,0.096412085374932,0.191882296234219
2011-06-01T04:31:42Z,1306902702,10A,54.6581024,24.4209803,30.24,0,-0.3,38.5,-161703.47,-192089.66,39.5,Air+FixedWing,Blue,Enemies,Su-27,Blue Su-27 #001,ru,=CNF=801（建军）,0.015625,0,4.59156936775547e-05,30.2399997711182,2.23999977111816,0.015625,0,NaN,NaN,0,0,NaN,0.999979734449859,-0.00101346745823447,-0.00646538184776924,1.220703125e-05,29.6553093755436,29.6553215825748,,,50.1900000572205,28,0.096412085374932,0.191882296234219
2011-06-01T04:31:43Z,1306902703,10A,54.6581024,24.4209803,30.24,0,-0.3,38.5,-161703.47,-192089.66,39.5,Air+FixedWing,Blue,Enemies,Su-27,Blue Su-27 #001,ru,=CNF=801（建军）,0,0,0,30.2399997711182,2.23999977111816,0,0,NaN,NaN,0,0,NaN,0.999979734449859,-0.00101346745823447,-0.00646538184776924,0,29.6553093755436,29.6553093755436,,,51.1900000572205,28,0.096412085374932,0.191882296234219
2011-06-01T04:31:44Z,1306902704,10A,54.6581024,24.4209803,30.24,0,-0.3,38.5,-161703.47,-192089.67,39.5,Air+FixedWing,Blue,Enemies,Su-27,Blue Su-27 #001,ru,=CNF=801（建军）,0.015625,0,4.59156936775547e-05,30.2399997711182,2.23999977111816,0.015625,0,NaN,NaN,0,0,NaN,0.99999904626998,0.00202693491646894,-0.00277712960153775,1.220703125e-05,29.6553093755436,29.6553215825748,,,52.1900000572205,28,0.096412085374932,0.191882296234219
2011-06-01T04:31:45Z,1306902705,10A,54.6581024,24.4209803,30.24,0,-0.3,38.5,-161703.47,-192089.66,39.5,Air+FixedWing,Blue,Enemies,Su-27,Blue Su-27 #001,ru,=CNF=801（建军）,0.015625,0,4.59156936775547e-05,30.2399997711182,2.23999977111816,0.015625,0,NaN,NaN,0,0,NaN,0.999979734449859,-0.00101346745823447,-0.00646538184776924,1.220703125e-05,29.6553093755436,29.6553215825748,,,53.1900000572205,28,0.096412085374932,0.191882296234219
2011-06-01T04:31:46Z,1306902706,10A,54.6581024,24.4209803,30.24,0,-0.3,38.5,-161703.47,-192089.66,39.5,Air+FixedWing,Blue,Enemies,Su-27,Blue Su-27 #001,ru,=CNF=801（建军）,0,0,0,30.2399997711182,2.23999977111816,0,0,NaN,NaN,0,0,NaN,0.999979734449859,-0.00101346745823447,-0.00646538184776924,0,29.6553093755436,29.6553093755436,,,54.1900000572205,28,0.096412085374932,0.191882296234219
2011-06-01T04:31:47Z,1306902707,10A,54.6581024,24.4209803,30.24,0,-0.3,38.5,-161703.47,-192089.67,39.5,Air+FixedWing,Blue,Enemies,Su-27,Blue Su-27 #001,ru,=CNF=801（建军）,0.015625,0,4.59156936775547e-05,30.2399997711182,2.23999977111816,0.015625,0,NaN,NaN,0,0,NaN,0.999992608996606,0.00101346745823447,-0.00400654701694825,1.220703125e-05,29.6553093755436,29.6553215825748,,,55.1900000572205,28,0.096412085374932,0.191882296234219
2011-06-01T04:31:48Z,1306902708,10A,54.6581024,24.4209803,30.24,0,-0.3,38.5,-161703.47,-192089.67,39.5,Air+FixedWing,Blue,Enemies,Su-27,Blue Su-27 #001,ru,=CNF=801（建军）,0,0,0,30.2399997711182,2.23999977111816,0,0,NaN,NaN,0,0,NaN,0.999992608996606,0.00101346745823447,-0.00400654701694825,0,29.6553093755436,29.6553093755436,,,56.1900000572205,28,0.096412085374932,0.191882296234219
2011-06-01T04:31:49Z,1306902709,10A,54.6581024,24.4209803,30.24,0,-0.3,38.5,-161703.47,-192089.66,39.5,Air+FixedWing,Blue,Enemies,Su-27,Blue Su-27 #001,ru,=CNF=801（建军）,0.015625,0,4.59156936775547e-05,30.2399997711182,2.23999977111816,0.015625,0,NaN,NaN,0,0,NaN,0.999973297176486,-0.00202693491646894,-0.00769479926317973,1.220703125e-05,29.6553093755436,29.6553215825748,,,57.1900000572205,28,0.096412085374932,0.191882296234219
2011-06-01T04:31:50Z,1306902710,10A,54.6581024,24.4209803,30.24,0,-0.3,38.5,-161703.47,-192089.67,39.5,Air+FixedWing,Blue,Enemies,Su-27,Blue Su-27 #001,ru,=CNF=801（建军）,0.015625,0,4.59156936775547e-05,30.2399997711182,2.23999977111816,0.015625,0,NaN,NaN,0,0,NaN,0.999992608996606,0.00101346745823447,-0.00400654701694825,1.220703125e-05,29.6553093755436,29.6553215825748,,,58.1900000572205,28,0.096412085374932,0.191882296234219
2011-06-01T04:31:51Z,1306902711,10A,54.6581024,24.4209803,30.24,0,-0.3,38.5,-161703.47,-192089.67,39.5,Air+FixedWing,Blue,Enemies,Su-27,Blue Su-27 #001,ru,=CNF=801（建军）,0,0,0,30.2399997711182,2.23999977111816,0,0,NaN,NaN,0,0,NaN,0.999986171723233,0,-0.00523596443235874,0,29.6553093755436,29.6553093755436,,,59.1900000572205,28,0.096412085374932,0.191882296234219
2011-06-01T04:31:52Z,1306902712,10A,54.6581024,24.4209803,30.24,0,-0.3,38.5,-161703.47,-192089.67,39.5,Air+FixedWing,Blue,Enemies,Su-27,Blue Su-27 #001,ru,=CNF=801（建军）,0,0,0,30.2399997711182,2.23999977111816,0,0,NaN,NaN,0,0,NaN,0.999992608996606,0.00101346745823447,-0.00400654701694825,0,29.6553093755436,29.6553093755436,,,60.1900000572205,28,0.096412085374932,0.191882296234219
2011-06-01T04:31:53Z,1306902713,10A,54.6581024,24.4209803,30.24,0,-0.3,38.5,-161703.47,-192089.66,39.5,Air+FixedWing,Blue,Enemies,Su-27,Blue Su-27 #001,ru,=CNF=801（建军）,0.015625,0,4.59156936775547e-05,30.2399997711182,2.23999977111816,0.015625,0,NaN,NaN,0,0,NaN,0.999979734449859,-0.00101346745823447,-0.00646538184776924,1.220703125e-05,29.6553093755436,29.6553215825748,,,61.1900000572205,28,0.096412085374932,0.191882296234219
2011-06-01T04:31:54Z,1306902714,10A,54.6581024,24.4209803,30.24,0,-0.3,38.5,-161703.47,-192089.66,39.5,Air+FixedWing,Blue,Enemies,Su-27,Blue Su-27 #001,ru,=CNF=801（建军）,0,0,0,30.2399997711182,2.23999977111816,0,0,NaN,NaN,0,0,NaN,0.999986171723233,0,-0.00523596443235874,0,29.6553093755436,29.6553093755436,,,62.1900000572205,28,0.096412085374932,0.191882296234219
2011-06-01T04:31:55Z,1306902715,10A,54.6581024,24.4209803,30.24,0,-0.3,38.5,-161703.47,-192089.66,39.5,Air+FixedWing,Blue,Enemies,Su-27,Blue Su-27 #001,ru,=CNF=801（建军）,0,0,0,30.2399997711182,2.23999977111816,0,0,NaN,NaN,0,0,NaN,0.999986171723233,0,-0.00523596443235874,0,29.6553093755436,29.6553093755436,,,63.1900000572205,28,0.096412085374932,0.191882296234219
2011-06-01T04:31:56Z,1306902716,10A,54.6581024,24.4209803,30.24,0,-0.3,38.5,-161703.47,-192089.66,39.5,Air+FixedWing,Blue,Enemies,Su-27,Blue Su-27 #001,ru,=CNF=801（建军）,0,0,0,30.2399997711182,2.23999977111816,0,0,NaN,NaN,0,0,NaN,0.999979734449859,-0.00101346745823447,-0.00646538184776924,0,29.6553093755436,29.6553093755436,,,64.1900000572205,28,0.096412085374932,0.191882296234219
2011-06-01T04:31:57Z,1306902717,10A,54.6581024,24.4209803,30.24,0,-0.3,38.5,-161703.47,-192089.67,39.5,Air+FixedWing,Blue,Enemies,Su-27,Blue Su-27 #001,ru,=CNF=801（建军）,0.015625,0,4.59156936775547e-05,30.2399997711182,2.23999977111816,0.015625,0,NaN,NaN,0,0,NaN,0.999992608996606,0.00101346745823447,-0.00400654701694825,1.220703125e-05,29.6553093755436,29.6553215825748,,,65.1900000572205,28,0.096412085374932,0.191882296234219
2011-06-01T04:31:58Z,1306902718,10A,54.6581024,24.4209803,30.24,0,-0.3,38.5,-161703.47,-192089.67,39.5,Air+FixedWing,Blue,Enemies,Su-27,Blue Su-27 #001,ru,=CNF=801（建军）,0,0,0,30.2399997711182,2.23999977111816,0,0,NaN,NaN,0,0,NaN,0.999986171723233,0,-0.00523596443235874,0,29.6553093755436,29.6553093755436,,,66.1900000572205,28,0.096412085374932,0.191882296234219
2011-06-01T04:31:59Z,1306902719,10A,54.6581024,24.4209803,30.24,0,-0.3,38.5,-161703.47,-192089.67,39.5,Air+FixedWing,Blue,Enemies,Su-27,Blue Su-27 #001,ru,=CNF=801（建军）,0,0,0,30.2399997711182,2.23999977111816,0,0,NaN,NaN,0,0,NaN,0.999992608996606,0.00101346745823447,-0.00400654701694825,0,29.6553093755436,29.6553093755436,,,67.1900000572205,28,0.096412085374932,0.191882296234219
2011-06-01T04:32:00Z,1306902720,10A,54.6581024,24.4209803,30.24,0,-0.3,38.5,-161703.47,-192089.66,39.5,Air+FixedWing,Blue,Enemies,Su-27,Blue Su-27 #001,ru,=CNF=801（建军）,0.015625,0,4.59156936775547e-05,30.2399997711182,2.23999977111816,0.015625,0,NaN,NaN,0,0,NaN,0.999973297176486,-0.00202693491646894,-0.00769479926317973,1.220703125e-05,29.6553093755436,29.6553215825748,,,68.1900000572205,28,0.096412085374932,0.191882296234219
2011-06-01T04:32:01Z,1306902721,10A,54.6581024,24.4209803,30.24,0,-0.3,38.5,-161703.47,-192089.67,39.5,Air+FixedWing,Blue,Enemies,Su-27,Blue Su-27 #001,ru,=CNF=801（建军）,0.015625,0,4.59156936775547e-05,30.2399997711182,2.23999977111816,0.015625,0,NaN,NaN,0,0,NaN,0.999992608996606,0.00101346745823447,-0.00400654701694825,1.220703125e-05,29.6553093755436,29.6553215825748,,,69.1900000572205,28,0.096412085374932,0.191882296234219
2011-06-01T04:32:02Z,1306902722,10A,54.6581024,24.4209803,30.24,0,-0.3,38.5,-161703.47,-192089.67,39.5,Air+FixedWing,Blue,Enemies,Su-27,Blue Su-27 #001,ru,=CNF=801（建军）,0,0,0,30.2399997711182,2.23999977111816,0,0,NaN,NaN,0,0,NaN,0.999986171723233,0,-0.00523596443235874,0,29.6553093755436,29.6553093755436,,,70.1900000572205,28,0.096412085374932,0.191882296234219
2011-06-01T04:32:03Z,1306902723,10A,54.6581024,24.4209803,30.24,0,-0.3,38.5,-161703.47,-192089.67,39.5,Air+FixedWing,Blue,Enemies,Su-27,Blue Su-27 #001,ru,=CNF=801（建军）,0,0,0,30.2399997711182,2.23999977111816,0,0,NaN,NaN,0,0,NaN,0.999992608996606,0.00101346745823447,-0.00400654701694825,0,29.6553093755436,29.6553093755436,,,71.1900000572205,28,0.096412085374932,0.191882296234219
2011-06-01T04:32:04Z,1306902724,10A,54.6581024,24.4209803,30.24,0,-0.3,38.5,-161703.47,-192089.66,39.5,Air+FixedWing,Blue,Enemies,Su-27,Blue Su-27 #001,ru,=CNF=801（建军）,0.015625,0,4.59156936775547e-05,30.2399997711182,2.23999977111816,0.015625,0,NaN,NaN,0,0,NaN,0.999979734449859,-0.00101346745823447,-0.00646538184776924,1.220703125e-05,29.6553093755436,29.6553215825748,,,72.1900000572205,28,0.096412085374932,0.191882296234219
2011-06-01T04:32:05Z,1306902725,10A,54.6581024,24.4209803,30.24,0,-0.3,38.5,-161703.47,-192089.66,39.5,Air+FixedWing,Blue,Enemies,Su-27,Blue Su-27 #001,ru,=CNF=801（建军）,0,0,0,30.2399997711182,2.23999977111816,0,0,NaN,NaN,0,0,NaN,0.999986171723233,0,-0.00523596443235874,0,29.6553093755436,29.6553093755436,,,73.1900000572205,28,0.096412085374932,0.191882296234219
2011-06-01T04:32:06Z,1306902726,10A,54.6581024,24.4209803,30.24,0,-0.3,38.5,-161703.47,-192089.66,39.5,Air+FixedWing,Blue,Enemies,Su-27,Blue Su-27 #001,ru,=CNF=801（建军）,0,0,0,30.2399997711182,2.23999977111816,0,0,NaN,NaN,0,0,NaN,0.999979734449859,-0.00101346745823447,-0.00646538184776924,0,29.6553093755436,29.6553093755436,,,74.1900000572205,28,0.096412085374932,0.191882296234219
2011-06-01T04:32:07Z,1306902727,10A,54.6581024,24.4209803,30.24,0,-0.3,38.5,-161703.47,-192089.67,39.5,Air+FixedWing,Blue,Enemies,Su-27,Blue Su-27 #001,ru,=CNF=801（建军）,0.015625,0,4.59156936775547e-05,30.2399997711182,2.23999977111816,0.015625,0,NaN,NaN,0,0,NaN,0.999992608996606,0.00101346745823447,-0.00400654701694825,1.220703125e-05,29.6553093755436,29.6553215825748,,,75.1900000572205,28,0.096412085374932,0.191882296234219
2011-06-01T04:32:08Z,1306902728,10A,54.6581024,24.4209803,30.24,-0,-0.3,38.5,-161703.47,-192089.67,39.5,Air+FixedWing,Blue,Enemies,Su-27,Blue Su-27 #001,ru,=CNF=801（建军）,0,0,0,30.2399997711182,2.23999977111816,0,0,NaN,NaN,0.0695040049940498,0,NaN,0.99998599291176,-0.000606487885638739,-0.00523596443235874,0,29.6553093755436,29.6553093755436,,,76.1900000572205,28,0.096412085374932,0.191882296234219
2011-06-01T04:32:09Z,1306902729,10A,54.6581024,24.4209803,30.24,-0.1,-0.3,38.5,-161703.47,-192089.67,39.5,Air+FixedWing,Blue,Enemies,Su-27,Blue Su-27 #001,ru,=CNF=801（建军）,0,0,0,30.2399997711182,2.23999977111816,0,0,NaN,NaN,0.0595592495625112,0,NaN,0.999992887618635,-0.000731744258269375,-0.00400654701694825,0,29.6553093755436,29.6553093755436,,,77.1900000572205,28,0.096412085374932,0.191882296234219
2011-06-01T04:32:10Z,1306902730,10A,54.6581024,24.4209803,30.24,-0,-0.3,38.5,-161703.47,-192089.66,39.5,Air+FixedWing,Blue,Enemies,Su-27,Blue Su-27 #001,ru,=CNF=801（建军）,0.015625,0,4.59156936775547e-05,30.2399997711182,2.23999977111816,0.015625,0,NaN,NaN,0.0900846589639808,0,NaN,0.999972472717718,-0.00240427061913301,-0.00769479926317973,1.220703125e-05,29.6553093755436,29.6553215825748,,,78.1900000572205,28,0.096412085374932,0.191882296234219
2011-06-01T04:32:11Z,1306902731,10A,54.6581024,24.4209803,30.24,-0.1,-0.3,38.5,-161703.47,-192089.67,39.5,Air+FixedWing,Blue,Enemies,Su-27,Blue Su-27 #001,ru,=CNF=801（建军）,0.015625,0,4.59156936775547e-05,30.2399997711182,2.23999977111816,0.015625,0,NaN,NaN,0.175617823939368,0,NaN,1.00000109360964,0.000281710521756481,-0.00277712960153775,1.220703125e-05,29.6553093755436,29.6553215825748,,,79.1900000572205,28,0.096412085374932,0.191882296234219
2011-06-01T04:32:12Z,1306902732,10A,54.6581024,24.4209803,30.24,-0,-0.3,38.5,-161703.47,-192089.66,39.5,Air+FixedWing,Blue,Enemies,Su-27,Blue Su-27 #001,ru,=CNF=801（建军）,0.015625,0,4.59156936775547e-05,30.2399997711182,2.23999977111816,0.015625,0,NaN,NaN,0.14284853731299,0,NaN,0.999972167268897,-0.00252555675543831,-0.00769479926317973,1.220703125e-05,29.6553093755436,29.6553215825748,,,80.1900000572205,28,0.096412085374932,0.191882296234219
2011-06-01T04:32:13Z,1306902733,10A,54.6581024,24.4209803,30.24,0,-0.3,38.5,-161703.47,-192089.67,39.5,Air+FixedWing,Blue,Enemies,Su-27,Blue Su-27 #001,ru,=CNF=801（建军）,0.015625,0,4.59156936775547e-05,30.2399997711182,2.23999977111816,0.015625,0,NaN,NaN,0,0,NaN,0.999992608996606,0.00101346745823447,-0.00400654701694825,1.220703125e-05,29.6553093755436,29.6553215825748,,,81.1900000572205,28,0.096412085374932,0.191882296234219
2011-06-01T04:32:14Z,1306902734,10A,54.6581024,24.4209803,30.24,0,-0.3,38.6,-161703.47,-192089.67,39.5,Air+FixedWing,Blue,Enemies,Su-27,Blue Su-27 #001,ru,=CNF=801（建军）,0,0,0,30.2399997711182,2.23999977111816,0,0,NaN,NaN,0,0.0484566469995765,NaN,0.999986171723233,0,-0.00523596443235874,0,29.6553093755436,29.6553093755436,,,82.1900000572205,28,0.096412085374932,0.191882296234219
2011-06-01T04:32:15Z,1306902735,10A,54.6581024,24.4209803,30.24,0,-0.3,38.6,-161703.47,-192089.67,39.6,Air+FixedWing,Blue,Enemies,Su-27,Blue Su-27 #001,ru,=CNF=801（建军）,0,0,0,30.2399997711182,2.23999977111816,0,0,NaN,NaN,0,0.0484566469995765,NaN,0.999986171723233,0,-0.00523596443235874,0,29.6553093755436,29.6553093755436,,,83.1900000572205,28,0.096412085374932,0.191882296234219
2011-06-01T04:32:16Z,1306902736,10A,54.6581024,24.4209802,30.24,0,-0.3,38.6,-161703.47,-192089.67,39.6,Air+FixedWing,Blue,Enemies,Su-27,Blue Su-27 #001,ru,=CNF=801（建军）,0,0,0,30.2399997711182,2.23999977111816,0,0,NaN,NaN,0,0,NaN,0.999985396862897,0,-0.00538463843986392,0,29.6553093755436,29.6553093755436,,,84.1900000572205,28,0.107544034439299,0.203014298257681
2011-06-01T04:32:17Z,1306902737,10A,54.6581024,24.4209802,30.24,0,-0.3,38.6,-161703.47,-192089.67,39.6,Air+FixedWing,Blue,Enemies,Su-27,Blue Su-27 #001,ru,=CNF=801（建军）,0,0,0,30.2399997711182,2.23999977111816,0,0,NaN,NaN,0,0,NaN,0.999984204770072,0,-0.0056001078337431,0,29.6553093755436,29.6553093755436,,,85.1900000572205,28,0.107544034439299,0.203014298257681
2011-06-01T04:32:18Z,1306902738,10A,54.6581024,24.4209802,30.24,0,-0.3,38.6,-161703.47,-192089.67,39.6,Air+FixedWing,Blue,Enemies,Su-27,Blue Su-27 #001,ru,=CNF=801（建军）,0,0,0,30.2399997711182,2.23999977111816,0,0,NaN,NaN,0,0,NaN,0.999983012677248,0,-0.00581557722762227,0,29.6553093755436,29.6553093755436,,,86.1900000572205,28,0.107544034439299,0.203014298257681
2011-06-01T04:32:19Z,1306902739,10A,54.6581024,24.4209802,30.24,0,-0.3,38.6,-161703.47,-192089.67,39.6,Air+FixedWing,Blue,Enemies,Su-27,Blue Su-27 #001,ru,=CNF=801（建军）,0,0,0,30.2399997711182,2.23999977111816,0,0,NaN,NaN,0,0,NaN,0.999981701375141,0,-0.00603104569017887,0,29.6553093755436,29.6553093755436,,,87.1900000572205,28,0.107544034439299,0.203014298257681
2011-06-01T04:32:20Z,1306902740,10A,54.6581024,24.4209802,30.24,0,-0.4,38.6,-161703.47,-192089.67,39.6,Air+FixedWing,Blue,Enemies,Su-27,Blue Su-27 #001,ru,=CNF=801（建军）,0,0,0,30.2399997711182,2.23999977111816,0,0,NaN,NaN,0,0,NaN,0.999980330468393,0,-0.00624651508405805,0,29.6553093755436,29.6553093755436,,,88.1900000572205,28,0.107544034439299,0.203014298257681
2011-06-01T04:32:21Z,1306902741,10A,54.6581024,24.4209802,30.24,0,-0.4,38.6,-161703.47,-192089.67,39.6,Air+FixedWing,Blue,Enemies,Su-27,Blue Su-27 #001,ru,=CNF=801（建军）,0,0,0,30.2399997711182,2.23999977111816,0,0,NaN,NaN,0,0,NaN,0.999979019166286,0,-0.00646198308095336,0,29.6553093755436,29.6553093755436,,,89.1900000572205,28,0.107544034439299,0.203014298257681
2011-06-01T04:32:22Z,1306902742,10A,54.6581024,24.4209802,30.24,0,-0.4,38.6,-161703.47,-192089.67,39.6,Air+FixedWing,Blue,Enemies,Su-27,Blue Su-27 #001,ru,=CNF=801（建军）,0,0,0,30.2399997711182,2.23999977111816,0,0,NaN,NaN,0,0,NaN,0.999977588654897,0,-0.00667745107784867,0,29.6553093755436,29.6553093755436,,,90.1900000572205,28,0.107544034439299,0.203014298257681
2011-06-01T04:32:23Z,1306902743,10A,54.6581024,24.4209802,30.24,0,-0.4,38.6,-161703.47,-192089.67,39.6,Air+FixedWing,Blue,Enemies,Su-27,Blue Su-27 #001,ru,=CNF=801（建军）,0,0,0,30.2399997711182,2.23999977111816,0,0,NaN,NaN,0,0,NaN,0.999976098538866,0,-0.00689291907474399,0,29.6553093755436,29.6553093755436,,,91.1900000572205,28,0.107544034439299,0.203014298257681
2011-06-01T04:32:24Z,1306902744,10A,54.6581024,24.4209802,30.24,0,-0.4,38.6,-161703.47,-192089.67,39.6,Air+FixedWing,Blue,Enemies,Su-27,Blue Su-27 #001,ru,=CNF=801（建军）,0,0,0,30.2399997711182,2.23999977111816,0,0,NaN,NaN,0,0,NaN,0.999977886678103,0,-0.00663689337670803,0,29.6553093755436,29.6553093755436,,,92.1900000572205,28,0.107544034439299,0.203014298257681
2011-06-01T04:32:25Z,1306902745,10A,54.6581024,24.4209802,30.24,0,-0.3,38.6,-161703.47,-192089.67,39.6,Air+FixedWing,Blue,Enemies,Su-27,Blue Su-27 #001,ru,=CNF=801（建军）,0,0,0,30.2399997711182,2.23999977111816,0,0,NaN,NaN,0,0.0328053018670254,NaN,0.999981582165859,0,-0.00605321815237403,0,29.6553093755436,29.6553093755436,,,93.1900000572205,28,0.107544034439299,0.203014298257681
2011-06-01T04:32:26Z,1306902746,10A,54.6581024,24.4209802,30.24,0,-0.3,38.6,-161703.47,-192089.67,39.6,Air+FixedWing,Blue,Enemies,Su-27,Blue Su-27 #001,ru,=CNF=801（建军）,0,0,0,30.2399997711182,2.23999977111816,0,0,NaN,NaN,0,0.0279764548403722,NaN,0.999984920025767,0,-0.00546954059973359,0,29.6553093755436,29.6553093755436,,,94.1900000572205,28,0.107544034439299,0.203014298257681
2011-06-01T04:32:27Z,1306902747,10A,54.6581024,24.4209802,30.24,0,-0.2,38.6,-161703.47,-192089.67,39.6,Air+FixedWing,Blue,Enemies,Su-27,Blue Su-27 #001,ru,=CNF=801（建军）,0,0,0,30.2399997711182,2.23999977111816,0,0,NaN,NaN,0,0,NaN,0.999993503094103,0,-0.00357376178726554,0,29.6553093755436,29.6553093755436,,,95.1900000572205,28,0.107544034439299,0.203014298257681
2011-06-01T04:32:28Z,1306902748,10A,54.6581024,24.4209802,30.24,-0,-0.3,38.6,-161703.47,-192089.67,39.6,Air+FixedWing,Blue,Enemies,Su-27,Blue Su-27 #001,ru,=CNF=801（建军）,0,0,0,30.2399997711182,2.23999977111816,0,0,NaN,NaN,0.018195623948914,0,NaN,0.999986171723233,-0.000253847273597712,-0.00523596443235874,0,29.6553093755436,29.6553093755436,,,96.1900000572205,28,0.107544034439299,0.203014298257681
2011-06-01T04:32:29Z,1306902749,10A,54.6581024,24.4209802,30.24,-0,-0.3,38.6,-161703.47,-192089.67,39.6,Air+FixedWing,Blue,Enemies,Su-27,Blue Su-27 #001,ru,=CNF=801（建军）,0,0,0,30.2399997711182,2.23999977111816,0,0,NaN,NaN,0.018195623948914,0,NaN,0.999986052515585,-0.000571156263732848,-0.00523596443235874,0,29.6553093755436,29.6553093755436,,,97.1900000572205,28,0.107544034439299,0.203014298257681
2011-06-01T04:32:30Z,1306902750,10A,54.6581024,24.4209802,30.24,-0.1,-0.3,38.6,-161703.47,-192089.67,39.6,Air+FixedWing,Blue,Enemies,Su-27,Blue Su-27 #001,ru,=CNF=801（建军）,0,0,0,30.2399997711182,2.23999977111816,0,0,NaN,NaN,0.018195623948914,0,NaN,0.999985814100288,-0.000888465312074843,-0.00523596443235874,0,29.6553093755436,29.6553093755436,,,98.1900000572205,28,0.107544034439299,0.203014298257681
2011-06-01T04:32:31Z,1306902751,10A,54.6581024,24.4209802,30.24,-0.1,-0.3,38.6,-161703.47,-192089.67,39.6,Air+FixedWing,Blue,Enemies,Su-27,Blue Su-27 #001,ru,=CNF=801（建军）,0,0,0,30.2399997711182,2.23999977111816,0,0,NaN,NaN,0.018195623948914,0,NaN,0.99998539687352,-0.00120577418579626,-0.00523596443235874,0,29.6553093755436,29.6553093755436,,,99.1900000572205,28,0.107544034439299,0.203014298257681
2011-06-01T04:32:32Z,1306902752,10A,54.6581024,24.4209802,30.24,-0.1,-0.3,38.6,-161703.47,-192089.67,39.6,Air+FixedWing,Blue,Enemies,Su-27,Blue Su-27 #001,ru,=CNF=801（建军）,0,0,0,30.2399997711182,2.23999977111816,0,0,NaN,NaN,0.018195623948914,0,NaN,0.999984979646751,-0.00152308305951768,-0.00523596443235874,0,29.6553093755436,29.6553093755436,,,100.19000005722,28,0.107544034439299,0.203014298257681
2011-06-01T04:32:33Z,1306902753,10A,54.6581024,24.4209802,30.24,-0,-0.3,38.6,-161703.47,-192089.67,39.6,Air+FixedWing,Blue,Enemies,Su-27,Blue Su-27 #001,ru,=CNF=801（建军）,0,0,0,30.2399997711182,2.23999977111816,0,0,NaN,NaN,0.092721672272561,0,NaN,0.999985814100288,-0.000872599868388772,-0.00523596443235874,0,29.6553093755436,29.6553093755436,,,101.19000005722,28,0.107544034439299,0.203014298257681
2011-06-01T04:32:34Z,1306902754,10A,54.6581024,24.4209802,30.24,0,-0.3,38.6,-161703.47,-192089.67,39.6,Air+FixedWing,Blue,Enemies,Su-27,Blue Su-27 #001,ru,=CNF=801（建军）,0,0,0,30.2399997711182,2.23999977111816,0,0,NaN,NaN,0,0,NaN,0.999986171723233,0,-0.00523596443235874,0,29.6553093755436,29.6553093755436,,,102.19000005722,28,0.110938865936298,0.206409146316394
2011-06-01T04:32:35Z,1306902755,10A,54.6581025,24.4209802,30.24,0,-0.3,38.6,-161703.47,-192089.67,39.6,Air+FixedWing,Blue,Enemies,Su-27,Blue Su-27 #001,ru,=CNF=801（建军）,0,0,0,30.2399997711182,2.23999977111816,0,0,NaN,NaN,0,0,NaN,0.998966446517836,0,-0.00523062511212139,0,29.6553093755436,29.6553093755436,,,103.19000005722,28,0.115788626822944,0.211258929559251
2011-06-01T04:32:36Z,1306902756,10A,54.6581025,24.4209802,30.23,0.2,-0.3,38.6,-161703.47,-192089.67,39.6,Air+FixedWing,Blue,Enemies,Su-27,Blue Su-27 #001,ru,=CNF=801（建军）,0.0100002288818359,0,2.93867132352692e-05,30.2299995422363,2.22999954223633,0,-0.0100002288818359,NaN,NaN,0.212890326322686,0,NaN,1.00158471648594,0.00277643795760723,-0.00524435479273172,5.00022888445528e-06,29.6455025010872,29.6455075013161,,,104.19000005722,28,0.117680033393406,0.221436455593667
2011-06-01T04:32:37Z,1306902757,10A,54.6581025,24.4209802,30.24,0.1,-0.3,38.6,-161703.47,-192089.67,39.6,Air+FixedWing,Blue,Enemies,Su-27,Blue Su-27 #001,ru,=CNF=801（建军）,0.00571441650390625,0,1.67924086443284e-05,30.2357139587402,2.23571395874023,0,0.00571441650390625,NaN,NaN,0,0,NaN,0.998819283052624,0.00174327038572516,-0.00522986235208748,1.63272779900581e-06,29.651106429348,29.6511080620758,,,105.19000005722,28,0.117680033393406,0.227150871418197
2011-06-01T04:32:38Z,1306902758,10A,54.6581025,24.4209802,30.23,0,-0.3,38.6,-161703.47,-192089.67,39.6,Air+FixedWing,Blue,Enemies,Su-27,Blue Su-27 #001,ru,=CNF=801（建军）,0.00571441650390625,0,1.6792407563011e-05,30.2299995422363,2.22999954223633,0,-0.00571441650390625,NaN,NaN,0.113654347789012,0,NaN,1.00056863330564,0.000714466927546519,-0.00523901547249437,1.63272779900581e-06,29.6455025010872,29.645504133815,,,106.19000005722,28,0.117680033393406,0.232865287242728
2011-06-01T04:32:39Z,1306902759,10A,54.6581024,24.4209802,30.23,-0.1,-0.2,38.6,-161703.47,-192089.67,39.6,Air+FixedWing,Blue,Enemies,Su-27,Blue Su-27 #001,ru,=CNF=801（建军）,0,0,0,30.2299995422363,2.22999954223633,0,0,NaN,NaN,0.199987938897973,0,NaN,0.999992012987576,-0.00174521183317355,-0.00357376178726554,0,29.6455025010872,29.6455025010872,,,107.19000005722,28,0.127816032347512,0.243001333727064
2011-06-01T04:32:40Z,1306902760,10A,54.6581024,24.4209802,30.23,-0.1,-0.3,38.6,-161703.47,-192089.67,39.6,Air+FixedWing,Blue,Enemies,Su-27,Blue Su-27 #001,ru,=CNF=801（建军）,0,0,0,30.2299995422363,2.22999954223633,0,0,NaN,NaN,0.138352311827778,0,NaN,0.999985098854399,-0.00148665150258836,-0.00523596443235874,0,29.6455025010872,29.6455025010872,,,108.19000005722,28,0.127816032347512,0.243001333727064
2011-06-01T04:32:41Z,1306902761,10A,54.6581024,24.4209802,30.23,-0,-0.3,38.6,-161703.47,-192089.67,39.6,Air+FixedWing,Blue,Enemies,Su-27,Blue Su-27 #001,ru,=CNF=801（建军）,0,0,0,30.2299995422363,2.22999954223633,0,0,NaN,NaN,0.0351891346039057,0,NaN,0.999986112119409,-0.000331833784330436,-0.00523596443235874,0,29.6455025010872,29.6455025010872,,,109.19000005722,28,0.127816032347512,0.243001333727064
2011-06-01T04:32:42Z,1306902762,10A,54.6581024,24.4209802,30.23,-0.1,-0.3,38.6,-161703.47,-192089.67,39.6,Air+FixedWing,Blue,Enemies,Su-27,Blue Su-27 #001,ru,=CNF=801（建军）,0,0,0,30.2299995422363,2.22999954223633,0,0,NaN,NaN,0.0351891346039057,0,NaN,0.99998569489264,-0.000946340741688235,-0.00523596443235874,0,29.6455025010872,29.6455025010872,,,110.19000005722,28,0.127816032347512,0.243001333727064
2011-06-01T04:32:43Z,1306902763,10A,54.6581024,24.4209802,30.23,-0.1,-0.3,38.6,-161703.47,-192089.67,39.6,Air+FixedWing,Blue,Enemies,Su-27,Blue Su-27 #001,ru,=CNF=801（建军）,0,0,0,30.2299995422363,2.22999954223633,0,0,NaN,NaN,0.0351891346039057,0,NaN,0.999984979646751,-0.00156084732070145,-0.00523596443235874,0,29.6455025010872,29.6455025010872,,,111.19000005722,28,0.127816032347512,0.243001333727064
2011-06-01T04:32:44Z,1306902764,10A,54.6581024,24.4209802,30.23,0,-0.3,38.6,-161703.47,-192089.67,39.6,Air+FixedWing,Blue,Enemies,Su-27,Blue Su-27 #001,ru,=CNF=801（建军）,0,0,0,30.2299995422363,2.22999954223633,0,0,NaN,NaN,0.00952321803391506,0,NaN,0.999986827374286,0,-0.00511569017544389,0,29.6455025010872,29.6455025010872,,,112.19000005722,28,0.127816032347512,0.243001333727064
2011-06-01T04:32:45Z,1306902765,10A,54.6581024,24.4209802,30.23,0,-0.3,38.6,-161703.47,-192089.67,39.6,Air+FixedWing,Blue,Enemies,Su-27,Blue Su-27 #001,ru,=CNF=801（建军）,0,0,0,30.2299995422363,2.22999954223633,0,0,NaN,NaN,0,0,NaN,0.999988079071752,0,-0.00487023312598467,0,29.6455025010872,29.6455025010872,,,113.19000005722,28,0.127816032347512,0.243001333727064
2011-06-01T04:32:46Z,1306902766,10A,54.6581024,24.4209802,30.23,0,-0.3,38.6,-161703.47,-192089.67,39.6,Air+FixedWing,Blue,Enemies,Su-27,Blue Su-27 #001,ru,=CNF=801（建军）,0,0,0,30.2299995422363,2.22999954223633,0,0,NaN,NaN,0,0.0171320104161963,NaN,0.999989211559935,0,-0.00462477514520288,0,29.6455025010872,29.6455025010872,,,114.19000005722,28,0.127816032347512,0.243001333727064
2011-06-01T04:32:47Z,1306902767,10A,54.6581024,24.4209802,30.23,0,-0.3,38.6,-161703.47,-192089.67,39.6,Air+FixedWing,Blue,Enemies,Su-27,Blue Su-27 #001,ru,=CNF=801（建军）,0,0,0,30.2299995422363,2.22999954223633,0,0,NaN,NaN,0,0.00989117029631303,NaN,0.999990284443477,0,-0.00437931716442108,0,29.6455025010872,29.6455025010872,,,115.19000005722,28,0.127816032347512,0.243001333727064
2011-06-01T04:32:48Z,1306902768,10A,54.6581024,24.4209802,30.23,0,-0.2,38.6,-161703.47,-192089.67,39.6,Air+FixedWing,Blue,Enemies,Su-27,Blue Su-27 #001,ru,=CNF=801（建军）,0,0,0,30.2299995422363,2.22999954223633,0,0,NaN,NaN,0,0,NaN,0.999991357327019,0,-0.00413385918363929,0,29.6455025010872,29.6455025010872,,,116.19000005722,28,0.127816032347512,0.243001333727064
2011-06-01T04:32:49Z,1306902769,10A,54.6581024,24.4209802,30.23,0,-0.2,38.6,-161703.47,-192089.67,39.6,Air+FixedWing,Blue,Enemies,Su-27,Blue Su-27 #001,ru,=CNF=801（建军）,0,0,0,30.2299995422363,2.22999954223633,0,0,NaN,NaN,0,0.00989117029631303,NaN,0.999992311001279,0,-0.00388840027153492,0,29.6455025010872,29.6455025010872,,,117.19000005722,28,0.127816032347512,0.243001333727064
2011-06-01T04:32:50Z,1306902770,10A,54.6581024,24.4209802,30.23,0,-0.2,38.6,-161703.47,-192089.67,39.6,Air+FixedWing,Blue,Enemies,Su-27,Blue Su-27 #001,ru,=CNF=801（建军）,0,0,0,30.2299995422363,2.22999954223633,0,0,NaN,NaN,0,0,NaN,0.999993205070897,0,-0.0036429415922612,0,29.6455025010872,29.6455025010872,,,118.19000005722,28,0.127816032347512,0.243001333727064
2011-06-01T04:32:51Z,1306902771,10A,54.6581024,24.4209802,30.23,-0.1,-0.2,38.6,-161703.47,-192089.67,39.6,Air+FixedWing,Blue,Enemies,Su-27,Blue Su-27 #001,ru,=CNF=801（建军）,0,0,0,30.2299995422363,2.22999954223633,0,0,NaN,NaN,0.144253595270669,0,NaN,0.999993026261365,-0.00125884182853331,-0.00349065172486007,0,29.6455025010872,29.6455025010872,,,119.19000005722,28,0.127816032347512,0.243001333727064
2011-06-01T04:32:52Z,1306902772,10A,54.6581024,24.4209802,30.23,-0,-0.2,38.6,-161703.47,-192089.67,39.6,Air+FixedWing,Blue,Enemies,Su-27,Blue Su-27 #001,ru,=CNF=801（建军）,0,0,0,30.2299995422363,2.22999954223633,0,0,NaN,NaN,0.000491773620240918,0,NaN,0.999993741512668,-4.71542658548089e-06,-0.00349065172486007,0,29.6455025010872,29.6455025010872,,,120.19000005722,28,0.127816032347512,0.243001333727064
2011-06-01T04:32:53Z,1306902773,10A,54.6581024,24.4209802,30.23,-0,-0.2,38.6,-161703.47,-192089.67,39.6,Air+FixedWing,Blue,Enemies,Su-27,Blue Su-27 #001,ru,=CNF=801（建军）,0,0,0,30.2299995422363,2.22999954223633,0,0,NaN,NaN,0.000491773620240918,0,NaN,0.999993681908393,-1.31358314947468e-05,-0.00349065172486007,0,29.6455025010872,29.6455025010872,,,121.19000005722,28,0.127816032347512,0.243001333727064
2011-06-01T04:32:54Z,1306902774,10A,54.6581024,24.4209802,30.23,-0,-0.2,38.6,-161703.47,-192089.67,39.6,Air+FixedWing,Blue,Enemies,Su-27,Blue Su-27 #001,ru,=CNF=801（建军）,0,0,0,30.2299995422363,2.22999954223633,0,0,NaN,NaN,0.000491773620240918,0,NaN,0.999993741512668,-2.15562368587573e-05,-0.00349065172486007,0,29.6455025010872,29.6455025010872,,,122.19000005722,28,0.127816032347512,0.243001333727064
2011-06-01T04:32:55Z,1306902775,10A,54.6581024,24.4209802,30.23,-0,-0.2,38.6,-161703.47,-192089.67,39.6,Air+FixedWing,Blue,Enemies,Su-27,Blue Su-27 #001,ru,=CNF=801（建军）,0,0,0,30.2299995422363,2.22999954223633,0,0,NaN,NaN,0.000491773620240918,0,NaN,0.999993741512668,-2.99766413132787e-05,-0.00349065172486007,0,29.6455025010872,29.6455025010872,,,123.19000005722,28,0.127816032347512,0.243001333727064
2011-06-01T04:32:56Z,1306902776,10A,54.6581024,24.4209802,30.23,-0,-0.2,38.6,-161703.47,-192089.67,39.6,Air+FixedWing,Blue,Enemies,Su-27,Blue Su-27 #001,ru,=CNF=801（建军）,0,0,0,30.2299995422363,2.22999954223633,0,0,NaN,NaN,0.000491773620240918,0,NaN,0.999993741512668,-3.83970457678001e-05,-0.00349065172486007,0,29.6455025010872,29.6455025010872,,,124.19000005722,28,0.127816032347512,0.243001333727064
2011-06-01T04:32:57Z,1306902777,10A,54.6581024,24.4209802,30.23,-0,-0.2,38.6,-161703.47,-192089.67,39.6,Air+FixedWing,Blue,Enemies,Su-27,Blue Su-27 #001,ru,=CNF=801（建军）,0,0,0,30.2299995422363,2.22999954223633,0,0,NaN,NaN,0.000491773620240918,0,NaN,0.999993801116943,-4.68174520412996e-05,-0.00349065172486007,0,29.6455025010872,29.6455025010872,,,125.19000005722,28,0.127816032347512,0.243001333727064
2011-06-01T04:32:58Z,1306902778,10A,54.6581024,24.4209802,30.23,-0,-0.2,38.6,-161703.47,-192089.67,39.6,Air+FixedWing,Blue,Enemies,Su-27,Blue Su-27 #001,ru,=CNF=801（建军）,0,0,0,30.2299995422363,2.22999954223633,0,0,NaN,NaN,0.000491773620240918,0,NaN,0.999993801116943,-5.52378546768428e-05,-0.00349065172486007,0,29.6455025010872,29.6455025010872,,,126.19000005722,28,0.127816032347512,0.243001333727064
2011-06-01T04:32:59Z,1306902779,10A,54.6581024,24.4209802,30.23,-0,-0.2,38.6,-161703.47,-192089.67,39.6,Air+FixedWing,Blue,Enemies,Su-27,Blue Su-27 #001,ru,=CNF=801（建军）,0,0,0,30.2299995422363,2.22999954223633,0,0,NaN,NaN,0.000491773620240918,0,NaN,0.999993801116943,-6.36582609503424e-05,-0.00349065172486007,0,29.6455025010872,29.6455025010872,,,127.19000005722,28,0.127816032347512,0.243001333727064
2011-06-01T04:33:00Z,1306902780,10A,54.6581024,24.4209802,30.23,-0,-0.2,38.6,-161703.47,-192089.67,39.6,Air+FixedWing,Blue,Enemies,Su-27,Blue Su-27 #001,ru,=CNF=801（建军）,0,0,0,30.2299995422363,2.22999954223633,0,0,NaN,NaN,0.000491773620240918,0,NaN,0.999993741512668,-7.20786672238419e-05,-0.00349065172486007,0,29.6455025010872,29.6455025010872,,,128.19000005722,28,0.127816032347512,0.243001333727064
2011-06-01T04:33:01Z,1306902781,10A,54.6581024,24.4209802,30.23,-0,-0.2,38.6,-161703.47,-192089.67,39.6,Air+FixedWing,Blue,Enemies,Su-27,Blue Su-27 #001,ru,=CNF=801（建军）,0,0,0,30.2299995422363,2.22999954223633,0,0,NaN,NaN,0.000491773620240918,0,NaN,0.999993741512668,-8.04990734973414e-05,-0.00349065172486007,0,29.6455025010872,29.6455025010872,,,129.19000005722,28,0.127816032347512,0.243001333727064
2011-06-01T04:33:02Z,1306902782,10A,54.6581024,24.4209802,30.23,-0,-0.2,38.6,-161703.47,-192089.67,39.6,Air+FixedWing,Blue,Enemies,Su-27,Blue Su-27 #001,ru,=CNF=801（建军）,0,0,0,30.2299995422363,2.22999954223633,0,0,NaN,NaN,0.000491773620240918,0,NaN,0.999993741512668,-8.89194797708409e-05,-0.00349065172486007,0,29.6455025010872,29.6455025010872,,,130.19000005722,28,0.127816032347512,0.243001333727064
2011-06-01T04:33:03Z,1306902783,10A,54.6581024,24.4209802,30.23,-0,-0.2,38.6,-161703.47,-192089.67,39.6,Air+FixedWing,Blue,Enemies,Su-27,Blue Su-27 #001,ru,=CNF=801（建军）,0,0,0,30.2299995422363,2.22999954223633,0,0,NaN,NaN,0.000491773620240918,0,NaN,0.999993801116943,-9.73398860443404e-05,-0.00349065172486007,0,29.6455025010872,29.6455025010872,,,131.19000005722,28,0.127816032347512,0.243001333727064
2011-06-01T04:33:04Z,1306902784,10A,54.6581024,24.4209802,30.23,-0,-0.2,38.6,-161703.47,-192089.67,39.6,Air+FixedWing,Blue,Enemies,Su-27,Blue Su-27 #001,ru,=CNF=801（建军）,0,0,0,30.2299995422363,2.22999954223633,0,0,NaN,NaN,0.000491773620240918,0,NaN,0.999993741512668,-0.00010576029231784,-0.00349065172486007,0,29.6455025010872,29.6455025010872,,,132.19000005722,28,0.127816032347512,0.243001333727064
2011-06-01T04:33:05Z,1306902785,10A,54.6581024,24.4209802,30.23,-0,-0.2,38.6,-161703.47,-192089.67,39.6,Air+FixedWing,Blue,Enemies,Su-27,Blue Su-27 #001,ru,=CNF=801（建军）,0,0,0,30.2299995422363,2.22999954223633,0,0,NaN,NaN,0.000491773620240918,0,NaN,0.999993741512668,-0.000114180691315427,-0.00349065172486007,0,29.6455025010872,29.6455025010872,,,133.19000005722,28,0.127816032347512,0.243001333727064
2011-06-01T04:33:06Z,1306902786,10A,54.6581024,24.4209802,30.23,-0,-0.2,38.6,-161703.47,-192089.67,39.6,Air+FixedWing,Blue,Enemies,Su-27,Blue Su-27 #001,ru,=CNF=801（建军）,0,0,0,30.2299995422363,2.22999954223633,0,0,NaN,NaN,0.000491773620240918,0,NaN,0.999993801116943,-0.000122601104864839,-0.00349065172486007,0,29.6455025010872,29.6455025010872,,,134.19000005722,28,0.127816032347512,0.243001333727064
2011-06-01T04:33:07Z,1306902787,10A,54.6581024,24.4209802,30.23,-0,-0.2,38.6,-161703.47,-192089.67,39.6,Air+FixedWing,Blue,Enemies,Su-27,Blue Su-27 #001,ru,=CNF=801（建军）,0,0,0,30.2299995422363,2.22999954223633,0,0,NaN,NaN,0.000491773620240918,0,NaN,0.999993741512668,-0.000131021503862426,-0.00349065172486007,0,29.6455025010872,29.6455025010872,,,135.19000005722,28,0.127816032347512,0.243001333727064
2011-06-01T04:33:08Z,1306902788,10A,54.6581024,24.4209802,30.23,-0,-0.2,38.6,-161703.47,-192089.67,39.6,Air+FixedWing,Blue,Enemies,Su-27,Blue Su-27 #001,ru,=CNF=801（建军）,0,0,0,30.2299995422363,2.22999954223633,0,0,NaN,NaN,0.000491773620240918,0,NaN,0.999993741512668,-0.000139441917411838,-0.00349065172486007,0,29.6455025010872,29.6455025010872,,,136.19000005722,28,0.127816032347512,0.243001333727064
2011-06-01T04:33:09Z,1306902789,10A,54.6581024,24.4209802,30.23,-0,-0.2,38.6,-161703.47,-192089.67,39.6,Air+FixedWing,Blue,Enemies,Su-27,Blue Su-27 #001,ru,=CNF=801（建军）,0,0,0,30.2299995422363,2.22999954223633,0,0,NaN,NaN,0.000491773620240918,0,NaN,0.999993741512668,-0.000147862316409425,-0.00349065172486007,0,29.6455025010872,29.6455025010872,,,137.19000005722,28,0.127816032347512,0.243001333727064
2011-06-01T04:33:10Z,1306902790,10A,54.6581024,24.4209802,30.23,-0,-0.2,38.6,-161703.47,-192089.67,39.6,Air+FixedWing,Blue,Enemies,Su-27,Blue Su-27 #001,ru,=CNF=801（建军）,0,0,0,30.2299995422363,2.22999954223633,0,0,NaN,NaN,0.000491773620240918,0,NaN,0.999993801116943,-0.000156282715407012,-0.00349065172486007,0,29.6455025010872,29.6455025010872,,,138.19000005722,28,0.127816032347512,0.243001333727064
2011-06-01T04:33:11Z,1306902791,10A,54.6581024,24.4209802,30.23,-0,-0.2,38.6,-161703.47,-192089.67,39.6,Air+FixedWing,Blue,Enemies,Su-27,Blue Su-27 #001,ru,=CNF=801（建军）,0,0,0,30.2299995422363,2.22999954223633,0,0,NaN,NaN,0.000491773620240918,0,NaN,0.999993741512668,-0.000164703128956424,-0.00349065172486007,0,29.6455025010872,29.6455025010872,,,139.19000005722,28,0.127816032347512,0.243001333727064
2011-06-01T04:33:12Z,1306902792,10A,54.6581024,24.4209802,30.23,-0,-0.2,38.6,-161703.47,-192089.67,39.6,Air+FixedWing,Blue,Enemies,Su-27,Blue Su-27 #001,ru,=CNF=801（建军）,0,0,0,30.2299995422363,2.22999954223633,0,0,NaN,NaN,0.000491773620240918,0,NaN,0.999993741512668,-0.000173123527954011,-0.00349065172486007,0,29.6455025010872,29.6455025010872,,,140.19000005722,28,0.127816032347512,0.243001333727064
2011-06-01T04:33:13Z,1306902793,10A,54.6581024,24.4209802,30.23,-0,-0.2,38.6,-161703.47,-192089.67,39.6,Air+FixedWing,Blue,Enemies,Su-27,Blue Su-27 #001,ru,=CNF=801（建军）,0,0,0,30.2299995422363,2.22999954223633,0,0,NaN,NaN,0.000491773620240918,0,NaN,0.999993741512668,-0.000181543941503423,-0.00349065172486007,0,29.6455025010872,29.6455025010872,,,141.19000005722,28,0.127816032347512,0.243001333727064
2011-06-01T04:33:14Z,1306902794,10A,54.6581024,24.4209802,30.23,-0,-0.2,38.6,-161703.47,-192089.67,39.6,Air+FixedWing,Blue,Enemies,Su-27,Blue Su-27 #001,ru,=CNF=801（建军）,0,0,0,30.2299995422363,2.22999954223633,0,0,NaN,NaN,0.000491773620240918,0,NaN,0.999993681908393,-0.00018996434050101,-0.00349065172486007,0,29.6455025010872,29.6455025010872,,,142.19000005722,28,0.127816032347512,0.243001333727064
2011-06-01T04:33:15Z,1306902795,10A,54.6581024,24.4209802,30.23,-0,-0.2,38.6,-161703.47,-192089.67,39.6,Air+FixedWing,Blue,Enemies,Su-27,Blue Su-27 #001,ru,=CNF=801（建军）,0,0,0,30.2299995422363,2.22999954223633,0,0,NaN,NaN,0.000491773620240918,0,NaN,0.999993741512668,-0.000198384754050422,-0.00349065172486007,0,29.6455025010872,29.6455025010872,,,143.19000005722,28,0.127816032347512,0.243001333727064
2011-06-01T04:33:16Z,1306902796,10A,54.6581024,24.4209802,30.23,-0,-0.2,38.6,-161703.47,-192089.67,39.6,Air+FixedWing,Blue,Enemies,Su-27,Blue Su-27 #001,ru,=CNF=801（建军）,0,0,0,30.2299995422363,2.22999954223633,0,0,NaN,NaN,0.000491773620240918,0,NaN,0.999993741512668,-0.000206805153048009,-0.00349065172486007,0,29.6455025010872,29.6455025010872,,,144.19000005722,28,0.127816032347512,0.243001333727064
2011-06-01T04:33:17Z,1306902797,10A,54.6581024,24.4209802,30.23,-0,-0.2,38.6,-161703.47,-192089.67,39.6,Air+FixedWing,Blue,Enemies,Su-27,Blue Su-27 #001,ru,=CNF=801（建军）,0,0,0,30.2299995422363,2.22999954223633,0,0,NaN,NaN,0.000491773620240918,0,NaN,0.999993741512668,-0.000215225552045596,-0.00349065172486007,0,29.6455025010872,29.6455025010872,,,145.19000005722,28,0.127816032347512,0.243001333727064
2011-06-01T04:33:18Z,1306902798,10A,54.6581024,24.4209802,30.23,-0,-0.2,38.6,-161703.47,-192089.67,39.6,Air+FixedWing,Blue,Enemies,Su-27,Blue Su-27 #001,ru,=CNF=801（建军）,0,0,0,30.2299995422363,2.22999954223633,0,0,NaN,NaN,0.000491773620240918,0,NaN,0.999993741512668,-0.000223645951043183,-0.00349065172486007,0,29.6455025010872,29.6455025010872,,,146.19000005722,28,0.127816032347512,0.243001333727064
2011-06-01T04:33:19Z,1306902799,10A,54.6581024,24.4209802,30.23,-0,-0.2,38.6,-161703.47,-192089.67,39.6,Air+FixedWing,Blue,Enemies,Su-27,Blue Su-27 #001,ru,=CNF=801（建军）,0,0,0,30.2299995422363,2.22999954223633,0,0,NaN,NaN,0.000491773620240918,0,NaN,0.999993741512668,-0.000232066364592595,-0.00349065172486007,0,29.6455025010872,29.6455025010872,,,147.19000005722,28,0.127816032347512,0.243001333727064
2011-06-01T04:33:20Z,1306902800,10A,54.6581024,24.4209802,30.23,-0,-0.2,38.6,-161703.47,-192089.67,39.6,Air+FixedWing,Blue,Enemies,Su-27,Blue Su-27 #001,ru,=CNF=801（建军）,0,0,0,30.2299995422363,2.22999954223633,0,0,NaN,NaN,0.000491773620240918,0,NaN,0.999993681908393,-0.000240486778142007,-0.00349065172486007,0,29.6455025010872,29.6455025010872,,,148.19000005722,28,0.127816032347512,0.243001333727064
