ISOTime,UnixTime,Id,Longitude,Latitude,Altitude,Roll,Pitch,Yaw,U,V,Heading,Type,Color,Coalition,Name,Group,Country,Pilot,TAS,CAS,M,ASL,AGL,GS,VS,AOA,AOS,RRT,TRT,TRD,G,LatG,LonG,Ek,Ep,Em,FFW,FFV,RelativeTime,Elev,GroundDistance,AirDistance
2011-06-01T04:31:59Z,1306902719,10B,54.6578429,24.4241322,30.19,-0,0.2,217.1,-161723.89,-191740.05,218.1,Air+FixedWing,Blue,Enemies,J-11A,Blue J-11A #001,cn,=CNF=505 (端午),0.328352246519683,0.37154546380043,0.000964896764588496,30.1857128143311,2.18571281433105,NaN,NaN,NaN,NaN,0.561927880588294,NaN,NaN,NaN,NaN,NaN,NaN,29.602072057066,NaN,,,0.509999990463257,28,NaN,NaN
2011-06-01T04:32:00Z,1306902720,10B,54.6578428,24.4241321,30.19,0.2,0.4,217.1,-161723.91,-191740.05,218.1,Air+FixedWing,Blue,Enemies,J-11A,Blue J-11A #001,cn,=CNF=505 (端午),0.015625,0,4.59156655893064e-05,30.1857128143311,2.18571281433105,0.015625,0,NaN,NaN,0.0380851348119911,0.464363697575687,NaN,1.00461405323259,0.00639291834726646,0.00820439212920446,1.220703125e-05,29.602072057066,29.6020842640972,,,1.50999999046326,28,0.0174470161238169,0.0174470985286633
2011-06-01T04:32:01Z,1306902721,10B,54.6578427,24.4241319,30.23,0,0.1,217.1,-161723.91,-191740.08,218.1,Air+FixedWing,Blue,Enemies,J-11A,Blue J-11A #001,cn,=CNF=505 (端午),0.0553755729787732,0,0.000162726886433428,30.2314281463623,2.2314281463623,0.03125,0.04571533203125,NaN,NaN,0.085732534462,0.281161028604299,NaN,0.996211265806943,-0.00223695619900595,0.00146791197733361,0.000153322704136372,29.6469034831524,29.6470568058565,,,2.50999999046326,28,0.0397840693111421,0.0683277454404379
2011-06-01T04:32:02Z,1306902722,10B,54.6578425,24.4241317,30.24,0,-0.1,217.1,-161723.92,-191740.09,218.1,Air+FixedWing,Blue,Enemies,J-11A,Blue J-11A #001,cn,=CNF=505 (端午),0.0237013501926633,0,6.964889185221e-05,30.2399997711182,2.23999977111816,0.0220970869120796,0.00857162475585938,NaN,NaN,0,0.121544830446177,NaN,1.00077539854292,-0,-0.00174668456003303,2.80877000477631e-05,29.6553093755436,29.6553374632436,,,3.50999999046326,28,0.0632085087736869,0.0932713285147092
2011-06-01T04:32:03Z,1306902723,10B,54.6578424,24.4241316,30.26,0,-0.2,217.1,-161723.94,-191740.11,218.1,Air+FixedWing,Blue,Enemies,J-11A,Blue J-11A #001,cn,=CNF=505 (端午),0.0273942577371771,0,8.05009008819572e-05,30.2561912536621,2.25619125366211,0.0220970869120796,0.0161914825439453,NaN,NaN,0,0.089568392712263,NaN,0.996679434713892,-0.000712426207417556,-0.0069698882634656,3.75222678485443e-05,29.6711877957726,29.6712253180404,,,4.50999999046326,28,0.0839987769945115,0.119622864790226
2011-06-01T04:32:04Z,1306902724,10B,54.6578425,24.4241317,30.24,0,-0.2,217.1,-161723.94,-191740.09,218.1,Air+FixedWing,Blue,Enemies,J-11A,Blue J-11A #001,cn,=CNF=505 (端午),0.0225012162331481,0,6.61221729237535e-05,30.2399997711182,2.23999977111816,0.015625,-0.0161914825439453,NaN,NaN,0,0.0778831796822009,NaN,1.00164574728054,0.00223695619900595,-0.00322571546679909,2.53152365985443e-05,29.6553093755436,29.6553346907802,,,5.50999999046326,28,0.0990537999266389,0.141732139629991
2011-06-01T04:32:05Z,1306902725,10B,54.6578425,24.4241317,30.24,0,-0.3,217.1,-161723.92,-191740.09,218.1,Air+FixedWing,Blue,Enemies,J-11A,Blue J-11A #001,cn,=CNF=505 (端午),0.015625,0,4.59156936775547e-05,30.2399997711182,2.23999977111816,0.015625,0,NaN,NaN,0,0.0513960362511687,NaN,0.999996466961348,-0.00250765746039622,-0.0032697364554344,1.220703125e-05,29.6553093755436,29.6553215825748,,,6.50999999046326,28,0.0990537999266389,0.141732139629991
2011-06-01T04:32:06Z,1306902726,10B,54.6578425,24.4241317,30.24,0,-0.3,217.1,-161723.94,-191740.09,218.1,Air+FixedWing,Blue,Enemies,J-11A,Blue J-11A #001,cn,=CNF=505 (端午),0.015625,0,4.59156936775547e-05,30.2399997711182,2.23999977111816,0.015625,0,NaN,NaN,0,0.0279764548403722,NaN,0.999981024104175,0.00125382873019811,-0.00621907842082091,1.220703125e-05,29.6553093755436,29.6553215825748,,,7.50999999046326,28,0.0990537999266389,0.141732139629991
2011-06-01T04:32:07Z,1306902727,10B,54.6578425,24.4241317,30.24,0,-0.3,217.1,-161723.94,-191740.09,218.1,Air+FixedWing,Blue,Enemies,J-11A,Blue J-11A #001,cn,=CNF=505 (端午),0,0,0,30.2399997711182,2.23999977111816,0,0,NaN,NaN,0,0,NaN,0.999986171723233,-0,-0.00523596443235874,0,29.6553093755436,29.6553093755436,,,8.50999999046326,28,0.0990537999266389,0.141732139629991
2011-06-01T04:32:08Z,1306902728,10B,54.6578425,24.4241317,30.24,0,-0.3,217.1,-161723.94,-191740.09,218.1,Air+FixedWing,Blue,Enemies,J-11A,Blue J-11A #001,cn,=CNF=505 (端午),0,0,0,30.2399997711182,2.23999977111816,0,0,NaN,NaN,0,0,NaN,0.999981024104175,0.00125382873019811,-0.00621907842082091,0,29.6553093755436,29.6553093755436,,,9.50999999046326,28,0.0990537999266389,0.141732139629991
2011-06-01T04:32:09Z,1306902729,10B,54.6578425,24.4241317,30.24,0,-0.3,217.1,-161723.92,-191740.09,218.1,Air+FixedWing,Blue,Enemies,J-11A,Blue J-11A #001,cn,=CNF=505 (端午),0.015625,0,4.59156936775547e-05,30.2399997711182,2.23999977111816,0.015625,0,NaN,NaN,0,0,NaN,0.99999131934229,-0.00125382873019811,-0.00425285044389657,1.220703125e-05,29.6553093755436,29.6553215825748,,,10.5099999904633,28,0.0990537999266389,0.141732139629991
2011-06-01T04:32:10Z,1306902730,10B,54.6578425,24.4241317,30.24,0,-0.3,217.1,-161723.92,-191740.09,218.1,Air+FixedWing,Blue,Enemies,J-11A,Blue J-11A #001,cn,=CNF=505 (端午),0,0,0,30.2399997711182,2.23999977111816,0,0,NaN,NaN,0,0,NaN,0.99999131934229,-0.00125382873019811,-0.00425285044389657,0,29.6553093755436,29.6553093755436,,,11.5099999904633,28,0.0990537999266389,0.141732139629991
2011-06-01T04:32:11Z,1306902731,10B,54.6578425,24.4241317,30.24,0,-0.3,217.1,-161723.94,-191740.09,218.1,Air+FixedWing,Blue,Enemies,J-11A,Blue J-11A #001,cn,=CNF=505 (端午),0.015625,0,4.59156936775547e-05,30.2399997711182,2.23999977111816,0.015625,0,NaN,NaN,0,0,NaN,0.999981024104175,0.00125382873019811,-0.00621907842082091,1.220703125e-05,29.6553093755436,29.6553215825748,,,12.5099999904633,28,0.0990537999266389,0.141732139629991
2011-06-01T04:32:12Z,1306902732,10B,54.6578425,24.4241317,30.24,0,-0.3,217.1,-161723.94,-191740.09,218.1,Air+FixedWing,Blue,Enemies,J-11A,Blue J-11A #001,cn,=CNF=505 (端午),0,0,0,30.2399997711182,2.23999977111816,0,0,NaN,NaN,0,0,NaN,0.999981024104175,0.00125382873019811,-0.00621907842082091,0,29.6553093755436,29.6553093755436,,,13.5099999904633,28,0.0990537999266389,0.141732139629991
2011-06-01T04:32:13Z,1306902733,10B,54.6578425,24.4241317,30.24,0,-0.3,217.1,-161723.92,-191740.09,218.1,Air+FixedWing,Blue,Enemies,J-11A,Blue J-11A #001,cn,=CNF=505 (端午),0.015625,0,4.59156936775547e-05,30.2399997711182,2.23999977111816,0.015625,0,NaN,NaN,0,0,NaN,0.99999131934229,-0.00125382873019811,-0.00425285044389657,1.220703125e-05,29.6553093755436,29.6553215825748,,,14.5099999904633,28,0.0990537999266389,0.141732139629991
2011-06-01T04:32:14Z,1306902734,10B,54.6578425,24.4241317,30.24,0,-0.3,217.1,-161723.92,-191740.09,218.1,Air+FixedWing,Blue,Enemies,J-11A,Blue J-11A #001,cn,=CNF=505 (端午),0,0,0,30.2399997711182,2.23999977111816,0,0,NaN,NaN,0,0,NaN,0.99999131934229,-0.00125382873019811,-0.00425285044389657,0,29.6553093755436,29.6553093755436,,,15.5099999904633,28,0.0990537999266389,0.141732139629991
2011-06-01T04:32:15Z,1306902735,10B,54.6578425,24.4241317,30.24,0,-0.3,217.1,-161723.94,-191740.09,218.1,Air+FixedWing,Blue,Enemies,J-11A,Blue J-11A #001,cn,=CNF=505 (端午),0.015625,0,4.59156936775547e-05,30.2399997711182,2.23999977111816,0.015625,0,NaN,NaN,0,0,NaN,0.999981024104175,0.00125382873019811,-0.00621907842082091,1.220703125e-05,29.6553093755436,29.6553215825748,,,16.5099999904633,28,0.0990537999266389,0.141732139629991
2011-06-01T04:32:16Z,1306902736,10B,54.6578425,24.4241317,30.24,0,-0.3,217.1,-161723.94,-191740.09,218.1,Air+FixedWing,Blue,Enemies,J-11A,Blue J-11A #001,cn,=CNF=505 (端午),0,0,0,30.2399997711182,2.23999977111816,0,0,NaN,NaN,0,0,NaN,0.999981024104175,0.00125382873019811,-0.00621907842082091,0,29.6553093755436,29.6553093755436,,,17.5099999904633,28,0.0990537999266389,0.141732139629991
2011-06-01T04:32:17Z,1306902737,10B,54.6578425,24.4241317,30.24,0,-0.3,217.1,-161723.92,-191740.09,218.1,Air+FixedWing,Blue,Enemies,J-11A,Blue J-11A #001,cn,=CNF=505 (端午),0.015625,0,4.59156936775547e-05,30.2399997711182,2.23999977111816,0.015625,0,NaN,NaN,0,0,NaN,0.99999131934229,-0.00125382873019811,-0.00425285044389657,1.220703125e-05,29.6553093755436,29.6553215825748,,,18.5099999904633,28,0.0990537999266389,0.141732139629991
2011-06-01T04:32:18Z,1306902738,10B,54.6578425,24.4241317,30.24,0,-0.3,217.1,-161723.92,-191740.09,218.1,Air+FixedWing,Blue,Enemies,J-11A,Blue J-11A #001,cn,=CNF=505 (端午),0,0,0,30.2399997711182,2.23999977111816,0,0,NaN,NaN,0,0,NaN,0.99999131934229,-0.00125382873019811,-0.00425285044389657,0,29.6553093755436,29.6553093755436,,,19.5099999904633,28,0.0990537999266389,0.141732139629991
2011-06-01T04:32:19Z,1306902739,10B,54.6578425,24.4241317,30.24,0,-0.3,217.1,-161723.94,-191740.09,218.1,Air+FixedWing,Blue,Enemies,J-11A,Blue J-11A #001,cn,=CNF=505 (端午),0.015625,0,4.59156936775547e-05,30.2399997711182,2.23999977111816,0.015625,0,NaN,NaN,0,0,NaN,0.999981024104175,0.00125382873019811,-0.00621907842082091,1.220703125e-05,29.6553093755436,29.6553215825748,,,20.5099999904633,28,0.0990537999266389,0.141732139629991
2011-06-01T04:32:20Z,1306902740,10B,54.6578425,24.4241317,30.24,0,-0.3,217.1,-161723.94,-191740.09,218.1,Air+FixedWing,Blue,Enemies,J-11A,Blue J-11A #001,cn,=CNF=505 (端午),0,0,0,30.2399997711182,2.23999977111816,0,0,NaN,NaN,0,0,NaN,0.999986171723233,-0,-0.00523596443235874,0,29.6553093755436,29.6553093755436,,,21.5099999904633,28,0.0990537999266389,0.141732139629991
2011-06-01T04:32:21Z,1306902741,10B,54.6578425,24.4241317,30.24,0,-0.3,217.1,-161723.94,-191740.09,218.1,Air+FixedWing,Blue,Enemies,J-11A,Blue J-11A #001,cn,=CNF=505 (端午),0,0,0,30.2399997711182,2.23999977111816,0,0,NaN,NaN,0,0,NaN,0.999981024104175,0.00125382873019811,-0.00621907842082091,0,29.6553093755436,29.6553093755436,,,22.5099999904633,28,0.0990537999266389,0.141732139629991
2011-06-01T04:32:22Z,1306902742,10B,54.6578425,24.4241317,30.24,0,-0.3,217.1,-161723.92,-191740.09,218.1,Air+FixedWing,Blue,Enemies,J-11A,Blue J-11A #001,cn,=CNF=505 (端午),0.015625,0,4.59156936775547e-05,30.2399997711182,2.23999977111816,0.015625,0,NaN,NaN,0,0,NaN,0.99999131934229,-0.00125382873019811,-0.00425285044389657,1.220703125e-05,29.6553093755436,29.6553215825748,,,23.5099999904633,28,0.0990537999266389,0.141732139629991
2011-06-01T04:32:23Z,1306902743,10B,54.6578425,24.4241317,30.24,0,-0.3,217.1,-161723.92,-191740.09,218.1,Air+FixedWing,Blue,Enemies,J-11A,Blue J-11A #001,cn,=CNF=505 (端午),0,0,0,30.2399997711182,2.23999977111816,0,0,NaN,NaN,0,0,NaN,0.999986171723233,-0,-0.00523596443235874,0,29.6553093755436,29.6553093755436,,,24.5099999904633,28,0.0990537999266389,0.141732139629991
2011-06-01T04:32:24Z,1306902744,10B,54.6578425,24.4241317,30.24,0,-0.3,217.1,-161723.92,-191740.09,218.1,Air+FixedWing,Blue,Enemies,J-11A,Blue J-11A #001,cn,=CNF=505 (端午),0,0,0,30.2399997711182,2.23999977111816,0,0,NaN,NaN,0,0,NaN,0.99999131934229,-0.00125382873019811,-0.00425285044389657,0,29.6553093755436,29.6553093755436,,,25.5099999904633,28,0.0990537999266389,0.141732139629991
2011-06-01T04:32:25Z,1306902745,10B,54.6578425,24.4241317,30.24,0,-0.3,217.1,-161723.94,-191740.09,218.1,Air+FixedWing,Blue,Enemies,J-11A,Blue J-11A #001,cn,=CNF=505 (端午),0.015625,0,4.59156936775547e-05,30.2399997711182,2.23999977111816,0.015625,0,NaN,NaN,0,0,NaN,0.999981024104175,0.00125382873019811,-0.00621907842082091,1.220703125e-05,29.6553093755436,29.6553215825748,,,26.5099999904633,28,0.0990537999266389,0.141732139629991
2011-06-01T04:32:26Z,1306902746,10B,54.6578425,24.4241317,30.24,0,-0.3,217.1,-161723.94,-191740.09,218.1,Air+FixedWing,Blue,Enemies,J-11A,Blue J-11A #001,cn,=CNF=505 (端午),0,0,0,30.2399997711182,2.23999977111816,0,0,NaN,NaN,0,0,NaN,0.999981024104175,0.00125382873019811,-0.00621907842082091,0,29.6553093755436,29.6553093755436,,,27.5099999904633,28,0.0990537999266389,0.141732139629991
2011-06-01T04:32:27Z,1306902747,10B,54.6578425,24.4241317,30.24,0,-0.3,217.1,-161723.92,-191740.09,218.1,Air+FixedWing,Blue,Enemies,J-11A,Blue J-11A #001,cn,=CNF=505 (端午),0.015625,0,4.59156936775547e-05,30.2399997711182,2.23999977111816,0.015625,0,NaN,NaN,0,0,NaN,0.99999131934229,-0.00125382873019811,-0.00425285044389657,1.220703125e-05,29.6553093755436,29.6553215825748,,,28.5099999904633,28,0.0990537999266389,0.141732139629991
2011-06-01T04:32:28Z,1306902748,10B,54.6578425,24.4241317,30.24,0,-0.3,217.1,-161723.92,-191740.09,218.1,Air+FixedWing,Blue,Enemies,J-11A,Blue J-11A #001,cn,=CNF=505 (端午),0,0,0,30.2399997711182,2.23999977111816,0,0,NaN,NaN,0,0,NaN,0.99999131934229,-0.00125382873019811,-0.00425285044389657,0,29.6553093755436,29.6553093755436,,,29.5099999904633,28,0.0990537999266389,0.141732139629991
2011-06-01T04:32:29Z,1306902749,10B,54.6578425,24.4241317,30.24,0,-0.3,217.1,-161723.94,-191740.09,218.1,Air+FixedWing,Blue,Enemies,J-11A,Blue J-11A #001,cn,=CNF=505 (端午),0.015625,0,4.59156936775547e-05,30.2399997711182,2.23999977111816,0.015625,0,NaN,NaN,0,0,NaN,0.999975876485117,0.00250765746039622,-0.00720219240928309,1.220703125e-05,29.6553093755436,29.6553215825748,,,30.5099999904633,28,0.0990537999266389,0.141732139629991
2011-06-01T04:32:30Z,1306902750,10B,54.6578425,24.4241317,30.24,0,-0.3,217.1,-161723.92,-191740.09,218.1,Air+FixedWing,Blue,Enemies,J-11A,Blue J-11A #001,cn,=CNF=505 (端午),0.015625,0,4.59156936775547e-05,30.2399997711182,2.23999977111816,0.015625,0,NaN,NaN,0,0,NaN,0.99999131934229,-0.00125382873019811,-0.00425285044389657,1.220703125e-05,29.6553093755436,29.6553215825748,,,31.5099999904633,28,0.0990537999266389,0.141732139629991
2011-06-01T04:32:31Z,1306902751,10B,54.6578425,24.4241317,30.24,0,-0.3,217.1,-161723.92,-191740.09,218.1,Air+FixedWing,Blue,Enemies,J-11A,Blue J-11A #001,cn,=CNF=505 (端午),0,0,0,30.2399997711182,2.23999977111816,0,0,NaN,NaN,0,0,NaN,0.99999131934229,-0.00125382873019811,-0.00425285044389657,0,29.6553093755436,29.6553093755436,,,32.5099999904633,28,0.0990537999266389,0.141732139629991
2011-06-01T04:32:32Z,1306902752,10B,54.6578425,24.4241317,30.24,0,-0.3,217.1,-161723.94,-191740.09,218.1,Air+FixedWing,Blue,Enemies,J-11A,Blue J-11A #001,cn,=CNF=505 (端午),0.015625,0,4.59156936775547e-05,30.2399997711182,2.23999977111816,0.015625,0,NaN,NaN,0,0,NaN,0.999975876485117,0.00250765746039622,-0.00720219240928309,1.220703125e-05,29.6553093755436,29.6553215825748,,,33.5099999904633,28,0.0990537999266389,0.141732139629991
2011-06-01T04:32:33Z,1306902753,10B,54.6578425,24.4241317,30.24,0,-0.3,217.1,-161723.92,-191740.09,218.1,Air+FixedWing,Blue,Enemies,J-11A,Blue J-11A #001,cn,=CNF=505 (端午),0.015625,0,4.59156936775547e-05,30.2399997711182,2.23999977111816,0.015625,0,NaN,NaN,0,0.0484566469995765,NaN,1.00101619216674,-0.00250765746039622,-0.00327507577561392,1.220703125e-05,29.6553093755436,29.6553215825748,,,34.5099999904633,28,0.0990537999266389,0.141732139629991
2011-06-01T04:32:34Z,1306902754,10B,54.6578424,24.4241317,30.25,0,-0.3,217.1,-161723.94,-191740.09,218.1,Air+FixedWing,Blue,Enemies,J-11A,Blue J-11A #001,cn,=CNF=505 (端午),0.0185511509801712,0,5.45144999525228e-05,30.25,2.25,0.015625,0.0100002288818359,NaN,NaN,0,0,NaN,0.997936426074325,0.00250765746039622,-0.00719151376892403,1.72072601344553e-05,29.66511625,29.6651334572601,,,35.5099999904633,28,0.10958600242892,0.156255670839945
2011-06-01T04:32:35Z,1306902755,10B,54.6578425,24.4241318,30.24,0,-0.3,217.1,-161723.92,-191740.09,218.1,Air+FixedWing,Blue,Enemies,J-11A,Blue J-11A #001,cn,=CNF=505 (端午),0.0185511509801712,0,5.45144938093829e-05,30.2399997711182,2.23999977111816,0.015625,-0.0100002288818359,NaN,NaN,0,0.0484566469995765,NaN,1.00064675972798,-0.00125382873019811,-0.00425628235482638,1.72072601344553e-05,29.6553093755436,29.6553265828037,,,36.5099999904633,28,0.122667179791832,0.172721496846908
2011-06-01T04:32:36Z,1306902756,10B,54.6578425,24.4241318,30.24,0,-0.3,217.1,-161723.92,-191740.09,218.1,Air+FixedWing,Blue,Enemies,J-11A,Blue J-11A #001,cn,=CNF=505 (端午),0.00357246398925781,0,1.04980579584955e-05,30.2364273071289,2.23642730712891,0,-0.00357246398925781,NaN,NaN,0,0,NaN,1.0007198889817,-0.00125382873019811,-0.004256665262396,6.38124947727192e-07,29.6518059851456,29.6518066232705,,,37.5099999904633,28,0.122667179791832,0.176293961165124
2011-06-01T04:32:37Z,1306902757,10B,54.6578425,24.4241318,30.24,0,-0.3,217.1,-161723.94,-191740.09,218.1,Air+FixedWing,Blue,Enemies,J-11A,Blue J-11A #001,cn,=CNF=505 (端午),0.0160281977762487,0,4.710053243504e-05,30.2399997711182,2.23999977111816,0.015625,0.00357246398925781,NaN,NaN,0,0,NaN,0.999616739284471,0.00125382873019811,-0.0062171710115712,1.28451561977272e-05,29.6553093755436,29.6553222206998,,,38.5099999904633,28,0.122667179791832,0.17986642548334
2011-06-01T04:32:38Z,1306902758,10B,54.6578425,24.4241318,30.24,0,-0.3,217.1,-161723.94,-191740.09,218.1,Air+FixedWing,Blue,Enemies,J-11A,Blue J-11A #001,cn,=CNF=505 (端午),0,0,0,30.2399997711182,2.23999977111816,0,0,NaN,NaN,0,0,NaN,0.999986171723233,-0,-0.00523596443235874,0,29.6553093755436,29.6553093755436,,,39.5099999904633,28,0.122667179791832,0.17986642548334
2011-06-01T04:32:39Z,1306902759,10B,54.6578425,24.4241318,30.24,0,-0.3,217.1,-161723.94,-191740.09,218.1,Air+FixedWing,Blue,Enemies,J-11A,Blue J-11A #001,cn,=CNF=505 (端午),0,0,0,30.2399997711182,2.23999977111816,0,0,NaN,NaN,0,0,NaN,0.999981024104175,0.00125382873019811,-0.00621907842082091,0,29.6553093755436,29.6553093755436,,,40.5099999904633,28,0.122667179791832,0.17986642548334
2011-06-01T04:32:40Z,1306902760,10B,54.6578425,24.4241318,30.24,0,-0.3,217.1,-161723.92,-191740.09,218.1,Air+FixedWing,Blue,Enemies,J-11A,Blue J-11A #001,cn,=CNF=505 (端午),0.015625,0,4.59156936775547e-05,30.2399997711182,2.23999977111816,0.015625,0,NaN,NaN,0,0,NaN,0.99999131934229,-0.00125382873019811,-0.00425285044389657,1.220703125e-05,29.6553093755436,29.6553215825748,,,41.5099999904633,28,0.122667179791832,0.17986642548334
2011-06-01T04:32:41Z,1306902761,10B,54.6578425,24.4241318,30.24,0,-0.3,217.1,-161723.92,-191740.09,218.1,Air+FixedWing,Blue,Enemies,J-11A,Blue J-11A #001,cn,=CNF=505 (端午),0,0,0,30.2399997711182,2.23999977111816,0,0,NaN,NaN,0,0,NaN,0.99999131934229,-0.00125382873019811,-0.00425285044389657,0,29.6553093755436,29.6553093755436,,,42.5099999904633,28,0.122667179791832,0.17986642548334
2011-06-01T04:32:42Z,1306902762,10B,54.6578425,24.4241318,30.24,0,-0.3,217.1,-161723.94,-191740.09,218.1,Air+FixedWing,Blue,Enemies,J-11A,Blue J-11A #001,cn,=CNF=505 (端午),0.015625,0,4.59156936775547e-05,30.2399997711182,2.23999977111816,0.015625,0,NaN,NaN,0.0761903933356286,0,NaN,0.998954305257938,0.00317184977496204,-0.00719685308910356,1.220703125e-05,29.6553093755436,29.6553215825748,,,43.5099999904633,28,0.122667179791832,0.17986642548334
2011-06-01T04:32:43Z,1306902763,10B,54.6578426,24.4241317,30.23,0,-0.3,217.1,-161723.92,-191740.09,218.1,Air+FixedWing,Blue,Enemies,J-11A,Blue J-11A #001,cn,=CNF=505 (端午),0.0185511509801712,0,5.45144876662451e-05,30.2299995422363,2.22999954223633,0.015625,-0.0100002288818359,NaN,NaN,0.199987938897973,0,NaN,1.0000030319622,-0.00152452999158839,-0.00201592491735553,1.72072601344553e-05,29.6455025010872,29.6455197083473,,,44.5099999904633,28,0.136288390919286,0.196764464452738
2011-06-01T04:32:44Z,1306902764,10B,54.6578425,24.4241316,30.22,0,-0.3,217.1,-161723.94,-191740.11,218.1,Air+FixedWing,Blue,Enemies,J-11A,Blue J-11A #001,cn,=CNF=505 (端午),0.0242546042575241,0,7.12746706153392e-05,30.2199993133545,2.21999931335449,0.0220970869120796,-0.0100002288818359,NaN,NaN,0.199987938897973,0,NaN,1.00302192209961,0.000541402522780556,-0.0097258334459794,2.94142913844553e-05,29.6356956266308,29.6357250409222,,,45.5099999904633,28,0.15030610473541,0.213983719942967
2011-06-01T04:32:45Z,1306902765,10B,54.6578425,24.4241318,30.24,-0.1,-0.2,217.1,-161723.92,-191740.09,218.1,Air+FixedWing,Blue,Enemies,J-11A,Blue J-11A #001,cn,=CNF=505 (端午),0.0298043547280665,0,8.75832078048693e-05,30.2399997711182,2.23999977111816,0.0220970869120796,0.0200004577636719,NaN,NaN,0.17141042741064,0.0513960362511687,NaN,0.997962916926982,-0.00260270727562762,-0.000927068468358608,4.44149780378211e-05,29.6553093755436,29.6553537905216,,,46.5099999904633,28,0.166738983384316,0.239869244675202
2011-06-01T04:32:46Z,1306902766,10B,54.6578424,24.4241318,30.24,0,-0.2,217.1,-161723.94,-191740.09,218.1,Air+FixedWing,Blue,Enemies,J-11A,Blue J-11A #001,cn,=CNF=505 (端午),0.015625,0,4.59156936775547e-05,30.2399997711182,2.23999977111816,0.015625,0,NaN,NaN,0.199987938897973,0.0513960362511687,NaN,0.998967145172414,0.00250765746039622,-0.00545333485111114,1.220703125e-05,29.6553093755436,29.6553215825748,,,47.5099999904633,28,0.17684249102183,0.24997279973238
2011-06-01T04:32:47Z,1306902767,10B,54.6578425,24.4241318,30.23,0,-0.2,217.1,-161723.92,-191740.09,218.1,Air+FixedWing,Blue,Enemies,J-11A,Blue J-11A #001,cn,=CNF=505 (端午),0.0185511509801712,0,5.45144876662451e-05,30.2299995422363,2.22999954223633,0.015625,-0.0100002288818359,NaN,NaN,0.0666665950024384,0.0171320104161963,NaN,1.0010175163174,-0.000671461326153738,-0.00251108993943686,1.72072601344553e-05,29.6455025010872,29.6455197083473,,,48.5099999904633,28,0.186012930675097,0.263541232503325
2011-06-01T04:32:48Z,1306902768,10B,54.6578425,24.4241318,30.23,0,-0.2,217.1,-161723.92,-191740.09,218.1,Air+FixedWing,Blue,Enemies,J-11A,Blue J-11A #001,cn,=CNF=505 (端午),0,0,0,30.2299995422363,2.22999954223633,0,0,NaN,NaN,0.0761903933356286,0.0171320104161963,NaN,0.999993562699842,0.000664882431286484,-0.00349065172486007,0,29.6455025010872,29.6455025010872,,,49.5099999904633,28,0.186012930675097,0.263541232503325
2011-06-01T04:32:49Z,1306902769,10B,54.6578425,24.4241318,30.23,0,-0.2,217.1,-161723.92,-191740.09,218.1,Air+FixedWing,Blue,Enemies,J-11A,Blue J-11A #001,cn,=CNF=505 (端午),0,0,0,30.2299995422363,2.22999954223633,0,0,NaN,NaN,0.0666626462993244,0.0171320104161963,NaN,0.999997173267015,-0.00125382873019811,-0.00250753038403222,0,29.6455025010872,29.6455025010872,,,50.5099999904633,28,0.186012930675097,0.263541232503325
2011-06-01T04:32:50Z,1306902770,10B,54.6578425,24.4241318,30.23,0,-0.2,217.1,-161723.94,-191740.09,218.1,Air+FixedWing,Blue,Enemies,J-11A,Blue J-11A #001,cn,=CNF=505 (端午),0.015625,0,4.59156885033999e-05,30.2299995422363,2.22999954223633,0.015625,0,NaN,NaN,0,0.0171320104161963,NaN,0.999986878003973,0.00250765746039622,-0.00545689440651578,1.220703125e-05,29.6455025010872,29.6455147081184,,,51.5099999904633,28,0.186012930675097,0.263541232503325
2011-06-01T04:32:51Z,1306902771,10B,54.6578426,24.4241318,30.23,0,-0.2,217.1,-161723.92,-191740.09,218.1,Air+FixedWing,Blue,Enemies,J-11A,Blue J-11A #001,cn,=CNF=505 (端午),0.015625,0,4.59156885033999e-05,30.2299995422363,2.22999954223633,0.015625,0,NaN,NaN,0,0.0171320104161963,NaN,0.999997173267015,-0.00125382873019811,-0.00250753038403222,1.220703125e-05,29.6455025010872,29.6455147081184,,,52.5099999904633,28,0.196148677213515,0.273677026571969
2011-06-01T04:32:52Z,1306902772,10B,54.6578426,24.4241318,30.23,0,-0.2,217.1,-161723.92,-191740.09,218.1,Air+FixedWing,Blue,Enemies,J-11A,Blue J-11A #001,cn,=CNF=505 (端午),0,0,0,30.2299995422363,2.22999954223633,0,0,NaN,NaN,0.0651123934609299,0.0171320104161963,NaN,0.999993741512668,-0,-0.00349065172486007,0,29.6455025010872,29.6455025010872,,,53.5099999904633,28,0.201079580074371,0.278607952548728
2011-06-01T04:32:53Z,1306902773,10B,54.6578426,24.4241318,30.23,0,-0.2,217.1,-161723.92,-191740.09,218.1,Air+FixedWing,Blue,Enemies,J-11A,Blue J-11A #001,cn,=CNF=505 (端午),0,0,0,30.2299995422363,2.22999954223633,0,0,NaN,NaN,0,0.0171320104161963,NaN,0.999993741512668,-0,-0.00349065172486007,0,29.6455025010872,29.6455025010872,,,54.5099999904633,28,0.203015829362851,0.280544211147123
2011-06-01T04:32:54Z,1306902774,10B,54.6578425,24.4241318,30.23,0.1,-0.2,217.1,-161723.92,-191740.09,218.1,Air+FixedWing,Blue,Enemies,J-11A,Blue J-11A #001,cn,=CNF=505 (端午),0,0,0,30.2299995422363,2.22999954223633,0,0,NaN,NaN,0.20000001179094,0.0171320104161963,NaN,0.999992251405786,0.00174531760448032,-0.00349065172486007,0,29.6455025010872,29.6455025010872,,,55.5099999904633,28,0.21015692232889,0.287685337837403
2011-06-01T04:32:55Z,1306902775,10B,54.6578425,24.4241318,30.23,0.1,-0.2,217.1,-161723.92,-191740.09,218.1,Air+FixedWing,Blue,Enemies,J-11A,Blue J-11A #001,cn,=CNF=505 (端午),0,0,0,30.2299995422363,2.22999954223633,0,0,NaN,NaN,0,0.0171320104161963,NaN,0.999992251405786,0.00174531760448032,-0.00349065172486007,0,29.6455025010872,29.6455025010872,,,56.5099999904633,28,0.210639575201699,0.288167992768324
2011-06-01T04:32:56Z,1306902776,10B,54.6578425,24.4241318,30.23,0,-0.2,217.1,-161723.92,-191740.09,218.1,Air+FixedWing,Blue,Enemies,J-11A,Blue J-11A #001,cn,=CNF=505 (端午),0,0,0,30.2299995422363,2.22999954223633,0,0,NaN,NaN,0.0898852894773678,0.0171320104161963,NaN,0.999993741512668,-0,-0.00349065172486007,0,29.6455025010872,29.6455025010872,,,57.5099999904633,28,0.211122228074508,0.288650647699245
2011-06-01T04:32:57Z,1306902777,10B,54.6578426,24.4241318,30.23,0,-0.2,217.1,-161723.92,-191740.09,218.1,Air+FixedWing,Blue,Enemies,J-11A,Blue J-11A #001,cn,=CNF=505 (端午),0,0,0,30.2299995422363,2.22999954223633,0,0,NaN,NaN,0,0.0171320104161963,NaN,0.999993741512668,-0,-0.00349065172486007,0,29.6455025010872,29.6455025010872,,,58.5099999904633,28,0.218800825243116,0.296329281188937
2011-06-01T04:32:58Z,1306902778,10B,54.6578425,24.4241318,30.23,0.1,-0.2,217.1,-161723.92,-191740.09,218.1,Air+FixedWing,Blue,Enemies,J-11A,Blue J-11A #001,cn,=CNF=505 (端午),0,0,0,30.2299995422363,2.22999954223633,0,0,NaN,NaN,0.0686513652659221,0.0171320104161963,NaN,0.99999308586564,0.00119993953327924,-0.00349065172486007,0,29.6455025010872,29.6455025010872,,,59.5099999904633,28,0.226479422411723,0.304007914678629
2011-06-01T04:32:59Z,1306902779,10B,54.6578426,24.4241318,30.23,0,-0.2,217.1,-161723.92,-191740.09,218.1,Air+FixedWing,Blue,Enemies,J-11A,Blue J-11A #001,cn,=CNF=505 (端午),0,0,0,30.2299995422363,2.22999954223633,0,0,NaN,NaN,0,0.0171320104161963,NaN,0.999993741512668,-0,-0.00349065172486007,0,29.6455025010872,29.6455025010872,,,60.5099999904633,28,0.236615168950141,0.314143708747274
2011-06-01T04:33:00Z,1306902780,10B,54.6578426,24.4241318,30.23,0,-0.2,217.1,-161723.92,-191740.09,218.1,Air+FixedWing,Blue,Enemies,J-11A,Blue J-11A #001,cn,=CNF=505 (端午),0,0,0,30.2299995422363,2.22999954223633,0,0,NaN,NaN,0,0.0171320104161963,NaN,0.999993741512668,-0,-0.00349065172486007,0,29.6455025010872,29.6455025010872,,,61.5099999904633,28,0.236647286966679,0.314175827143658
2011-06-01T04:33:01Z,1306902781,10B,54.6578426,24.4241318,30.23,0,-0.2,217.1,-161723.92,-191740.09,218.1,Air+FixedWing,Blue,Enemies,J-11A,Blue J-11A #001,cn,=CNF=505 (端午),0,0,0,30.2299995422363,2.22999954223633,0,0,NaN,NaN,0,0.0171320104161963,NaN,0.999993741512668,-0,-0.00349065172486007,0,29.6455025010872,29.6455025010872,,,62.5099999904633,28,0.236679408339752,0.314207947978011
2011-06-01T04:33:02Z,1306902782,10B,54.6578426,24.4241318,30.23,0,-0.2,217.1,-161723.92,-191740.09,218.1,Air+FixedWing,Blue,Enemies,J-11A,Blue J-11A #001,cn,=CNF=505 (端午),0,0,0,30.2299995422363,2.22999954223633,0,0,NaN,NaN,0,0.0171320104161963,NaN,0.999993741512668,-0,-0.00349065172486007,0,29.6455025010872,29.6455025010872,,,63.5099999904633,28,0.236711526736137,0.314240066374396
2011-06-01T04:33:03Z,1306902783,10B,54.6578426,24.4241318,30.23,0,-0.2,217.1,-161723.92,-191740.09,218.1,Air+FixedWing,Blue,Enemies,J-11A,Blue J-11A #001,cn,=CNF=505 (端午),0,0,0,30.2299995422363,2.22999954223633,0,0,NaN,NaN,0,0.0171320104161963,NaN,0.999993741512668,-0,-0.00349065172486007,0,29.6455025010872,29.6455025010872,,,64.5099999904633,28,0.236743646051098,0.314272185689357
2011-06-01T04:33:04Z,1306902784,10B,54.6578426,24.4241318,30.23,0,-0.2,217.1,-161723.92,-191740.09,218.1,Air+FixedWing,Blue,Enemies,J-11A,Blue J-11A #001,cn,=CNF=505 (端午),0,0,0,30.2299995422363,2.22999954223633,0,0,NaN,NaN,0,0.0171320104161963,NaN,0.999993741512668,-0,-0.00349065172486007,0,29.6455025010872,29.6455025010872,,,65.5099999904633,28,0.236775764067636,0.314304304085742
2011-06-01T04:33:05Z,1306902785,10B,54.6578426,24.4241318,30.23,0,-0.2,217.1,-161723.92,-191740.09,218.1,Air+FixedWing,Blue,Enemies,J-11A,Blue J-11A #001,cn,=CNF=505 (端午),0,0,0,30.2299995422363,2.22999954223633,0,0,NaN,NaN,0,0.0171320104161963,NaN,0.999993741512668,-0,-0.00349065172486007,0,29.6455025010872,29.6455025010872,,,66.5099999904633,28,0.23680788284387,0.314336423400703
2011-06-01T04:33:06Z,1306902786,10B,54.6578426,24.4241318,30.23,0,-0.2,217.1,-161723.92,-191740.09,218.1,Air+FixedWing,Blue,Enemies,J-11A,Blue J-11A #001,cn,=CNF=505 (端午),0,0,0,30.2299995422363,2.22999954223633,0,0,NaN,NaN,0,0.0171320104161963,NaN,0.999993741512668,-0,-0.00349065172486007,0,29.6455025010872,29.6455025010872,,,67.5099999904633,28,0.236840001620103,0.314368542176936
2011-06-01T04:33:07Z,1306902787,10B,54.6578426,24.4241318,30.23,0,-0.2,217.1,-161723.92,-191740.09,218.1,Air+FixedWing,Blue,Enemies,J-11A,Blue J-11A #001,cn,=CNF=505 (端午),0,0,0,30.2299995422363,2.22999954223633,0,0,NaN,NaN,0,0.0171320104161963,NaN,0.999993741512668,-0,-0.00349065172486007,0,29.6455025010872,29.6455025010872,,,68.5099999904633,28,0.236872120175382,0.314400661112055
2011-06-01T04:33:08Z,1306902788,10B,54.6578426,24.4241318,30.23,0,-0.2,217.1,-161723.92,-191740.09,218.1,Air+FixedWing,Blue,Enemies,J-11A,Blue J-11A #001,cn,=CNF=505 (端午),0,0,0,30.2299995422363,2.22999954223633,0,0,NaN,NaN,0,0.0171320104161963,NaN,0.999993741512668,-0,-0.00349065172486007,0,29.6455025010872,29.6455025010872,,,69.5099999904633,28,0.236904239490343,0.314432780427017
2011-06-01T04:33:09Z,1306902789,10B,54.6578426,24.4241318,30.23,0,-0.2,217.1,-161723.92,-191740.09,218.1,Air+FixedWing,Blue,Enemies,J-11A,Blue J-11A #001,cn,=CNF=505 (端午),0,0,0,30.2299995422363,2.22999954223633,0,0,NaN,NaN,0,0.0171320104161963,NaN,0.999993741512668,-0,-0.00349065172486007,0,29.6455025010872,29.6455025010872,,,70.5099999904633,28,0.236936357886728,0.314464898823401
2011-06-01T04:33:10Z,1306902790,10B,54.6578426,24.4241318,30.23,0,-0.2,217.1,-161723.92,-191740.09,218.1,Air+FixedWing,Blue,Enemies,J-11A,Blue J-11A #001,cn,=CNF=505 (端午),0,0,0,30.2299995422363,2.22999954223633,0,0,NaN,NaN,0,0.0171320104161963,NaN,0.999993741512668,-0,-0.00349065172486007,0,29.6455025010872,29.6455025010872,,,71.5099999904633,28,0.236968476821847,0.314497018138363
2011-06-01T04:33:11Z,1306902791,10B,54.6578426,24.4241318,30.23,0,-0.2,217.1,-161723.92,-191740.09,218.1,Air+FixedWing,Blue,Enemies,J-11A,Blue J-11A #001,cn,=CNF=505 (端午),0,0,0,30.2299995422363,2.22999954223633,0,0,NaN,NaN,0,0.0171320104161963,NaN,0.999993741512668,-0,-0.00349065172486007,0,29.6455025010872,29.6455025010872,,,72.5099999904633,28,0.237000596737639,0.314529138592864
2011-06-01T04:33:12Z,1306902792,10B,54.6578426,24.4241318,30.23,0,-0.2,217.1,-161723.92,-191740.09,218.1,Air+FixedWing,Blue,Enemies,J-11A,Blue J-11A #001,cn,=CNF=505 (端午),0,0,0,30.2299995422363,2.22999954223633,0,0,NaN,NaN,0,0.0171320104161963,NaN,0.999993741512668,-0,-0.00349065172486007,0,29.6455025010872,29.6455025010872,,,73.5099999904633,28,0.237032715513873,0.314561257369098
2011-06-01T04:33:13Z,1306902793,10B,54.6578426,24.4241318,30.23,0,-0.2,217.1,-161723.92,-191740.09,218.1,Air+FixedWing,Blue,Enemies,J-11A,Blue J-11A #001,cn,=CNF=505 (端午),0,0,0,30.2299995422363,2.22999954223633,0,0,NaN,NaN,0,0.0171320104161963,NaN,0.999993741512668,-0,-0.00349065172486007,0,29.6455025010872,29.6455025010872,,,74.5099999904633,28,0.237064834069152,0.314593376304217
2011-06-01T04:33:14Z,1306902794,10B,54.6578426,24.4241318,30.23,0,-0.2,217.1,-161723.92,-191740.09,218.1,Air+FixedWing,Blue,Enemies,J-11A,Blue J-11A #001,cn,=CNF=505 (端午),0,0,0,30.2299995422363,2.22999954223633,0,0,NaN,NaN,0,0.0171320104161963,NaN,0.999993741512668,-0,-0.00349065172486007,0,29.6455025010872,29.6455025010872,,,75.5099999904633,28,0.237096952845385,0.31462549508045
2011-06-01T04:33:15Z,1306902795,10B,54.6578426,24.4241318,30.23,0,-0.2,217.1,-161723.92,-191740.09,218.1,Air+FixedWing,Blue,Enemies,J-11A,Blue J-11A #001,cn,=CNF=505 (端午),0,0,0,30.2299995422363,2.22999954223633,0,0,NaN,NaN,0,0.0171320104161963,NaN,0.999993741512668,-0,-0.00349065172486007,0,29.6455025010872,29.6455025010872,,,76.5099999904633,28,0.237129071780504,0.314657613635729
2011-06-01T04:33:16Z,1306902796,10B,54.6578426,24.4241318,30.23,0,-0.2,217.1,-161723.92,-191740.09,218.1,Air+FixedWing,Blue,Enemies,J-11A,Blue J-11A #001,cn,=CNF=505 (端午),0,0,0,30.2299995422363,2.22999954223633,0,0,NaN,NaN,0,0.0171320104161963,NaN,0.999993741512668,-0,-0.00349065172486007,0,29.6455025010872,29.6455025010872,,,77.5099999904633,28,0.237161191095465,0.314689733330535
2011-06-01T04:33:17Z,1306902797,10B,54.6578426,24.4241318,30.23,0,-0.2,217.1,-161723.92,-191740.09,218.1,Air+FixedWing,Blue,Enemies,J-11A,Blue J-11A #001,cn,=CNF=505 (端午),0,0,0,30.2299995422363,2.22999954223633,0,0,NaN,NaN,0,0.0171320104161963,NaN,0.999993741512668,-0,-0.00349065172486007,0,29.6455025010872,29.6455025010872,,,78.5099999904633,28,0.237193309112003,0.314721851347073
2011-06-01T04:33:18Z,1306902798,10B,54.6578426,24.4241318,30.23,0,-0.2,217.1,-161723.92,-191740.09,218.1,Air+FixedWing,Blue,Enemies,J-11A,Blue J-11A #001,cn,=CNF=505 (端午),0,0,0,30.2299995422363,2.22999954223633,0,0,NaN,NaN,0,0.0171320104161963,NaN,0.999993741512668,-0,-0.00349065172486007,0,29.6455025010872,29.6455025010872,,,79.5099999904633,28,0.237225428426965,0.314753970662034
2011-06-01T04:33:19Z,1306902799,10B,54.6578426,24.4241318,30.23,0,-0.2,217.1,-161723.92,-191740.09,218.1,Air+FixedWing,Blue,Enemies,J-11A,Blue J-11A #001,cn,=CNF=505 (端午),0,0,0,30.2299995422363,2.22999954223633,0,0,NaN,NaN,0,0.0171320104161963,NaN,0.999993741512668,-0,-0.00349065172486007,0,29.6455025010872,29.6455025010872,,,80.5099999904633,28,0.237257546443503,0.314786089058419
2011-06-01T04:33:20Z,1306902800,10B,54.6578426,24.4241318,30.23,0,-0.2,217.1,-161723.92,-191740.09,218.1,Air+FixedWing,Blue,Enemies,J-11A,Blue J-11A #001,cn,=CNF=505 (端午),0,0,0,30.2299995422363,2.22999954223633,0,0,NaN,NaN,0,0.0171320104161963,NaN,0.999993741512668,-0,-0.00349065172486007,0,29.6455025010872,29.6455025010872,,,81.5099999904633,28,0.237289665219736,0.31481820837338
2011-06-01T04:33:21Z,1306902801,10B,54.6578426,24.4241318,30.23,0,-0.2,217.1,-161723.92,-191740.09,218.1,Air+FixedWing,Blue,Enemies,J-11A,Blue J-11A #001,cn,=CNF=505 (端午),0,0,0,30.2299995422363,2.22999954223633,0,0,NaN,NaN,0,0.0171320104161963,NaN,0.999993741512668,-0,-0.00349065172486007,0,29.6455025010872,29.6455025010872,,,82.5099999904633,28,0.237321784534697,0.314850327149613
2011-06-01T04:33:22Z,1306902802,10B,54.6578426,24.4241318,30.23,0,-0.2,217.1,-161723.92,-191740.09,218.1,Air+FixedWing,Blue,Enemies,J-11A,Blue J-11A #001,cn,=CNF=505 (端午),0,0,0,30.2299995422363,2.22999954223633,0,0,NaN,NaN,0,0.0171320104161963,NaN,0.999993741512668,-0,-0.00349065172486007,0,29.6455025010872,29.6455025010872,,,83.5099999904633,28,0.237353903089976,0.314882446084732
2011-06-01T04:33:23Z,1306902803,10B,54.6578426,24.4241318,30.23,0,-0.2,217.1,-161723.92,-191740.09,218.1,Air+FixedWing,Blue,Enemies,J-11A,Blue J-11A #001,cn,=CNF=505 (端午),0,0,0,30.2299995422363,2.22999954223633,0,0,NaN,NaN,0,0.0171320104161963,NaN,0.999993741512668,-0,-0.00349065172486007,0,29.6455025010872,29.6455025010872,,,84.5099999904633,28,0.23738602186621,0.314914564860966
2011-06-01T04:33:24Z,1306902804,10B,54.6578426,24.4241318,30.23,0,-0.2,217.1,-161723.92,-191740.09,218.1,Air+FixedWing,Blue,Enemies,J-11A,Blue J-11A #001,cn,=CNF=505 (端午),0,0,0,30.2299995422363,2.22999954223633,0,0,NaN,NaN,0,0.0171320104161963,NaN,0.999993741512668,-0,-0.00349065172486007,0,29.6455025010872,29.6455025010872,,,85.5099999904633,28,0.237418140801329,0.314946683796085
2011-06-01T04:33:25Z,1306902805,10B,54.6578426,24.4241318,30.23,0,-0.2,217.1,-161723.92,-191740.09,218.1,Air+FixedWing,Blue,Enemies,J-11A,Blue J-11A #001,cn,=CNF=505 (端午),0,0,0,30.2299995422363,2.22999954223633,0,0,NaN,NaN,0,0.0171320104161963,NaN,0.999993741512668,-0,-0.00349065172486007,0,29.6455025010872,29.6455025010872,,,86.5099999904633,28,0.237450259577562,0.314978803111046
2011-06-01T04:33:26Z,1306902806,10B,54.6578426,24.4241318,30.23,0,-0.2,217.1,-161723.92,-191740.09,218.1,Air+FixedWing,Blue,Enemies,J-11A,Blue J-11A #001,cn,=CNF=505 (端午),0,0,0,30.2299995422363,2.22999954223633,0,0,NaN,NaN,0,0.0171320104161963,NaN,0.999993741512668,-0,-0.00349065172486007,0,29.6455025010872,29.6455025010872,,,87.5099999904633,28,0.2374823775941,0.315010921507431
2011-06-01T04:33:27Z,1306902807,10B,54.6578426,24.4241318,30.23,0,-0.2,217.1,-161723.92,-191740.09,218.1,Air+FixedWing,Blue,Enemies,J-11A,Blue J-11A #001,cn,=CNF=505 (端午),0,0,0,30.2299995422363,2.22999954223633,0,0,NaN,NaN,0,0.0171320104161963,NaN,0.999993741512668,-0,-0.00349065172486007,0,29.6455025010872,29.6455025010872,,,88.5099999904633,28,0.237514496909061,0.315043040822392
2011-06-01T04:33:28Z,1306902808,10B,54.6578426,24.4241318,30.23,0,-0.2,217.1,-161723.92,-191740.09,218.1,Air+FixedWing,Blue,Enemies,J-11A,Blue J-11A #001,cn,=CNF=505 (端午),0,0,0,30.2299995422363,2.22999954223633,0,0,NaN,NaN,0,0.0171320104161963,NaN,0.999993741512668,-0,-0.00349065172486007,0,29.6455025010872,29.6455025010872,,,89.5099999904633,28,0.237546617363563,0.315075161276894
2011-06-01T04:33:29Z,1306902809,10B,54.6578426,24.4241318,30.23,0,-0.2,217.1,-161723.92,-191740.09,218.1,Air+FixedWing,Blue,Enemies,J-11A,Blue J-11A #001,cn,=CNF=505 (端午),0,0,0,30.2299995422363,2.22999954223633,0,0,NaN,NaN,0,0.0171320104161963,NaN,0.999993741512668,-0,-0.00349065172486007,0,29.6455025010872,29.6455025010872,,,90.5099999904633,28,0.237578735759948,0.315107280053127
2011-06-01T04:33:30Z,1306902810,10B,54.6578426,24.4241318,30.23,0,-0.2,217.1,-161723.92,-191740.09,218.1,Air+FixedWing,Blue,Enemies,J-11A,Blue J-11A #001,cn,=CNF=505 (端午),0,0,0,30.2299995422363,2.22999954223633,0,0,NaN,NaN,0,0.0171320104161963,NaN,0.999993741512668,-0,-0.00349065172486007,0,29.6455025010872,29.6455025010872,,,91.5099999904633,28,0.237610854695067,0.315139398988246
2011-06-01T04:33:31Z,1306902811,10B,54.6578426,24.4241318,30.23,0,-0.2,217.1,-161723.92,-191740.09,218.1,Air+FixedWing,Blue,Enemies,J-11A,Blue J-11A #001,cn,=CNF=505 (端午),0,0,0,30.2299995422363,2.22999954223633,0,0,NaN,NaN,0,0.0171320104161963,NaN,0.999993741512668,-0,-0.00349065172486007,0,29.6455025010872,29.6455025010872,,,92.5099999904633,28,0.2376429734713,0.315171517764479
2011-06-01T04:33:32Z,1306902812,10B,54.6578426,24.4241318,30.23,0,-0.2,217.1,-161723.92,-191740.09,218.1,Air+FixedWing,Blue,Enemies,J-11A,Blue J-11A #001,cn,=CNF=505 (端午),0,0,0,30.2299995422363,2.22999954223633,0,0,NaN,NaN,0,0.0171320104161963,NaN,0.999993741512668,-0,-0.00349065172486007,0,29.6455025010872,29.6455025010872,,,93.5099999904633,28,0.237675091487838,0.315203636319758
2011-06-01T04:33:33Z,1306902813,10B,54.6578426,24.4241318,30.23,0,-0.2,217.1,-161723.92,-191740.09,218.1,Air+FixedWing,Blue,Enemies,J-11A,Blue J-11A #001,cn,=CNF=505 (端午),0,0,0,30.2299995422363,2.22999954223633,0,0,NaN,NaN,0,0.0171320104161963,NaN,0.999993741512668,-0,-0.00349065172486007,0,29.6455025010872,29.6455025010872,,,94.5099999904633,28,0.237707210802799,0.315235756014564
2011-06-01T04:33:34Z,1306902814,10B,54.6578426,24.4241318,30.23,0,-0.2,217.1,-161723.92,-191740.09,218.1,Air+FixedWing,Blue,Enemies,J-11A,Blue J-11A #001,cn,=CNF=505 (端午),0,0,0,30.2299995422363,2.22999954223633,0,0,NaN,NaN,0,0.0171320104161963,NaN,0.999993741512668,-0,-0.00349065172486007,0,29.6455025010872,29.6455025010872,,,95.5099999904633,28,0.237739329579033,0.315267874790797
2011-06-01T04:33:35Z,1306902815,10B,54.6578426,24.4241318,30.23,0,-0.2,217.1,-161723.92,-191740.09,218.1,Air+FixedWing,Blue,Enemies,J-11A,Blue J-11A #001,cn,=CNF=505 (端午),0,0,0,30.2299995422363,2.22999954223633,0,0,NaN,NaN,0,0.0171320104161963,NaN,0.999993741512668,-0,-0.00349065172486007,0,29.6455025010872,29.6455025010872,,,96.5099999904633,28,0.237771448134312,0.315299993346076
2011-06-01T04:33:36Z,1306902816,10B,54.6578426,24.4241318,30.23,0,-0.2,217.1,-161723.92,-191740.09,218.1,Air+FixedWing,Blue,Enemies,J-11A,Blue J-11A #001,cn,=CNF=505 (端午),0,0,0,30.2299995422363,2.22999954223633,0,0,NaN,NaN,0,0.0171320104161963,NaN,0.999993741512668,-0,-0.00349065172486007,0,29.6455025010872,29.6455025010872,,,97.5099999904633,28,0.237803567449273,0.31533211250216
2011-06-01T04:33:37Z,1306902817,10B,54.6578426,24.4241318,30.23,0,-0.2,217.1,-161723.92,-191740.09,218.1,Air+FixedWing,Blue,Enemies,J-11A,Blue J-11A #001,cn,=CNF=505 (端午),0,0,0,30.2299995422363,2.22999954223633,0,0,NaN,NaN,0,0.0171320104161963,NaN,0.999993741512668,-0,-0.00349065172486007,0,29.6455025010872,29.6455025010872,,,98.5099999904633,28,0.237835685845658,0.315364231057439
2011-06-01T04:33:38Z,1306902818,10B,54.6578426,24.4241318,30.23,0,-0.2,217.1,-161723.92,-191740.09,218.1,Air+FixedWing,Blue,Enemies,J-11A,Blue J-11A #001,cn,=CNF=505 (端午),0,0,0,30.2299995422363,2.22999954223633,0,0,NaN,NaN,0,0.0171320104161963,NaN,0.999993741512668,-0,-0.00349065172486007,0,29.6455025010872,29.6455025010872,,,99.5099999904633,28,0.237867804242042,0.315396349833673
2011-06-01T04:33:39Z,1306902819,10B,54.6578426,24.4241318,30.23,0,-0.2,217.1,-161723.92,-191740.09,218.1,Air+FixedWing,Blue,Enemies,J-11A,Blue J-11A #001,cn,=CNF=505 (端午),0,0,0,30.2299995422363,2.22999954223633,0,0,NaN,NaN,0,0.0171320104161963,NaN,0.999993741512668,-0,-0.00349065172486007,0,29.6455025010872,29.6455025010872,,,100.509999990463,28,0.237899924696544,0.315428470288174
2011-06-01T04:33:40Z,1306902820,10B,54.6578426,24.4241318,30.23,0,-0.2,217.1,-161723.92,-191740.09,218.1,Air+FixedWing,Blue,Enemies,J-11A,Blue J-11A #001,cn,=CNF=505 (端午),0,0,0,30.2299995422363,2.22999954223633,0,0,NaN,NaN,0,0.0171320104161963,NaN,0.999993741512668,-0,-0.00349065172486007,0,29.6455025010872,29.6455025010872,,,101.509999990463,28,0.237932043472777,0.315460589064408
2011-06-01T04:33:41Z,1306902821,10B,54.6578426,24.4241318,30.23,0,-0.2,217.1,-161723.92,-191740.09,218.1,Air+FixedWing,Blue,Enemies,J-11A,Blue J-11A #001,cn,=CNF=505 (端午),0,0,0,30.2299995422363,2.22999954223633,0,0,NaN,NaN,0,0.0171320104161963,NaN,0.999993741512668,-0,-0.00349065172486007,0,29.6455025010872,29.6455025010872,,,102.509999990463,28,0.237964161489315,0.315492707999527
2011-06-01T04:33:42Z,1306902822,10B,54.6578426,24.4241318,30.23,0,-0.2,217.1,-161723.92,-191740.09,218.1,Air+FixedWing,Blue,Enemies,J-11A,Blue J-11A #001,cn,=CNF=505 (端午),0,0,0,30.2299995422363,2.22999954223633,0,0,NaN,NaN,0,0.0171320104161963,NaN,0.999993741512668,-0,-0.00349065172486007,0,29.6455025010872,29.6455025010872,,,103.509999990463,28,0.237996281343023,0.315524827314488
2011-06-01T04:33:43Z,1306902823,10B,54.6578426,24.4241318,30.23,0,-0.2,217.1,-161723.92,-191740.09,218.1,Air+FixedWing,Blue,Enemies,J-11A,Blue J-11A #001,cn,=CNF=505 (端午),0,0,0,30.2299995422363,2.22999954223633,0,0,NaN,NaN,0,0.0171320104161963,NaN,0.999993741512668,-0,-0.00349065172486007,0,29.6455025010872,29.6455025010872,,,104.509999990463,28,0.238028400119256,0.315556946090721
2011-06-01T04:33:44Z,1306902824,10B,54.6578426,24.4241318,30.23,0,-0.2,217.1,-161723.92,-191740.09,218.1,Air+FixedWing,Blue,Enemies,J-11A,Blue J-11A #001,cn,=CNF=505 (端午),0,0,0,30.2299995422363,2.22999954223633,0,0,NaN,NaN,0,0.0171320104161963,NaN,0.999993741512668,-0,-0.00349065172486007,0,29.6455025010872,29.6455025010872,,,105.509999990463,28,0.23806051851564,0.315589064487106
2011-06-01T04:33:45Z,1306902825,10B,54.6578426,24.4241318,30.23,0,-0.2,217.1,-161723.92,-191740.09,218.1,Air+FixedWing,Blue,Enemies,J-11A,Blue J-11A #001,cn,=CNF=505 (端午),0,0,0,30.2299995422363,2.22999954223633,0,0,NaN,NaN,0,0.0171320104161963,NaN,0.999993741512668,-0,-0.00349065172486007,0,29.6455025010872,29.6455025010872,,,106.509999990463,28,0.238092637070919,0.315621183960977
2011-06-01T04:33:46Z,1306902826,10B,54.6578426,24.4241318,30.23,0,-0.2,217.1,-161723.92,-191740.09,218.1,Air+FixedWing,Blue,Enemies,J-11A,Blue J-11A #001,cn,=CNF=505 (端午),0,0,0,30.2299995422363,2.22999954223633,0,0,NaN,NaN,0,0.0171320104161963,NaN,0.999993741512668,-0,-0.00349065172486007,0,29.6455025010872,29.6455025010872,,,107.509999990463,28,0.238124755847153,0.31565330273721
2011-06-01T04:33:47Z,1306902827,10B,54.6578426,24.4241318,30.23,0,-0.2,217.1,-161723.92,-191740.09,218.1,Air+FixedWing,Blue,Enemies,J-11A,Blue J-11A #001,cn,=CNF=505 (端午),0,0,0,30.2299995422363,2.22999954223633,0,0,NaN,NaN,0,0.0171320104161963,NaN,0.999993741512668,-0,-0.00349065172486007,0,29.6455025010872,29.6455025010872,,,108.509999990463,28,0.238156874623386,0.315685421513444
2011-06-01T04:33:48Z,1306902828,10B,54.6578426,24.4241318,30.23,0,-0.2,217.1,-161723.92,-191740.09,218.1,Air+FixedWing,Blue,Enemies,J-11A,Blue J-11A #001,cn,=CNF=505 (端午),0,0,0,30.2299995422363,2.22999954223633,0,0,NaN,NaN,0,0.0171320104161963,NaN,0.999993741512668,-0,-0.00349065172486007,0,29.6455025010872,29.6455025010872,,,109.509999990463,28,0.238188993178665,0.315717540448563
2011-06-01T04:33:49Z,1306902829,10B,54.6578426,24.4241318,30.23,0,-0.2,217.1,-161723.92,-191740.09,218.1,Air+FixedWing,Blue,Enemies,J-11A,Blue J-11A #001,cn,=CNF=505 (端午),0,0,0,30.2299995422363,2.22999954223633,0,0,NaN,NaN,0,0.0171320104161963,NaN,0.999993741512668,-0,-0.00349065172486007,0,29.6455025010872,29.6455025010872,,,110.509999990463,28,0.238221112493626,0.315749659763524
2011-06-01T04:33:50Z,1306902830,10B,54.6578426,24.4241318,30.23,0,-0.2,217.1,-161723.92,-191740.09,218.1,Air+FixedWing,Blue,Enemies,J-11A,Blue J-11A #001,cn,=CNF=505 (端午),0,0,0,30.2299995422363,2.22999954223633,0,0,NaN,NaN,0,0.0171320104161963,NaN,0.999993741512668,-0,-0.00349065172486007,0,29.6455025010872,29.6455025010872,,,111.509999990463,28,0.238253230510164,0.315781778159909
2011-06-01T04:33:51Z,1306902831,10B,54.6578426,24.4241318,30.23,0,-0.2,217.1,-161723.92,-191740.09,218.1,Air+FixedWing,Blue,Enemies,J-11A,Blue J-11A #001,cn,=CNF=505 (端午),0,0,0,30.2299995422363,2.22999954223633,0,0,NaN,NaN,0,0.0171320104161963,NaN,0.999993741512668,-0,-0.00349065172486007,0,29.6455025010872,29.6455025010872,,,112.509999990463,28,0.238285349825126,0.31581389747487
2011-06-01T04:33:52Z,1306902832,10B,54.6578426,24.4241318,30.23,0,-0.2,217.1,-161723.92,-191740.09,218.1,Air+FixedWing,Blue,Enemies,J-11A,Blue J-11A #001,cn,=CNF=505 (端午),0,0,0,30.2299995422363,2.22999954223633,0,0,NaN,NaN,0,0.0171320104161963,NaN,0.999993741512668,-0,-0.00349065172486007,0,29.6455025010872,29.6455025010872,,,113.509999990463,28,0.23831746822151,0.315846016030149
2011-06-01T04:33:53Z,1306902833,10B,54.6578426,24.4241318,30.23,0,-0.2,217.1,-161723.92,-191740.09,218.1,Air+FixedWing,Blue,Enemies,J-11A,Blue J-11A #001,cn,=CNF=505 (端午),0,0,0,30.2299995422363,2.22999954223633,0,0,NaN,NaN,0,0.0171320104161963,NaN,0.999993741512668,-0,-0.00349065172486007,0,29.6455025010872,29.6455025010872,,,114.509999990463,28,0.238349586997744,0.315878135186233
2011-06-01T04:33:54Z,1306902834,10B,54.6578426,24.4241318,30.23,0,-0.2,217.1,-161723.92,-191740.09,218.1,Air+FixedWing,Blue,Enemies,J-11A,Blue J-11A #001,cn,=CNF=505 (端午),0,0,0,30.2299995422363,2.22999954223633,0,0,NaN,NaN,0,0.0171320104161963,NaN,0.999993741512668,-0,-0.00349065172486007,0,29.6455025010872,29.6455025010872,,,115.509999990463,28,0.238381705553023,0.315910253741512
2011-06-01T04:33:55Z,1306902835,10B,54.6578426,24.4241318,30.23,0,-0.2,217.1,-161723.92,-191740.09,218.1,Air+FixedWing,Blue,Enemies,J-11A,Blue J-11A #001,cn,=CNF=505 (端午),0,0,0,30.2299995422363,2.22999954223633,0,0,NaN,NaN,0,0.0171320104161963,NaN,0.999993741512668,-0,-0.00349065172486007,0,29.6455025010872,29.6455025010872,,,116.509999990463,28,0.238413824329256,0.315942372517745
2011-06-01T04:33:56Z,1306902836,10B,54.6578426,24.4241318,30.23,0,-0.2,217.1,-161723.92,-191740.09,218.1,Air+FixedWing,Blue,Enemies,J-11A,Blue J-11A #001,cn,=CNF=505 (端午),0,0,0,30.2299995422363,2.22999954223633,0,0,NaN,NaN,0,0.0171320104161963,NaN,0.999993741512668,-0,-0.00349065172486007,0,29.6455025010872,29.6455025010872,,,117.509999990463,28,0.238445944403908,0.315974492972247
2011-06-01T04:33:57Z,1306902837,10B,54.6578426,24.4241318,30.23,0,-0.2,217.1,-161723.92,-191740.09,218.1,Air+FixedWing,Blue,Enemies,J-11A,Blue J-11A #001,cn,=CNF=505 (端午),0,0,0,30.2299995422363,2.22999954223633,0,0,NaN,NaN,0,0.0171320104161963,NaN,0.999993741512668,-0,-0.00349065172486007,0,29.6455025010872,29.6455025010872,,,118.509999990463,28,0.23847806371887,0.31600661174848
2011-06-01T04:33:58Z,1306902838,10B,54.6578426,24.4241318,30.23,0,-0.2,217.1,-161723.92,-191740.09,218.1,Air+FixedWing,Blue,Enemies,J-11A,Blue J-11A #001,cn,=CNF=505 (端午),0,0,0,30.2299995422363,2.22999954223633,0,0,NaN,NaN,0,0.0171320104161963,NaN,0.999993741512668,-0,-0.00349065172486007,0,29.6455025010872,29.6455025010872,,,119.509999990463,28,0.238510182495103,0.316038731063442
2011-06-01T04:33:59Z,1306902839,10B,54.6578426,24.4241318,30.23,0,-0.2,217.1,-161723.92,-191740.09,218.1,Air+FixedWing,Blue,Enemies,J-11A,Blue J-11A #001,cn,=CNF=505 (端午),0,0,0,30.2299995422363,2.22999954223633,0,0,NaN,NaN,0,0.0171320104161963,NaN,0.999993741512668,-0,-0.00349065172486007,0,29.6455025010872,29.6455025010872,,,120.509999990463,28,0.238542300891488,0.316070849459826
2011-06-01T04:34:00Z,1306902840,10B,54.6578426,24.4241318,30.23,0,-0.2,217.1,-161723.92,-191740.09,218.1,Air+FixedWing,Blue,Enemies,J-11A,Blue J-11A #001,cn,=CNF=505 (端午),0,0,0,30.2299995422363,2.22999954223633,0,0,NaN,NaN,0,0.0171320104161963,NaN,0.999993741512668,-0,-0.00349065172486007,0,29.6455025010872,29.6455025010872,,,121.509999990463,28,0.238574419446767,0.316102968394945
2011-06-01T04:34:01Z,1306902841,10B,54.6578426,24.4241318,30.23,0,-0.2,217.1,-161723.92,-191740.09,218.1,Air+FixedWing,Blue,Enemies,J-11A,Blue J-11A #001,cn,=CNF=505 (端午),0,0,0,30.2299995422363,2.22999954223633,0,0,NaN,NaN,0,0.0171320104161963,NaN,0.999993741512668,-0,-0.00349065172486007,0,29.6455025010872,29.6455025010872,,,122.509999990463,28,0.238606538223,0.316135087171178
2011-06-01T04:34:02Z,1306902842,10B,54.6578426,24.4241318,30.23,0,-0.2,217.1,-161723.92,-191740.09,218.1,Air+FixedWing,Blue,Enemies,J-11A,Blue J-11A #001,cn,=CNF=505 (端午),0,0,0,30.2299995422363,2.22999954223633,0,0,NaN,NaN,0,0.0171320104161963,NaN,0.999993741512668,-0,-0.00349065172486007,0,29.6455025010872,29.6455025010872,,,123.509999990463,28,0.238638657537961,0.31616720648614
2011-06-01T04:34:03Z,1306902843,10B,54.6578426,24.4241318,30.23,0,-0.2,217.1,-161723.92,-191740.09,218.1,Air+FixedWing,Blue,Enemies,J-11A,Blue J-11A #001,cn,=CNF=505 (端午),0,0,0,30.2299995422363,2.22999954223633,0,0,NaN,NaN,0,0.0171320104161963,NaN,0.999993741512668,-0,-0.00349065172486007,0,29.6455025010872,29.6455025010872,,,124.509999990463,28,0.23867077609324,0.316199325421259
2011-06-01T04:34:04Z,1306902844,10B,54.6578426,24.4241318,30.23,0,-0.2,217.1,-161723.92,-191740.09,218.1,Air+FixedWing,Blue,Enemies,J-11A,Blue J-11A #001,cn,=CNF=505 (端午),0,0,0,30.2299995422363,2.22999954223633,0,0,NaN,NaN,0,0.0171320104161963,NaN,0.999993741512668,-0,-0.00349065172486007,0,29.6455025010872,29.6455025010872,,,125.509999990463,28,0.238702894869473,0.316231444197492
2011-06-01T04:34:05Z,1306902845,10B,54.6578426,24.4241318,30.23,0,-0.2,217.1,-161723.92,-191740.09,218.1,Air+FixedWing,Blue,Enemies,J-11A,Blue J-11A #001,cn,=CNF=505 (端午),0,0,0,30.2299995422363,2.22999954223633,0,0,NaN,NaN,0,0.0171320104161963,NaN,0.999993741512668,-0,-0.00349065172486007,0,29.6455025010872,29.6455025010872,,,126.509999990463,28,0.238735013804592,0.316263563132611
2011-06-01T04:34:06Z,1306902846,10B,54.6578426,24.4241318,30.23,0,-0.2,217.1,-161723.92,-191740.09,218.1,Air+FixedWing,Blue,Enemies,J-11A,Blue J-11A #001,cn,=CNF=505 (端午),0,0,0,30.2299995422363,2.22999954223633,0,0,NaN,NaN,0,0.0171320104161963,NaN,0.999993741512668,-0,-0.00349065172486007,0,29.6455025010872,29.6455025010872,,,127.509999990463,28,0.238767134100243,0.316295683428262
2011-06-01T04:34:07Z,1306902847,10B,54.6578426,24.4241318,30.23,0,-0.2,217.1,-161723.92,-191740.09,218.1,Air+FixedWing,Blue,Enemies,J-11A,Blue J-11A #001,cn,=CNF=505 (端午),0,0,0,30.2299995422363,2.22999954223633,0,0,NaN,NaN,0,0.0171320104161963,NaN,0.999993741512668,-0,-0.00349065172486007,0,29.6455025010872,29.6455025010872,,,128.509999990463,28,0.238799252116781,0.316327802363381
2011-06-01T04:34:08Z,1306902848,10B,54.6578426,24.4241318,30.23,0,-0.2,217.1,-161723.92,-191740.09,218.1,Air+FixedWing,Blue,Enemies,J-11A,Blue J-11A #001,cn,=CNF=505 (端午),0,0,0,30.2299995422363,2.22999954223633,0,0,NaN,NaN,0,0.0171320104161963,NaN,0.999993741512668,-0,-0.00349065172486007,0,29.6455025010872,29.6455025010872,,,129.509999990463,28,0.238831371431742,0.316359921678342
2011-06-01T04:34:09Z,1306902849,10B,54.6578426,24.4241318,30.23,0,-0.2,217.1,-161723.92,-191740.09,218.1,Air+FixedWing,Blue,Enemies,J-11A,Blue J-11A #001,cn,=CNF=505 (端午),0,0,0,30.2299995422363,2.22999954223633,0,0,NaN,NaN,0,0.0171320104161963,NaN,0.999993741512668,-0,-0.00349065172486007,0,29.6455025010872,29.6455025010872,,,130.509999990463,28,0.238863490746704,0.316392040993303
2011-06-01T04:34:10Z,1306902850,10B,54.6578426,24.4241318,30.23,0,-0.2,217.1,-161723.92,-191740.09,218.1,Air+FixedWing,Blue,Enemies,J-11A,Blue J-11A #001,cn,=CNF=505 (端午),0,0,0,30.2299995422363,2.22999954223633,0,0,NaN,NaN,0,0.0171320104161963,NaN,0.999993741512668,-0,-0.00349065172486007,0,29.6455025010872,29.6455025010872,,,131.509999990463,28,0.238895608763242,0.316424159389688
2011-06-01T04:34:11Z,1306902851,10B,54.6578426,24.4241318,30.23,0,-0.2,217.1,-161723.92,-191740.09,218.1,Air+FixedWing,Blue,Enemies,J-11A,Blue J-11A #001,cn,=CNF=505 (端午),0,0,0,30.2299995422363,2.22999954223633,0,0,NaN,NaN,0,0.0171320104161963,NaN,0.999993741512668,-0,-0.00349065172486007,0,29.6455025010872,29.6455025010872,,,132.509999990463,28,0.238927727698361,0.316456277944967
2011-06-01T04:34:12Z,1306902852,10B,54.6578426,24.4241318,30.23,0,-0.2,217.1,-161723.92,-191740.09,218.1,Air+FixedWing,Blue,Enemies,J-11A,Blue J-11A #001,cn,=CNF=505 (端午),0,0,0,30.2299995422363,2.22999954223633,0,0,NaN,NaN,0,0.0171320104161963,NaN,0.999993741512668,-0,-0.00349065172486007,0,29.6455025010872,29.6455025010872,,,133.509999990463,28,0.238959846094745,0.316488397101051
2011-06-01T04:34:13Z,1306902853,10B,54.6578426,24.4241318,30.23,0,-0.2,217.1,-161723.92,-191740.09,218.1,Air+FixedWing,Blue,Enemies,J-11A,Blue J-11A #001,cn,=CNF=505 (端午),0,0,0,30.2299995422363,2.22999954223633,0,0,NaN,NaN,0,0.0171320104161963,NaN,0.999993741512668,-0,-0.00349065172486007,0,29.6455025010872,29.6455025010872,,,134.509999990463,28,0.238991964870979,0.316520516416012
2011-06-01T04:34:14Z,1306902854,10B,54.6578426,24.4241318,30.23,0,-0.2,217.1,-161723.92,-191740.09,218.1,Air+FixedWing,Blue,Enemies,J-11A,Blue J-11A #001,cn,=CNF=505 (端午),0,0,0,30.2299995422363,2.22999954223633,0,0,NaN,NaN,0,0.0171320104161963,NaN,0.999993741512668,-0,-0.00349065172486007,0,29.6455025010872,29.6455025010872,,,135.509999990463,28,0.239024083806098,0.31655263443255
2011-06-01T04:34:15Z,1306902855,10B,54.6578426,24.4241318,30.23,0,-0.2,217.1,-161723.92,-191740.09,218.1,Air+FixedWing,Blue,Enemies,J-11A,Blue J-11A #001,cn,=CNF=505 (端午),0,0,0,30.2299995422363,2.22999954223633,0,0,NaN,NaN,0,0.0171320104161963,NaN,0.999993741512668,-0,-0.00349065172486007,0,29.6455025010872,29.6455025010872,,,136.509999990463,28,0.239056202582331,0.316584753747512
2011-06-01T04:34:16Z,1306902856,10B,54.6578426,24.4241318,30.23,0,-0.2,217.1,-161723.92,-191740.09,218.1,Air+FixedWing,Blue,Enemies,J-11A,Blue J-11A #001,cn,=CNF=505 (端午),0,0,0,30.2299995422363,2.22999954223633,0,0,NaN,NaN,0,0.0171320104161963,NaN,0.999993741512668,-0,-0.00349065172486007,0,29.6455025010872,29.6455025010872,,,137.509999990463,28,0.23908832113761,0.316616872143896
2011-06-01T04:34:17Z,1306902857,10B,54.6578426,24.4241318,30.23,0,-0.2,217.1,-161723.92,-191740.09,218.1,Air+FixedWing,Blue,Enemies,J-11A,Blue J-11A #001,cn,=CNF=505 (端午),0,0,0,30.2299995422363,2.22999954223633,0,0,NaN,NaN,0,0.0171320104161963,NaN,0.999993741512668,-0,-0.00349065172486007,0,29.6455025010872,29.6455025010872,,,138.509999990463,28,0.239120440452571,0.316648991458858
2011-06-01T04:34:18Z,1306902858,10B,54.6578426,24.4241318,30.23,0,-0.2,217.1,-161723.92,-191740.09,218.1,Air+FixedWing,Blue,Enemies,J-11A,Blue J-11A #001,cn,=CNF=505 (端午),0,0,0,30.2299995422363,2.22999954223633,0,0,NaN,NaN,0,0.0171320104161963,NaN,0.999993741512668,-0,-0.00349065172486007,0,29.6455025010872,29.6455025010872,,,139.509999990463,28,0.239152558469109,0.316681109855242
2011-06-01T04:34:19Z,1306902859,10B,54.6578426,24.4241318,30.23,0,-0.2,217.1,-161723.92,-191740.09,218.1,Air+FixedWing,Blue,Enemies,J-11A,Blue J-11A #001,cn,=CNF=505 (端午),0,0,0,30.2299995422363,2.22999954223633,0,0,NaN,NaN,0,0.0171320104161963,NaN,0.999993741512668,-0,-0.00349065172486007,0,29.6455025010872,29.6455025010872,,,140.509999990463,28,0.239184677245343,0.316713229170204
2011-06-01T04:34:20Z,1306902860,10B,54.6578426,24.4241318,30.23,0,-0.2,217.1,-161723.92,-191740.09,218.1,Air+FixedWing,Blue,Enemies,J-11A,Blue J-11A #001,cn,=CNF=505 (端午),0,0,0,30.2299995422363,2.22999954223633,0,0,NaN,NaN,0,0.0171320104161963,NaN,0.999993741512668,-0,-0.00349065172486007,0,29.6455025010872,29.6455025010872,,,141.509999990463,28,0.239216796180462,0.316745348105323
2011-06-01T04:34:21Z,1306902861,10B,54.6578426,24.4241318,30.23,0,-0.2,217.1,-161723.92,-191740.09,218.1,Air+FixedWing,Blue,Enemies,J-11A,Blue J-11A #001,cn,=CNF=505 (端午),0,0,0,30.2299995422363,2.22999954223633,0,0,NaN,NaN,0,0.0171320104161963,NaN,0.999993741512668,-0,-0.00349065172486007,0,29.6455025010872,29.6455025010872,,,142.509999990463,28,0.239248914956695,0.316777466881556
2011-06-01T04:34:22Z,1306902862,10B,54.6578426,24.4241318,30.23,0,-0.2,217.1,-161723.92,-191740.09,218.1,Air+FixedWing,Blue,Enemies,J-11A,Blue J-11A #001,cn,=CNF=505 (端午),0,0,0,30.2299995422363,2.22999954223633,0,0,NaN,NaN,0,0.0171320104161963,NaN,0.999993741512668,-0,-0.00349065172486007,0,29.6455025010872,29.6455025010872,,,143.509999990463,28,0.239281032973233,0.31680958527794
2011-06-01T04:34:23Z,1306902863,10B,54.6578426,24.4241318,30.23,0,-0.2,217.1,-161723.92,-191740.09,218.1,Air+FixedWing,Blue,Enemies,J-11A,Blue J-11A #001,cn,=CNF=505 (端午),0,0,0,30.2299995422363,2.22999954223633,0,0,NaN,NaN,0,0.0171320104161963,NaN,0.999993741512668,-0,-0.00349065172486007,0,29.6455025010872,29.6455025010872,,,144.509999990463,28,0.239313154346307,0.316841706651014
2011-06-01T04:34:24Z,1306902864,10B,54.6578426,24.4241318,30.23,0,-0.2,217.1,-161723.92,-191740.09,218.1,Air+FixedWing,Blue,Enemies,J-11A,Blue J-11A #001,cn,=CNF=505 (端午),0,0,0,30.2299995422363,2.22999954223633,0,0,NaN,NaN,0,0.0171320104161963,NaN,0.999993741512668,-0,-0.00349065172486007,0,29.6455025010872,29.6455025010872,,,145.509999990463,28,0.23934527312254,0.316873825427247
2011-06-01T04:34:25Z,1306902865,10B,54.6578426,24.4241318,30.23,0,-0.2,217.1,-161723.92,-191740.09,218.1,Air+FixedWing,Blue,Enemies,J-11A,Blue J-11A #001,cn,=CNF=505 (端午),0,0,0,30.2299995422363,2.22999954223633,0,0,NaN,NaN,0,0.0171320104161963,NaN,0.999993741512668,-0,-0.00349065172486007,0,29.6455025010872,29.6455025010872,,,146.509999990463,28,0.239377391139078,0.316905943823632
2011-06-01T04:34:26Z,1306902866,10B,54.6578426,24.4241318,30.23,0,-0.2,217.1,-161723.92,-191740.09,218.1,Air+FixedWing,Blue,Enemies,J-11A,Blue J-11A #001,cn,=CNF=505 (端午),0,0,0,30.2299995422363,2.22999954223633,0,0,NaN,NaN,0,0.0171320104161963,NaN,0.999993741512668,-0,-0.00349065172486007,0,29.6455025010872,29.6455025010872,,,147.509999990463,28,0.239409510454039,0.316938063677339
2011-06-01T04:34:27Z,1306902867,10B,54.6578426,24.4241318,30.23,0,-0.2,217.1,-161723.92,-191740.09,218.1,Air+FixedWing,Blue,Enemies,J-11A,Blue J-11A #001,cn,=CNF=505 (端午),0,0,0,30.2299995422363,2.22999954223633,0,0,NaN,NaN,0,0.0171320104161963,NaN,0.999993741512668,-0,-0.00349065172486007,0,29.6455025010872,29.6455025010872,,,148.509999990463,28,0.239441628850424,0.316970182073724
