ISOTime,UnixTime,Id,Longitude,Latitude,Altitude,Roll,Pitch,Yaw,U,V,Heading,Type,Color,Coalition,Name,Group,Country,Pilot,TAS,CAS,M,ASL,AGL,GS,VS,AOA,AOS,RRT,TRT,TRD,G,LatG,LonG,Ek,Ep,Em,FFW,FFV,RelativeTime,Elev,GroundDistance,AirDistance
2011-06-01T04:37:21Z,1306903041,10E,54.6609514,24.4169075,30.41,0.2,-0.2,308.5,-161422.11,-192545.73,309.5,Air+FixedWing,Blue,Enemies,F-15C,Blue F-15C #001,us,=CNF=101（国庆）,0.190471432918107,0.262722313404083,0.000559721262198754,30.4099998474121,2.40999984741211,NaN,NaN,NaN,NaN,NaN,NaN,NaN,NaN,NaN,NaN,NaN,29.8220225003624,NaN,,,0.210000038146973,28,NaN,NaN
2011-06-01T04:37:22Z,1306903042,10E,54.6609516,24.4169075,30.28,0.4,-0,308.6,-161422.09,-192545.73,309.5,Air+FixedWing,Blue,Enemies,F-15C,Blue F-15C #001,us,=CNF=101（国庆）,0.133300360359761,0,0.000391717190908761,30.2776184082031,2.27761840820312,0.015625,-0.132381439208984,NaN,NaN,0.123809611785205,NaN,NaN,1.01935212867057,0.00690056454269274,0.00181921412350398,0.000888449303602101,29.6922006562805,29.6930891055841,,,1.21000003814697,28,0.0202726529724721,0.133924716395819
2011-06-01T04:37:23Z,1306903043,10E,54.6609515,24.4169076,30.34,0.5,0,308.6,-161422.09,-192545.72,309.6,Air+FixedWing,Blue,Enemies,F-15C,Blue F-15C #001,us,=CNF=101（国庆）,0.0597000897501481,0,0.000175435134419076,30.3352375030518,2.33523750305176,0.015625,0.0576190948486328,NaN,NaN,0.20000005181158,0.0713262647800548,NaN,0.994550775465682,0.0111347346221391,-0.00203122312232802,0.000178205035808787,29.7487056859303,29.7488838909661,,,2.21000003814697,28,0.0353280643811991,0.193478285186219
2011-06-01T04:37:24Z,1306903044,10E,54.6609515,24.4169075,30.34,0.4,-0.1,308.6,-161422.09,-192545.73,309.5,Air+FixedWing,Blue,Enemies,F-15C,Blue F-15C #001,us,=CNF=101（国庆）,0.0163347315742875,0,4.80013680921491e-05,30.3400001525879,2.34000015258789,0.015625,0.00476264953613281,NaN,NaN,0,0.0523391626455858,NaN,1.00051337032247,0.00676904306104549,0.000496637962725676,1.33411727802013e-05,29.7533762496376,29.7533895908104,,,3.21000003814697,28,0.046460013630405,0.205586312237684
2011-06-01T04:37:25Z,1306903045,10E,54.6609514,24.4169075,30.35,0.4,-0.1,308.6,-161422.11,-192545.73,309.5,Air+FixedWing,Blue,Enemies,F-15C,Blue F-15C #001,us,=CNF=101（国庆）,0.0185501228697093,0,5.45115401680257e-05,30.3499984741211,2.34999847412109,0.015625,0.00999832153320312,NaN,NaN,0,0.0504352774299245,NaN,0.998964414325296,0.0049470116111056,-0.00420224510772009,1.72053529240657e-05,29.763181253624,29.7631984589769,,,4.21000003814697,28,0.056596339657366,0.219824027248494
2011-06-01T04:37:26Z,1306903046,10E,54.6609515,24.4169075,30.35,0.3,-0.1,308.6,-161422.09,-192545.73,309.6,Air+FixedWing,Blue,Enemies,F-15C,Blue F-15C #001,us,=CNF=101（国庆）,0.015625,0,4.59157505914001e-05,30.3499984741211,2.34999847412109,0.015625,0,NaN,NaN,0.123817669273991,0.0504352774299245,NaN,0.999978331507527,0.00726717402684917,0.000709994832724504,1.220703125e-05,29.763181253624,29.7631934606552,,,5.21000003814697,28,0.0667326656843271,0.229960401724264
2011-06-01T04:37:27Z,1306903047,10E,54.6609515,24.4169075,30.35,0.3,-0.1,308.6,-161422.11,-192545.73,309.6,Air+FixedWing,Blue,Enemies,F-15C,Blue F-15C #001,us,=CNF=101（国庆）,0.015625,0,4.59157505914001e-05,30.3499984741211,2.34999847412109,0.015625,0,NaN,NaN,0,0,NaN,0.999991031747734,0.00320473860930271,-0.00420065167985874,1.220703125e-05,29.763181253624,29.7631934606552,,,6.21000003814697,28,0.0667326656843271,0.229960401724264
2011-06-01T04:37:28Z,1306903048,10E,54.6609515,24.4169075,30.35,0.3,-0.1,308.6,-161422.09,-192545.73,309.6,Air+FixedWing,Blue,Enemies,F-15C,Blue F-15C #001,us,=CNF=101（国庆）,0.015625,0,4.59157505914001e-05,30.3499984741211,2.34999847412109,0.015625,0,NaN,NaN,0,0,NaN,0.999978331507527,0.00726717402684917,0.000709994832724504,1.220703125e-05,29.763181253624,29.7631934606552,,,7.21000003814697,28,0.0667326656843271,0.229960401724264
2011-06-01T04:37:29Z,1306903049,10E,54.6609515,24.4169075,30.35,0.3,-0.1,308.6,-161422.11,-192545.73,309.6,Air+FixedWing,Blue,Enemies,F-15C,Blue F-15C #001,us,=CNF=101（国庆）,0.015625,0,4.59157505914001e-05,30.3499984741211,2.34999847412109,0.015625,0,NaN,NaN,0,0,NaN,0.999991031747734,0.00320473860930271,-0.00420065167985874,1.220703125e-05,29.763181253624,29.7631934606552,,,8.21000003814697,28,0.0667326656843271,0.229960401724264
2011-06-01T04:37:30Z,1306903050,10E,54.6609515,24.4169075,30.35,0.3,-0.1,308.6,-161422.09,-192545.73,309.6,Air+FixedWing,Blue,Enemies,F-15C,Blue F-15C #001,us,=CNF=101（国庆）,0.015625,0,4.59157505914001e-05,30.3499984741211,2.34999847412109,0.015625,0,NaN,NaN,0,0,NaN,0.999981506567579,0.00625156517246256,-0.000517666795421306,1.220703125e-05,29.763181253624,29.7631934606552,,,9.21000003814697,28,0.0667326656843271,0.229960401724264
2011-06-01T04:37:31Z,1306903051,10E,54.6609515,24.4169075,30.35,0.3,-0.1,308.6,-161422.09,-192545.73,309.6,Air+FixedWing,Blue,Enemies,F-15C,Blue F-15C #001,us,=CNF=101（国庆）,0,0,0,30.3499984741211,2.34999847412109,0,0,NaN,NaN,0,0,NaN,0.99998468162763,0.00523595631807594,-0.00174532842356712,0,29.763181253624,29.763181253624,,,10.210000038147,28,0.0667326656843271,0.229960401724264
2011-06-01T04:37:32Z,1306903052,10E,54.6609515,24.4169075,30.35,0.3,-0.1,308.6,-161422.09,-192545.73,309.6,Air+FixedWing,Blue,Enemies,F-15C,Blue F-15C #001,us,=CNF=101（国庆）,0,0,0,30.3499984741211,2.34999847412109,0,0,NaN,NaN,0,0,NaN,0.999981506567579,0.00625156517246256,-0.000517666795421306,0,29.763181253624,29.763181253624,,,11.210000038147,28,0.0667326656843271,0.229960401724264
2011-06-01T04:37:33Z,1306903053,10E,54.6609515,24.4169075,30.35,0.3,-0.1,308.6,-161422.11,-192545.73,309.6,Air+FixedWing,Blue,Enemies,F-15C,Blue F-15C #001,us,=CNF=101（国庆）,0.015625,0,4.59157505914001e-05,30.3499984741211,2.34999847412109,0.015625,0,NaN,NaN,0,0,NaN,0.999987856687682,0.00422034746368933,-0.00297299005171293,1.220703125e-05,29.763181253624,29.7631934606552,,,12.210000038147,28,0.0667326656843271,0.229960401724264
2011-06-01T04:37:34Z,1306903054,10E,54.6609515,24.4169075,30.35,0.3,-0.1,308.6,-161422.11,-192545.73,309.6,Air+FixedWing,Blue,Enemies,F-15C,Blue F-15C #001,us,=CNF=101（国庆）,0,0,0,30.3499984741211,2.34999847412109,0,0,NaN,NaN,0,0,NaN,0.999987856687682,0.00422034746368933,-0.00297299005171293,0,29.763181253624,29.763181253624,,,13.210000038147,28,0.0667326656843271,0.229960401724264
2011-06-01T04:37:35Z,1306903055,10E,54.6609515,24.4169075,30.35,0.3,-0.1,308.6,-161422.09,-192545.73,309.6,Air+FixedWing,Blue,Enemies,F-15C,Blue F-15C #001,us,=CNF=101（国庆）,0.015625,0,4.59157505914001e-05,30.3499984741211,2.34999847412109,0.015625,0,NaN,NaN,0,0,NaN,0.999981506567579,0.00625156517246256,-0.000517666795421306,1.220703125e-05,29.763181253624,29.7631934606552,,,14.210000038147,28,0.0667326656843271,0.229960401724264
2011-06-01T04:37:36Z,1306903056,10E,54.6609515,24.4169075,30.35,0.3,-0.1,308.6,-161422.09,-192545.73,309.6,Air+FixedWing,Blue,Enemies,F-15C,Blue F-15C #001,us,=CNF=101（国庆）,0,0,0,30.3499984741211,2.34999847412109,0,0,NaN,NaN,0,0,NaN,0.999981506567579,0.00625156517246256,-0.000517666795421306,0,29.763181253624,29.763181253624,,,15.210000038147,28,0.0667326656843271,0.229960401724264
2011-06-01T04:37:37Z,1306903057,10E,54.6609515,24.4169075,30.35,0.3,-0.1,308.6,-161422.11,-192545.73,309.6,Air+FixedWing,Blue,Enemies,F-15C,Blue F-15C #001,us,=CNF=101（国庆）,0.015625,0,4.59157505914001e-05,30.3499984741211,2.34999847412109,0.015625,0,NaN,NaN,0,0,NaN,0.999987856687682,0.00422034746368933,-0.00297299005171293,1.220703125e-05,29.763181253624,29.7631934606552,,,16.210000038147,28,0.0667326656843271,0.229960401724264
2011-06-01T04:37:38Z,1306903058,10E,54.6609515,24.4169075,30.35,0.3,-0.1,308.6,-161422.11,-192545.73,309.6,Air+FixedWing,Blue,Enemies,F-15C,Blue F-15C #001,us,=CNF=101（国庆）,0,0,0,30.3499984741211,2.34999847412109,0,0,NaN,NaN,0,0,NaN,0.999987856687682,0.00422034746368933,-0.00297299005171293,0,29.763181253624,29.763181253624,,,17.210000038147,28,0.0667326656843271,0.229960401724264
2011-06-01T04:37:39Z,1306903059,10E,54.6609515,24.4169075,30.35,0.3,-0.1,308.6,-161422.09,-192545.73,309.6,Air+FixedWing,Blue,Enemies,F-15C,Blue F-15C #001,us,=CNF=101（国庆）,0.015625,0,4.59157505914001e-05,30.3499984741211,2.34999847412109,0.015625,0,NaN,NaN,0,0,NaN,0.999978331507527,0.00726717402684917,0.000709994832724504,1.220703125e-05,29.763181253624,29.7631934606552,,,18.210000038147,28,0.0667326656843271,0.229960401724264
2011-06-01T04:37:40Z,1306903060,10E,54.6609515,24.4169075,30.35,0.3,-0.1,308.6,-161422.11,-192545.73,309.6,Air+FixedWing,Blue,Enemies,F-15C,Blue F-15C #001,us,=CNF=101（国庆）,0.015625,0,4.59157505914001e-05,30.3499984741211,2.34999847412109,0.015625,0,NaN,NaN,0,0,NaN,0.999991031747734,0.00320473860930271,-0.00420065167985874,1.220703125e-05,29.763181253624,29.7631934606552,,,19.210000038147,28,0.0667326656843271,0.229960401724264
2011-06-01T04:37:41Z,1306903061,10E,54.6609515,24.4169075,30.35,0.3,-0.1,308.6,-161422.09,-192545.73,309.6,Air+FixedWing,Blue,Enemies,F-15C,Blue F-15C #001,us,=CNF=101（国庆）,0.015625,0,4.59157505914001e-05,30.3499984741211,2.34999847412109,0.015625,0,NaN,NaN,0,0,NaN,0.999981506567579,0.00625156517246256,-0.000517666795421306,1.220703125e-05,29.763181253624,29.7631934606552,,,20.210000038147,28,0.0667326656843271,0.229960401724264
2011-06-01T04:37:42Z,1306903062,10E,54.6609515,24.4169075,30.35,0.3,-0.1,308.6,-161422.09,-192545.73,309.6,Air+FixedWing,Blue,Enemies,F-15C,Blue F-15C #001,us,=CNF=101（国庆）,0,0,0,30.3499984741211,2.34999847412109,0,0,NaN,NaN,0,0,NaN,0.999981506567579,0.00625156517246256,-0.000517666795421306,0,29.763181253624,29.763181253624,,,21.210000038147,28,0.0667326656843271,0.229960401724264
2011-06-01T04:37:43Z,1306903063,10E,54.6609515,24.4169075,30.35,0.3,-0.1,308.6,-161422.11,-192545.73,309.6,Air+FixedWing,Blue,Enemies,F-15C,Blue F-15C #001,us,=CNF=101（国庆）,0.015625,0,4.59157505914001e-05,30.3499984741211,2.34999847412109,0.015625,0,NaN,NaN,0,0,NaN,0.999991031747734,0.00320473860930271,-0.00420065167985874,1.220703125e-05,29.763181253624,29.7631934606552,,,22.210000038147,28,0.0667326656843271,0.229960401724264
2011-06-01T04:37:44Z,1306903064,10E,54.6609515,24.4169075,30.35,0.3,-0.1,308.6,-161422.09,-192545.73,309.6,Air+FixedWing,Blue,Enemies,F-15C,Blue F-15C #001,us,=CNF=101（国庆）,0.015625,0,4.59157505914001e-05,30.3499984741211,2.34999847412109,0.015625,0,NaN,NaN,0,0,NaN,0.999978331507527,0.00726717402684917,0.000709994832724504,1.220703125e-05,29.763181253624,29.7631934606552,,,23.210000038147,28,0.0667326656843271,0.229960401724264
2011-06-01T04:37:45Z,1306903065,10E,54.6609515,24.4169075,30.35,0.3,-0.1,308.6,-161422.11,-192545.73,309.6,Air+FixedWing,Blue,Enemies,F-15C,Blue F-15C #001,us,=CNF=101（国庆）,0.015625,0,4.59157505914001e-05,30.3499984741211,2.34999847412109,0.015625,0,NaN,NaN,0,0,NaN,0.999987856687682,0.00422034746368933,-0.00297299005171293,1.220703125e-05,29.763181253624,29.7631934606552,,,24.210000038147,28,0.0667326656843271,0.229960401724264
2011-06-01T04:37:46Z,1306903066,10E,54.6609515,24.4169075,30.35,0.3,-0.1,308.6,-161422.11,-192545.73,309.6,Air+FixedWing,Blue,Enemies,F-15C,Blue F-15C #001,us,=CNF=101（国庆）,0,0,0,30.3499984741211,2.34999847412109,0,0,NaN,NaN,0,0,NaN,0.99998468162763,0.00523595631807594,-0.00174532842356712,0,29.763181253624,29.763181253624,,,25.210000038147,28,0.0667326656843271,0.229960401724264
2011-06-01T04:37:47Z,1306903067,10E,54.6609515,24.4169075,30.35,0.3,-0.1,308.6,-161422.11,-192545.73,309.6,Air+FixedWing,Blue,Enemies,F-15C,Blue F-15C #001,us,=CNF=101（国庆）,0,0,0,30.3499984741211,2.34999847412109,0,0,NaN,NaN,0,0,NaN,0.999987856687682,0.00422034746368933,-0.00297299005171293,0,29.763181253624,29.763181253624,,,26.210000038147,28,0.0667326656843271,0.229960401724264
2011-06-01T04:37:48Z,1306903068,10E,54.6609515,24.4169075,30.35,0.3,-0.1,308.6,-161422.09,-192545.73,309.6,Air+FixedWing,Blue,Enemies,F-15C,Blue F-15C #001,us,=CNF=101（国庆）,0.015625,0,4.59157505914001e-05,30.3499984741211,2.34999847412109,0.015625,0,NaN,NaN,0,0,NaN,0.999981506567579,0.00625156517246256,-0.000517666795421306,1.220703125e-05,29.763181253624,29.7631934606552,,,27.210000038147,28,0.0667326656843271,0.229960401724264
2011-06-01T04:37:49Z,1306903069,10E,54.6609515,24.4169075,30.35,0.3,-0.1,308.6,-161422.09,-192545.73,309.6,Air+FixedWing,Blue,Enemies,F-15C,Blue F-15C #001,us,=CNF=101（国庆）,0,0,0,30.3499984741211,2.34999847412109,0,0,NaN,NaN,0,0,NaN,0.999981506567579,0.00625156517246256,-0.000517666795421306,0,29.763181253624,29.763181253624,,,28.210000038147,28,0.0667326656843271,0.229960401724264
2011-06-01T04:37:50Z,1306903070,10E,54.6609515,24.4169075,30.35,0.3,-0.1,308.6,-161422.11,-192545.73,309.6,Air+FixedWing,Blue,Enemies,F-15C,Blue F-15C #001,us,=CNF=101（国庆）,0.015625,0,4.59157505914001e-05,30.3499984741211,2.34999847412109,0.015625,0,NaN,NaN,0,0,NaN,0.999991031747734,0.00320473860930271,-0.00420065167985874,1.220703125e-05,29.763181253624,29.7631934606552,,,29.210000038147,28,0.0667326656843271,0.229960401724264
2011-06-01T04:37:51Z,1306903071,10E,54.6609515,24.4169075,30.35,0.3,-0.1,308.6,-161422.09,-192545.73,309.6,Air+FixedWing,Blue,Enemies,F-15C,Blue F-15C #001,us,=CNF=101（国庆）,0.015625,0,4.59157505914001e-05,30.3499984741211,2.34999847412109,0.015625,0,NaN,NaN,0,0,NaN,0.999981506567579,0.00625156517246256,-0.000517666795421306,1.220703125e-05,29.763181253624,29.7631934606552,,,30.210000038147,28,0.0667326656843271,0.229960401724264
2011-06-01T04:37:52Z,1306903072,10E,54.6609515,24.4169075,30.35,0.3,-0.1,308.6,-161422.09,-192545.73,309.6,Air+FixedWing,Blue,Enemies,F-15C,Blue F-15C #001,us,=CNF=101（国庆）,0,0,0,30.3499984741211,2.34999847412109,0,0,NaN,NaN,0,0,NaN,0.998961977306874,0.00624622688025557,-0.000515887354724137,0,29.763181253624,29.763181253624,,,31.210000038147,28,0.0667326656843271,0.229960401724264
2011-06-01T04:37:53Z,1306903073,10E,54.6609515,24.4169075,30.34,0.3,-0.1,308.6,-161422.11,-192545.73,309.6,Air+FixedWing,Blue,Enemies,F-15C,Blue F-15C #001,us,=CNF=101（国庆）,0.0185501228697093,0,5.45115340263771e-05,30.3400001525879,2.34000015258789,0.015625,-0.00999832153320312,NaN,NaN,0,0.0356631257199208,NaN,1.00100880802157,0.00321006772281634,-0.00460089151526199,1.72053529240657e-05,29.7533762496376,29.7533934549905,,,32.210000038147,28,0.0667326656843271,0.239958722985798
2011-06-01T04:37:54Z,1306903074,10E,54.6609515,24.4169075,30.34,0.3,-0.1,308.6,-161422.09,-192545.73,309.6,Air+FixedWing,Blue,Enemies,F-15C,Blue F-15C #001,us,=CNF=101（国庆）,0.015625,0,4.59157454182129e-05,30.3400001525879,2.34000015258789,0.015625,0,NaN,NaN,0,0,NaN,0.999978331507527,0.00726717402684917,0.000709994832724504,1.220703125e-05,29.7533762496376,29.7533884566689,,,33.210000038147,28,0.0667326656843271,0.239958722985798
2011-06-01T04:37:55Z,1306903075,10E,54.6609515,24.4169075,30.34,0.3,-0.1,308.6,-161422.11,-192545.73,309.6,Air+FixedWing,Blue,Enemies,F-15C,Blue F-15C #001,us,=CNF=101（国庆）,0.015625,0,4.59157454182129e-05,30.3400001525879,2.34000015258789,0.015625,0,NaN,NaN,0,0.0356631257199208,NaN,0.999991031747734,0.00320473860930271,-0.00420065167985874,1.220703125e-05,29.7533762496376,29.7533884566689,,,34.210000038147,28,0.0667326656843271,0.239958722985798
2011-06-01T04:37:56Z,1306903076,10E,54.6609515,24.4169075,30.34,0.4,-0.1,308.6,-161422.09,-192545.73,309.6,Air+FixedWing,Blue,Enemies,F-15C,Blue F-15C #001,us,=CNF=101（国庆）,0.015625,0,4.59157454182129e-05,30.3400001525879,2.34000015258789,0.015625,0,NaN,NaN,0.199999998450727,0,NaN,0.999969124390848,0.00799685171405587,-0.000517666795421306,1.220703125e-05,29.7533762496376,29.7533884566689,,,35.210000038147,28,0.0667326656843271,0.239958722985798
2011-06-01T04:37:57Z,1306903077,10E,54.6609515,24.4169075,30.34,0.3,-0.1,308.6,-161422.09,-192545.73,309.6,Air+FixedWing,Blue,Enemies,F-15C,Blue F-15C #001,us,=CNF=101（国庆）,0,0,0,30.3400001525879,2.34000015258789,0,0,NaN,NaN,0,0,NaN,0.999981506567579,0.00625156517246256,-0.000517666795421306,0,29.7533762496376,29.7533762496376,,,36.210000038147,28,0.0667326656843271,0.239958722985798
2011-06-01T04:37:58Z,1306903078,10E,54.6609515,24.4169075,30.34,0.3,-0.1,308.6,-161422.11,-192545.73,309.6,Air+FixedWing,Blue,Enemies,F-15C,Blue F-15C #001,us,=CNF=101（国庆）,0.015625,0,4.59157454182129e-05,30.3400001525879,2.34000015258789,0.015625,0,NaN,NaN,0,0,NaN,0.999987856687682,0.00422034746368933,-0.00297299005171293,1.220703125e-05,29.7533762496376,29.7533884566689,,,37.210000038147,28,0.0667326656843271,0.239958722985798
2011-06-01T04:37:59Z,1306903079,10E,54.6609515,24.4169075,30.34,0.3,-0.1,308.6,-161422.11,-192545.73,309.6,Air+FixedWing,Blue,Enemies,F-15C,Blue F-15C #001,us,=CNF=101（国庆）,0,0,0,30.3400001525879,2.34000015258789,0,0,NaN,NaN,0,0,NaN,0.999987856687682,0.00422034746368933,-0.00297299005171293,0,29.7533762496376,29.7533762496376,,,38.210000038147,28,0.0667326656843271,0.239958722985798
2011-06-01T04:38:00Z,1306903080,10E,54.6609515,24.4169075,30.34,0.3,-0.1,308.6,-161422.09,-192545.73,309.6,Air+FixedWing,Blue,Enemies,F-15C,Blue F-15C #001,us,=CNF=101（国庆）,0.015625,0,4.59157454182129e-05,30.3400001525879,2.34000015258789,0.015625,0,NaN,NaN,0,0,NaN,0.999981506567579,0.00625156517246256,-0.000517666795421306,1.220703125e-05,29.7533762496376,29.7533884566689,,,39.210000038147,28,0.0667326656843271,0.239958722985798
2011-06-01T04:38:01Z,1306903081,10E,54.6609515,24.4169075,30.34,0.4,-0.1,308.6,-161422.09,-192545.73,309.6,Air+FixedWing,Blue,Enemies,F-15C,Blue F-15C #001,us,=CNF=101（国庆）,0,0,0,30.3400001525879,2.34000015258789,0,0,NaN,NaN,0.16129027485565,0.0342640208323925,NaN,0.999976336990294,0.00664345216497636,-0.00174532842356712,0,29.7533762496376,29.7533762496376,,,40.210000038147,28,0.0667326656843271,0.239958722985798
2011-06-01T04:38:02Z,1306903082,10E,54.6609515,24.4169075,30.34,0.3,-0.1,308.6,-161422.09,-192545.73,309.6,Air+FixedWing,Blue,Enemies,F-15C,Blue F-15C #001,us,=CNF=101（国庆）,0,0,0,30.3400001525879,2.34000015258789,0,0,NaN,NaN,0.199987938897973,0,NaN,0.999981506567579,0.00625156517246256,-0.000517666795421306,0,29.7533762496376,29.7533762496376,,,41.210000038147,28,0.0667326656843271,0.239958722985798
2011-06-01T04:38:03Z,1306903083,10E,54.6609515,24.4169075,30.34,0.3,-0.1,308.6,-161422.11,-192545.73,309.6,Air+FixedWing,Blue,Enemies,F-15C,Blue F-15C #001,us,=CNF=101（国庆）,0.015625,0,4.59157454182129e-05,30.3400001525879,2.34000015258789,0.015625,0,NaN,NaN,0,0.0342640208323925,NaN,0.999987856687682,0.00422034746368933,-0.00297299005171293,1.220703125e-05,29.7533762496376,29.7533884566689,,,42.210000038147,28,0.0667326656843271,0.239958722985798
2011-06-01T04:38:04Z,1306903084,10E,54.6609515,24.4169075,30.34,0.3,-0.1,308.6,-161422.11,-192545.73,309.6,Air+FixedWing,Blue,Enemies,F-15C,Blue F-15C #001,us,=CNF=101（国庆）,0,0,0,30.3400001525879,2.34000015258789,0,0,NaN,NaN,0,0,NaN,0.999987856687682,0.00422034746368933,-0.00297299005171293,0,29.7533762496376,29.7533762496376,,,43.210000038147,28,0.0667326656843271,0.239958722985798
2011-06-01T04:38:05Z,1306903085,10E,54.6609515,24.4169075,30.34,0.3,-0.1,308.6,-161422.09,-192545.73,309.6,Air+FixedWing,Blue,Enemies,F-15C,Blue F-15C #001,us,=CNF=101（国庆）,0.015625,0,4.59157454182129e-05,30.3400001525879,2.34000015258789,0.015625,0,NaN,NaN,0,0,NaN,0.999978331507527,0.00726717402684917,0.000709994832724504,1.220703125e-05,29.7533762496376,29.7533884566689,,,44.210000038147,28,0.0667326656843271,0.239958722985798
2011-06-01T04:38:06Z,1306903086,10E,54.6609515,24.4169075,30.34,0.3,-0.1,308.6,-161422.11,-192545.73,309.6,Air+FixedWing,Blue,Enemies,F-15C,Blue F-15C #001,us,=CNF=101（国庆）,0.015625,0,4.59157454182129e-05,30.3400001525879,2.34000015258789,0.015625,0,NaN,NaN,0,0,NaN,0.999987856687682,0.00422034746368933,-0.00297299005171293,1.220703125e-05,29.7533762496376,29.7533884566689,,,45.210000038147,28,0.0667326656843271,0.239958722985798
2011-06-01T04:38:07Z,1306903087,10E,54.6609515,24.4169075,30.34,0.3,-0.1,308.6,-161422.11,-192545.73,309.6,Air+FixedWing,Blue,Enemies,F-15C,Blue F-15C #001,us,=CNF=101（国庆）,0,0,0,30.3400001525879,2.34000015258789,0,0,NaN,NaN,0.0799951755591893,0,NaN,0.999993408472462,0.00377816200798139,-0.00195737993695704,0,29.7533762496376,29.7533762496376,,,46.210000038147,28,0.0667326656843271,0.239958722985798
2011-06-01T04:38:08Z,1306903088,10E,54.6609515,24.4169077,30.34,0.4,-0.1,308.6,-161422.09,-192545.72,309.6,Air+FixedWing,Blue,Enemies,F-15C,Blue F-15C #001,us,=CNF=101（国庆）,0.0220970869120796,0,6.49346698969069e-05,30.3400001525879,2.34000015258789,0.0220970869120796,0,NaN,NaN,0.0666666483632913,0,NaN,0.99995383359178,0.0102400749090431,-0.000305615282031382,2.44140625e-05,29.7533762496376,29.7534006637001,,,47.210000038147,28,0.0884664719162917,0.261692632277911
2011-06-01T04:38:09Z,1306903089,10E,54.6609515,24.4169075,30.34,0.4,-0.1,308.6,-161422.11,-192545.72,309.6,Air+FixedWing,Blue,Enemies,F-15C,Blue F-15C #001,us,=CNF=101（国庆）,0.015625,0,4.59157454182129e-05,30.3400001525879,2.34000015258789,0.015625,0,NaN,NaN,0,0,NaN,1.00098819502073,0.00720038683439331,-0.00399037960716598,1.220703125e-05,29.7533762496376,29.7533884566689,,,48.210000038147,28,0.10966163561643,0.282887896918131
2011-06-01T04:38:10Z,1306903090,10E,54.6609514,24.4169074,30.35,0.3,-0.1,308.6,-161422.11,-192545.73,309.6,Air+FixedWing,Blue,Enemies,F-15C,Blue F-15C #001,us,=CNF=101（国庆）,0.0185501228697093,0,5.45115401680257e-05,30.3499984741211,2.34999847412109,0.015625,0.00999832153320312,NaN,NaN,0,0,NaN,0.997956998720203,0.00298203361720787,-0.0019538210555627,1.72053529240657e-05,29.763181253624,29.7631984589769,,,49.210000038147,28,0.122732332974101,0.299344237907088
2011-06-01T04:38:11Z,1306903091,10E,54.6609515,24.4169075,30.34,0.3,-0.1,308.6,-161422.09,-192545.73,309.6,Air+FixedWing,Blue,Enemies,F-15C,Blue F-15C #001,us,=CNF=101（国庆）,0.0185501228697093,0,5.45115340263771e-05,30.3400001525879,2.34000015258789,0.015625,-0.00999832153320312,NaN,NaN,0.00759490355278973,0,NaN,0.999989228659898,0.00509020418276072,0.000497943658792936,1.72053529240657e-05,29.7533762496376,29.7533934549905,,,50.210000038147,28,0.135324422085925,0.315423063749919
2011-06-01T04:38:12Z,1306903092,10E,54.6609516,24.4169077,30.33,0.9,-0.1,308.6,-161422.09,-192545.72,309.5,Air+FixedWing,Blue,Enemies,F-15C,Blue F-15C #001,us,=CNF=101（国庆）,0.0185511509801712,0,5.4514549096545e-05,30.3299999237061,2.32999992370605,0.015625,-0.0100002288818359,NaN,NaN,1.06582263200675,0.0713262647800548,NaN,1.00072062730362,0.0204229246797384,-0.00355790461551144,1.72072601344553e-05,29.7435693751812,29.7435865824413,,,51.210000038147,28,0.165336427006197,0.347057437217316
2011-06-01T04:38:13Z,1306903093,10E,54.6609514,24.4169074,30.33,0.6,-0.1,308.6,-161422.11,-192545.75,309.6,Air+FixedWing,Blue,Enemies,F-15C,Blue F-15C #001,us,=CNF=101（国庆）,0.0349515233625223,0,0.000102708803240655,30.3290481567383,2.32904815673828,0.0349385621484342,-0.000951766967773438,NaN,NaN,1.74284571013381,0.0523391626455858,NaN,1.00123164789836,0.00387578836626739,-0.000308002811578662,6.10804492680472e-05,29.7426360106277,29.742697091077,,,52.210000038147,28,0.209082083542209,0.390813654336001
2011-06-01T04:38:14Z,1306903094,10E,54.6609516,24.4169076,30.34,0.7,-0.1,308.6,-161422.09,-192545.72,309.6,Air+FixedWing,Blue,Enemies,F-15C,Blue F-15C #001,us,=CNF=101（国庆）,0.0366148786436588,0,0.000107596764564544,30.3400001525879,2.34000015258789,0.0349385621484342,0.0109519958496094,NaN,NaN,0.533301170394596,0.0513960362511687,NaN,0.99767622168768,0.0207282482333462,-0.00270165698344094,6.7032466904493e-05,29.7533762496376,29.7534432821045,,,53.210000038147,28,0.238417691921145,0.422127106833229
2011-06-01T04:38:15Z,1306903095,10E,54.6609512,24.4169073,30.33,-0.2,-0.2,308.6,-161422.12,-192545.75,309.6,Air+FixedWing,Blue,Enemies,F-15C,Blue F-15C #001,us,=CNF=101（国庆）,0.0453114729145843,0,0.000133152628506939,30.3299999237061,2.32999992370605,0.0441941738241592,-0.0100002288818359,NaN,NaN,2.11429871795579,0.0617703498835309,NaN,1.00097919109755,-0.0119680926638564,-0.0043424132539341,0.000102656478884455,29.7435693751812,29.7436720316601,,,54.210000038147,28,0.297339310450736,0.481891600232868
2011-06-01T04:38:16Z,1306903096,10E,54.6609515,24.4169076,30.33,0.3,-0.2,308.6,-161422.09,-192545.72,309.6,Air+FixedWing,Blue,Enemies,F-15C,Blue F-15C #001,us,=CNF=101（国庆）,0.0441941738241592,0,0.000129869325159044,30.3299999237061,2.32999992370605,0.0441941738241592,0,NaN,NaN,0.123817669273991,0.00989117029631303,NaN,0.999943408958741,0.0113655785589353,-0.00408215596829138,9.765625e-05,29.7435693751812,29.7436670314312,,,55.210000038147,28,0.344543956307006,0.529096470058404
2011-06-01T04:38:17Z,1306903097,10E,54.6609515,24.4169075,30.33,0.6,-0.2,308.6,-161422.09,-192545.73,309.6,Air+FixedWing,Blue,Enemies,F-15C,Blue F-15C #001,us,=CNF=101（国庆）,0.015625,0,4.59157402440405e-05,30.3299999237061,2.32999992370605,0.015625,0,NaN,NaN,0.857142903863967,0.00989117029631303,NaN,0.998952030231416,0.00800592333571199,-0.00145588170892342,1.220703125e-05,29.7435693751812,29.7435815822124,,,56.210000038147,28,0.351347512553168,0.535900058541937
2011-06-01T04:38:18Z,1306903098,10E,54.6609515,24.4169076,30.32,0.5,-0.2,308.6,-161422.09,-192545.72,309.6,Air+FixedWing,Blue,Enemies,F-15C,Blue F-15C #001,us,=CNF=101（国庆）,0.0185511509801712,0,5.45145429533885e-05,30.3199996948242,2.31999969482422,0.015625,-0.0100002288818359,NaN,NaN,0.533333453710594,0.00989117029631303,NaN,1.00196658577072,0.0111994514278012,-0.00552898129531553,1.72072601344553e-05,29.7337625007248,29.7337797079849,,,57.210000038147,28,0.358784492560215,0.54836255331096
2011-06-01T04:38:19Z,1306903099,10E,54.6609515,24.4169075,30.33,0.5,-0.2,308.6,-161422.09,-192545.73,309.6,Air+FixedWing,Blue,Enemies,F-15C,Blue F-15C #001,us,=CNF=101（国庆）,0.0185511509801712,0,5.4514549096545e-05,30.3299999237061,2.32999992370605,0.015625,0.0100002288818359,NaN,NaN,0.359663941231973,0.00989117029631303,NaN,0.998966067761468,0.00601333702555562,-0.00145588170892342,1.72072601344553e-05,29.7435693751812,29.7435865824413,,,58.210000038147,28,0.366866662510204,0.561220495080612
2011-06-01T04:38:20Z,1306903100,10E,54.6609515,24.4169076,30.33,0.3,-0.2,308.6,-161422.09,-192545.72,309.6,Air+FixedWing,Blue,Enemies,F-15C,Blue F-15C #001,us,=CNF=101（国庆）,0.015625,0,4.59157402440405e-05,30.3299999237061,2.32999992370605,0.015625,0,NaN,NaN,0.104747781111316,0.00989117029631303,NaN,0.999959053912408,0.00870680801044233,-0.00429420646193019,1.220703125e-05,29.7435693751812,29.7435815822124,,,59.210000038147,28,0.376408334848728,0.570762213278639
2011-06-01T04:38:21Z,1306903101,10E,54.6609515,24.4169075,30.33,0.3,-0.2,308.6,-161422.11,-192545.73,309.6,Air+FixedWing,Blue,Enemies,F-15C,Blue F-15C #001,us,=CNF=101（国庆）,0.0220970869120796,0,6.49346625795222e-05,30.3299999237061,2.32999992370605,0.0220970869120796,0,NaN,NaN,0,0.00989117029631303,NaN,1.00000101114629,0.00176505594001275,-0.00268709698778996,2.44140625e-05,29.7435693751812,29.7435937892437,,,60.210000038147,28,0.385998717220859,0.580352641762975
2011-06-01T04:38:22Z,1306903102,10E,54.6609514,24.4169075,30.33,0.3,-0.2,308.6,-161422.11,-192545.72,309.6,Air+FixedWing,Blue,Enemies,F-15C,Blue F-15C #001,us,=CNF=101（国庆）,0.015625,0,4.59157402440405e-05,30.3299999237061,2.32999992370605,0.015625,0,NaN,NaN,0.114310045949333,0.00989117029631303,NaN,0.999970059430715,0.00646355995617289,-0.00450625695556899,1.220703125e-05,29.7435693751812,29.7435815822124,,,61.210000038147,28,0.395652361699685,0.59000633225262
2011-06-01T04:38:23Z,1306903103,10E,54.6609514,24.4169075,30.33,0.3,-0.2,308.6,-161422.11,-192545.72,309.6,Air+FixedWing,Blue,Enemies,F-15C,Blue F-15C #001,us,=CNF=101（国庆）,0,0,0,30.3299999237061,2.32999992370605,0,0,NaN,NaN,0,0.0139882274201861,NaN,0.999970059430715,0.00646355995617289,-0.00450625695556899,0,29.7435693751812,29.7435693751812,,,62.210000038147,28,0.395652361699685,0.59000633225262
2011-06-01T04:38:24Z,1306903104,10E,54.6609514,24.4169075,30.33,0.3,-0.2,308.6,-161422.11,-192545.73,309.6,Air+FixedWing,Blue,Enemies,F-15C,Blue F-15C #001,us,=CNF=101（国庆）,0.015625,0,4.59157402440405e-05,30.3299999237061,2.32999992370605,0.015625,0,NaN,NaN,0,0.00989117029631303,NaN,0.999990005679537,0.00400825334592429,-0.00247510762883798,1.220703125e-05,29.7435693751812,29.7435815822124,,,63.210000038147,28,0.395652361699685,0.59000633225262
2011-06-01T04:38:25Z,1306903105,10E,54.6609514,24.4169075,30.33,0.3,-0.2,308.6,-161422.11,-192545.73,309.6,Air+FixedWing,Blue,Enemies,F-15C,Blue F-15C #001,us,=CNF=101（国庆）,0,0,0,30.3299999237061,2.32999992370605,0,0,NaN,NaN,0,0.0139882274201861,NaN,0.999980032529351,0.00523593197522754,-0.00349065172486007,0,29.7435693751812,29.7435693751812,,,64.210000038147,28,0.395652361699685,0.59000633225262
2011-06-01T04:38:26Z,1306903106,10E,54.6609514,24.4169075,30.33,0.3,-0.2,308.6,-161422.11,-192545.73,309.6,Air+FixedWing,Blue,Enemies,F-15C,Blue F-15C #001,us,=CNF=101（国庆）,0,0,0,30.3299999237061,2.32999992370605,0,0,NaN,NaN,0,0,NaN,0.999980032529351,0.00523593197522754,-0.00349065172486007,0,29.7435693751812,29.7435693751812,,,65.210000038147,28,0.395652361699685,0.59000633225262
2011-06-01T04:38:27Z,1306903107,10E,54.6609514,24.4169075,30.33,0.3,-0.2,308.6,-161422.11,-192545.73,309.6,Air+FixedWing,Blue,Enemies,F-15C,Blue F-15C #001,us,=CNF=101（国庆）,0,0,0,30.3299999237061,2.32999992370605,0,0,NaN,NaN,0,0.0139882274201861,NaN,0.999980032529351,0.00523593197522754,-0.00349065172486007,0,29.7435693751812,29.7435693751812,,,66.210000038147,28,0.395652361699685,0.59000633225262
2011-06-01T04:38:28Z,1306903108,10E,54.6609514,24.4169075,30.33,0.3,-0.2,308.6,-161422.11,-192545.73,309.6,Air+FixedWing,Blue,Enemies,F-15C,Blue F-15C #001,us,=CNF=101（国庆）,0,0,0,30.3299999237061,2.32999992370605,0,0,NaN,NaN,0,0,NaN,0.999980032529351,0.00523593197522754,-0.00349065172486007,0,29.7435693751812,29.7435693751812,,,67.210000038147,28,0.395652361699685,0.59000633225262
2011-06-01T04:38:29Z,1306903109,10E,54.6609514,24.4169075,30.33,0.3,-0.2,308.6,-161422.11,-192545.73,309.6,Air+FixedWing,Blue,Enemies,F-15C,Blue F-15C #001,us,=CNF=101（国庆）,0,0,0,30.3299999237061,2.32999992370605,0,0,NaN,NaN,0,0.0139882274201861,NaN,0.999980032529351,0.00523593197522754,-0.00349065172486007,0,29.7435693751812,29.7435693751812,,,68.210000038147,28,0.395652361699685,0.59000633225262
2011-06-01T04:38:30Z,1306903110,10E,54.6609514,24.4169075,30.33,0.3,-0.2,308.6,-161422.11,-192545.73,309.6,Air+FixedWing,Blue,Enemies,F-15C,Blue F-15C #001,us,=CNF=101（国庆）,0,0,0,30.3299999237061,2.32999992370605,0,0,NaN,NaN,0,0.00989117029631303,NaN,0.999980032529351,0.00523593197522754,-0.00349065172486007,0,29.7435693751812,29.7435693751812,,,69.210000038147,28,0.395652361699685,0.59000633225262
2011-06-01T04:38:31Z,1306903111,10E,54.6609514,24.4169075,30.33,0.3,-0.2,308.6,-161422.11,-192545.73,309.6,Air+FixedWing,Blue,Enemies,F-15C,Blue F-15C #001,us,=CNF=101（国庆）,0,0,0,30.3299999237061,2.32999992370605,0,0,NaN,NaN,0,0.0139882274201861,NaN,0.999980032529351,0.00523593197522754,-0.00349065172486007,0,29.7435693751812,29.7435693751812,,,70.210000038147,28,0.395652361699685,0.59000633225262
2011-06-01T04:38:32Z,1306903112,10E,54.6609514,24.4169075,30.33,0.3,-0.2,308.6,-161422.11,-192545.73,309.6,Air+FixedWing,Blue,Enemies,F-15C,Blue F-15C #001,us,=CNF=101（国庆）,0,0,0,30.3299999237061,2.32999992370605,0,0,NaN,NaN,0,0.0139882274201861,NaN,0.999980032529351,0.00523593197522754,-0.00349065172486007,0,29.7435693751812,29.7435693751812,,,71.210000038147,28,0.395652361699685,0.59000633225262
2011-06-01T04:38:33Z,1306903113,10E,54.6609514,24.4169075,30.33,0.3,-0.2,308.6,-161422.11,-192545.73,309.6,Air+FixedWing,Blue,Enemies,F-15C,Blue F-15C #001,us,=CNF=101（国庆）,0,0,0,30.3299999237061,2.32999992370605,0,0,NaN,NaN,0,0.0139882274201861,NaN,0.999980032529351,0.00523593197522754,-0.00349065172486007,0,29.7435693751812,29.7435693751812,,,72.210000038147,28,0.395652361699685,0.59000633225262
2011-06-01T04:38:34Z,1306903114,10E,54.6609514,24.4169075,30.33,0.3,-0.2,308.6,-161422.11,-192545.73,309.6,Air+FixedWing,Blue,Enemies,F-15C,Blue F-15C #001,us,=CNF=101（国庆）,0,0,0,30.3299999237061,2.32999992370605,0,0,NaN,NaN,0,0.0139882274201861,NaN,0.999980032529351,0.00523593197522754,-0.00349065172486007,0,29.7435693751812,29.7435693751812,,,73.210000038147,28,0.395652361699685,0.59000633225262
2011-06-01T04:38:35Z,1306903115,10E,54.6609514,24.4169075,30.33,0.3,-0.2,308.6,-161422.11,-192545.73,309.6,Air+FixedWing,Blue,Enemies,F-15C,Blue F-15C #001,us,=CNF=101（国庆）,0,0,0,30.3299999237061,2.32999992370605,0,0,NaN,NaN,0,0.0139882274201861,NaN,0.999980032529351,0.00523593197522754,-0.00349065172486007,0,29.7435693751812,29.7435693751812,,,74.210000038147,28,0.395652361699685,0.59000633225262
2011-06-01T04:38:36Z,1306903116,10E,54.6609514,24.4169075,30.33,0.3,-0.2,308.6,-161422.11,-192545.73,309.6,Air+FixedWing,Blue,Enemies,F-15C,Blue F-15C #001,us,=CNF=101（国庆）,0,0,0,30.3299999237061,2.32999992370605,0,0,NaN,NaN,0,0.0139882274201861,NaN,0.999980032529351,0.00523593197522754,-0.00349065172486007,0,29.7435693751812,29.7435693751812,,,75.210000038147,28,0.395652361699685,0.59000633225262
2011-06-01T04:38:37Z,1306903117,10E,54.6609514,24.4169075,30.33,0.3,-0.2,308.6,-161422.11,-192545.73,309.6,Air+FixedWing,Blue,Enemies,F-15C,Blue F-15C #001,us,=CNF=101（国庆）,0,0,0,30.3299999237061,2.32999992370605,0,0,NaN,NaN,0,0.0139882274201861,NaN,0.999980032529351,0.00523593197522754,-0.00349065172486007,0,29.7435693751812,29.7435693751812,,,76.210000038147,28,0.395652361699685,0.59000633225262
2011-06-01T04:38:38Z,1306903118,10E,54.6609514,24.4169075,30.33,0.3,-0.2,308.6,-161422.11,-192545.73,309.5,Air+FixedWing,Blue,Enemies,F-15C,Blue F-15C #001,us,=CNF=101（国庆）,0,0,0,30.3299999237061,2.32999992370605,0,0,NaN,NaN,0,0.0139882274201861,NaN,0.999980032529351,0.00523593197522754,-0.00349065172486007,0,29.7435693751812,29.7435693751812,,,77.210000038147,28,0.395652361699685,0.59000633225262
2011-06-01T04:38:39Z,1306903119,10E,54.6609514,24.4169075,30.33,0.3,-0.2,308.6,-161422.11,-192545.73,309.5,Air+FixedWing,Blue,Enemies,F-15C,Blue F-15C #001,us,=CNF=101（国庆）,0,0,0,30.3299999237061,2.32999992370605,0,0,NaN,NaN,0,0.00989117029631303,NaN,0.999980032529351,0.00523593197522754,-0.00349065172486007,0,29.7435693751812,29.7435693751812,,,78.210000038147,28,0.395652361699685,0.59000633225262
2011-06-01T04:38:40Z,1306903120,10E,54.6609514,24.4169075,30.33,0.3,-0.2,308.6,-161422.11,-192545.73,309.5,Air+FixedWing,Blue,Enemies,F-15C,Blue F-15C #001,us,=CNF=101（国庆）,0,0,0,30.3299999237061,2.32999992370605,0,0,NaN,NaN,0,0.0139882274201861,NaN,0.999980032529351,0.00523593197522754,-0.00349065172486007,0,29.7435693751812,29.7435693751812,,,79.210000038147,28,0.395652361699685,0.59000633225262
2011-06-01T04:38:41Z,1306903121,10E,54.6609514,24.4169075,30.33,0.3,-0.2,308.6,-161422.11,-192545.73,309.5,Air+FixedWing,Blue,Enemies,F-15C,Blue F-15C #001,us,=CNF=101（国庆）,0,0,0,30.3299999237061,2.32999992370605,0,0,NaN,NaN,0,0.0139882274201861,NaN,0.999980032529351,0.00523593197522754,-0.00349065172486007,0,29.7435693751812,29.7435693751812,,,80.210000038147,28,0.395652361699685,0.59000633225262
2011-06-01T04:38:42Z,1306903122,10E,54.6609514,24.4169075,30.33,0.3,-0.2,308.6,-161422.11,-192545.73,309.5,Air+FixedWing,Blue,Enemies,F-15C,Blue F-15C #001,us,=CNF=101（国庆）,0,0,0,30.3299999237061,2.32999992370605,0,0,NaN,NaN,0,0.0139882274201861,NaN,0.999980032529351,0.00523593197522754,-0.00349065172486007,0,29.7435693751812,29.7435693751812,,,81.210000038147,28,0.395652361699685,0.59000633225262
2011-06-01T04:38:43Z,1306903123,10E,54.6609514,24.4169075,30.33,0.3,-0.2,308.6,-161422.11,-192545.73,309.5,Air+FixedWing,Blue,Enemies,F-15C,Blue F-15C #001,us,=CNF=101（国庆）,0,0,0,30.3299999237061,2.32999992370605,0,0,NaN,NaN,0,0.00989117029631303,NaN,0.999980032529351,0.00523593197522754,-0.00349065172486007,0,29.7435693751812,29.7435693751812,,,82.210000038147,28,0.395652361699685,0.59000633225262
2011-06-01T04:38:44Z,1306903124,10E,54.6609514,24.4169075,30.33,0.3,-0.2,308.6,-161422.11,-192545.73,309.5,Air+FixedWing,Blue,Enemies,F-15C,Blue F-15C #001,us,=CNF=101（国庆）,0,0,0,30.3299999237061,2.32999992370605,0,0,NaN,NaN,0,0,NaN,0.999980032529351,0.00523593197522754,-0.00349065172486007,0,29.7435693751812,29.7435693751812,,,83.210000038147,28,0.395652361699685,0.59000633225262
2011-06-01T04:38:45Z,1306903125,10E,54.6609514,24.4169075,30.33,0.3,-0.2,308.6,-161422.11,-192545.73,309.5,Air+FixedWing,Blue,Enemies,F-15C,Blue F-15C #001,us,=CNF=101（国庆）,0,0,0,30.3299999237061,2.32999992370605,0,0,NaN,NaN,0,0.0139882274201861,NaN,0.999980032529351,0.00523593197522754,-0.00349065172486007,0,29.7435693751812,29.7435693751812,,,84.210000038147,28,0.395652361699685,0.59000633225262
2011-06-01T04:38:46Z,1306903126,10E,54.6609514,24.4169075,30.33,0.3,-0.2,308.6,-161422.11,-192545.73,309.5,Air+FixedWing,Blue,Enemies,F-15C,Blue F-15C #001,us,=CNF=101（国庆）,0,0,0,30.3299999237061,2.32999992370605,0,0,NaN,NaN,0,0.00989117029631303,NaN,0.999980032529351,0.00523593197522754,-0.00349065172486007,0,29.7435693751812,29.7435693751812,,,85.210000038147,28,0.395652361699685,0.59000633225262
2011-06-01T04:38:47Z,1306903127,10E,54.6609514,24.4169075,30.33,0.3,-0.2,308.6,-161422.11,-192545.73,309.5,Air+FixedWing,Blue,Enemies,F-15C,Blue F-15C #001,us,=CNF=101（国庆）,0,0,0,30.3299999237061,2.32999992370605,0,0,NaN,NaN,0,0.00989117029631303,NaN,0.999980032529351,0.00523593197522754,-0.00349065172486007,0,29.7435693751812,29.7435693751812,,,86.210000038147,28,0.395652361699685,0.59000633225262
2011-06-01T04:38:48Z,1306903128,10E,54.6609514,24.4169075,30.33,0.3,-0.2,308.6,-161422.11,-192545.73,309.5,Air+FixedWing,Blue,Enemies,F-15C,Blue F-15C #001,us,=CNF=101（国庆）,0,0,0,30.3299999237061,2.32999992370605,0,0,NaN,NaN,0,0.00989117029631303,NaN,0.999980032529351,0.00523593197522754,-0.00349065172486007,0,29.7435693751812,29.7435693751812,,,87.210000038147,28,0.395652361699685,0.59000633225262
2011-06-01T04:38:49Z,1306903129,10E,54.6609514,24.4169075,30.33,0.3,-0.2,308.6,-161422.11,-192545.73,309.5,Air+FixedWing,Blue,Enemies,F-15C,Blue F-15C #001,us,=CNF=101（国庆）,0,0,0,30.3299999237061,2.32999992370605,0,0,NaN,NaN,0,0.0139882274201861,NaN,0.999980032529351,0.00523593197522754,-0.00349065172486007,0,29.7435693751812,29.7435693751812,,,88.210000038147,28,0.395652361699685,0.59000633225262
2011-06-01T04:38:50Z,1306903130,10E,54.6609514,24.4169075,30.33,0.3,-0.2,308.6,-161422.11,-192545.73,309.5,Air+FixedWing,Blue,Enemies,F-15C,Blue F-15C #001,us,=CNF=101（国庆）,0,0,0,30.3299999237061,2.32999992370605,0,0,NaN,NaN,0,0.0139882274201861,NaN,0.999980032529351,0.00523593197522754,-0.00349065172486007,0,29.7435693751812,29.7435693751812,,,89.210000038147,28,0.395652361699685,0.59000633225262
2011-06-01T04:38:51Z,1306903131,10E,54.6609514,24.4169075,30.33,0.3,-0.2,308.6,-161422.11,-192545.73,309.5,Air+FixedWing,Blue,Enemies,F-15C,Blue F-15C #001,us,=CNF=101（国庆）,0,0,0,30.3299999237061,2.32999992370605,0,0,NaN,NaN,0,0.0139882274201861,NaN,0.999980032529351,0.00523593197522754,-0.00349065172486007,0,29.7435693751812,29.7435693751812,,,90.210000038147,28,0.395652361699685,0.59000633225262
2011-06-01T04:38:52Z,1306903132,10E,54.6609514,24.4169075,30.33,0.3,-0.2,308.6,-161422.11,-192545.73,309.5,Air+FixedWing,Blue,Enemies,F-15C,Blue F-15C #001,us,=CNF=101（国庆）,0,0,0,30.3299999237061,2.32999992370605,0,0,NaN,NaN,0,0.0139882274201861,NaN,0.999980032529351,0.00523593197522754,-0.00349065172486007,0,29.7435693751812,29.7435693751812,,,91.210000038147,28,0.395652361699685,0.59000633225262
2011-06-01T04:38:53Z,1306903133,10E,54.6609514,24.4169075,30.33,0.3,-0.2,308.6,-161422.11,-192545.73,309.5,Air+FixedWing,Blue,Enemies,F-15C,Blue F-15C #001,us,=CNF=101（国庆）,0,0,0,30.3299999237061,2.32999992370605,0,0,NaN,NaN,0,0.0139882274201861,NaN,0.999980032529351,0.00523593197522754,-0.00349065172486007,0,29.7435693751812,29.7435693751812,,,92.210000038147,28,0.395652361699685,0.59000633225262
2011-06-01T04:38:54Z,1306903134,10E,54.6609514,24.4169075,30.33,0.3,-0.2,308.6,-161422.11,-192545.73,309.5,Air+FixedWing,Blue,Enemies,F-15C,Blue F-15C #001,us,=CNF=101（国庆）,0,0,0,30.3299999237061,2.32999992370605,0,0,NaN,NaN,0,0.0139882274201861,NaN,0.999980032529351,0.00523593197522754,-0.00349065172486007,0,29.7435693751812,29.7435693751812,,,93.210000038147,28,0.395652361699685,0.59000633225262
2011-06-01T04:38:55Z,1306903135,10E,54.6609514,24.4169075,30.33,0.3,-0.2,308.6,-161422.11,-192545.73,309.5,Air+FixedWing,Blue,Enemies,F-15C,Blue F-15C #001,us,=CNF=101（国庆）,0,0,0,30.3299999237061,2.32999992370605,0,0,NaN,NaN,0,0.0139882274201861,NaN,0.999980032529351,0.00523593197522754,-0.00349065172486007,0,29.7435693751812,29.7435693751812,,,94.210000038147,28,0.395652361699685,0.59000633225262
2011-06-01T04:38:56Z,1306903136,10E,54.6609514,24.4169075,30.33,0.3,-0.2,308.6,-161422.11,-192545.73,309.5,Air+FixedWing,Blue,Enemies,F-15C,Blue F-15C #001,us,=CNF=101（国庆）,0,0,0,30.3299999237061,2.32999992370605,0,0,NaN,NaN,0,0.0139882274201861,NaN,0.999980032529351,0.00523593197522754,-0.00349065172486007,0,29.7435693751812,29.7435693751812,,,95.210000038147,28,0.395652361699685,0.59000633225262
2011-06-01T04:38:57Z,1306903137,10E,54.6609514,24.4169075,30.33,0.3,-0.2,308.6,-161422.11,-192545.73,309.5,Air+FixedWing,Blue,Enemies,F-15C,Blue F-15C #001,us,=CNF=101（国庆）,0,0,0,30.3299999237061,2.32999992370605,0,0,NaN,NaN,0,0.0139882274201861,NaN,0.999980032529351,0.00523593197522754,-0.00349065172486007,0,29.7435693751812,29.7435693751812,,,96.210000038147,28,0.395652361699685,0.59000633225262
2011-06-01T04:38:58Z,1306903138,10E,54.6609514,24.4169075,30.33,0.3,-0.2,308.6,-161422.11,-192545.73,309.5,Air+FixedWing,Blue,Enemies,F-15C,Blue F-15C #001,us,=CNF=101（国庆）,0,0,0,30.3299999237061,2.32999992370605,0,0,NaN,NaN,0,0.0139882274201861,NaN,0.999980032529351,0.00523593197522754,-0.00349065172486007,0,29.7435693751812,29.7435693751812,,,97.210000038147,28,0.395652361699685,0.59000633225262
2011-06-01T04:38:59Z,1306903139,10E,54.6609514,24.4169075,30.33,0.3,-0.2,308.6,-161422.11,-192545.73,309.5,Air+FixedWing,Blue,Enemies,F-15C,Blue F-15C #001,us,=CNF=101（国庆）,0,0,0,30.3299999237061,2.32999992370605,0,0,NaN,NaN,0,0.0139882274201861,NaN,0.999980032529351,0.00523593197522754,-0.00349065172486007,0,29.7435693751812,29.7435693751812,,,98.210000038147,28,0.395652361699685,0.59000633225262
2011-06-01T04:39:00Z,1306903140,10E,54.6609514,24.4169075,30.33,0.3,-0.2,308.6,-161422.11,-192545.73,309.5,Air+FixedWing,Blue,Enemies,F-15C,Blue F-15C #001,us,=CNF=101（国庆）,0,0,0,30.3299999237061,2.32999992370605,0,0,NaN,NaN,0,0.0139882274201861,NaN,0.999980032529351,0.00523593197522754,-0.00349065172486007,0,29.7435693751812,29.7435693751812,,,99.210000038147,28,0.395652361699685,0.59000633225262
2011-06-01T04:39:01Z,1306903141,10E,54.6609514,24.4169075,30.33,0.3,-0.2,308.6,-161422.11,-192545.73,309.5,Air+FixedWing,Blue,Enemies,F-15C,Blue F-15C #001,us,=CNF=101（国庆）,0,0,0,30.3299999237061,2.32999992370605,0,0,NaN,NaN,0,0.0139882274201861,NaN,0.999980032529351,0.00523593197522754,-0.00349065172486007,0,29.7435693751812,29.7435693751812,,,100.210000038147,28,0.395652361699685,0.59000633225262
2011-06-01T04:39:02Z,1306903142,10E,54.6609514,24.4169075,30.33,0.3,-0.2,308.5,-161422.11,-192545.73,309.5,Air+FixedWing,Blue,Enemies,F-15C,Blue F-15C #001,us,=CNF=101（国庆）,0,0,0,30.3299999237061,2.32999992370605,0,0,NaN,NaN,0,0.0139882274201861,NaN,0.999980032529351,0.00523593197522754,-0.00349065172486007,0,29.7435693751812,29.7435693751812,,,101.210000038147,28,0.395652361699685,0.59000633225262
2011-06-01T04:39:03Z,1306903143,10E,54.6609514,24.4169075,30.33,0.3,-0.2,308.5,-161422.11,-192545.73,309.5,Air+FixedWing,Blue,Enemies,F-15C,Blue F-15C #001,us,=CNF=101（国庆）,0,0,0,30.3299999237061,2.32999992370605,0,0,NaN,NaN,0,0.0139882274201861,NaN,0.999980032529351,0.00523593197522754,-0.00349065172486007,0,29.7435693751812,29.7435693751812,,,102.210000038147,28,0.395652361699685,0.59000633225262
2011-06-01T04:39:04Z,1306903144,10E,54.6609514,24.4169075,30.33,0.3,-0.2,308.5,-161422.11,-192545.73,309.5,Air+FixedWing,Blue,Enemies,F-15C,Blue F-15C #001,us,=CNF=101（国庆）,0,0,0,30.3299999237061,2.32999992370605,0,0,NaN,NaN,0,0.0139882274201861,NaN,0.999980032529351,0.00523593197522754,-0.00349065172486007,0,29.7435693751812,29.7435693751812,,,103.210000038147,28,0.395652361699685,0.59000633225262
2011-06-01T04:39:05Z,1306903145,10E,54.6609514,24.4169075,30.33,0.3,-0.2,308.5,-161422.11,-192545.73,309.5,Air+FixedWing,Blue,Enemies,F-15C,Blue F-15C #001,us,=CNF=101（国庆）,0,0,0,30.3299999237061,2.32999992370605,0,0,NaN,NaN,0,0.0139882274201861,NaN,0.999990007414528,0.00400653340578081,-0.00247719059834706,0,29.7435693751812,29.7435693751812,,,104.210000038147,28,0.395652361699685,0.59000633225262
2011-06-01T04:39:06Z,1306903146,10E,54.6609514,24.4169075,30.33,0.3,-0.2,308.5,-161422.11,-192545.72,309.5,Air+FixedWing,Blue,Enemies,F-15C,Blue F-15C #001,us,=CNF=101（国庆）,0.015625,0,4.59157402440405e-05,30.3299999237061,2.32999992370605,0.015625,0,NaN,NaN,0,0.0139882274201861,NaN,0.999969042631378,0.00747880656219821,-0.00327468656447082,1.220703125e-05,29.7435693751812,29.7435815822124,,,105.210000038147,28,0.395652361699685,0.59000633225262
2011-06-01T04:39:07Z,1306903147,10E,54.6609512,24.4169076,30.33,0.3,-0.2,308.5,-161422.12,-192545.72,309.5,Air+FixedWing,Blue,Enemies,F-15C,Blue F-15C #001,us,=CNF=101（国庆）,0.015625,0,4.59157402440405e-05,30.3299999237061,2.32999992370605,0.015625,0,NaN,NaN,0,0.0139882274201861,NaN,0.999972087669762,0.00443837850962639,-0.0069629654251776,1.220703125e-05,29.7435693751812,29.7435815822124,,,106.210000038147,28,0.417340475444085,0.611694549075346
2011-06-01T04:39:08Z,1306903148,10E,54.6609513,24.4169075,30.33,0.3,-0.2,308.5,-161422.11,-192545.73,309.5,Air+FixedWing,Blue,Enemies,F-15C,Blue F-15C #001,us,=CNF=101（国庆）,0.0220970869120796,0,6.49346625795222e-05,30.3299999237061,2.32999992370605,0.0220970869120796,0,NaN,NaN,0,0.0139882274201861,NaN,0.999988992401734,0.00502000942330475,-0.0012477643114448,2.44140625e-05,29.7435693751812,29.7435937892437,,,107.210000038147,28,0.430073853365649,0.624427987361578
2011-06-01T04:39:09Z,1306903149,10E,54.6609513,24.4169075,30.33,0.3,-0.2,308.5,-161422.11,-192545.73,309.5,Air+FixedWing,Blue,Enemies,F-15C,Blue F-15C #001,us,=CNF=101（国庆）,0,0,0,30.3299999237061,2.32999992370605,0,0,NaN,NaN,0,0.0139882274201861,NaN,0.999980032529351,0.00523593197522754,-0.00349065172486007,0,29.7435693751812,29.7435693751812,,,108.210000038147,28,0.434999251666106,0.629353409316649
2011-06-01T04:39:10Z,1306903150,10E,54.6609513,24.4169075,30.33,0.3,-0.2,308.5,-161422.11,-192545.73,309.5,Air+FixedWing,Blue,Enemies,F-15C,Blue F-15C #001,us,=CNF=101（国庆）,0,0,0,30.3299999237061,2.32999992370605,0,0,NaN,NaN,0,0.0139882274201861,NaN,0.999990007414528,0.00400653340578081,-0.00247719059834706,0,29.7435693751812,29.7435693751812,,,109.210000038147,28,0.439924649966562,0.63427883127172
2011-06-01T04:39:11Z,1306903151,10E,54.6609513,24.4169075,30.33,0.3,-0.2,308.5,-161422.11,-192545.72,309.5,Air+FixedWing,Blue,Enemies,F-15C,Blue F-15C #001,us,=CNF=101（国庆）,0.015625,0,4.59157402440405e-05,30.3299999237061,2.32999992370605,0.015625,0,NaN,NaN,0,0.0139882274201861,NaN,0.999970057644173,0.00646533054467427,-0.00450411285137308,1.220703125e-05,29.7435693751812,29.7435815822124,,,110.210000038147,28,0.441026638277228,0.635380824895976
2011-06-01T04:39:12Z,1306903152,10E,54.6609513,24.4169075,30.33,0.3,-0.2,308.5,-161422.11,-192545.72,309.5,Air+FixedWing,Blue,Enemies,F-15C,Blue F-15C #001,us,=CNF=101（国庆）,0,0,0,30.3299999237061,2.32999992370605,0,0,NaN,NaN,0,0.0139882274201861,NaN,0.999980032529351,0.00523593197522754,-0.00349065172486007,0,29.7435693751812,29.7435693751812,,,111.210000038147,28,0.442894414095354,0.637248609733846
2011-06-01T04:39:13Z,1306903153,10E,54.6609513,24.4169075,30.33,0.3,-0.2,308.5,-161422.11,-192545.72,309.5,Air+FixedWing,Blue,Enemies,F-15C,Blue F-15C #001,us,=CNF=101（国庆）,0,0,0,30.3299999237061,2.32999992370605,0,0,NaN,NaN,0,0.0139882274201861,NaN,0.999980032529351,0.00523593197522754,-0.00349065172486007,0,29.7435693751812,29.7435693751812,,,112.210000038147,28,0.444762190651541,0.639116394997103
2011-06-01T04:39:14Z,1306903154,10E,54.6609513,24.4169076,30.33,0.3,-0.2,308.5,-161422.11,-192545.72,309.5,Air+FixedWing,Blue,Enemies,F-15C,Blue F-15C #001,us,=CNF=101（国庆）,0,0,0,30.3299999237061,2.32999992370605,0,0,NaN,NaN,0,0.0139882274201861,NaN,0.999980032529351,0.00523593197522754,-0.00349065172486007,0,29.7435693751812,29.7435693751812,,,113.210000038147,28,0.446629967319068,0.640984181109762
2011-06-01T04:39:15Z,1306903155,10E,54.6609513,24.4169076,30.33,0.3,-0.2,308.5,-161422.11,-192545.72,309.5,Air+FixedWing,Blue,Enemies,F-15C,Blue F-15C #001,us,=CNF=101（国庆）,0,0,0,30.3299999237061,2.32999992370605,0,0,NaN,NaN,0,0.0139882274201861,NaN,0.999980032529351,0.00523593197522754,-0.00349065172486007,0,29.7435693751812,29.7435693751812,,,114.210000038147,28,0.448497744834622,0.642851967221046
2011-06-01T04:39:16Z,1306903156,10E,54.6609513,24.4169076,30.33,0.3,-0.2,308.5,-161422.11,-192545.72,309.5,Air+FixedWing,Blue,Enemies,F-15C,Blue F-15C #001,us,=CNF=101（国庆）,0,0,0,30.3299999237061,2.32999992370605,0,0,NaN,NaN,0,0.0279764548403722,NaN,0.999979017516556,0.00624940799275148,-0.00226122543795781,0,29.7435693751812,29.7435693751812,,,115.210000038147,28,0.450365521390808,0.644719752484304
2011-06-01T04:39:17Z,1306903157,10E,54.6609513,24.4169076,30.33,0.3,-0.3,308.5,-161422.12,-192545.72,309.5,Air+FixedWing,Blue,Enemies,F-15C,Blue F-15C #001,us,=CNF=101（国庆）,0.015625,0,4.59157402440405e-05,30.3299999237061,2.32999992370605,0.015625,0,NaN,NaN,0,0.0484566469995765,NaN,0.999971332139321,0.00422240508749643,-0.00646538152488549,1.220703125e-05,29.7435693751812,29.7435815822124,,,116.210000038147,28,0.451472746113548,0.645826981872565
2011-06-01T04:39:18Z,1306903158,10E,54.6609513,24.4169077,30.33,0.3,-0.3,308.5,-161422.12,-192545.72,309.5,Air+FixedWing,Blue,Enemies,F-15C,Blue F-15C #001,us,=CNF=101（国庆）,0,0,0,30.3299999237061,2.32999992370605,0,0,NaN,NaN,0,0.0279764548403722,NaN,0.99997246284369,0.00523589234007693,-0.00523596443235874,0,29.7435693751812,29.7435693751812,,,117.210000038147,28,0.46187643761608,0.656230723477482
2011-06-01T04:39:19Z,1306903159,10E,54.6609512,24.4169077,30.33,0.3,-0.4,308.5,-161422.12,-192545.72,309.4,Air+FixedWing,Blue,Enemies,F-15C,Blue F-15C #001,us,=CNF=101（国庆）,0,0,0,30.3299999237061,2.32999992370605,0,0,NaN,NaN,0,0.0713262647800548,NaN,0.999981929835139,0.00501605846166669,-0.00399080087395555,0,29.7435693751812,29.7435693751812,,,118.210000038147,28,0.472017567890101,0.666371902215203
2011-06-01T04:39:20Z,1306903160,10E,54.6609511,24.4169078,30.33,0.3,-0.4,308.4,-161422.14,-192545.7,309.4,Air+FixedWing,Blue,Enemies,F-15C,Blue F-15C #001,us,=CNF=101（国庆）,0.0220970869120796,0,6.49346625795222e-05,30.3299999237061,2.32999992370605,0.0220970869120796,0,NaN,NaN,0,0.0906541126458174,NaN,0.999965153341274,0.00624718819898087,-0.00575008971822101,2.44140625e-05,29.7435693751812,29.7435937892437,,,119.210000038147,28,0.483910565905728,0.678264956350479
2011-06-01T04:39:21Z,1306903161,10E,54.6609508,24.4169079,30.33,0.3,-0.5,308.4,-161422.17,-192545.69,309.3,Air+FixedWing,Blue,Enemies,F-15C,Blue F-15C #001,us,=CNF=101（国庆）,0.0349385621484342,0,0.000102670716422897,30.3299999237061,2.32999992370605,0.0349385621484342,0,NaN,NaN,0,0.0593470334505648,NaN,1.00070681198883,0.00346190635568087,0.0771426602527663,6.103515625e-05,29.7435693751812,29.7436304103374,,,120.210000038147,28,0.518967170612926,0.713321727921001
2011-06-01T04:39:22Z,1306903162,10E,54.6609439,24.4169129,30.33,0.3,-0.3,308.1,-161422.84,-192545.12,309.1,Air+FixedWing,Blue,Enemies,F-15C,Blue F-15C #001,us,=CNF=101（国庆）,0.876254680800622,0.871351361274719,0.00257496846792102,30.3299999237061,2.32999992370605,0.876254680800622,0,-0.300615382717341,0.11673943061248,0,0.311534159471832,NaN,1.00206469190813,0.00707477730173757,0.284890519068024,0.03839111328125,29.7435693751812,29.7819604884624,,,121.210000038147,28,1.40923219144782,1.60359098298998
2011-06-01T04:39:23Z,1306903163,10E,54.6609151,24.4169336,30.34,0.3,-0.4,307.5,-161425.73,-192542.78,308.5,Air+FixedWing,Blue,Enemies,F-15C,Blue F-15C #001,us,=CNF=101（国庆）,3.72141231358217,3.71545457839966,0.0109357703766016,30.33571434021,2.33571434020996,3.72140792619205,0.00571441650390625,-0.539159550184267,0.38186631172673,0,0.451111423038569,NaN,0.999167146388616,0.00909878011116404,0.0490208722684178,0.692445480384049,29.749173303442,30.4416187838261,,,122.210000038147,28,5.12942854942145,5.32380942142205
2011-06-01T04:39:24Z,1306903164,10E,54.6608819,24.4169571,30.33,0.2,-0.4,307.6,-161429.08,-192540.12,308.6,Air+FixedWing,Blue,Enemies,F-15C,Blue F-15C #001,us,=CNF=101（国庆）,4.27040522427977,4.26064014434814,0.0125490442889487,30.3299999237061,2.32999992370605,4.2704014009224,-0.00571441650390625,-0.178183772523945,0.057448891828758,0.199987938897973,0.0197823405926261,NaN,1.00015156805509,-0.0022652010097604,0.0649293384366889,0.911818038977799,29.7435693751812,30.655387414159,,,123.210000038147,28,9.3940519431802,9.58845692549636
2011-06-01T04:39:25Z,1306903165,10E,54.6608432,24.4169848,30.32,0.2,-0.4,307.9,-161432.94,-192536.98,308.8,Air+FixedWing,Blue,Enemies,F-15C,Blue F-15C #001,us,=CNF=101（国庆）,4.97577960282738,4.96399164199829,0.0146218611494274,30.320951461792,2.32095146179199,4.97577137550049,-0.0090484619140625,-0.514139787744854,0.183697759202218,0.199987938897973,0.152272810985433,NaN,1.00443759852983,0.00456700232761167,0.223161396638609,1.23791913279565,29.7346958652782,30.9726149980739,,,124.210000038147,28,14.3836712008959,14.5781081110009
2011-06-01T04:39:26Z,1306903166,10E,54.660787,24.417025,30.34,0.2,-0.4,307.9,-161438.56,-192532.44,308.9,Air+FixedWing,Blue,Enemies,F-15C,Blue F-15C #001,us,=CNF=101（国庆）,7.23291504984305,7.21889019012451,0.0212546999078498,30.3400001525879,2.34000015258789,7.23288996637063,0.0190486907958984,-0.351607009114144,0.524966470538024,0.0952401577866578,0.619139252623613,NaN,0.996997802460929,-0.0273956568577924,0.122302479030196,2.6157530059123,29.7533762496376,32.3691292555499,,,125.210000038147,28,21.6284201912788,21.8229165950925
2011-06-01T04:39:27Z,1306903167,10E,54.6607228,24.4170742,30.32,-0.3,-0.4,312.2,-161444.98,-192526.86,313.2,Air+FixedWing,Blue,Enemies,F-15C,Blue F-15C #001,us,=CNF=101（国庆）,8.50625399629947,8.49288272857666,0.0249965379155909,30.3199996948242,2.31999969482422,8.50623048307827,-0.0200004577636719,-0.410451861139186,1.24960445806436,0.628595969694614,4.74996455827887,NaN,1.00326879923666,-0.144871823701401,-0.0261884938965915,3.61781785247804,29.7337625007248,33.3515803532028,,,126.210000038147,28,30.135252466537,30.3298128344009
2011-06-01T04:39:28Z,1306903168,10E,54.6606691,24.4171317,30.34,-1.1,-0.5,325.2,-161450.33,-192520.41,326.2,Air+FixedWing,Blue,Enemies,F-15C,Blue F-15C #001,us,=CNF=101（国庆）,8.37847756734096,8.36596298217773,0.024621058750351,30.3400001525879,2.34000015258789,8.37845369552909,0.0200004577636719,-0.5201548699548,2.63147428494354,0.952401577866578,13.25682941952,NaN,0.992172703132454,-0.28862643403144,-0.0664475713524488,3.50994431732179,29.7533762496376,33.2633205669594,,,127.210000038147,28,38.5327212211831,38.7273453391429
2011-06-01T04:39:29Z,1306903169,10E,54.6606399,24.4171986,30.34,-1.3,-0.5,346.6,-161453.16,-192512.95,347.5,Air+FixedWing,Blue,Enemies,F-15C,Blue F-15C #001,us,=CNF=101（国庆）,7.97166000788104,7.95575904846191,0.0234255815348745,30.3400001525879,2.34000015258789,7.97166000788104,0,-0.38510989828331,1.8184295094846,0.180941316067158,19.5422913664304,NaN,0.992848779148119,-0.265500125196917,-0.0529564235118048,3.1773681640625,29.7533762496376,32.9307444137001,,,128.210000038147,28,46.5423920581374,46.7370542774367
2011-06-01T04:39:30Z,1306903170,10E,54.6606347,24.4172667,30.33,-0,-0.5,1.7,-161453.56,-192505.41,2.7,Air+FixedWing,Blue,Enemies,F-15C,Blue F-15C #001,us,=CNF=101（国庆）,7.55780797140961,7.54612445831299,0.0222094302482933,30.3299999237061,2.32999992370605,7.55780135542904,-0.0100002288818359,-0.501688483565598,-2.53778971428696,1.60953130314915,13.394753990751,NaN,1.00101119323938,-0.0466001846213165,-0.00181884712230337,2.85602306663513,29.7435693751812,32.5995924418163,,,129.210000038147,28,54.1516995793146,54.346404560015
2011-06-01T04:39:31Z,1306903171,10E,54.6606339,24.4173352,30.33,0.2,-0.4,1.9,-161453.52,-192497.81,2.9,Air+FixedWing,Blue,Enemies,F-15C,Blue F-15C #001,us,=CNF=101（国庆）,7.59389467454777,7.58262300491333,0.0223154749002968,30.3299999237061,2.32999992370605,7.59389467454777,0,-0.466002522939611,-2.24338390222704,0.199987938897973,2.91460542994111,NaN,1.00140100569513,-0.0195995281228511,0.0404603815846926,2.88336181640625,29.7435693751812,32.6269311915874,,,130.210000038147,28,61.7758903068807,61.9706315432817
2011-06-01T04:39:32Z,1306903172,10E,54.6606355,24.4174078,30.34,0.1,-0.5,2.9,-161453.22,-192489.77,3.8,Air+FixedWing,Blue,Enemies,F-15C,Blue F-15C #001,us,=CNF=101（国庆）,8.05235568239678,8.03775787353516,0.0236627144659091,30.3400001525879,2.34000015258789,8.05234947274707,0.0100002288818359,-0.401991187136049,-0.121148989636026,0.114310045949333,0.560935155281115,NaN,0.997671987985326,-0.0317242029063524,0.0773697908664807,3.24202160179138,29.7533762496376,32.995397851429,,,131.210000038147,28,69.8539162768827,70.048702122855
2011-06-01T04:39:33Z,1306903173,10E,54.6606407,24.4174879,30.32,0.3,-0.4,3.5,-161452.53,-192480.91,4.4,Air+FixedWing,Blue,Enemies,F-15C,Blue F-15C #001,us,=CNF=101（国庆）,8.88603295396409,8.87441539764404,0.0261125590359263,30.3199996948242,2.31999969482422,8.88601044567386,-0.0200004577636719,-0.326956482907274,-0.0935154386823607,0.0380952200131874,0.436562426415355,NaN,1.00368997058953,0.0130448272730888,0.094668558177595,3.94807908294679,29.7337625007248,33.6818415836716,,,132.210000038147,28,78.7885469908355,78.9833977097969
2011-06-01T04:39:34Z,1306903174,10E,54.6606458,24.4175769,30.33,0.4,-0.4,2.6,-161451.84,-192471.05,3.5,Air+FixedWing,Blue,Enemies,F-15C,Blue F-15C #001,us,=CNF=101（国庆）,9.88332088142456,9.86871242523193,0.0290431996377594,30.3299999237061,2.32999992370605,9.88331582216338,0.0100002288818359,-0.509762520960892,0.142745701619886,0.0857142850503114,0.716292396986404,NaN,1.00021291281934,0.0162488456765818,0.144100415031095,4.88400158226013,29.7435693751812,34.6275709574413,,,133.210000038147,28,88.7064133879873,88.9013163029938
2011-06-01T04:39:35Z,1306903175,10E,54.6606508,24.4176794,30.33,0.3,-0.3,2,-161451.16,-192459.7,3,Air+FixedWing,Blue,Enemies,F-15C,Blue F-15C #001,us,=CNF=101（国庆）,11.3645645968572,11.3488731384277,0.0333959944202587,30.332857131958,2.33285713195801,11.3645642376864,0.00285720825195312,-0.251320670428504,0.682659491328926,0.200000025131153,0.175551136213468,995.432900887804,0.99799348998111,-0.00992602498950211,0.1024579805341,6.45766642380695,29.7463713393116,36.2040377631185,,,134.210000038147,28,100.130179878216,100.325137476546
2011-06-01T04:39:36Z,1306903176,10E,54.6606575,24.4177914,30.31,0.1,-0.4,3.3,-161450.27,-192447.31,4.3,Air+FixedWing,Blue,Enemies,F-15C,Blue F-15C #001,us,=CNF=101（国庆）,12.4226133826239,12.4037218093872,0.0365051750832178,30.3099994659424,2.30999946594238,12.4225923535005,-0.022857666015625,-0.353659402834549,0.362112492472031,0.114284459420372,0.776401903663924,998.13481865296,1.00484868766347,-0.013173308898327,0.0596800024754015,7.71606616270728,29.7239556262684,37.4400217889757,,,135.210000038147,28,112.612870394864,112.807908263296
2011-06-01T04:39:37Z,1306903177,10E,54.6606661,24.4179091,30.33,0.2,-0.3,3.6,-161449.17,-192434.28,4.6,Air+FixedWing,Blue,Enemies,F-15C,Blue F-15C #001,us,=CNF=101（国庆）,13.0770855179321,13.0570611953735,0.0384284199545905,30.3299999237061,2.32999992370605,13.0770702232954,0.0200004577636719,-0.349734486155222,0.167851403643583,0.0476190116762711,0.56224180248585,4825.01910450922,0.998061339367024,0.000795273586437462,0.015804031037568,8.55050828216554,29.7435693751812,38.2940776573467,,,136.210000038147,28,125.750616887939,125.945732433845
