ISOTime,UnixTime,Id,Longitude,Latitude,Altitude,Roll,Pitch,Yaw,U,V,Heading,Type,Color,Coalition,Name,Group,Country,Pilot,TAS,CAS,M,ASL,AGL,GS,VS,AOA,AOS,RRT,TRT,TRD,G,LatG,LonG,Ek,Ep,Em,FFW,FFV,RelativeTime,Elev,GroundDistance,AirDistance
2011-06-01T04:41:48Z,1306903308,110,54.6566235,24.4249946,30.31,-0.3,-0.8,217.1,-161845.95,-191642.41,218.1,Air+FixedWing,Blue,Enemies,J-11A,Blue J-11A #003,cn,=CNF= 909,0.0571410406186173,0,0.000167915051515896,30.3131427764893,2.31314277648926,NaN,NaN,NaN,NaN,NaN,NaN,NaN,NaN,NaN,NaN,NaN,29.7270381609058,NaN,,,0.119999885559082,28,NaN,NaN
2011-06-01T04:41:49Z,1306903309,110,54.6566237,24.4249948,30.26,-0.1,-0.5,217.1,-161845.94,-191642.39,218.1,Air+FixedWing,Blue,Enemies,J-11A,Blue J-11A #003,cn,=CNF= 909,0.0612659682365297,0,0.000180036476007615,30.2560005187988,2.25600051879883,0.0220970869120796,-0.0571422576904297,NaN,NaN,0.214292302691111,NaN,NaN,1.00417100678188,-6.84699751418239e-05,-0.00715880004057719,0.000187675943197974,29.6710007487679,29.6711884247111,,,1.11999988555908,28,0.0322606623960936,0.0656201018481738
2011-06-01T04:41:50Z,1306903310,110,54.6566238,24.4249949,30.24,0,-0.4,217.1,-161845.92,-191642.39,218.1,Air+FixedWing,Blue,Enemies,J-11A,Blue J-11A #003,cn,=CNF= 909,0.0223643589521425,0,6.57200035162531e-05,30.2399997711182,2.23999977111816,0.015625,-0.0160007476806641,NaN,NaN,0,0.112776761862158,NaN,1.00161211781496,-0.00349078492920406,-0.00628024243583063,2.50082275670138e-05,29.6553093755436,29.6553343837712,,,2.11999988555908,28,0.0412936469327451,0.0839945284510404
2011-06-01T04:41:51Z,1306903311,110,54.6566238,24.4249949,30.24,0,-0.4,217.1,-161845.94,-191642.38,218.1,Air+FixedWing,Blue,Enemies,J-11A,Blue J-11A #003,cn,=CNF= 909,0.0220970869120796,0,6.49345967245665e-05,30.2399997711182,2.23999977111816,0.0220970869120796,0,NaN,NaN,0,0.0197823405926261,NaN,0.999979341768564,0.00447391239801189,-0.00643987119751808,2.44140625e-05,29.6553093755436,29.6553337896061,,,3.11999988555908,28,0.0412936469327451,0.0839945284510404
2011-06-01T04:41:52Z,1306903312,110,54.6566238,24.4249949,30.24,0,-0.4,217.1,-161845.92,-191642.39,218.1,Air+FixedWing,Blue,Enemies,J-11A,Blue J-11A #003,cn,=CNF= 909,0.0220970869120796,0,6.49345967245665e-05,30.2399997711182,2.23999977111816,0.0220970869120796,0,NaN,NaN,0,0.0197823405926261,NaN,0.999973672261361,-0.00223695619900595,-0.00725195531456353,2.44140625e-05,29.6553093755436,29.6553337896061,,,4.11999988555908,28,0.0412936469327451,0.0839945284510404
2011-06-01T04:41:53Z,1306903313,110,54.6566238,24.4249949,30.24,0,-0.4,217.1,-161845.92,-191642.39,218.1,Air+FixedWing,Blue,Enemies,J-11A,Blue J-11A #003,cn,=CNF= 909,0,0,0,30.2399997711182,2.23999977111816,0,0,NaN,NaN,0,0.0197823405926261,NaN,0.999966808793445,-0.000983127468807834,-0.00823505897447948,0,29.6553093755436,29.6553093755436,,,5.11999988555908,28,0.0412936469327451,0.0839945284510404
2011-06-01T04:41:54Z,1306903314,110,54.6566238,24.4249949,30.24,0,-0.4,217.1,-161845.92,-191642.38,218.1,Air+FixedWing,Blue,Enemies,J-11A,Blue J-11A #003,cn,=CNF= 909,0.015625,0,4.59156936775547e-05,30.2399997711182,2.23999977111816,0.015625,0,NaN,NaN,0,0.0197823405926261,NaN,0.999984315400745,0.000983127468807834,-0.00572746224328394,1.220703125e-05,29.6553093755436,29.6553215825748,,,6.11999988555908,28,0.0412936469327451,0.0839945284510404
2011-06-01T04:41:55Z,1306903315,110,54.6566238,24.4249949,30.24,0,-0.4,217.1,-161845.92,-191642.38,218.1,Air+FixedWing,Blue,Enemies,J-11A,Blue J-11A #003,cn,=CNF= 909,0,0,0,30.2399997711182,2.23999977111816,0,0,NaN,NaN,0,0.0197823405926261,NaN,0.99998242556501,-0.00125382873019811,-0.00599815694896576,0,29.6553093755436,29.6553093755436,,,7.11999988555908,28,0.0412936469327451,0.0839945284510404
2011-06-01T04:41:56Z,1306903316,110,54.6566238,24.4249949,30.24,0,-0.4,217.1,-161845.94,-191642.38,218.1,Air+FixedWing,Blue,Enemies,J-11A,Blue J-11A #003,cn,=CNF= 909,0.015625,0,4.59156936775547e-05,30.2399997711182,2.23999977111816,0.015625,0,NaN,NaN,0,0.0197823405926261,NaN,0.999970588464914,0.00349078492920406,-0.00769366956311585,1.220703125e-05,29.6553093755436,29.6553215825748,,,8.11999988555908,28,0.0412936469327451,0.0839945284510404
2011-06-01T04:41:57Z,1306903317,110,54.6566238,24.4249949,30.24,0,-0.4,217.1,-161845.92,-191642.39,218.1,Air+FixedWing,Blue,Enemies,J-11A,Blue J-11A #003,cn,=CNF= 909,0.0220970869120796,0,6.49345967245665e-05,30.2399997711182,2.23999977111816,0.0220970869120796,0,NaN,NaN,0,0.0197823405926261,NaN,0.999964918957711,-0.00322008366781378,-0.0085057536801613,2.44140625e-05,29.6553093755436,29.6553337896061,,,9.11999988555908,28,0.0412936469327451,0.0839945284510404
2011-06-01T04:41:58Z,1306903318,110,54.6566238,24.4249949,30.24,0,-0.4,217.1,-161845.92,-191642.38,218.1,Air+FixedWing,Blue,Enemies,J-11A,Blue J-11A #003,cn,=CNF= 909,0.015625,0,4.59156936775547e-05,30.2399997711182,2.23999977111816,0.015625,0,NaN,NaN,0,0.0197823405926261,NaN,0.999999932172311,0.000712426207417556,-0.00349056021777022,1.220703125e-05,29.6553093755436,29.6553215825748,,,10.1199998855591,28,0.0412936469327451,0.0839945284510404
2011-06-01T04:41:59Z,1306903319,110,54.6566238,24.4249949,30.24,0,-0.4,217.1,-161845.94,-191642.39,218.1,Air+FixedWing,Blue,Enemies,J-11A,Blue J-11A #003,cn,=CNF= 909,0.0220970869120796,0,6.49345967245665e-05,30.2399997711182,2.23999977111816,0.0220970869120796,0,NaN,NaN,0,0.0197823405926261,NaN,0.999953081857614,0.00152452999158839,-0.0102012662943114,2.44140625e-05,29.6553093755436,29.6553337896061,,,11.1199998855591,28,0.0412936469327451,0.0839945284510404
2011-06-01T04:42:00Z,1306903320,110,54.6566238,24.4249949,30.24,0,-0.4,217.1,-161845.92,-191642.39,218.1,Air+FixedWing,Blue,Enemies,J-11A,Blue J-11A #003,cn,=CNF= 909,0.015625,0,4.59156936775547e-05,30.2399997711182,2.23999977111816,0.015625,0,NaN,NaN,0,0.0197823405926261,NaN,0.99998242556501,-0.00125382873019811,-0.00599815694896576,1.220703125e-05,29.6553093755436,29.6553215825748,,,12.1199998855591,28,0.0412936469327451,0.0839945284510404
2011-06-01T04:42:01Z,1306903321,110,54.6566238,24.4249949,30.24,0,-0.4,217.1,-161845.92,-191642.39,218.1,Air+FixedWing,Blue,Enemies,J-11A,Blue J-11A #003,cn,=CNF= 909,0,0,0,30.2399997711182,2.23999977111816,0,0,NaN,NaN,0,0.0197823405926261,NaN,0.99998242556501,-0.00125382873019811,-0.00599815694896576,0,29.6553093755436,29.6553093755436,,,13.1199998855591,28,0.0412936469327451,0.0839945284510404
2011-06-01T04:42:02Z,1306903322,110,54.6566238,24.4249949,30.24,0,-0.4,217.1,-161845.94,-191642.39,218.1,Air+FixedWing,Blue,Enemies,J-11A,Blue J-11A #003,cn,=CNF= 909,0.015625,0,4.59156936775547e-05,30.2399997711182,2.23999977111816,0.015625,0,NaN,NaN,0,0.0197823405926261,NaN,0.99996869862918,0.00125382873019811,-0.00796436426879766,1.220703125e-05,29.6553093755436,29.6553215825748,,,14.1199998855591,28,0.0412936469327451,0.0839945284510404
2011-06-01T04:42:03Z,1306903323,110,54.6566238,24.4249949,30.24,0,-0.4,217.1,-161845.94,-191642.39,218.1,Air+FixedWing,Blue,Enemies,J-11A,Blue J-11A #003,cn,=CNF= 909,0,0,0,30.2399997711182,2.23999977111816,0,0,NaN,NaN,0,0.0197823405926261,NaN,0.999966808793445,-0.000983127468807834,-0.00823505897447948,0,29.6553093755436,29.6553093755436,,,15.1199998855591,28,0.0412936469327451,0.0839945284510404
2011-06-01T04:42:04Z,1306903324,110,54.6566238,24.4249949,30.24,0,-0.4,217.1,-161845.94,-191642.38,218.1,Air+FixedWing,Blue,Enemies,J-11A,Blue J-11A #003,cn,=CNF= 909,0.015625,0,4.59156936775547e-05,30.2399997711182,2.23999977111816,0.015625,0,NaN,NaN,0,0.0197823405926261,NaN,0.99997745193283,0.00223695619900595,-0.00671056590319989,1.220703125e-05,29.6553093755436,29.6553215825748,,,16.1199998855591,28,0.0412936469327451,0.0839945284510404
2011-06-01T04:42:05Z,1306903325,110,54.6566238,24.4249949,30.24,0,-0.4,217.1,-161845.92,-191642.38,218.1,Air+FixedWing,Blue,Enemies,J-11A,Blue J-11A #003,cn,=CNF= 909,0.015625,0,4.59156936775547e-05,30.2399997711182,2.23999977111816,0.015625,0,NaN,NaN,0,0.0197823405926261,NaN,0.99998242556501,-0.00125382873019811,-0.00599815694896576,1.220703125e-05,29.6553093755436,29.6553215825748,,,17.1199998855591,28,0.0412936469327451,0.0839945284510404
2011-06-01T04:42:06Z,1306903326,110,54.6566238,24.4249949,30.24,0,-0.4,217.1,-161845.92,-191642.38,218.1,Air+FixedWing,Blue,Enemies,J-11A,Blue J-11A #003,cn,=CNF= 909,0,0,0,30.2399997711182,2.23999977111816,0,0,NaN,NaN,0,0.0197823405926261,NaN,0.99998242556501,-0.00125382873019811,-0.00599815694896576,0,29.6553093755436,29.6553093755436,,,18.1199998855591,28,0.0412936469327451,0.0839945284510404
2011-06-01T04:42:07Z,1306903327,110,54.6566238,24.4249949,30.24,0,-0.4,217.1,-161845.94,-191642.38,218.1,Air+FixedWing,Blue,Enemies,J-11A,Blue J-11A #003,cn,=CNF= 909,0.015625,0,4.59156936775547e-05,30.2399997711182,2.23999977111816,0.015625,0,NaN,NaN,0,0.0197823405926261,NaN,0.99997745193283,0.00223695619900595,-0.00671056590319989,1.220703125e-05,29.6553093755436,29.6553215825748,,,19.1199998855591,28,0.0412936469327451,0.0839945284510404
2011-06-01T04:42:08Z,1306903328,110,54.6566238,24.4249949,30.24,0,-0.4,217.1,-161845.94,-191642.39,218.1,Air+FixedWing,Blue,Enemies,J-11A,Blue J-11A #003,cn,=CNF= 909,0.015625,0,4.59156936775547e-05,30.2399997711182,2.23999977111816,0.015625,0,NaN,NaN,0,0.0197823405926261,NaN,0.999958055489795,-0.00196625493761567,-0.00948885734007725,1.220703125e-05,29.6553093755436,29.6553215825748,,,20.1199998855591,28,0.0412936469327451,0.0839945284510404
2011-06-01T04:42:09Z,1306903329,110,54.6566238,24.4249949,30.24,0,-0.4,217.1,-161845.94,-191642.38,218.1,Air+FixedWing,Blue,Enemies,J-11A,Blue J-11A #003,cn,=CNF= 909,0.015625,0,4.59156936775547e-05,30.2399997711182,2.23999977111816,0.015625,0,NaN,NaN,0,0.0197823405926261,NaN,0.99997745193283,0.00223695619900595,-0.00671056590319989,1.220703125e-05,29.6553093755436,29.6553215825748,,,21.1199998855591,28,0.0412936469327451,0.0839945284510404
2011-06-01T04:42:10Z,1306903330,110,54.6566238,24.4249949,30.24,0,-0.4,217.1,-161845.92,-191642.38,218.1,Air+FixedWing,Blue,Enemies,J-11A,Blue J-11A #003,cn,=CNF= 909,0.015625,0,4.59156936775547e-05,30.2399997711182,2.23999977111816,0.015625,0,NaN,NaN,0,0.0197823405926261,NaN,0.999998042336576,-0.00152452999158839,-0.00376125492345204,1.220703125e-05,29.6553093755436,29.6553215825748,,,22.1199998855591,28,0.0412936469327451,0.0839945284510404
2011-06-01T04:42:11Z,1306903331,110,54.6566238,24.4249949,30.24,0,-0.4,217.1,-161845.94,-191642.39,218.1,Air+FixedWing,Blue,Enemies,J-11A,Blue J-11A #003,cn,=CNF= 909,0.0220970869120796,0,6.49345967245665e-05,30.2399997711182,2.23999977111816,0.0220970869120796,0,NaN,NaN,0,0.0197823405926261,NaN,0.99995119202188,-0.000712426207417556,-0.0104719609999932,2.44140625e-05,29.6553093755436,29.6553337896061,,,23.1199998855591,28,0.0412936469327451,0.0839945284510404
2011-06-01T04:42:12Z,1306903332,110,54.6566238,24.4249949,30.24,0,-0.4,217.1,-161845.94,-191642.38,218.1,Air+FixedWing,Blue,Enemies,J-11A,Blue J-11A #003,cn,=CNF= 909,0.015625,0,4.59156936775547e-05,30.2399997711182,2.23999977111816,0.015625,0,NaN,NaN,0,0.0197823405926261,NaN,0.999993068704395,0.00196625493761567,-0.00447366387768617,1.220703125e-05,29.6553093755436,29.6553215825748,,,24.1199998855591,28,0.0412936469327451,0.0839945284510404
2011-06-01T04:42:13Z,1306903333,110,54.6566238,24.4249949,30.24,0,-0.4,217.1,-161845.94,-191642.39,218.1,Air+FixedWing,Blue,Enemies,J-11A,Blue J-11A #003,cn,=CNF= 909,0.015625,0,4.59156936775547e-05,30.2399997711182,2.23999977111816,0.015625,0,NaN,NaN,0,0.0197823405926261,NaN,0.999966808793445,-0.000983127468807834,-0.00823505897447948,1.220703125e-05,29.6553093755436,29.6553215825748,,,25.1199998855591,28,0.0412936469327451,0.0839945284510404
2011-06-01T04:42:14Z,1306903334,110,54.6566238,24.4249949,30.24,0,-0.4,217.1,-161845.94,-191642.39,218.1,Air+FixedWing,Blue,Enemies,J-11A,Blue J-11A #003,cn,=CNF= 909,0,0,0,30.2399997711182,2.23999977111816,0,0,NaN,NaN,0,0.0197823405926261,NaN,0.999966808793445,-0.000983127468807834,-0.00823505897447948,0,29.6553093755436,29.6553093755436,,,26.1199998855591,28,0.0412936469327451,0.0839945284510404
2011-06-01T04:42:15Z,1306903335,110,54.6566238,24.4249949,30.24,0,-0.4,217.1,-161845.94,-191642.38,218.1,Air+FixedWing,Blue,Enemies,J-11A,Blue J-11A #003,cn,=CNF= 909,0.015625,0,4.59156936775547e-05,30.2399997711182,2.23999977111816,0.015625,0,NaN,NaN,0,0.0197823405926261,NaN,0.999984315400745,0.000983127468807834,-0.00572746224328394,1.220703125e-05,29.6553093755436,29.6553215825748,,,27.1199998855591,28,0.0412936469327451,0.0839945284510404
2011-06-01T04:42:16Z,1306903336,110,54.6566238,24.4249949,30.24,0,-0.4,217.1,-161845.94,-191642.38,218.1,Air+FixedWing,Blue,Enemies,J-11A,Blue J-11A #003,cn,=CNF= 909,0,0,0,30.2399997711182,2.23999977111816,0,0,NaN,NaN,0,0.0197823405926261,NaN,0.99996869862918,0.00125382873019811,-0.00796436426879766,0,29.6553093755436,29.6553093755436,,,28.1199998855591,28,0.0412936469327451,0.0839945284510404
2011-06-01T04:42:17Z,1306903337,110,54.6566238,24.4249949,30.24,0,-0.4,217.1,-161845.92,-191642.38,218.1,Air+FixedWing,Blue,Enemies,J-11A,Blue J-11A #003,cn,=CNF= 909,0.015625,0,4.59156936775547e-05,30.2399997711182,2.23999977111816,0.015625,0,NaN,NaN,0,0.0197823405926261,NaN,0.99999117886866,-0.000270701261390278,-0.00474435858336799,1.220703125e-05,29.6553093755436,29.6553215825748,,,29.1199998855591,28,0.0412936469327451,0.0839945284510404
2011-06-01T04:42:18Z,1306903338,110,54.6566238,24.4249949,30.24,0,-0.4,217.1,-161845.92,-191642.39,218.1,Air+FixedWing,Blue,Enemies,J-11A,Blue J-11A #003,cn,=CNF= 909,0.015625,0,4.59156936775547e-05,30.2399997711182,2.23999977111816,0.015625,0,NaN,NaN,0,0.0197823405926261,NaN,0.999973672261361,-0.00223695619900595,-0.00725195531456353,1.220703125e-05,29.6553093755436,29.6553215825748,,,30.1199998855591,28,0.0412936469327451,0.0839945284510404
2011-06-01T04:42:19Z,1306903339,110,54.6566238,24.4249949,30.24,0,-0.4,217.1,-161845.94,-191642.39,218.1,Air+FixedWing,Blue,Enemies,J-11A,Blue J-11A #003,cn,=CNF= 909,0.015625,0,4.59156936775547e-05,30.2399997711182,2.23999977111816,0.015625,0,NaN,NaN,0.0155172393040769,0.0197823405926261,NaN,0.999968528843785,0.0013892379809713,-0.00796436426879766,1.220703125e-05,29.6553093755436,29.6553215825748,,,31.1199998855591,28,0.0412936469327451,0.0839945284510404
2011-06-01T04:42:20Z,1306903340,110,54.6566238,24.4249949,30.24,0,-0.4,217.1,-161845.94,-191642.39,218.1,Air+FixedWing,Blue,Enemies,J-11A,Blue J-11A #003,cn,=CNF= 909,0,0,0,30.2399997711182,2.23999977111816,0,0,NaN,NaN,0.021551721440943,0.0197823405926261,NaN,0.999975442890712,0.000511549515047532,-0.00698126060888171,0,29.6553093755436,29.6553093755436,,,32.1199998855591,28,0.0412936469327451,0.0839945284510404
2011-06-01T04:42:21Z,1306903341,110,54.6566238,24.4249949,30.24,0.1,-0.4,217.1,-161845.94,-191642.39,218.1,Air+FixedWing,Blue,Enemies,J-11A,Blue J-11A #003,cn,=CNF= 909,0,0,0,30.2399997711182,2.23999977111816,0,0,NaN,NaN,0.021551721440943,0.0197823405926261,NaN,0.999975204477945,0.000887688843803809,-0.00698126060888171,0,29.6553093755436,29.6553093755436,,,33.1199998855591,28,0.0412936469327451,0.0839945284510404
2011-06-01T04:42:22Z,1306903342,110,54.6566238,24.4249949,30.24,0.1,-0.4,217.1,-161845.94,-191642.39,218.1,Air+FixedWing,Blue,Enemies,J-11A,Blue J-11A #003,cn,=CNF= 909,0,0,0,30.2399997711182,2.23999977111816,0,0,NaN,NaN,0.0215517147708364,0.0197823405926261,NaN,0.999974787255603,0.00126382793973512,-0.00698126060888171,0,29.6553093755436,29.6553093755436,,,34.1199998855591,28,0.0412936469327451,0.0839945284510404
2011-06-01T04:42:23Z,1306903343,110,54.6566238,24.4249949,30.24,0.1,-0.4,217.1,-161845.94,-191642.39,218.1,Air+FixedWing,Blue,Enemies,J-11A,Blue J-11A #003,cn,=CNF= 909,0,0,0,30.2399997711182,2.23999977111816,0,0,NaN,NaN,0.0215517414512629,0.0197823405926261,NaN,0.999967109870113,0.000656826551074131,-0.00823505897447948,0,29.6553093755436,29.6553093755436,,,35.1199998855591,28,0.0412936469327451,0.0839945284510404
2011-06-01T04:42:24Z,1306903344,110,54.6566238,24.4249949,30.24,0,-0.4,217.1,-161845.94,-191642.38,218.1,Air+FixedWing,Blue,Enemies,J-11A,Blue J-11A #003,cn,=CNF= 909,0.015625,0,4.59156936775547e-05,30.2399997711182,2.23999977111816,0.015625,0,NaN,NaN,0.119063857611662,0.0197823405926261,NaN,0.999985402073222,0.00346950376174694,-0.00545676753760213,1.220703125e-05,29.6553093755436,29.6553215825748,,,36.1199998855591,28,0.0412936469327451,0.0839945284510404
2011-06-01T04:42:25Z,1306903345,110,54.6566238,24.4249949,30.24,0,-0.4,217.1,-161845.92,-191642.39,218.1,Air+FixedWing,Blue,Enemies,J-11A,Blue J-11A #003,cn,=CNF= 909,0.0220970869120796,0,6.49345967245665e-05,30.2399997711182,2.23999977111816,0.0220970869120796,0,NaN,NaN,0,0.0197823405926261,NaN,0.999971782425626,-0.00447391239801189,-0.00752265002024535,2.44140625e-05,29.6553093755436,29.6553337896061,,,37.1199998855591,28,0.0412936469327451,0.0839945284510404
2011-06-01T04:42:26Z,1306903346,110,54.6566238,24.4249949,30.24,0,-0.4,217.1,-161845.94,-191642.38,218.1,Air+FixedWing,Blue,Enemies,J-11A,Blue J-11A #003,cn,=CNF= 909,0.0220970869120796,0,6.49345967245665e-05,30.2399997711182,2.23999977111816,0.0220970869120796,0,NaN,NaN,0,0.0197823405926261,NaN,0.99997745193283,0.00223695619900595,-0.00671056590319989,2.44140625e-05,29.6553093755436,29.6553337896061,,,38.1199998855591,28,0.0412936469327451,0.0839945284510404
2011-06-01T04:42:27Z,1306903347,110,54.6566238,24.4249949,30.24,0,-0.4,217.1,-161845.94,-191642.38,218.1,Air+FixedWing,Blue,Enemies,J-11A,Blue J-11A #003,cn,=CNF= 909,0,0,0,30.2399997711182,2.23999977111816,0,0,NaN,NaN,0,0.0197823405926261,NaN,0.999975562097095,-0,-0.00698126060888171,0,29.6553093755436,29.6553093755436,,,39.1199998855591,28,0.0412936469327451,0.0839945284510404
2011-06-01T04:42:28Z,1306903348,110,54.6566238,24.4249949,30.24,0,-0.4,217.1,-161845.94,-191642.38,218.1,Air+FixedWing,Blue,Enemies,J-11A,Blue J-11A #003,cn,=CNF= 909,0,0,0,30.2399997711182,2.23999977111816,0,0,NaN,NaN,0,0.0197823405926261,NaN,0.999975562097095,-0,-0.00698126060888171,0,29.6553093755436,29.6553093755436,,,40.1199998855591,28,0.0412936469327451,0.0839945284510404
2011-06-01T04:42:29Z,1306903349,110,54.6566238,24.4249949,30.24,0,-0.4,217.1,-161845.94,-191642.38,218.1,Air+FixedWing,Blue,Enemies,J-11A,Blue J-11A #003,cn,=CNF= 909,0,0,0,30.2399997711182,2.23999977111816,0,0,NaN,NaN,0,0.0197823405926261,NaN,0.99996869862918,0.00125382873019811,-0.00796436426879766,0,29.6553093755436,29.6553093755436,,,41.1199998855591,28,0.0412936469327451,0.0839945284510404
2011-06-01T04:42:30Z,1306903350,110,54.6566238,24.4249949,30.24,0,-0.4,217.1,-161845.92,-191642.38,218.1,Air+FixedWing,Blue,Enemies,J-11A,Blue J-11A #003,cn,=CNF= 909,0.015625,0,4.59156936775547e-05,30.2399997711182,2.23999977111816,0.015625,0,NaN,NaN,0,0.0197823405926261,NaN,0.99998242556501,-0.00125382873019811,-0.00599815694896576,1.220703125e-05,29.6553093755436,29.6553215825748,,,42.1199998855591,28,0.0412936469327451,0.0839945284510404
2011-06-01T04:42:31Z,1306903351,110,54.6566238,24.4249949,30.24,0,-0.4,217.1,-161845.92,-191642.38,218.1,Air+FixedWing,Blue,Enemies,J-11A,Blue J-11A #003,cn,=CNF= 909,0,0,0,30.2399997711182,2.23999977111816,0,0,NaN,NaN,0,0.0197823405926261,NaN,0.999975562097095,-0,-0.00698126060888171,0,29.6553093755436,29.6553093755436,,,43.1199998855591,28,0.0412936469327451,0.0839945284510404
2011-06-01T04:42:32Z,1306903352,110,54.6566238,24.4249949,30.24,0,-0.4,217.1,-161845.92,-191642.38,218.1,Air+FixedWing,Blue,Enemies,J-11A,Blue J-11A #003,cn,=CNF= 909,0,0,0,30.2399997711182,2.23999977111816,0,0,NaN,NaN,0,0.0197823405926261,NaN,0.99999117886866,-0.000270701261390278,-0.00474435858336799,0,29.6553093755436,29.6553093755436,,,44.1199998855591,28,0.0412936469327451,0.0839945284510404
2011-06-01T04:42:33Z,1306903353,110,54.6566238,24.4249949,30.24,0,-0.4,217.1,-161845.94,-191642.39,218.1,Air+FixedWing,Blue,Enemies,J-11A,Blue J-11A #003,cn,=CNF= 909,0.0220970869120796,0,6.49345967245665e-05,30.2399997711182,2.23999977111816,0.0220970869120796,0,NaN,NaN,0,0.0197823405926261,NaN,0.999953081857614,0.00152452999158839,-0.0102012662943114,2.44140625e-05,29.6553093755436,29.6553337896061,,,45.1199998855591,28,0.0412936469327451,0.0839945284510404
2011-06-01T04:42:34Z,1306903354,110,54.6566238,24.4249949,30.24,0,-0.4,217.1,-161845.92,-191642.39,218.1,Air+FixedWing,Blue,Enemies,J-11A,Blue J-11A #003,cn,=CNF= 909,0.015625,0,4.59156936775547e-05,30.2399997711182,2.23999977111816,0.015625,0,NaN,NaN,0,0.0197823405926261,NaN,0.999973672261361,-0.00223695619900595,-0.00725195531456353,1.220703125e-05,29.6553093755436,29.6553215825748,,,46.1199998855591,28,0.0412936469327451,0.0839945284510404
2011-06-01T04:42:35Z,1306903355,110,54.6566238,24.4249949,30.24,0,-0.4,217.1,-161845.92,-191642.38,218.1,Air+FixedWing,Blue,Enemies,J-11A,Blue J-11A #003,cn,=CNF= 909,0.015625,0,4.59156936775547e-05,30.2399997711182,2.23999977111816,0.015625,0,NaN,NaN,0,0.0197823405926261,NaN,0.999984315400745,0.000983127468807834,-0.00572746224328394,1.220703125e-05,29.6553093755436,29.6553215825748,,,47.1199998855591,28,0.0412936469327451,0.0839945284510404
2011-06-01T04:42:36Z,1306903356,110,54.6566238,24.4249949,30.24,0,-0.4,217.1,-161845.92,-191642.38,218.1,Air+FixedWing,Blue,Enemies,J-11A,Blue J-11A #003,cn,=CNF= 909,0,0,0,30.2399997711182,2.23999977111816,0,0,NaN,NaN,0,0.0197823405926261,NaN,0.99999117886866,-0.000270701261390278,-0.00474435858336799,0,29.6553093755436,29.6553093755436,,,48.1199998855591,28,0.0412936469327451,0.0839945284510404
2011-06-01T04:42:37Z,1306903357,110,54.6566238,24.4249949,30.24,0,-0.4,217.1,-161845.94,-191642.39,218.1,Air+FixedWing,Blue,Enemies,J-11A,Blue J-11A #003,cn,=CNF= 909,0.0220970869120796,0,6.49345967245665e-05,30.2399997711182,2.23999977111816,0.0220970869120796,0,NaN,NaN,0,0.0197823405926261,NaN,0.99995994532553,0.000270701261390278,-0.00921816263439543,2.44140625e-05,29.6553093755436,29.6553337896061,,,49.1199998855591,28,0.0412936469327451,0.0839945284510404
2011-06-01T04:42:38Z,1306903358,110,54.6566238,24.4249949,30.24,0,-0.4,217.1,-161845.94,-191642.39,218.1,Air+FixedWing,Blue,Enemies,J-11A,Blue J-11A #003,cn,=CNF= 909,0,0,0,30.2399997711182,2.23999977111816,0,0,NaN,NaN,0,0.0197823405926261,NaN,0.99996869862918,0.00125382873019811,-0.00796436426879766,0,29.6553093755436,29.6553093755436,,,50.1199998855591,28,0.0412936469327451,0.0839945284510404
2011-06-01T04:42:39Z,1306903359,110,54.6566238,24.4249949,30.24,0,-0.4,217.1,-161845.92,-191642.39,218.1,Air+FixedWing,Blue,Enemies,J-11A,Blue J-11A #003,cn,=CNF= 909,0.015625,0,4.59156936775547e-05,30.2399997711182,2.23999977111816,0.015625,0,NaN,NaN,0,0.0197823405926261,NaN,0.999973672261361,-0.00223695619900595,-0.00725195531456353,1.220703125e-05,29.6553093755436,29.6553215825748,,,51.1199998855591,28,0.0412936469327451,0.0839945284510404
2011-06-01T04:42:40Z,1306903360,110,54.6566238,24.4249949,30.24,0,-0.4,217.1,-161845.92,-191642.38,218.1,Air+FixedWing,Blue,Enemies,J-11A,Blue J-11A #003,cn,=CNF= 909,0.015625,0,4.59156936775547e-05,30.2399997711182,2.23999977111816,0.015625,0,NaN,NaN,0,0.0197823405926261,NaN,0.99999117886866,-0.000270701261390278,-0.00474435858336799,1.220703125e-05,29.6553093755436,29.6553215825748,,,52.1199998855591,28,0.0412936469327451,0.0839945284510404
2011-06-01T04:42:41Z,1306903361,110,54.6566238,24.4249949,30.24,0,-0.4,217.1,-161845.94,-191642.38,218.1,Air+FixedWing,Blue,Enemies,J-11A,Blue J-11A #003,cn,=CNF= 909,0.015625,0,4.59156936775547e-05,30.2399997711182,2.23999977111816,0.015625,0,NaN,NaN,0,0.0197823405926261,NaN,0.99997745193283,0.00223695619900595,-0.00671056590319989,1.220703125e-05,29.6553093755436,29.6553215825748,,,53.1199998855591,28,0.0412936469327451,0.0839945284510404
2011-06-01T04:42:42Z,1306903362,110,54.6566238,24.4249949,30.24,0,-0.4,217.1,-161845.94,-191642.39,218.1,Air+FixedWing,Blue,Enemies,J-11A,Blue J-11A #003,cn,=CNF= 909,0.015625,0,4.59156936775547e-05,30.2399997711182,2.23999977111816,0.015625,0,NaN,NaN,0,0.0197823405926261,NaN,0.99995119202188,-0.000712426207417556,-0.0104719609999932,1.220703125e-05,29.6553093755436,29.6553215825748,,,54.1199998855591,28,0.0412936469327451,0.0839945284510404
2011-06-01T04:42:43Z,1306903363,110,54.6566238,24.4249949,30.24,0,-0.4,217.1,-161845.92,-191642.38,218.1,Air+FixedWing,Blue,Enemies,J-11A,Blue J-11A #003,cn,=CNF= 909,0.0220970869120796,0,6.49345967245665e-05,30.2399997711182,2.23999977111816,0.0220970869120796,0,NaN,NaN,0,0.0197823405926261,NaN,0.999998042336576,-0.00152452999158839,-0.00376125492345204,2.44140625e-05,29.6553093755436,29.6553337896061,,,55.1199998855591,28,0.0412936469327451,0.0839945284510404
2011-06-01T04:42:44Z,1306903364,110,54.6566238,24.4249949,30.24,0,-0.4,217.1,-161845.94,-191642.38,218.1,Air+FixedWing,Blue,Enemies,J-11A,Blue J-11A #003,cn,=CNF= 909,0.015625,0,4.59156936775547e-05,30.2399997711182,2.23999977111816,0.015625,0,NaN,NaN,0,0.0197823405926261,NaN,0.99997745193283,0.00223695619900595,-0.00671056590319989,1.220703125e-05,29.6553093755436,29.6553215825748,,,56.1199998855591,28,0.0412936469327451,0.0839945284510404
2011-06-01T04:42:45Z,1306903365,110,54.6566238,24.4249949,30.24,0,-0.4,217.1,-161845.94,-191642.39,218.1,Air+FixedWing,Blue,Enemies,J-11A,Blue J-11A #003,cn,=CNF= 909,0.015625,0,4.59156936775547e-05,30.2399997711182,2.23999977111816,0.015625,0,NaN,NaN,0,0.0197823405926261,NaN,0.999958055489795,-0.00196625493761567,-0.00948885734007725,1.220703125e-05,29.6553093755436,29.6553215825748,,,57.1199998855591,28,0.0412936469327451,0.0839945284510404
2011-06-01T04:42:46Z,1306903366,110,54.6566238,24.4249949,30.24,0,-0.4,217.1,-161845.94,-191642.38,218.1,Air+FixedWing,Blue,Enemies,J-11A,Blue J-11A #003,cn,=CNF= 909,0.015625,0,4.59156936775547e-05,30.2399997711182,2.23999977111816,0.015625,0,NaN,NaN,0,0.0197823405926261,NaN,0.99997745193283,0.00223695619900595,-0.00671056590319989,1.220703125e-05,29.6553093755436,29.6553215825748,,,58.1199998855591,28,0.0412936469327451,0.0839945284510404
2011-06-01T04:42:47Z,1306903367,110,54.6566238,24.4249949,30.24,0,-0.4,217.1,-161845.92,-191642.38,218.1,Air+FixedWing,Blue,Enemies,J-11A,Blue J-11A #003,cn,=CNF= 909,0.015625,0,4.59156936775547e-05,30.2399997711182,2.23999977111816,0.015625,0,NaN,NaN,0,0.0197823405926261,NaN,0.99999117886866,-0.000270701261390278,-0.00474435858336799,1.220703125e-05,29.6553093755436,29.6553215825748,,,59.1199998855591,28,0.0412936469327451,0.0839945284510404
2011-06-01T04:42:48Z,1306903368,110,54.6566238,24.4249949,30.24,0,-0.4,217.1,-161845.92,-191642.39,218.1,Air+FixedWing,Blue,Enemies,J-11A,Blue J-11A #003,cn,=CNF= 909,0.015625,0,4.59156936775547e-05,30.2399997711182,2.23999977111816,0.015625,0,NaN,NaN,0,0.0197823405926261,NaN,0.999973672261361,-0.00223695619900595,-0.00725195531456353,1.220703125e-05,29.6553093755436,29.6553215825748,,,60.1199998855591,28,0.0412936469327451,0.0839945284510404
2011-06-01T04:42:49Z,1306903369,110,54.6566238,24.4249949,30.24,0,-0.4,217.1,-161845.94,-191642.39,218.1,Air+FixedWing,Blue,Enemies,J-11A,Blue J-11A #003,cn,=CNF= 909,0.015625,0,4.59156936775547e-05,30.2399997711182,2.23999977111816,0.015625,0,NaN,NaN,0,0.0197823405926261,NaN,0.99995994532553,0.000270701261390278,-0.00921816263439543,1.220703125e-05,29.6553093755436,29.6553215825748,,,61.1199998855591,28,0.0412936469327451,0.0839945284510404
2011-06-01T04:42:50Z,1306903370,110,54.6566238,24.4249949,30.24,0,-0.4,217.1,-161845.94,-191642.38,218.1,Air+FixedWing,Blue,Enemies,J-11A,Blue J-11A #003,cn,=CNF= 909,0.015625,0,4.59156936775547e-05,30.2399997711182,2.23999977111816,0.015625,0,NaN,NaN,0,0.0197823405926261,NaN,0.99997745193283,0.00223695619900595,-0.00671056590319989,1.220703125e-05,29.6553093755436,29.6553215825748,,,62.1199998855591,28,0.0412936469327451,0.0839945284510404
2011-06-01T04:42:51Z,1306903371,110,54.6566238,24.4249949,30.24,0,-0.4,217.1,-161845.92,-191642.38,218.1,Air+FixedWing,Blue,Enemies,J-11A,Blue J-11A #003,cn,=CNF= 909,0.015625,0,4.59156936775547e-05,30.2399997711182,2.23999977111816,0.015625,0,NaN,NaN,0,0.0197823405926261,NaN,0.99999117886866,-0.000270701261390278,-0.00474435858336799,1.220703125e-05,29.6553093755436,29.6553215825748,,,63.1199998855591,28,0.0412936469327451,0.0839945284510404
2011-06-01T04:42:52Z,1306903372,110,54.6566238,24.4249949,30.24,0,-0.4,217.1,-161845.92,-191642.39,218.1,Air+FixedWing,Blue,Enemies,J-11A,Blue J-11A #003,cn,=CNF= 909,0.015625,0,4.59156936775547e-05,30.2399997711182,2.23999977111816,0.015625,0,NaN,NaN,0,0.0197823405926261,NaN,0.999973672261361,-0.00223695619900595,-0.00725195531456353,1.220703125e-05,29.6553093755436,29.6553215825748,,,64.1199998855591,28,0.0412936469327451,0.0839945284510404
2011-06-01T04:42:53Z,1306903373,110,54.6566238,24.4249949,30.24,0,-0.4,217.1,-161845.94,-191642.39,218.1,Air+FixedWing,Blue,Enemies,J-11A,Blue J-11A #003,cn,=CNF= 909,0.015625,0,4.59156936775547e-05,30.2399997711182,2.23999977111816,0.015625,0,NaN,NaN,0,0.0197823405926261,NaN,0.999961835161265,0.00250765746039622,-0.00894746792871361,1.220703125e-05,29.6553093755436,29.6553215825748,,,65.1199998855591,28,0.0412936469327451,0.0839945284510404
2011-06-01T04:42:54Z,1306903374,110,54.6566238,24.4249949,30.24,0,-0.4,217.1,-161845.92,-191642.39,218.1,Air+FixedWing,Blue,Enemies,J-11A,Blue J-11A #003,cn,=CNF= 909,0.015625,0,4.59156936775547e-05,30.2399997711182,2.23999977111816,0.015625,0,NaN,NaN,0,0.0197823405926261,NaN,0.999980535729276,-0.00349078492920406,-0.00626885165464758,1.220703125e-05,29.6553093755436,29.6553215825748,,,66.1199998855591,28,0.0412936469327451,0.0839945284510404
2011-06-01T04:42:55Z,1306903375,110,54.6566238,24.4249949,30.24,0,-0.4,217.1,-161845.94,-191642.38,218.1,Air+FixedWing,Blue,Enemies,J-11A,Blue J-11A #003,cn,=CNF= 909,0.0220970869120796,0,6.49345967245665e-05,30.2399997711182,2.23999977111816,0.0220970869120796,0,NaN,NaN,0,0.0197823405926261,NaN,0.99998620523648,0.00322008366781378,-0.00545676753760213,2.44140625e-05,29.6553093755436,29.6553337896061,,,67.1199998855591,28,0.0412936469327451,0.0839945284510404
2011-06-01T04:42:56Z,1306903376,110,54.6566238,24.4249949,30.24,0,-0.4,217.1,-161845.94,-191642.39,218.1,Air+FixedWing,Blue,Enemies,J-11A,Blue J-11A #003,cn,=CNF= 909,0.015625,0,4.59156936775547e-05,30.2399997711182,2.23999977111816,0.015625,0,NaN,NaN,0,0.0197823405926261,NaN,0.99995994532553,0.000270701261390278,-0.00921816263439543,1.220703125e-05,29.6553093755436,29.6553215825748,,,68.1199998855591,28,0.0412936469327451,0.0839945284510404
2011-06-01T04:42:57Z,1306903377,110,54.6566238,24.4249949,30.24,0,-0.4,217.1,-161845.92,-191642.39,218.1,Air+FixedWing,Blue,Enemies,J-11A,Blue J-11A #003,cn,=CNF= 909,0.015625,0,4.59156936775547e-05,30.2399997711182,2.23999977111816,0.015625,0,NaN,NaN,0,0.0197823405926261,NaN,0.999973672261361,-0.00223695619900595,-0.00725195531456353,1.220703125e-05,29.6553093755436,29.6553215825748,,,69.1199998855591,28,0.0412936469327451,0.0839945284510404
2011-06-01T04:42:58Z,1306903378,110,54.6566238,24.4249949,30.24,0,-0.4,217.1,-161845.92,-191642.38,218.1,Air+FixedWing,Blue,Enemies,J-11A,Blue J-11A #003,cn,=CNF= 909,0.015625,0,4.59156936775547e-05,30.2399997711182,2.23999977111816,0.015625,0,NaN,NaN,0,0.0197823405926261,NaN,0.999984315400745,0.000983127468807834,-0.00572746224328394,1.220703125e-05,29.6553093755436,29.6553215825748,,,70.1199998855591,28,0.0412936469327451,0.0839945284510404
2011-06-01T04:42:59Z,1306903379,110,54.6566238,24.4249949,30.24,0,-0.4,217.1,-161845.92,-191642.38,218.1,Air+FixedWing,Blue,Enemies,J-11A,Blue J-11A #003,cn,=CNF= 909,0,0,0,30.2399997711182,2.23999977111816,0,0,NaN,NaN,0,0.0197823405926261,NaN,0.999984315400745,0.000983127468807834,-0.00572746224328394,0,29.6553093755436,29.6553093755436,,,71.1199998855591,28,0.0412936469327451,0.0839945284510404
2011-06-01T04:43:00Z,1306903380,110,54.6566238,24.4249949,30.24,0,-0.4,217.1,-161845.92,-191642.39,218.1,Air+FixedWing,Blue,Enemies,J-11A,Blue J-11A #003,cn,=CNF= 909,0.015625,0,4.59156936775547e-05,30.2399997711182,2.23999977111816,0.015625,0,NaN,NaN,0,0.0197823405926261,NaN,0.999973672261361,-0.00223695619900595,-0.00725195531456353,1.220703125e-05,29.6553093755436,29.6553215825748,,,72.1199998855591,28,0.0412936469327451,0.0839945284510404
2011-06-01T04:43:01Z,1306903381,110,54.6566238,24.4249949,30.24,0,-0.4,217.1,-161845.94,-191642.39,218.1,Air+FixedWing,Blue,Enemies,J-11A,Blue J-11A #003,cn,=CNF= 909,0.015625,0,4.59156936775547e-05,30.2399997711182,2.23999977111816,0.015625,0,NaN,NaN,0,0.0197823405926261,NaN,0.99995994532553,0.000270701261390278,-0.00921816263439543,1.220703125e-05,29.6553093755436,29.6553215825748,,,73.1199998855591,28,0.0412936469327451,0.0839945284510404
2011-06-01T04:43:02Z,1306903382,110,54.6566238,24.4249949,30.24,0,-0.4,217.1,-161845.94,-191642.38,218.1,Air+FixedWing,Blue,Enemies,J-11A,Blue J-11A #003,cn,=CNF= 909,0.015625,0,4.59156936775547e-05,30.2399997711182,2.23999977111816,0.015625,0,NaN,NaN,0,0.0197823405926261,NaN,0.99997745193283,0.00223695619900595,-0.00671056590319989,1.220703125e-05,29.6553093755436,29.6553215825748,,,74.1199998855591,28,0.0412936469327451,0.0839945284510404
2011-06-01T04:43:03Z,1306903383,110,54.6566238,24.4249949,30.24,0,-0.3,217.1,-161845.92,-191642.38,218.1,Air+FixedWing,Blue,Enemies,J-11A,Blue J-11A #003,cn,=CNF= 909,0.015625,0,4.59156936775547e-05,30.2399997711182,2.23999977111816,0.015625,0,NaN,NaN,0,0.0523391626455858,NaN,1.00000197072216,-0.00152452999158839,-0.0025008159984848,1.220703125e-05,29.6553093755436,29.6553215825748,,,75.1199998855591,28,0.0412936469327451,0.0839945284510404
2011-06-01T04:43:04Z,1306903384,110,54.6566238,24.4249949,30.24,0,-0.3,217.1,-161845.94,-191642.39,218.1,Air+FixedWing,Blue,Enemies,J-11A,Blue J-11A #003,cn,=CNF= 909,0.0220970869120796,0,6.49345967245665e-05,30.2399997711182,2.23999977111816,0.0220970869120796,0,NaN,NaN,0,0.0523391626455858,NaN,0.999958622383468,0.000541402522780556,-0.0101253530778821,2.44140625e-05,29.6553093755436,29.6553337896061,,,76.1199998855591,28,0.0439441079057678,0.0866450022642091
2011-06-01T04:43:05Z,1306903385,110,54.6566238,24.4249949,30.24,0,-0.3,217.1,-161845.92,-191642.38,218.1,Air+FixedWing,Blue,Enemies,J-11A,Blue J-11A #003,cn,=CNF= 909,0.0220970869120796,0,6.49345967245665e-05,30.2399997711182,2.23999977111816,0.0220970869120796,0,NaN,NaN,0,0,NaN,1.0000030319622,-0.00152452999158839,-0.00201592491735553,2.44140625e-05,29.6553093755436,29.6553337896061,,,77.1199998855591,28,0.0465945688787904,0.0892954760773778
2011-06-01T04:43:06Z,1306903386,110,54.6566238,24.4249949,30.24,0,-0.3,217.1,-161845.94,-191642.38,218.1,Air+FixedWing,Blue,Enemies,J-11A,Blue J-11A #003,cn,=CNF= 909,0.015625,0,4.59156936775547e-05,30.2399997711182,2.23999977111816,0.015625,0,NaN,NaN,0,0,NaN,0.999987589105023,0.00223695619900595,-0.00496526688274205,1.220703125e-05,29.6553093755436,29.6553215825748,,,78.1199998855591,28,0.0465945688787904,0.0892954760773778
2011-06-01T04:43:07Z,1306903387,110,54.6566238,24.4249949,30.24,0,-0.3,217.1,-161845.94,-191642.39,218.1,Air+FixedWing,Blue,Enemies,J-11A,Blue J-11A #003,cn,=CNF= 909,0.015625,0,4.59156936775547e-05,30.2399997711182,2.23999977111816,0.015625,0,NaN,NaN,0,0,NaN,0.999967894102479,-0.000712426207417556,-0.00872670149697864,1.220703125e-05,29.6553093755436,29.6553215825748,,,79.1199998855591,28,0.0497751224227605,0.0924760443802114
2011-06-01T04:43:08Z,1306903388,110,54.6566238,24.4249949,30.24,0,-0.3,217.1,-161845.92,-191642.38,218.1,Air+FixedWing,Blue,Enemies,J-11A,Blue J-11A #003,cn,=CNF= 909,0.0220970869120796,0,6.49345967245665e-05,30.2399997711182,2.23999977111816,0.0220970869120796,0,NaN,NaN,0,0,NaN,1.0000030319622,-0.00152452999158839,-0.00201592491735553,2.44140625e-05,29.6553093755436,29.6553337896061,,,80.1199998855591,28,0.0529556759667306,0.0956566126830451
2011-06-01T04:43:09Z,1306903389,110,54.6566238,24.4249949,30.24,0,-0.3,217.1,-161845.94,-191642.38,218.1,Air+FixedWing,Blue,Enemies,J-11A,Blue J-11A #003,cn,=CNF= 909,0.015625,0,4.59156936775547e-05,30.2399997711182,2.23999977111816,0.015625,0,NaN,NaN,0,0,NaN,0.999981024104175,0.00125382873019811,-0.00621907842082091,1.220703125e-05,29.6553093755436,29.6553215825748,,,81.1199998855591,28,0.0529556759667306,0.0956566126830451
2011-06-01T04:43:10Z,1306903390,110,54.6566238,24.4249949,30.24,0,-0.3,217.1,-161845.94,-191642.38,218.1,Air+FixedWing,Blue,Enemies,J-11A,Blue J-11A #003,cn,=CNF= 909,0,0,0,30.2399997711182,2.23999977111816,0,0,NaN,NaN,0,0,NaN,0.999986171723233,-0,-0.00523596443235874,0,29.6553093755436,29.6553093755436,,,82.1199998855591,28,0.0529556759667306,0.0956566126830451
2011-06-01T04:43:11Z,1306903391,110,54.6566238,24.4249949,30.24,0,-0.3,217.1,-161845.94,-191642.38,218.1,Air+FixedWing,Blue,Enemies,J-11A,Blue J-11A #003,cn,=CNF= 909,0,0,0,30.2399997711182,2.23999977111816,0,0,NaN,NaN,0,0,NaN,0.999986171723233,-0,-0.00523596443235874,0,29.6553093755436,29.6553093755436,,,83.1199998855591,28,0.0529556759667306,0.0956566126830451
2011-06-01T04:43:12Z,1306903392,110,54.6566238,24.4249949,30.24,0,-0.3,217.1,-161845.94,-191642.38,218.1,Air+FixedWing,Blue,Enemies,J-11A,Blue J-11A #003,cn,=CNF= 909,0,0,0,30.2399997711182,2.23999977111816,0,0,NaN,NaN,0.0814814153844349,0,NaN,0.999979894143379,0.00196487444733753,-0.00621907842082091,0,29.6553093755436,29.6553093755436,,,84.1199998855591,28,0.0529556759667306,0.0956566126830451
2011-06-01T04:43:13Z,1306903393,110,54.6566238,24.4249949,30.24,0.1,-0.3,217.1,-161845.92,-191642.38,218.1,Air+FixedWing,Blue,Enemies,J-11A,Blue J-11A #003,cn,=CNF= 909,0.015625,0,4.59156936775547e-05,30.2399997711182,2.23999977111816,0.015625,0,NaN,NaN,0,0,NaN,0.999999353536283,-0.000762331527761767,-0.0032697364554344,1.220703125e-05,29.6553093755436,29.6553215825748,,,85.1199998855591,28,0.0529556759667306,0.0956566126830451
2011-06-01T04:43:14Z,1306903394,110,54.6566238,24.4249949,30.24,0,-0.3,217.1,-161845.94,-191642.38,218.1,Air+FixedWing,Blue,Enemies,J-11A,Blue J-11A #003,cn,=CNF= 909,0.015625,0,4.59156936775547e-05,30.2399997711182,2.23999977111816,0.015625,0,NaN,NaN,0.106660234078919,0,NaN,0.999591302964316,0.00206803982656006,-0.00621704473354292,1.220703125e-05,29.6553093755436,29.6553215825748,,,86.1199998855591,28,0.0529556759667306,0.0956566126830451
2011-06-01T04:43:15Z,1306903395,110,54.6566238,24.4249949,30.24,0,-0.3,217.1,-161845.94,-191642.38,218.1,Air+FixedWing,Blue,Enemies,J-11A,Blue J-11A #003,cn,=CNF= 909,0.00380897521972656,0,1.11930708420939e-05,30.2361907958984,2.23619079589844,0,-0.00380897521972656,NaN,NaN,0.189496768332834,0,NaN,0.999738102726807,0.00125382873019811,-0.00621780647519737,7.25414611224551e-07,29.6515740468597,29.6515747722744,,,87.1199998855591,28,0.0529556759667306,0.09946558707062
2011-06-01T04:43:16Z,1306903396,110,54.6566238,24.4249949,30.23,0,-0.3,217.1,-161845.92,-191642.38,218.1,Air+FixedWing,Blue,Enemies,J-11A,Blue J-11A #003,cn,=CNF= 909,0.0168069106890167,0,4.93888560576864e-05,30.2299995422363,2.22999954223633,0.015625,-0.00619125366210938,NaN,NaN,0.199987938897973,0,NaN,1.00088695820761,-0.00125382873019811,-0.00425754004325318,1.41236123454291e-05,29.6455025010872,29.6455166246995,,,88.1199998855591,28,0.0544036284879983,0.105823905350092
2011-06-01T04:43:17Z,1306903397,110,54.6566238,24.4249949,30.23,0,-0.3,217.1,-161845.92,-191642.38,218.1,Air+FixedWing,Blue,Enemies,J-11A,Blue J-11A #003,cn,=CNF= 909,0.00259208679199219,0,7.61711700424195e-06,30.2325916290283,2.23259162902832,0,0.00259208679199219,NaN,NaN,0,0,NaN,0.999462688194423,-0.00125382873019811,-0.00425008251098641,3.35945696861018e-07,29.6480444698811,29.6480448058268,,,89.1199998855591,28,0.0558515810092661,0.108792995445062
2011-06-01T04:43:18Z,1306903398,110,54.6566238,24.4249949,30.23,0,-0.3,217.1,-161845.94,-191642.38,218.1,Air+FixedWing,Blue,Enemies,J-11A,Blue J-11A #003,cn,=CNF= 909,0.0158385459855765,0,4.65432156045122e-05,30.2299995422363,2.22999954223633,0.015625,-0.00259208679199219,NaN,NaN,0,0,NaN,1.00024533967811,0.00125382873019811,-0.00622046238727599,1.2542976946861e-05,29.6455025010872,29.6455150440641,,,90.1199998855591,28,0.0558515810092661,0.111385082037165
2011-06-01T04:43:19Z,1306903399,110,54.6566238,24.4249949,30.23,0,-0.3,217.1,-161845.94,-191642.38,218.1,Air+FixedWing,Blue,Enemies,J-11A,Blue J-11A #003,cn,=CNF= 909,0,0,0,30.2299995422363,2.22999954223633,0,0,NaN,NaN,0.199987938897973,0,NaN,0.999986171723233,-0,-0.00523596443235874,0,29.6455025010872,29.6455025010872,,,91.1199998855591,28,0.0558515810092661,0.111385082037165
2011-06-01T04:43:20Z,1306903400,110,54.6566238,24.4249949,30.23,0,-0.3,217.1,-161845.94,-191642.38,218.1,Air+FixedWing,Blue,Enemies,J-11A,Blue J-11A #003,cn,=CNF= 909,0,0,0,30.2299995422363,2.22999954223633,0,0,NaN,NaN,0,0,NaN,0.999981024104175,0.00125382873019811,-0.00621907842082091,0,29.6455025010872,29.6455025010872,,,92.1199998855591,28,0.0558515810092661,0.111385082037165
2011-06-01T04:43:21Z,1306903401,110,54.6566238,24.4249949,30.23,-0,-0.3,217.1,-161845.92,-191642.38,218.1,Air+FixedWing,Blue,Enemies,J-11A,Blue J-11A #003,cn,=CNF= 909,0.015625,0,4.59156885033999e-05,30.2299995422363,2.22999954223633,0.015625,0,NaN,NaN,0.0352984176306259,0,NaN,0.999990933188039,-0.00156180668229781,-0.00425285044389657,1.220703125e-05,29.6455025010872,29.6455147081184,,,93.1199998855591,28,0.0558515810092661,0.111385082037165
2011-06-01T04:43:22Z,1306903402,110,54.6566238,24.4249949,30.23,0,-0.3,217.1,-161845.92,-191642.38,218.1,Air+FixedWing,Blue,Enemies,J-11A,Blue J-11A #003,cn,=CNF= 909,0,0,0,30.2299995422363,2.22999954223633,0,0,NaN,NaN,0.124130457253423,0,NaN,0.99999131934229,-0.00125382873019811,-0.00425285044389657,0,29.6455025010872,29.6455025010872,,,94.1199998855591,28,0.0558515810092661,0.111385082037165
2011-06-01T04:43:23Z,1306903403,110,54.6566238,24.4249949,30.23,0,-0.3,217.1,-161845.94,-191642.38,218.1,Air+FixedWing,Blue,Enemies,J-11A,Blue J-11A #003,cn,=CNF= 909,0.015625,0,4.59156885033999e-05,30.2299995422363,2.22999954223633,0.015625,0,NaN,NaN,0,0,NaN,0.999981024104175,0.00125382873019811,-0.00621907842082091,1.220703125e-05,29.6455025010872,29.6455147081184,,,95.1199998855591,28,0.0558515810092661,0.111385082037165
2011-06-01T04:43:24Z,1306903404,110,54.6566238,24.4249949,30.23,0,-0.3,217.1,-161845.94,-191642.38,218.1,Air+FixedWing,Blue,Enemies,J-11A,Blue J-11A #003,cn,=CNF= 909,0,0,0,30.2299995422363,2.22999954223633,0,0,NaN,NaN,0,0,NaN,0.999981024104175,0.00125382873019811,-0.00621907842082091,0,29.6455025010872,29.6455025010872,,,96.1199998855591,28,0.0558515810092661,0.111385082037165
2011-06-01T04:43:25Z,1306903405,110,54.6566238,24.4249949,30.23,-0,-0.3,217.1,-161845.92,-191642.38,218.1,Air+FixedWing,Blue,Enemies,J-11A,Blue J-11A #003,cn,=CNF= 909,0.015625,0,4.59156885033999e-05,30.2299995422363,2.22999954223633,0.015625,0,NaN,NaN,0.00174852842752326,0,NaN,0.999991359752215,-0.00126913779041883,-0.00425285044389657,1.220703125e-05,29.6455025010872,29.6455147081184,,,97.1199998855591,28,0.0558515810092661,0.111385082037165
2011-06-01T04:43:26Z,1306903406,110,54.6566238,24.4249949,30.23,-0,-0.3,217.1,-161845.92,-191642.38,218.1,Air+FixedWing,Blue,Enemies,J-11A,Blue J-11A #003,cn,=CNF= 909,0,0,0,30.2299995422363,2.22999954223633,0,0,NaN,NaN,0.0438771352281619,0,NaN,0.999985873704112,-0.000780747290489384,-0.00523596443235874,0,29.6455025010872,29.6455025010872,,,98.1199998855591,28,0.0558515810092661,0.111385082037165
2011-06-01T04:43:27Z,1306903407,110,54.6566238,24.4249949,30.23,-0.1,-0.3,217.1,-161845.92,-191642.38,218.1,Air+FixedWing,Blue,Enemies,J-11A,Blue J-11A #003,cn,=CNF= 909,0,0,0,30.2299995422363,2.22999954223633,0,0,NaN,NaN,0.0438771352281619,0.0513960362511687,NaN,0.999984979646751,-0.0015461853620418,-0.00523596443235874,0,29.6455025010872,29.6455025010872,,,99.1199998855591,28,0.0558515810092661,0.111385082037165
2011-06-01T04:43:28Z,1306903408,110,54.6566238,24.4249949,30.23,0,-0.3,217.1,-161845.92,-191642.38,218.1,Air+FixedWing,Blue,Enemies,J-11A,Blue J-11A #003,cn,=CNF= 909,0,0,0,30.2299995422363,2.22999954223633,0,0,NaN,NaN,0.184604271813842,0.0356631257199208,NaN,0.999989092350653,-0,-0.00465419515967369,0,29.6455025010872,29.6455025010872,,,100.119999885559,28,0.0558515810092661,0.111385082037165
2011-06-01T04:43:29Z,1306903409,110,54.6566238,24.4249949,30.23,0,-0.3,217.1,-161845.92,-191642.38,218.1,Air+FixedWing,Blue,Enemies,J-11A,Blue J-11A #003,cn,=CNF= 909,0,0,0,30.2299995422363,2.22999954223633,0,0,NaN,NaN,0,0.0197823405926261,NaN,0.999986767769645,-0,-0.00511961756274104,0,29.6455025010872,29.6455025010872,,,101.119999885559,28,0.0558515810092661,0.111385082037165
2011-06-01T04:43:30Z,1306903410,110,54.6566238,24.4249949,30.23,0,-0.3,217.1,-161845.92,-191642.38,218.1,Air+FixedWing,Blue,Enemies,J-11A,Blue J-11A #003,cn,=CNF= 909,0,0,0,30.2299995422363,2.22999954223633,0,0,NaN,NaN,0,0.0242283218322616,NaN,0.999989986420271,-0,-0.00446027144789696,0,29.6455025010872,29.6455025010872,,,102.119999885559,28,0.0558515810092661,0.111385082037165
2011-06-01T04:43:31Z,1306903411,110,54.6566238,24.4249949,30.23,0,-0.2,217.1,-161845.92,-191642.38,218.1,Air+FixedWing,Blue,Enemies,J-11A,Blue J-11A #003,cn,=CNF= 909,0,0,0,30.2299995422363,2.22999954223633,0,0,NaN,NaN,0,0.0279764548403722,NaN,0.999993503094103,-0,-0.00357801769860089,0,29.6455025010872,29.6455025010872,,,103.119999885559,28,0.0558515810092661,0.111385082037165
2011-06-01T04:43:32Z,1306903412,110,54.6566238,24.4249949,30.23,0,-0.2,217.1,-161845.92,-191642.38,218.1,Air+FixedWing,Blue,Enemies,J-11A,Blue J-11A #003,cn,=CNF= 909,0,0,0,30.2299995422363,2.22999954223633,0,0,NaN,NaN,0,0.0197823405926261,NaN,0.999993443489462,-0,-0.00360262976028025,0,29.6455025010872,29.6455025010872,,,104.119999885559,28,0.0558515810092661,0.111385082037165
2011-06-01T04:43:33Z,1306903413,110,54.6566238,24.4249949,30.23,0,-0.2,217.1,-161845.92,-191642.38,218.1,Air+FixedWing,Blue,Enemies,J-11A,Blue J-11A #003,cn,=CNF= 909,0,0,0,30.2299995422363,2.22999954223633,0,0,NaN,NaN,0,0.0370093733476075,NaN,0.999993741512668,-0,-0.00349723757244647,0,29.6455025010872,29.6455025010872,,,105.119999885559,28,0.0558515810092661,0.111385082037165
2011-06-01T04:43:34Z,1306903414,110,54.6566238,24.4249949,30.23,0,-0.2,217.1,-161845.92,-191642.38,218.1,Air+FixedWing,Blue,Enemies,J-11A,Blue J-11A #003,cn,=CNF= 909,0,0,0,30.2299995422363,2.22999954223633,0,0,NaN,NaN,0,0.0312786278555019,NaN,0.99999332428018,-0,-0.00362895987927914,0,29.6455025010872,29.6455025010872,,,106.119999885559,28,0.0558515810092661,0.111385082037165
2011-06-01T04:43:35Z,1306903415,110,54.6566238,24.4249949,30.23,0,-0.2,217.1,-161845.92,-191642.38,218.1,Air+FixedWing,Blue,Enemies,J-11A,Blue J-11A #003,cn,=CNF= 909,0,0,0,30.2299995422363,2.22999954223633,0,0,NaN,NaN,0,0.0171320104161963,NaN,0.999992907047691,-0,-0.00376068195328116,0,29.6455025010872,29.6455025010872,,,107.119999885559,28,0.0558515810092661,0.111385082037165
2011-06-01T04:43:36Z,1306903416,110,54.6566238,24.4249949,30.23,0,-0.2,217.1,-161845.92,-191642.38,218.1,Air+FixedWing,Blue,Enemies,J-11A,Blue J-11A #003,cn,=CNF= 909,0,0,0,30.2299995422363,2.22999954223633,0,0,NaN,NaN,0,0.0139882274201861,NaN,0.99999237060592,-0,-0.00389240402728319,0,29.6455025010872,29.6455025010872,,,108.119999885559,28,0.0558515810092661,0.111385082037165
2011-06-01T04:43:37Z,1306903417,110,54.6566238,24.4249949,30.23,0,-0.2,217.1,-161845.92,-191642.38,218.1,Air+FixedWing,Blue,Enemies,J-11A,Blue J-11A #003,cn,=CNF= 909,0,0,0,30.2299995422363,2.22999954223633,0,0,NaN,NaN,0,0.0197823405926261,NaN,0.999991834164149,-0,-0.00402412610128522,0,29.6455025010872,29.6455025010872,,,109.119999885559,28,0.0558515810092661,0.111385082037165
2011-06-01T04:43:38Z,1306903418,110,54.6566238,24.4249949,30.23,0,-0.2,217.1,-161845.92,-191642.38,218.1,Air+FixedWing,Blue,Enemies,J-11A,Blue J-11A #003,cn,=CNF= 909,0,0,0,30.2299995422363,2.22999954223633,0,0,NaN,NaN,0,0.0139882274201861,NaN,0.999991297722378,-0,-0.00415584770962596,0,29.6455025010872,29.6455025010872,,,110.119999885559,28,0.0558515810092661,0.111385082037165
2011-06-01T04:43:39Z,1306903419,110,54.6566238,24.4249949,30.23,0,-0.2,217.1,-161845.92,-191642.38,218.1,Air+FixedWing,Blue,Enemies,J-11A,Blue J-11A #003,cn,=CNF= 909,0,0,0,30.2299995422363,2.22999954223633,0,0,NaN,NaN,0,0.0197823405926261,NaN,0.999990701675966,-0,-0.00428756978362799,0,29.6455025010872,29.6455025010872,,,111.119999885559,28,0.0558515810092661,0.111385082037165
2011-06-01T04:43:40Z,1306903420,110,54.6566238,24.4249949,30.23,0,-0.3,217.1,-161845.92,-191642.38,218.1,Air+FixedWing,Blue,Enemies,J-11A,Blue J-11A #003,cn,=CNF= 909,0,0,0,30.2299995422363,2.22999954223633,0,0,NaN,NaN,0,0.0139882274201861,NaN,0.999990165234195,-0,-0.00441929139196873,0,29.6455025010872,29.6455025010872,,,112.119999885559,28,0.0558515810092661,0.111385082037165
2011-06-01T04:43:41Z,1306903421,110,54.6566238,24.4249949,30.23,0,-0.3,217.1,-161845.92,-191642.38,218.1,Air+FixedWing,Blue,Enemies,J-11A,Blue J-11A #003,cn,=CNF= 909,0,0,0,30.2299995422363,2.22999954223633,0,0,NaN,NaN,0,0.0139882274201861,NaN,0.999989628792424,-0,-0.00455101300030947,0,29.6455025010872,29.6455025010872,,,113.119999885559,28,0.0558515810092661,0.111385082037165
2011-06-01T04:43:42Z,1306903422,110,54.6566238,24.4249949,30.23,0,-0.3,217.1,-161845.92,-191642.38,218.1,Air+FixedWing,Blue,Enemies,J-11A,Blue J-11A #003,cn,=CNF= 909,0,0,0,30.2299995422363,2.22999954223633,0,0,NaN,NaN,0,0.0139882274201861,NaN,0.99998897314137,-0,-0.00468273414298892,0,29.6455025010872,29.6455025010872,,,114.119999885559,28,0.0558515810092661,0.111385082037165
2011-06-01T04:43:43Z,1306903423,110,54.6566238,24.4249949,30.23,0,-0.3,217.1,-161845.92,-191642.38,218.1,Air+FixedWing,Blue,Enemies,J-11A,Blue J-11A #003,cn,=CNF= 909,0,0,0,30.2299995422363,2.22999954223633,0,0,NaN,NaN,0,0.00989117029631303,NaN,0.999988317490317,-0,-0.00481445621699095,0,29.6455025010872,29.6455025010872,,,115.119999885559,28,0.0558515810092661,0.111385082037165
2011-06-01T04:43:44Z,1306903424,110,54.6566238,24.4249949,30.23,0,-0.3,217.1,-161845.92,-191642.38,218.1,Air+FixedWing,Blue,Enemies,J-11A,Blue J-11A #003,cn,=CNF= 909,0,0,0,30.2299995422363,2.22999954223633,0,0,NaN,NaN,0,0.0139882274201861,NaN,0.999987661839263,-0,-0.0049461773596704,0,29.6455025010872,29.6455025010872,,,116.119999885559,28,0.0558515810092661,0.111385082037165
2011-06-01T04:43:45Z,1306903425,110,54.6566238,24.4249949,30.23,0,-0.3,217.1,-161845.92,-191642.38,218.1,Air+FixedWing,Blue,Enemies,J-11A,Blue J-11A #003,cn,=CNF= 909,0,0,0,30.2299995422363,2.22999954223633,0,0,NaN,NaN,0,0.0139882274201861,NaN,0.999986946583569,-0,-0.00507789896801114,0,29.6455025010872,29.6455025010872,,,117.119999885559,28,0.0558515810092661,0.111385082037165
2011-06-01T04:43:46Z,1306903426,110,54.6566238,24.4249949,30.23,0,-0.3,217.1,-161845.92,-191642.38,218.1,Air+FixedWing,Blue,Enemies,J-11A,Blue J-11A #003,cn,=CNF= 909,0,0,0,30.2299995422363,2.22999954223633,0,0,NaN,NaN,0,0.0197823405926261,NaN,0.999986290932515,-0,-0.00520961964502931,0,29.6455025010872,29.6455025010872,,,118.119999885559,28,0.0558515810092661,0.111385082037165
2011-06-01T04:43:47Z,1306903427,110,54.6566238,24.4249949,30.23,0,-0.2,217.1,-161845.92,-191642.38,218.1,Air+FixedWing,Blue,Enemies,J-11A,Blue J-11A #003,cn,=CNF= 909,0,0,0,30.2299995422363,2.22999954223633,0,0,NaN,NaN,0,0.00989117029631303,NaN,0.999992072582714,-0,-0.00395264755934477,0,29.6455025010872,29.6455025010872,,,119.119999885559,28,0.0558515810092661,0.111385082037165
2011-06-01T04:43:48Z,1306903428,110,54.6566238,24.4249949,30.23,0,-0.2,217.1,-161845.92,-191642.38,218.1,Air+FixedWing,Blue,Enemies,J-11A,Blue J-11A #003,cn,=CNF= 909,0,0,0,30.2299995422363,2.22999954223633,0,0,NaN,NaN,0,0.0261695779877396,NaN,0.999993801117309,-0,-0.0034934941213578,0,29.6455025010872,29.6455025010872,,,120.119999885559,28,0.0558515810092661,0.111385082037165
2011-06-01T04:43:49Z,1306903429,110,54.6566238,24.4249949,30.23,0,-0.2,217.1,-161845.92,-191642.38,218.1,Air+FixedWing,Blue,Enemies,J-11A,Blue J-11A #003,cn,=CNF= 909,0,0,0,30.2299995422363,2.22999954223633,0,0,NaN,NaN,0,0.0494558589854351,NaN,0.999993562698744,-0,-0.00356455775909126,0,29.6455025010872,29.6455025010872,,,121.119999885559,28,0.0558515810092661,0.111385082037165
2011-06-01T04:43:50Z,1306903430,110,54.6566238,24.4249949,30.23,0,-0.2,217.1,-161845.92,-191642.38,218.1,Air+FixedWing,Blue,Enemies,J-11A,Blue J-11A #003,cn,=CNF= 909,0,0,0,30.2299995422363,2.22999954223633,0,0,NaN,NaN,0,0.0139882274201861,NaN,0.999993264675538,-0,-0.00363562116399407,0,29.6455025010872,29.6455025010872,,,122.119999885559,28,0.0558515810092661,0.111385082037165
2011-06-01T04:43:51Z,1306903431,110,54.6566238,24.4249949,30.23,0,-0.2,217.1,-161845.92,-191642.38,218.1,Air+FixedWing,Blue,Enemies,J-11A,Blue J-11A #003,cn,=CNF= 909,0,0,0,30.2299995422363,2.22999954223633,0,0,NaN,NaN,0,0.0197823405926261,NaN,0.999993085861615,-0,-0.00370668456889689,0,29.6455025010872,29.6455025010872,,,123.119999885559,28,0.0558515810092661,0.111385082037165
2011-06-01T04:43:52Z,1306903432,110,54.6566238,24.4249949,30.23,0,-0.2,217.1,-161845.92,-191642.38,218.1,Air+FixedWing,Blue,Enemies,J-11A,Blue J-11A #003,cn,=CNF= 909,0,0,0,30.2299995422363,2.22999954223633,0,0,NaN,NaN,0,0.0139882274201861,NaN,0.999992728233767,-0,-0.00377774774096906,0,29.6455025010872,29.6455025010872,,,124.119999885559,28,0.0558515810092661,0.111385082037165
2011-06-01T04:43:53Z,1306903433,110,54.6566238,24.4249949,30.23,0,-0.2,217.1,-161845.92,-191642.38,218.1,Air+FixedWing,Blue,Enemies,J-11A,Blue J-11A #003,cn,=CNF= 909,0,0,0,30.2299995422363,2.22999954223633,0,0,NaN,NaN,0,0.0171320104161963,NaN,0.999992489815202,-0,-0.00384881114587188,0,29.6455025010872,29.6455025010872,,,125.119999885559,28,0.0558515810092661,0.111385082037165
2011-06-01T04:43:54Z,1306903434,110,54.6566238,24.4249949,30.23,0,-0.2,217.1,-161845.92,-191642.38,218.1,Air+FixedWing,Blue,Enemies,J-11A,Blue J-11A #003,cn,=CNF= 909,0,0,0,30.2299995422363,2.22999954223633,0,0,NaN,NaN,0,0.0139882274201861,NaN,0.999992251396638,-0,-0.00391987431794405,0,29.6455025010872,29.6455025010872,,,126.119999885559,28,0.0558515810092661,0.111385082037165
2011-06-01T04:43:55Z,1306903435,110,54.6566238,24.4249949,30.23,0,-0.2,217.1,-161845.92,-191642.38,218.1,Air+FixedWing,Blue,Enemies,J-11A,Blue J-11A #003,cn,=CNF= 909,0,0,0,30.2299995422363,2.22999954223633,0,0,NaN,NaN,0,0.0139882274201861,NaN,0.999991953373431,-0,-0.00399093795567751,0,29.6455025010872,29.6455025010872,,,127.119999885559,28,0.0558515810092661,0.111385082037165
2011-06-01T04:43:56Z,1306903436,110,54.6566238,24.4249949,30.23,0,-0.2,217.1,-161845.92,-191642.38,218.1,Air+FixedWing,Blue,Enemies,J-11A,Blue J-11A #003,cn,=CNF= 909,0,0,0,30.2299995422363,2.22999954223633,0,0,NaN,NaN,0,0.0139882274201861,NaN,0.999991655350225,-0,-0.00406200112774968,0,29.6455025010872,29.6455025010872,,,128.119999885559,28,0.0558515810092661,0.111385082037165
2011-06-01T04:43:57Z,1306903437,110,54.6566238,24.4249949,30.23,0,-0.2,217.1,-161845.92,-191642.38,218.1,Air+FixedWing,Blue,Enemies,J-11A,Blue J-11A #003,cn,=CNF= 909,0,0,0,30.2299995422363,2.22999954223633,0,0,NaN,NaN,0,0.0171320104161963,NaN,0.99999141693166,-0,-0.00413306476548314,0,29.6455025010872,29.6455025010872,,,129.119999885559,28,0.0558515810092661,0.111385082037165
2011-06-01T04:43:58Z,1306903438,110,54.6566238,24.4249949,30.23,0,-0.2,217.1,-161845.92,-191642.38,218.1,Air+FixedWing,Blue,Enemies,J-11A,Blue J-11A #003,cn,=CNF= 909,0,0,0,30.2299995422363,2.22999954223633,0,0,NaN,NaN,0,0.0197823405926261,NaN,0.999991059303813,-0,-0.00420412747189403,0,29.6455025010872,29.6455025010872,,,130.119999885559,28,0.0558515810092661,0.111385082037165
2011-06-01T04:43:59Z,1306903439,110,54.6566238,24.4249949,30.23,0,-0.2,217.1,-161845.92,-191642.38,218.1,Air+FixedWing,Blue,Enemies,J-11A,Blue J-11A #003,cn,=CNF= 909,0,0,0,30.2299995422363,2.22999954223633,0,0,NaN,NaN,0,0.0197823405926261,NaN,0.999990761280607,-0,-0.00427519110962749,0,29.6455025010872,29.6455025010872,,,131.119999885559,28,0.0558515810092661,0.111385082037165
2011-06-01T04:44:00Z,1306903440,110,54.6566238,24.4249949,30.23,0,-0.2,217.1,-161845.92,-191642.38,218.1,Air+FixedWing,Blue,Enemies,J-11A,Blue J-11A #003,cn,=CNF= 909,0,0,0,30.2299995422363,2.22999954223633,0,0,NaN,NaN,0,0.0197823405926261,NaN,0.999990522862042,-0,-0.00434625474736094,0,29.6455025010872,29.6455025010872,,,132.119999885559,28,0.0558515810092661,0.111385082037165
2011-06-01T04:44:01Z,1306903441,110,54.6566238,24.4249949,30.23,0,-0.3,217.1,-161845.92,-191642.38,218.1,Air+FixedWing,Blue,Enemies,J-11A,Blue J-11A #003,cn,=CNF= 909,0,0,0,30.2299995422363,2.22999954223633,0,0,NaN,NaN,0,0.0171320104161963,NaN,0.999990165234195,-0,-0.00441731745377183,0,29.6455025010872,29.6455025010872,,,133.119999885559,28,0.0558515810092661,0.111385082037165
2011-06-01T04:44:02Z,1306903442,110,54.6566238,24.4249949,30.23,0,-0.3,217.1,-161845.92,-191642.38,218.1,Air+FixedWing,Blue,Enemies,J-11A,Blue J-11A #003,cn,=CNF= 909,0,0,0,30.2299995422363,2.22999954223633,0,0,NaN,NaN,0,0.00989117029631303,NaN,0.999989807606347,-0,-0.00448838109150529,0,29.6455025010872,29.6455025010872,,,134.119999885559,28,0.0558515810092661,0.111385082037165
2011-06-01T04:44:03Z,1306903443,110,54.6566238,24.4249949,30.23,0,-0.3,217.1,-161845.92,-191642.38,218.1,Air+FixedWing,Blue,Enemies,J-11A,Blue J-11A #003,cn,=CNF= 909,0,0,0,30.2299995422363,2.22999954223633,0,0,NaN,NaN,0,0,NaN,0.999989509583141,-0,-0.00455944379791617,0,29.6455025010872,29.6455025010872,,,135.119999885559,28,0.0558515810092661,0.111385082037165
2011-06-01T04:44:04Z,1306903444,110,54.6566238,24.4249949,30.23,0,-0.3,217.1,-161845.92,-191642.38,218.1,Air+FixedWing,Blue,Enemies,J-11A,Blue J-11A #003,cn,=CNF= 909,0,0,0,30.2299995422363,2.22999954223633,0,0,NaN,NaN,0,0.0171320104161963,NaN,0.999989151955294,-0,-0.00463050696998835,0,29.6455025010872,29.6455025010872,,,136.119999885559,28,0.0558515810092661,0.111385082037165
2011-06-01T04:44:05Z,1306903445,110,54.6566238,24.4249949,30.23,0,-0.3,217.1,-161845.92,-191642.38,218.1,Air+FixedWing,Blue,Enemies,J-11A,Blue J-11A #003,cn,=CNF= 909,0,0,0,30.2299995422363,2.22999954223633,0,0,NaN,NaN,0,0,NaN,0.999988853932088,-0,-0.00470157014206052,0,29.6455025010872,29.6455025010872,,,137.119999885559,28,0.0558515810092661,0.111385082037165
2011-06-01T04:44:06Z,1306903446,110,54.6566238,24.4249949,30.23,0,-0.3,217.1,-161845.92,-191642.38,218.1,Air+FixedWing,Blue,Enemies,J-11A,Blue J-11A #003,cn,=CNF= 909,0,0,0,30.2299995422363,2.22999954223633,0,0,NaN,NaN,0,0.0197823405926261,NaN,0.999988555908882,-0,-0.00477263331413269,0,29.6455025010872,29.6455025010872,,,138.119999885559,28,0.0558515810092661,0.111385082037165
2011-06-01T04:44:07Z,1306903447,110,54.6566238,24.4249949,30.23,0,-0.3,217.1,-161845.92,-191642.38,218.1,Air+FixedWing,Blue,Enemies,J-11A,Blue J-11A #003,cn,=CNF= 909,0,0,0,30.2299995422363,2.22999954223633,0,0,NaN,NaN,0,0,NaN,0.999988198281034,-0,-0.00484369648620486,0,29.6455025010872,29.6455025010872,,,139.119999885559,28,0.0558515810092661,0.111385082037165
2011-06-01T04:44:08Z,1306903448,110,54.6566238,24.4249949,30.23,0,-0.3,217.1,-161845.92,-191642.38,218.1,Air+FixedWing,Blue,Enemies,J-11A,Blue J-11A #003,cn,=CNF= 909,0,0,0,30.2299995422363,2.22999954223633,0,0,NaN,NaN,0,0.0139882274201861,NaN,0.999987840653187,-0,-0.00491475965827703,0,29.6455025010872,29.6455025010872,,,140.119999885559,28,0.0558515810092661,0.111385082037165
2011-06-01T04:44:09Z,1306903449,110,54.6566238,24.4249949,30.23,0,-0.3,217.1,-161845.92,-191642.38,218.1,Air+FixedWing,Blue,Enemies,J-11A,Blue J-11A #003,cn,=CNF= 909,0,0,0,30.2299995422363,2.22999954223633,0,0,NaN,NaN,0,0.0139882274201861,NaN,0.99998748302534,-0,-0.00498582283034921,0,29.6455025010872,29.6455025010872,,,141.119999885559,28,0.0558515810092661,0.111385082037165
