ISOTime,UnixTime,Id,Longitude,Latitude,Altitude,Roll,Pitch,Yaw,U,V,Heading,Type,Color,Coalition,Name,Group,Country,Pilot,TAS,CAS,M,ASL,AGL,GS,VS,AOA,AOS,RRT,TRT,TRD,G,LatG,LonG,Ek,Ep,Em,FFW,FFV,RelativeTime,Elev,GroundDistance,AirDistance
2011-06-01T04:30:00Z,1306902600,202,53.9864176,25.2234489,8997.77,0,0.3,117.5,-227881.2,-101837.72,118.8,Air+FixedWing,Blue,Enemies,E-2C,Blue AWACS #001,us,,NaN,NaN,NaN,8997.76953125,8997.76953125,NaN,NaN,NaN,NaN,NaN,NaN,NaN,NaN,NaN,NaN,NaN,8823.79765736328,NaN,,,0,0,NaN,NaN
2011-06-01T04:30:01Z,1306902601,202,53.9877611,25.2228134,8994.67,-0.4,2.4,117.4,-227747.34,-101911.19,118.7,Air+FixedWing,Blue,Enemies,E-2C,Blue AWACS #001,us,,152.727099214415,96.306282043457,0.502417357749059,8994.6748046875,8994.6748046875,152.695741597312,-3.0947265625,4.22381454863705,0.0155326951991058,0.733343750805929,0.119349531310736,5000,0.767264227354653,0.000518757374954964,0.00739451352678661,1166.27834172249,8820.76276733887,9987.04110906136,,,1,0,152.677579222339,152.924244777961
2011-06-01T04:30:02Z,1306902602,202,53.9891026,25.2221794,8989.29,-0.2,4,117.4,-227613.67,-101984.49,118.7,Air+FixedWing,Blue,Enemies,E-2C,Blue AWACS #001,us,,152.547373045562,96.2180862426758,0.501787995612739,8989.2939453125,8989.2939453125,152.45244299613,-5.380859375,5.89542251773794,0.0201533296358557,0.371398366308613,1.61517282596017,5000,1.08318222186938,-0.00218810404077472,0.117754608271709,1163.53505115509,8815.48594687988,9979.02099803497,,,2,0,305.10042924484,305.656797489838
2011-06-01T04:30:03Z,1306902603,202,53.9904479,25.2215437,8984.78,0,5.1,117.4,-227479.62,-102057.98,118.7,Air+FixedWing,Blue,Enemies,E-2C,Blue AWACS #001,us,,152.937938772179,96.4999465942383,0.503040681903151,8984.783203125,8984.783203125,152.871404522889,-4.5107421875,6.40560865124917,0.0340034814871106,0.0190464494080433,1.11197987647893,5000,1.19545908401184,0.000808214436860803,0.012344527857155,1169.50065579414,8811.06241989258,9980.56307568672,,,3,0,457.94593108797,458.784116408555
2011-06-01T04:30:04Z,1306902604,202,53.9917851,25.2209119,8982.15,0.1,5.8,117.4,-227346.38,-102131.03,118.7,Air+FixedWing,Blue,Enemies,E-2C,Blue AWACS #001,us,,151.981313309686,95.8864517211914,0.499875614853066,8982.154296875,8982.154296875,151.958574773738,-2.62890625,6.433184027048,0.0467013825165185,0.20000001179094,0.731230927835721,5000,1.1747199364746,-8.51864944153762e-05,0.177198089413471,1154.91597976685,8808.48434354492,9963.40032331177,,,4,0,609.872092472085,610.946973925343
2011-06-01T04:30:05Z,1306902605,202,53.9931272,25.2202775,8981.36,0.1,6.2,117.4,-227212.64,-102204.37,118.7,Air+FixedWing,Blue,Enemies,E-2C,Blue AWACS #001,us,,152.524361700083,96.2474822998047,0.501656076430383,8981.35546875,8981.35546875,152.522269802297,-0.798828125,6.19820169475915,0.0528925500204026,0,0.417078111188703,5000,1.14131435249943,1.10252590268093e-06,0.0698861642837545,1163.18404560089,8807.70096076172,9970.88500636261,,,5,0,762.371498943012,763.663220821222
2011-06-01T04:30:06Z,1306902606,202,53.9944647,25.2196451,8981.95,0.1,6.4,117.4,-227079.38,-102277.47,118.7,Air+FixedWing,Blue,Enemies,E-2C,Blue AWACS #001,us,,151.999737199757,95.8993988037109,0.499934778600982,8981.951171875,8981.951171875,151.998569883345,0.595703125,5.94440289308945,0.0563833487633047,0,0.186101590686169,5000,1.08921677237182,0.00124137702237443,0.0650549251929897,1155.19600543976,8808.2851459668,9963.48115140655,,,6,0,914.359928259664,915.866845061911
2011-06-01T04:30:07Z,1306902607,202,53.995797,25.2190149,8983.43,0.1,6.4,117.4,-226946.59,-102350.31,118.8,Air+FixedWing,Blue,Enemies,E-2C,Blue AWACS #001,us,,151.45708837649,95.5348892211914,0.498160356181641,8983.4267578125,8983.4267578125,151.449900183609,1.4755859375,5.73510211189695,-0.0329259430045954,0,0.0720088301298065,5000,1.04995193613651,-0.00122069402191207,0.0206607043710772,1146.9624809742,8809.7322014502,9956.69468242439,,,7,0,1065.76488879298,1067.49221792876
2011-06-01T04:30:08Z,1306902608,202,53.9971212,25.2183885,8985.35,0.1,6.3,117.5,-226814.66,-102422.73,118.8,Air+FixedWing,Blue,Enemies,E-2C,Blue AWACS #001,us,,150.515784782389,94.9064102172852,0.495077742767528,8985.3505859375,8985.3505859375,150.503489507732,1.923828125,5.52523628409246,-0.0288783230707708,0,0.0523391626455858,5000,1.00587095870692,0.00125902251828993,0.153396776638447,1132.75007343292,8811.6188323584,9944.36890579132,,,8,0,1216.25548907935,1218.20708172642
2011-06-01T04:30:09Z,1306902609,202,53.9984489,25.2177603,8987.44,0.1,6.3,117.5,-226682.36,-102495.34,118.8,Air+FixedWing,Blue,Enemies,E-2C,Blue AWACS #001,us,,150.930693583115,95.1671447753906,0.496457091379305,8987.4375,8987.4375,150.916265045143,2.0869140625,5.50835541443611,-0.0283954894751741,0,0.101835886039175,5000,0.986539714919995,0.000391656144196704,0.129772463193643,1139.003713274,8813.6653959375,9952.6691092115,,,9,0,1367.14583168635,1369.32443005441
2011-06-01T04:30:10Z,1306902610,202,53.9997782,25.2171311,8989.47,0,6.2,117.5,-226549.89,-102568.07,118.8,Air+FixedWing,Blue,Enemies,E-2C,Blue AWACS #001,us,,151.13328043968,95.2889175415039,0.497137753036861,8989.4736328125,8989.4736328125,151.119563987026,2.0361328125,5.45986005601588,-0.0323966475673654,0,0.101354391053222,5000,0.985766973978643,0.000367889947366709,0.00629558010183935,1142.06342282295,8815.66216012207,9957.72558294502,,,10,0,1518.24099208055,1520.64622223057
2011-06-01T04:30:11Z,1306902611,202,54.001099,25.216506,8991.32,0,6.1,117.5,-226418.28,-102640.32,118.8,Air+FixedWing,Blue,Enemies,E-2C,Blue AWACS #001,us,,150.148261108009,94.632568359375,0.493910509325633,8991.3203125,8991.3203125,150.13690448351,1.8466796875,5.43565735645289,-0.0324986653271616,0,0.0532655904281015,5000,0.982946664307363,-0.00123331677384171,-0.0186136696291626,1127.22501568794,8817.47313425781,9944.69814994575,,,11,0,1668.35608899353,1670.98425837752
2011-06-01T04:30:12Z,1306902612,202,54.002409,25.2158858,8992.93,0,6,117.5,-226287.73,-102712,118.8,Air+FixedWing,Blue,Enemies,E-2C,Blue AWACS #001,us,,148.939725064438,93.8315963745117,0.489946154693786,8992.92578125,8992.92578125,148.931071883483,1.60546875,5.42859090848398,-0.0283695179894111,0,0.0541761800424684,5000,0.959835713269175,-0.000999957795379785,0.222098055014939,1109.15208511353,8819.04756126953,9928.19964638306,,,12,0,1817.26220046954,1820.10894540137
2011-06-01T04:30:13Z,1306902613,202,54.0037295,25.2152607,8994.31,0,5.9,117.5,-226156.16,-102784.26,118.8,Air+FixedWing,Blue,Enemies,E-2C,Blue AWACS #001,us,,150.119686064424,94.5971832275391,0.493837384218251,8994.3134765625,8994.3134765625,150.113272050811,1.3876953125,5.42874721337604,-0.0302273141840298,0,0.100870594880489,5000,0.979189169606544,0.00106600227054137,0.000229083617103503,1126.79600720406,8820.40842549316,9947.20443269722,,,13,0,1967.36018733335,1970.42498656852
2011-06-01T04:30:14Z,1306902614,202,54.0050411,25.2146396,8995.45,0,5.9,117.5,-226025.44,-102856.03,118.8,Air+FixedWing,Blue,Enemies,E-2C,Blue AWACS #001,us,,149.131154345057,93.9433441162109,0.490593334194001,8995.4462890625,8995.4462890625,149.126851814584,1.1328125,5.50287101988273,-0.0225294450197448,0,0.0523391626455858,5000,0.971737731090029,-0.00154201089542115,0.134173563596275,1112.00505981445,8821.51933506348,9933.52439487793,,,14,0,2116.45293048042,2119.73228783317
2011-06-01T04:30:15Z,1306902615,202,54.0063557,25.2140172,8996.39,0,5.9,117.5,-225894.44,-102927.98,118.8,Air+FixedWing,Blue,Enemies,E-2C,Blue AWACS #001,us,,149.459065963627,94.1528778076172,0.491678587366189,8996.38671875,8996.38671875,149.456107237953,0.9404296875,5.57775071658974,-0.0305926890311736,0,0.0523391626455858,5000,0.982987205448021,0.00064234082207455,0.0262833999802181,1116.90061993599,8822.44158154297,9939.34220147896,,,15,0,2265.88724773958,2269.38032674285
2011-06-01T04:30:16Z,1306902616,202,54.0076639,25.2133977,8997.14,0,5.8,117.5,-225764.08,-102999.56,118.8,Air+FixedWing,Blue,Enemies,E-2C,Blue AWACS #001,us,,148.723482121199,93.6670455932617,0.489263897366201,8997.1357421875,8997.1357421875,148.721595937324,0.7490234375,5.53890462818283,-0.0275237664902175,0,0.0523391626455858,5000,0.980074568057577,0.000208406399546252,0.104919973590363,1105.93370671272,8823.1761226123,9929.10982932503,,,16,0,2414.59352184678,2418.29824407346
2011-06-01T04:30:17Z,1306902617,202,54.0089724,25.2127781,8997.74,0,5.8,117.5,-225633.67,-103071.17,118.8,Air+FixedWing,Blue,Enemies,E-2C,Blue AWACS #001,us,,148.775208874368,93.697624206543,0.48943827108008,8997.744140625,8997.744140625,148.773964882815,0.6083984375,5.5933441936522,-0.0244854476879941,0,0.0139882274201861,5000,0.985528071361928,-0.00110807647289285,0.053202097525545,1106.70313878059,8823.77275766602,9930.47589644661,,,17,0,2563.34139876025,2567.25719745839
2011-06-01T04:30:18Z,1306902618,202,54.0102769,25.2121603,8998.21,0,5.8,117.5,-225503.67,-103142.57,118.8,Air+FixedWing,Blue,Enemies,E-2C,Blue AWACS #001,us,,148.31708438506,93.3951034545898,0.487934377456379,8998.2138671875,8998.2138671875,148.316340561118,0.4697265625,5.63529382140572,-0.0318315627210129,0,0.0139882274201861,5000,0.982429002887373,0.00125043839727751,0.131996744788118,1099.89787602425,8824.23340206543,9924.13127808968,,,18,0,2711.63011001046,2715.75585043913
2011-06-01T04:30:19Z,1306902619,202,54.0115843,25.2115413,8998.59,0,5.8,117.5,-225373.39,-103214.11,118.8,Air+FixedWing,Blue,Enemies,E-2C,Blue AWACS #001,us,,148.631036916546,93.5984878540039,0.488969836884155,8998.5927734375,8998.5927734375,148.630553941447,0.37890625,5.66891582292592,-0.0208173388967587,0,0.0139882274201861,5000,0.993106338974825,-0.000198133425484775,0.0406761190487992,1104.55925674438,8824.60498216309,9929.16423890747,,,19,0,2860.24702192889,2864.58291640955
2011-06-01T04:30:20Z,1306902620,202,54.0128864,25.2109247,8998.89,0,5.8,117.5,-225243.62,-103285.37,118.8,Air+FixedWing,Blue,Enemies,E-2C,Blue AWACS #001,us,,148.043521748516,93.2123794555664,0.487039091492643,8998.89453125,8998.89453125,148.043214211006,0.3017578125,5.69862357793318,-0.0339267467068201,0,0.0139882274201861,5000,0.985985090063294,0.000833625598185006,0.121622912867095,1095.84421658516,8824.90090548828,9920.74512207344,,,20,0,3008.27068412966,3012.81572839835
2011-06-01T04:30:21Z,1306902621,202,54.0141903,25.2103072,8999.13,0,5.8,117.5,-225113.67,-103356.72,118.8,Air+FixedWing,Blue,Enemies,E-2C,Blue AWACS #001,us,,148.25287706758,93.3481597900391,0.487729457600432,8999.1298828125,8999.1298828125,148.252690257064,0.2353515625,5.72091340299621,-0.0222143848565272,0,0.0139882274201861,5000,0.990172637149042,-0.00167409984574433,0.0941930090274129,1098.94577794075,8825.13170652832,9924.07748446907,,,21,0,3156.49255577994,3161.24691516792
2011-06-01T04:30:22Z,1306902622,202,54.0154936,25.2096899,8999.31,0,5.8,117.5,-224983.78,-103428.05,118.8,Air+FixedWing,Blue,Enemies,E-2C,Blue AWACS #001,us,,148.190498315282,93.3063735961914,0.48752549838727,8999.3125,8999.3125,148.190385794405,0.1826171875,5.73472644007119,-0.0348776148464115,0,0.0139882274201861,5000,1.00039967606728,0.00148281506963387,0.0112470978799763,1098.02118954659,8825.3107928125,9923.33198235909,,,22,0,3304.65437404734,3309.61789447602
2011-06-01T04:30:23Z,1306902623,202,54.0167893,25.2090764,8999.46,0,5.8,117.5,-224854.66,-103498.95,118.8,Air+FixedWing,Blue,Enemies,E-2C,Blue AWACS #001,us,,147.308777096511,92.7286911010742,0.484625771268926,8999.4599609375,8999.4599609375,147.308703289865,0.1474609375,5.75180893341722,-0.026854211971162,0,0.0139882274201861,5000,0.986458140241935,-0.000149210573758978,0.151455050343751,1084.99379048347,8825.45540259277,9910.44919307625,,,23,0,3451.94716784914,3457.11858830861
2011-06-01T04:30:24Z,1306902624,202,54.0180894,25.2084607,8999.58,0,5.8,117.5,-224725.09,-103570.09,118.8,Air+FixedWing,Blue,Enemies,E-2C,Blue AWACS #001,us,,147.80880626878,93.0552673339844,0.486271590412494,8999.5751953125,8999.5751953125,147.808761349389,0.115234375,5.75910280328905,-0.0286456497938571,0,0.0139882274201861,5000,1.00095532256399,0.000784702746459207,0.0116893038381926,1092.37216053009,8825.56840891113,9917.94056944122,,,24,0,3599.74081130583,3605.12081267514
2011-06-01T04:30:25Z,1306902625,202,54.0193816,25.2078487,8999.66,0,5.8,117.5,-224596.3,-103640.8,118.8,Air+FixedWing,Blue,Enemies,E-2C,Blue AWACS #001,us,,146.930864957464,92.4804916381836,0.483383865326173,8999.6611328125,8999.6611328125,146.930839825731,0.0859375,5.768562775911,-0.0307916645603328,0,0.0139882274201861,5000,0.98820038773716,-0.00140649762041081,0.155981901172877,1079.43395385742,8825.65268480957,9905.08663866699,,,25,0,3746.63823933523,3752.22553961767
2011-06-01T04:30:26Z,1306902626,202,54.0206788,25.2072344,8999.74,0,5.8,117.5,-224467.03,-103711.79,118.8,Air+FixedWing,Blue,Enemies,E-2C,Blue AWACS #001,us,,147.473349982688,92.8350830078125,0.485169087351584,8999.736328125,8999.736328125,147.473330811985,0.0751953125,5.77749096445543,-0.0337856263679232,0,0.0139882274201861,5000,0.994850816751963,0.00153858657073399,0.0855826771182352,1087.41944775581,8825.7264262207,9913.14587397652,,,26,0,3894.10365508311,3899.89905161987
2011-06-01T04:30:27Z,1306902627,202,54.0219745,25.2066208,8999.8,0,5.8,117.5,-224337.89,-103782.69,118.8,Air+FixedWing,Blue,Enemies,E-2C,Blue AWACS #001,us,,147.322411784338,92.7357635498047,0.484672927119834,8999.7958984375,8999.7958984375,147.32239974061,0.0595703125,5.77761379666888,-0.0322051880947582,0,0.0139882274201861,5000,1.00434705390721,-0.000257329251272048,-0.0148037924615759,1085.19465069771,8825.78484474121,9910.97949543892,,,27,0,4041.40289315331,4047.40614590465
2011-06-01T04:30:28Z,1306902628,202,54.0232601,25.2060119,8999.83,0,5.8,117.5,-224209.75,-103853.04,118.8,Air+FixedWing,Blue,Enemies,E-2C,Blue AWACS #001,us,,146.182637473428,91.9906997680664,0.480923459468639,8999.8330078125,8999.8330078125,146.182632763205,0.037109375,5.78553499612003,-0.0302046661525025,0,0.0139882274201861,5000,0.982835932260435,-0.000301845472205118,0.220618808661964,1068.46817493439,8825.82123660645,9894.28941154083,,,28,0,4187.56372658265,4193.77322300462
2011-06-01T04:30:29Z,1306902629,202,54.0245563,25.2053981,8999.87,0,5.8,117.5,-224080.58,-103923.96,118.8,Air+FixedWing,Blue,Enemies,E-2C,Blue AWACS #001,us,,147.361077273037,92.7606964111328,0.484800646777083,8999.87109375,8999.87109375,147.361072351321,0.0380859375,5.78895273489938,-0.0310456578354811,0,0.0139882274201861,5000,0.995307391418109,0.000840474247559324,0.0860148197161414,1085.76435475349,8825.85858615234,9911.62294090584,,,29,0,4334.91792121657,4341.33534627028
2011-06-01T04:30:30Z,1306902630,202,54.025851,25.2047849,8999.9,0,5.8,117.5,-223951.53,-103994.8,118.8,Air+FixedWing,Blue,Enemies,E-2C,Blue AWACS #001,us,,147.213904265218,92.6642837524414,0.484316651896748,8999.8984375,8999.8984375,147.213901725782,0.02734375,5.79008524932249,-0.031360497875787,0,0.0139882274201861,5000,1.00926914926196,-0.00150776764854956,-0.0465089631226311,1083.59668045044,8825.88540121094,9909.48208166138,,,30,0,4482.10306354386,4488.72817706483
2011-06-01T04:30:31Z,1306902631,202,54.027133,25.2041778,8999.92,0,5.8,117.5,-223823.77,-104064.96,118.8,Air+FixedWing,Blue,Enemies,E-2C,Blue AWACS #001,us,,145.759921814199,91.7141723632812,0.479533363964764,8999.919921875,8999.919921875,145.759920230848,0.021484375,5.79236009142804,-0.0381738310309025,0,0.0139882274201861,5000,0.986635255767531,0.00145199614744945,0.174346543067496,1062.29774036407,8825.90647018555,9888.20421054962,,,31,0,4627.84336647447,4634.67412932095
2011-06-01T04:30:32Z,1306902632,202,54.0284211,25.2035677,8999.93,0,5.9,117.5,-223695.36,-104135.45,118.8,Air+FixedWing,Blue,Enemies,E-2C,Blue AWACS #001,us,,146.483151674579,92.1863327026367,0.481912800008493,8999.93359375,8999.93359375,146.483151036553,0.013671875,5.89616443650354,-0.0256354331688121,0,0.0523391626455858,5000,0.999287122945796,-0.000201557750171934,0.0613362363612845,1072.86568622589,8825.91987771484,9898.78556394073,,,32,0,4774.28487878628,4781.32227986508
2011-06-01T04:30:33Z,1306902633,202,54.0297059,25.2029591,8999.95,0,5.9,117.5,-223567.31,-104205.75,118.8,Air+FixedWing,Blue,Enemies,E-2C,Blue AWACS #001,us,,146.074135655985,91.9190292358398,0.480567296811451,8999.9501953125,8999.9501953125,146.074134712588,0.0166015625,5.89389582378803,-0.0345831599134492,0,0.0523391626455858,5000,0.993682824545366,0.000837049922872165,0.105880284783492,1066.88265538216,8825.93615828613,9892.81881366829,,,33,0,4920.35053026337,4927.59403986369
2011-06-01T04:30:34Z,1306902634,202,54.0309908,25.2023506,8999.96,0,5.9,117.5,-223439.23,-104276.05,118.8,Air+FixedWing,Blue,Enemies,E-2C,Blue AWACS #001,us,,146.105288348354,91.9392929077148,0.480669851924254,8999.9599609375,8999.9599609375,146.105288021989,0.009765625,5.89692008422155,-0.039603216860864,0,0.0139882274201861,5000,0.989604643035599,-0.000916791696782393,0.152125379622809,1067.33776416779,8825.94573509277,9893.28349926056,,,34,0,5066.42849856102,5073.87813374793
2011-06-01T04:30:35Z,1306902635,202,54.0322801,25.20174,8999.97,0,5.9,117.5,-223310.73,-104346.6,118.8,Air+FixedWing,Blue,Enemies,E-2C,Blue AWACS #001,us,,146.591649378923,92.2570648193359,0.482269991151256,8999.9697265625,8999.9697265625,146.59164905364,0.009765625,5.89733625687996,-0.0296344826214301,0,0.0139882274201861,5000,1.00568935697632,-0.000118391651574547,-0.00933577929828993,1074.45558338165,8825.95531189941,9900.41089528107,,,35,0,5213.00376877128,5220.66023149283
2011-06-01T04:30:36Z,1306902636,202,54.0335597,25.2011339,8999.97,0,5.9,117.5,-223183.2,-104416.62,118.8,Air+FixedWing,Blue,Enemies,E-2C,Blue AWACS #001,us,,145.486794885178,91.5352554321289,0.47863517089929,8999.9736328125,8999.9736328125,145.486794832738,0.00390625,5.89615223560192,-0.0379510332068079,0,0.0139882274201861,5000,0.985999784731305,0.00124016542321604,0.188946403380893,1058.3203742981,8825.95914262207,9884.27951692017,,,36,0,5358.48300601335,5366.34474957893
2011-06-01T04:30:37Z,1306902637,202,54.0348467,25.2005243,8999.98,0,5.9,117.5,-223054.92,-104487.03,118.8,Air+FixedWing,Blue,Enemies,E-2C,Blue AWACS #001,us,,146.335980994589,92.0900726318359,0.481428937407675,8999.9794921875,8999.9794921875,146.335980877283,0.005859375,5.89999926828606,-0.0360354857085483,0,0.0139882274201861,5000,1.0049180171569,-0.000538628775354212,-0.00187167721135122,1070.71096668243,8825.96488870605,9896.67585538849,,,37,0,5504.79659494525,5512.86479685646
2011-06-01T04:30:38Z,1306902638,202,54.0361245,25.199919,8999.98,0,5.9,117.5,-222927.55,-104556.95,118.8,Air+FixedWing,Blue,Enemies,E-2C,Blue AWACS #001,us,,145.304711652842,91.4164199829102,0.478036177130921,8999.9794921875,8999.9794921875,145.304711652842,0,5.89577759620235,-0.0321553870262442,0,0.0139882274201861,5000,0.992380439482403,-0.000843898572246484,0.135920945592026,1055.67296142578,8825.96488870605,9881.63785013184,,,38,0,5650.08076993249,5658.35397756836
2011-06-01T04:30:39Z,1306902639,202,54.0374052,25.1993124,8999.99,0,5.9,117.5,-222799.89,-104627.04,118.8,Air+FixedWing,Blue,Enemies,E-2C,Blue AWACS #001,us,,145.630206051873,91.6290969848633,0.479107089826009,8999.990234375,8999.990234375,145.630205655683,0.0107421875,5.89999926828606,-0.0380111998482407,0,0.0139882274201861,5000,0.998305760533082,0.00035761697330523,0.0572699990728009,1060.40784573555,8825.97542319336,9886.38326892891,,,39,0,5795.67997957048,5804.15863798431
2011-06-01T04:30:40Z,1306902640,202,54.0386821,25.1987076,8999.99,0,5.9,117.5,-222672.62,-104696.91,118.8,Air+FixedWing,Blue,Enemies,E-2C,Blue AWACS #001,us,,145.182516839325,91.3363418579102,0.477634242388753,8999.990234375,8999.990234375,145.182516839325,0,5.89999926828606,-0.0369792948737848,0,0.0139882274201861,5000,0.989317600126516,0.000618370549264437,0.154903036788684,1053.89815979004,8825.97542319336,9879.8735829834,,,40,0,5940.85790420993,5949.54141866661
2011-06-01T04:30:41Z,1306902641,202,54.0399634,25.1981007,8999.99,0,5.9,117.5,-222544.91,-104767.02,118.8,Air+FixedWing,Blue,Enemies,E-2C,Blue AWACS #001,us,,145.696271621662,91.6720199584961,0.479324438161477,8999.990234375,8999.990234375,145.696271621662,0,5.89999926828606,-0.0340205441216498,0,0.0139882274201861,5000,1.00906771633667,-0.000462311326131141,-0.0362149113720293,1061.37017822266,8825.97542319336,9887.34560141602,,,41,0,6086.52536766482,6095.41442893645
2011-06-01T04:30:42Z,1306902642,202,54.0412327,25.1974994,8999.99,0,5.9,117.5,-222418.39,-104836.47,118.8,Air+FixedWing,Blue,Enemies,E-2C,Blue AWACS #001,us,,144.325811764238,90.7773132324219,0.474815778510333,8999.990234375,8999.990234375,144.325811764238,0,5.89845369733122,-0.0338088175217316,0,0.0523391626455858,5000,0.981550642180703,0.00109095484945705,0.239749977767881,1041.49699707031,8825.97542319336,9867.47242026367,,,42,0,6230.84263176955,6239.93533463309
2011-06-01T04:30:43Z,1306902643,202,54.0425138,25.1968925,9000,0,6,117.5,-222290.69,-104906.56,118.8,Air+FixedWing,Blue,Enemies,E-2C,Blue AWACS #001,us,,145.675056269753,91.6584701538086,0.47925470812858,9000,9000,145.675055942423,0.009765625,5.99767869886944,-0.0375460246201207,0,0.0523391626455858,5000,0.997106731810139,-0.000621794873951596,0.0704075468348081,1061.06110095978,8825.985,9887.04610095978,,,43,0,6376.4966024343,6385.79483351206
2011-06-01T04:30:44Z,1306902644,202,54.0437919,25.196287,9000,0,6,117.5,-222163.28,-104976.5,118.8,Air+FixedWing,Blue,Enemies,E-2C,Blue AWACS #001,us,,145.339624484559,91.4390640258789,0.478151174919625,9000,9000,145.339624484559,0,5.99999314935044,-0.0362730499167246,0,0.0197823405926261,5000,1.00629834590897,-0.000118391651574547,-0.0075181619376771,1056.18032226563,8825.985,9882.16532226562,,,44,0,6521.81840112073,6531.32169147982
2011-06-01T04:30:45Z,1306902645,202,54.0450602,25.1956861,9000,0,6,117.5,-222036.84,-105045.91,118.8,Air+FixedWing,Blue,Enemies,E-2C,Blue AWACS #001,us,,144.234770236973,90.7179870605469,0.474516327516713,9000,9000,144.234770236973,0,5.99999314935044,-0.034882380969607,0,0.0197823405926261,5000,0.984087799473536,0.000330222375807958,0.203801314976757,1040.18344726563,8825.985,9866.16844726562,,,45,0,6666.02692378653,6675.73370251562
2011-06-01T04:30:46Z,1306902646,202,54.0463372,25.1950811,9000,0,6,117.5,-221909.55,-105115.78,118.8,Air+FixedWing,Blue,Enemies,E-2C,Blue AWACS #001,us,,145.213670189021,91.3567504882812,0.477736799317573,9000,9000,145.213670189021,0,5.99999314935044,-0.0371911570442713,0,0.0197823405926261,5000,1.00857120746736,-0.000253904926584887,-0.0291430200659084,1054.35050048828,8825.985,9880.33550048828,,,46,0,6811.2223076357,6821.1339672659
2011-06-01T04:30:47Z,1306902647,202,54.0476027,25.1944816,9000,0,6,117.5,-221783.41,-105185.02,118.8,Air+FixedWing,Blue,Enemies,E-2C,Blue AWACS #001,us,,143.895579519233,90.4966812133789,0.473400427838392,9000,9000,143.895579519233,0,5.99999314935044,-0.0331222319848128,0,0.0197823405926261,5000,0.977933229000965,-0.00093733764490535,0.262358208958506,1035.29689025879,8825.985,9861.28189025879,,,47,0,6955.10525535119,6965.2199439422
2011-06-01T04:30:48Z,1306902648,202,54.0488818,25.1938756,9000,0,6,117.5,-221655.91,-105255.02,118.8,Air+FixedWing,Blue,Enemies,E-2C,Blue AWACS #001,us,,145.451882077889,91.5122604370117,0.478520489897111,9000,9000,145.451882077889,0,5.99999314935044,-0.0432520389393302,0,0.0197823405926261,5000,1.00887762049332,0.00177096324309036,-0.0320583486263431,1057.8125,8825.985,9883.7975,,,48,0,7100.54047449312,7110.8603824099
2011-06-01T04:30:49Z,1306902649,202,54.0501491,25.1932752,9000,0,6,117.5,-221529.58,-105324.36,118.8,Air+FixedWing,Blue,Enemies,E-2C,Blue AWACS #001,us,,144.105056798919,90.6334915161133,0.474089584754519,9000,9000,144.105056798919,0,5.99999314935044,-0.0302233157437945,0,0.0197823405926261,5000,0.991570398351275,-0.0017504172949674,0.132609060189118,1038.31336975098,8825.985,9864.29836975098,,,49,0,7244.63079371653,7255.15402320966
2011-06-01T04:30:50Z,1306902650,202,54.0514187,25.1926736,9000,0,6,117.5,-221403.02,-105393.84,118.8,Air+FixedWing,Blue,Enemies,E-2C,Blue AWACS #001,us,,144.381940613744,90.8137969970703,0.475000501662723,9000,9000,144.381940613744,0,5.99999314935044,-0.0389772646270654,0,0.0197823405926261,5000,1.00063625050948,0.00056944769753864,0.0463531393172301,1042.30723876953,8825.985,9868.29223876953,,,50,0,7388.998296041,7399.72523823637
2011-06-01T04:30:51Z,1306902651,202,54.0526834,25.1920744,9000,0,6,117.5,-221276.95,-105463.05,118.8,Air+FixedWing,Blue,Enemies,E-2C,Blue AWACS #001,us,,143.808297451905,90.4398422241211,0.473113279559387,9000,9000,143.808297451905,0,5.99999314935044,-0.0343043773271831,0,0.0197823405926261,5000,0.991318625235878,0.000482857274254095,0.135004524127905,1034.04132080078,8825.985,9860.02632080078,,,51,0,7532.79543118582,7543.72528125456
2011-06-01T04:30:52Z,1306902652,202,54.0539505,25.191474,9000,0,6,117.5,-221150.62,-105532.39,118.8,Air+FixedWing,Blue,Enemies,E-2C,Blue AWACS #001,us,,144.10881593462,90.6357727050781,0.47410195189224,9000,9000,144.10881593462,0,5.99999314935044,-0.0381737720693353,0,0.0197823405926261,5000,0.99146457029005,-0.00028472384876932,0.13361594809284,1038.36754150391,8825.985,9864.35254150391,,,52,0,7676.86739216022,7688.00053790134
2011-06-01T04:30:53Z,1306902653,202,54.0552204,25.1908723,9000,0,6,117.5,-221024.05,-105601.88,118.8,Air+FixedWing,Blue,Enemies,E-2C,Blue AWACS #001,us,,144.395637391357,90.8229217529297,0.475045562535362,9000,9000,144.395637391357,0,5.99999314935044,-0.035970229999799,0,0.0197823405926261,5000,1.0095416346959,9.68633973460195e-05,-0.0383760290292879,1042.50500488281,8825.985,9868.49000488281,,,53,0,7821.27027243328,7832.60718079682
2011-06-01T04:30:54Z,1306902654,202,54.0564776,25.1902766,9000,0,6.1,117.5,-220898.7,-105670.68,118.8,Air+FixedWing,Blue,Enemies,E-2C,Blue AWACS #001,us,,142.986505258486,89.9040222167969,0.470409674783907,9000,9000,142.986505258486,0,6.09998740397696,-0.0367811105580836,0,0.0541761800424684,5000,0.972704300174349,0.000101270028138755,0.308694562764253,1022.25703430176,8825.985,9848.24203430176,,,54,0,7964.22179768621,7975.76042070855
2011-06-01T04:30:55Z,1306902655,202,54.0577525,25.1896724,9000,0,6.1,117.5,-220771.61,-105740.45,118.8,Air+FixedWing,Blue,Enemies,E-2C,Blue AWACS #001,us,,144.982977348043,91.2062759399414,0.476977845568035,9000,9000,144.982977348043,0,6.09998740397696,-0.0366306386142618,0,0.0541761800424684,5000,1.0138499669087,-3.52255529771636e-05,-0.0763159337338257,1051.00318603516,8825.985,9876.98818603515,,,55,0,8109.19127031308,8120.93445545955
2011-06-01T04:30:56Z,1306902656,202,54.0590116,25.1890758,9000,0,6.1,117.5,-220646.09,-105809.34,118.8,Air+FixedWing,Blue,Enemies,E-2C,Blue AWACS #001,us,,143.182285248846,90.0313720703125,0.471053769143917,9000,9000,143.182285248846,0,6.09998740397696,-0.033511856565656,0,0.0197823405926261,5000,0.991797324353744,-0.000493130248315572,0.130036266462521,1025.0583404541,8825.985,9851.0433404541,,,56,0,8252.36184424659,8264.30705314516
2011-06-01T04:30:57Z,1306902657,202,54.0602727,25.1884782,9000,0,6.1,117.5,-220520.38,-105878.36,118.8,Air+FixedWing,Blue,Enemies,E-2C,Blue AWACS #001,us,,143.41673750195,90.184196472168,0.47182509094058,9000,9000,143.41673750195,0,6.09998740397696,-0.0370490561737559,0,0.0197823405926261,5000,0.994041120679047,0.00153516224604683,0.109040492039351,1028.41802978516,8825.985,9854.40302978516,,,57,0,8395.7627858484,8407.91034356326
2011-06-01T04:30:58Z,1306902658,202,54.061534,25.1878804,9000,0,6.1,117.5,-220394.62,-105947.38,118.8,Air+FixedWing,Blue,Enemies,E-2C,Blue AWACS #001,us,,143.444131961334,90.2021789550781,0.471915215660438,9000,9000,143.444131961334,0,6.09998740397696,-0.0384863203614821,0,0.0197823405926261,5000,0.991378238731484,-0.00105230497179274,0.133957757504176,1028.81094970703,8825.985,9854.79594970703,,,58,0,8539.19136115788,8551.54130668261
2011-06-01T04:30:59Z,1306902659,202,54.0627978,25.1872814,9000,0,6.1,117.5,-220268.64,-106016.53,118.8,Air+FixedWing,Blue,Enemies,E-2C,Blue AWACS #001,us,,143.71725595141,90.3802947998047,0.47281376316403,9000,9000,143.71725595141,0,6.09998740397696,-0.0386941681837497,0,0.0197823405926261,5000,0.996188586829832,-0.00139280032166217,0.0889461036250191,1032.73248291016,8825.985,9858.71748291016,,,59,0,8682.89887191242,8695.45159884493
2011-06-01T04:31:00Z,1306902660,202,54.0640599,25.1866833,9000,0,6.1,117.5,-220142.81,-106085.62,118.8,Air+FixedWing,Blue,Enemies,E-2C,Blue AWACS #001,us,,143.546451719538,90.2691116333008,0.472251836267351,9000,9000,143.546451719538,0,6.09998740397696,-0.0312960973482521,0,0.0197823405926261,5000,1.00468913939902,0.00190305219341354,0.00940426544554375,1030.27919006348,8825.985,9856.26419006348,,,60,0,8826.41869175539,8839.17393524913
2011-06-01T04:31:01Z,1306902661,202,54.0653138,25.186089,9000,0,6.1,117.5,-220017.81,-106154.23,118.8,Air+FixedWing,Blue,Enemies,E-2C,Blue AWACS #001,us,,142.591186045599,89.6464614868164,0.469109118608805,9000,9000,142.591186045599,0,6.09998740397696,-0.0374073533003963,0,0.0197823405926261,5000,0.988919272107685,-0.000149210573758978,0.156966935282557,1016.61231689453,8825.985,9842.59731689453,,,61,0,8969.0073930396,8981.96383922234
2011-06-01T04:31:02Z,1306902662,202,54.0665719,25.1854927,9000,0,6.1,117.5,-219892.38,-106223.08,118.8,Air+FixedWing,Blue,Enemies,E-2C,Blue AWACS #001,us,,143.091243844413,89.9723205566406,0.470754253064593,9000,9000,143.091243844413,0,6.09998740397696,-0.0420515193190233,0,0.0197823405926261,5000,0.998391600090383,-6.26201504744326e-05,0.0683319467391379,1023.75520324707,8825.985,9849.74020324707,,,62,0,9112.07912161157,9125.23745206812
2011-06-01T04:31:03Z,1306902663,202,54.0678267,25.184898,9000,0,6.1,117.5,-219767.27,-106291.75,118.8,Air+FixedWing,Blue,Enemies,E-2C,Blue AWACS #001,us,,142.717140277215,89.7284240722656,0.46952349400056,9000,9000,142.717140277215,0,6.09998740397696,-0.0284913464216788,0,0.0197823405926261,5000,0.985770502453367,-0.00113204674570296,0.186430775929354,1018.40910644531,8825.985,9844.39410644531,,,63,0,9254.77165809613,9268.13133775937
2011-06-01T04:31:04Z,1306902664,202,54.0690885,25.1842999,9000,0,6.1,117.5,-219641.47,-106360.81,118.8,Air+FixedWing,Blue,Enemies,E-2C,Blue AWACS #001,us,,143.507779113244,90.2438735961914,0.472124607700454,9000,9000,143.507779113244,0,6.09998740397696,-0.0413741285170391,0,0.0197823405926261,5000,0.998851468777396,0.0011946668961774,0.0640288381601939,1029.72413330078,8825.985,9855.70913330078,,,64,0,9398.26159715688,9411.82375121906
2011-06-01T04:31:05Z,1306902665,202,54.0703466,25.1837036,9000,0,6.1,117.5,-219516.03,-106429.66,118.8,Air+FixedWing,Blue,Enemies,E-2C,Blue AWACS #001,us,,143.091243844413,89.9723205566406,0.470754253064593,9000,9000,143.091243844413,0,6.09998740397696,-0.0401027982050689,0,0.0197823405926261,5000,1.00066141543543,-0.000896245748659439,0.0470927057129399,1023.75520324707,8825.985,9849.74020324707,,,65,0,9541.33411186664,9555.09815131199
2011-06-01T04:31:06Z,1306902666,202,54.0715997,25.1831096,9000,0,6.1,117.5,-219391.11,-106498.24,118.8,Air+FixedWing,Blue,Enemies,E-2C,Blue AWACS #001,us,,142.50766323967,89.5917739868164,0.46883433788105,9000,9000,142.50766323967,0,6.09998740397696,-0.0300455275997341,0,0.0395646845203054,5000,0.992257193040757,0.000764156798336256,0.125733157883577,1015.42170410156,8825.985,9841.40670410156,,,66,0,9683.83528871965,9697.80040735037
2011-06-01T04:31:07Z,1306902667,202,54.0728544,25.1825148,9000,0,6.2,117.5,-219266.02,-106566.91,118.8,Air+FixedWing,Blue,Enemies,E-2C,Blue AWACS #001,us,,142.699683840107,89.7168807983398,0.469466064266976,9000,9000,142.699683840107,0,6.20000822753505,-0.0390116972537894,0,0.0532655904281015,5000,0.994384567319047,0.000628643523325914,0.105848353740933,1018.15998840332,8825.985,9844.14498840332,,,67,0,9826.52762128321,9840.69408883337
2011-06-01T04:31:08Z,1306902668,202,54.0741088,25.1819202,9000,0,6.2,117.5,-219140.94,-106635.55,118.8,Air+FixedWing,Blue,Enemies,E-2C,Blue AWACS #001,us,,142.678468328991,89.7030334472656,0.46939626759864,9000,9000,142.678468328991,0,6.20000822753505,-0.0354841821187134,0,0.0279764548403722,5000,0.997720553729649,-0.00271613184347559,0.0751401179862442,1017.85726623535,8825.985,9843.84226623535,,,68,0,9969.17948380872,9983.54724317208
2011-06-01T04:31:09Z,1306902669,202,54.0753604,25.1813268,9000,0,6.2,117.5,-219016.16,-106704.07,118.8,Air+FixedWing,Blue,Enemies,E-2C,Blue AWACS #001,us,,142.354315778283,89.4919586181641,0.468329841814728,9000,9000,142.354315778283,0,6.20000822753505,-0.0419877487327266,0,0.0197823405926261,5000,0.996280531092045,0.00279587361738582,0.0883957339285325,1013.23756103516,8825.985,9839.22256103515,,,69,0,10111.5271828525,10126.0958048335
2011-06-01T04:31:10Z,1306902670,202,54.0766103,25.1807343,9000,0,6.2,117.5,-218891.53,-106772.47,118.8,Air+FixedWing,Blue,Enemies,E-2C,Blue AWACS #001,us,,142.160954123984,89.3657608032227,0.467693703510976,9000,9000,142.160954123984,0,6.20000822753505,-0.0291867059722572,0,0.0197823405926261,5000,0.995112081234472,-0.000347343999243753,0.0991514832864599,1010.48684387207,8825.985,9836.47184387207,,,70,0,10253.6678317462,10268.4370241825
2011-06-01T04:31:11Z,1306902671,202,54.0778595,25.1801421,9000,0,6.2,117.5,-218766.98,-106840.83,118.8,Air+FixedWing,Blue,Enemies,E-2C,Blue AWACS #001,us,,142.073671813803,89.308967590332,0.467406554433011,9000,9000,142.073671813803,0,6.20000822753505,-0.0411668018514266,0,0.0197823405926261,5000,0.982284837151246,-0.00141677059447228,0.217228113976209,1009.24641113281,8825.985,9835.23141113281,,,71,0,10395.7343227909,10410.7039810397
2011-06-01T04:31:12Z,1306902672,202,54.079118,25.1795454,9000,0,6.2,117.5,-218641.5,-106909.72,118.8,Air+FixedWing,Blue,Enemies,E-2C,Blue AWACS #001,us,,143.151131962102,90.0110549926758,0.470951278300748,9000,9000,143.151131962102,0,6.20000822753505,-0.0380500352845249,0,0.0197823405926261,5000,1.00285816671736,0.00113204674570296,0.0278476499049619,1024.61232910156,8825.985,9850.59732910156,,,72,0,10538.8693872595,10554.0410191537
2011-06-01T04:31:13Z,1306902673,202,54.0803696,25.1789519,9000,0,6.2,117.5,-218516.7,-106978.22,118.8,Air+FixedWing,Blue,Enemies,E-2C,Blue AWACS #001,us,,142.360493149489,89.4958114624023,0.468350164677887,9000,9000,142.360493149489,0,6.20000822753505,-0.0326537740111323,0,0.0197823405926261,5000,1.00670298226512,-0.000257329251272048,-0.00754443139927155,1013.32550048828,8825.985,9839.31050048828,,,73,0,10681.2173407451,10696.5898356153
2011-06-01T04:31:14Z,1306902674,202,54.0816112,25.1783633,9000,0,6.2,117.5,-218392.91,-107046.17,118.8,Air+FixedWing,Blue,Enemies,E-2C,Blue AWACS #001,us,,141.22072601793,88.7534942626953,0.46460045777571,9000,9000,141.22072601793,0,6.20000822753505,-0.0359689016051321,0,0.0197823405926261,5000,0.9823677355395,-2.05459481229538e-05,0.216465022363461,997.164672851562,8825.985,9823.14967285156,,,74,0,10822.4216594431,10837.9934035407
2011-06-01T04:31:15Z,1306902675,202,54.0828622,25.1777701,9000,0,6.2,117.5,-218268.17,-107114.64,118.8,Air+FixedWing,Blue,Enemies,E-2C,Blue AWACS #001,us,,142.290667414287,89.45068359375,0.468120445787082,9000,9000,142.290667414287,0,6.20000822753505,-0.037477079163543,0,0.0197823405926261,5000,0.995496562789248,-0.000486281598941254,0.0956122751560366,1012.33170166016,8825.985,9838.31670166015,,,75,0,10964.6975084064,10980.4700137361
2011-06-01T04:31:16Z,1306902676,202,54.0841121,25.1771775,9000,0,6.2,117.5,-218143.55,-107183.05,118.8,Air+FixedWing,Blue,Enemies,E-2C,Blue AWACS #001,us,,142.168472499193,89.3707809448242,0.467718438127931,9000,9000,142.168472499193,0,6.20000822753505,-0.0400311418410015,0,0.0197823405926261,5000,0.999657966696774,0.000149210573758978,0.0573059523674701,1010.5937286377,8825.985,9836.57872863769,,,76,0,11106.8552086773,11122.8283085225
2011-06-01T04:31:17Z,1306902677,202,54.0853576,25.1765869,9000,0,6.2,117.5,-218019.36,-107251.23,118.8,Air+FixedWing,Blue,Enemies,E-2C,Blue AWACS #001,us,,141.668414607017,89.0450439453125,0.466073303364992,9000,9000,141.668414607017,0,6.20000822753505,-0.0344533758938864,0,0.0197823405926261,5000,0.992036228796266,0.000764156798336256,0.127465148329847,1003.49698486328,8825.985,9829.48198486328,,,77,0,11248.5148514796,11264.6878430454
2011-06-01T04:31:18Z,1306902678,202,54.0866048,25.1759956,9000,0,6.2,117.5,-217895,-107319.48,118.8,Air+FixedWing,Blue,Enemies,E-2C,Blue AWACS #001,us,,141.860435349944,89.1701354980469,0.466705030219698,9000,9000,141.860435349944,0,6.20000822753505,-0.0372644208115568,0,0.0197823405926261,5000,0.992873085100825,-0.00167752417043149,0.11976176542291,1006.21915588379,8825.985,9832.20415588379,,,78,0,11390.3612129026,11406.7343596642
2011-06-01T04:31:19Z,1306902679,202,54.087853,25.1754037,9000,0,6.2,117.5,-217770.55,-107387.81,118.8,Air+FixedWing,Blue,Enemies,E-2C,Blue AWACS #001,us,,141.976452231633,89.2455749511719,0.467086712837131,9000,9000,141.976452231633,0,6.20000822753505,-0.0353282201203142,0,0.0197823405926261,5000,1.00582467676643,0.00148623939432103,0.000540497314039181,1007.86564941406,8825.985,9833.85064941406,,,79,0,11532.3222676912,11548.8957314878
2011-06-01T04:31:20Z,1306902680,202,54.0890918,25.1748162,9000,0,6.2,117.5,-217647.02,-107455.62,118.8,Air+FixedWing,Blue,Enemies,E-2C,Blue AWACS #001,us,,140.916448200823,88.5557327270508,0.463599417651464,9000,9000,140.916448200823,0,6.20000822753505,-0.036842250444352,0,0.0197823405926261,5000,0.977821850077198,-0.000517100521125685,0.258310553282451,992.872268676758,8825.985,9818.85726867676,,,80,0,11673.229396674,11690.001690342
2011-06-01T04:31:21Z,1306902681,202,54.0903437,25.1742225,9000,0,6.2,117.5,-217522.19,-107524.14,118.8,Air+FixedWing,Blue,Enemies,E-2C,Blue AWACS #001,us,,142.39916529893,89.5212478637695,0.468477391741791,9000,9000,142.39916529893,0,6.20000822753505,-0.0396440025206437,0,0.0532655904281015,5000,1.00770563534618,9.34390726588633e-05,-0.0167739975317037,1013.8761138916,8825.985,9839.8611138916,,,81,0,11815.6180984019,11832.5913125451
2011-06-01T04:31:22Z,1306902682,202,54.0915848,25.173634,9000,0,6.3,117.5,-217398.44,-107592.07,118.8,Air+FixedWing,Blue,Enemies,E-2C,Blue AWACS #001,us,,141.168356737081,88.7196502685547,0.464428168675221,9000,9000,141.168356737081,0,6.30000282459342,-0.0365438611474093,0,0.0532655904281015,5000,0.992788825284988,0.000416812799092503,0.120349949006112,996.425247192383,8825.985,9822.41024719238,,,82,0,11956.7772397519,11973.9496393735
2011-06-01T04:31:23Z,1306902683,202,54.0928267,25.1730451,9000,0,6.3,117.5,-217274.59,-107660.05,118.8,Air+FixedWing,Blue,Enemies,E-2C,Blue AWACS #001,us,,141.27309532738,88.7877044677734,0.46477274697029,9000,9000,141.27309532738,0,6.30000282459342,-0.0328791372833829,0,0.0139882274201861,5000,0.987109043559767,-0.0011286224210158,0.171796745121189,997.904373168945,8825.985,9823.88937316894,,,83,0,12098.0236072754,12115.3953154583
2011-06-01T04:31:24Z,1306902684,202,54.0940741,25.1724534,9000,0,6.3,117.5,-217150.22,-107728.33,118.8,Air+FixedWing,Blue,Enemies,E-2C,Blue AWACS #001,us,,141.885410548662,89.1863861083984,0.466787195841449,9000,9000,141.885410548662,0,6.30000282459342,-0.037635210558075,0,0.0139882274201861,5000,0.99885926463077,0.00182331041950331,0.0653646220234478,1006.57348632812,8825.985,9832.55848632812,,,84,0,12239.9144906264,12257.4864168275
2011-06-01T04:31:25Z,1306902685,202,54.0953174,25.1718638,9000,0,6.3,117.5,-217026.22,-107796.38,118.8,Air+FixedWing,Blue,Enemies,E-2C,Blue AWACS #001,us,,141.447659898362,88.9015274047852,0.465347044963769,9000,9000,141.447659898362,0,6.30000282459342,-0.0368443723701482,0,0.0139882274201861,5000,1.0034208110551,-0.0019382777463907,0.0240466699937184,1000.37202453613,8825.985,9826.35702453613,,,85,0,12381.3311520778,12399.1026271366
2011-06-01T04:31:26Z,1306902686,202,54.0965535,25.1712775,9000,0,6.3,117.5,-216902.97,-107864.05,118.8,Air+FixedWing,Blue,Enemies,E-2C,Blue AWACS #001,us,,140.602232749,88.3508987426758,0.462565683815974,9000,9000,140.602232749,0,6.30000282459342,-0.0350046993906478,0,0.0139882274201861,5000,0.988058818830774,0.00138595167228785,0.163193792210928,988.449392700195,8825.985,9814.43439270019,,,86,0,12521.9306818007,12539.9005526873
2011-06-01T04:31:27Z,1306902687,202,54.0977942,25.1706891,9000,0,6.3,117.5,-216779.25,-107931.95,118.8,Air+FixedWing,Blue,Enemies,E-2C,Blue AWACS #001,us,,141.12968465431,88.6943664550781,0.464300941830656,9000,9000,141.12968465431,0,6.30000282459342,-0.0417108209210215,0,0.0139882274201861,5000,0.992118608839203,-0.000771005447710574,0.126420690895036,995.87939453125,8825.985,9821.86439453125,,,87,0,12663.0525548966,12681.2215586735
2011-06-01T04:31:28Z,1306902688,202,54.0990363,25.1700999,9000,0,6.3,117.5,-216655.39,-107999.95,118.8,Air+FixedWing,Blue,Enemies,E-2C,Blue AWACS #001,us,,141.294311054712,88.8013076782227,0.464842544349957,9000,9000,141.294311054712,0,6.30000282459342,-0.0356272269069255,0,0.0139882274201861,5000,0.994588899584987,0.000489705923628413,0.104045087308199,998.204116821289,8825.985,9824.18911682129,,,88,0,12804.3377443061,12822.7061114243
2011-06-01T04:31:29Z,1306902689,202,54.1002779,25.1695109,9000,0,6.3,117.5,-216531.58,-108067.91,118.8,Air+FixedWing,Blue,Enemies,E-2C,Blue AWACS #001,us,,141.238182451237,88.7647705078125,0.464657887496787,9000,9000,141.238182451237,0,6.30000282459342,-0.0361756051357146,0,0.0139882274201861,5000,0.99532809981864,-0.000486281598941254,0.0973494983667962,997.411209106445,8825.985,9823.39620910644,,,89,0,12945.5699909255,12964.1376466794
2011-06-01T04:31:30Z,1306902690,202,54.1015183,25.1689225,9000,0,6.3,117.5,-216407.88,-108135.81,118.8,Air+FixedWing,Blue,Enemies,E-2C,Blue AWACS #001,us,,141.115987484863,88.685417175293,0.464255879668929,9000,9000,141.115987484863,0,6.30000282459342,-0.0385537419349535,0,0.0139882274201861,5000,0.996542187687797,-0.000204982074859093,0.0863524329702634,995.686096191406,8825.985,9821.67109619141,,,90,0,13086.6653401739,13105.4320913921
2011-06-01T04:31:31Z,1306902691,202,54.1027567,25.1683351,9000,0,6.3,117.5,-216284.38,-108203.61,118.8,Air+FixedWing,Blue,Enemies,E-2C,Blue AWACS #001,us,,140.885294689565,88.5350799560547,0.463496926069671,9000,9000,140.885294689565,0,6.30000282459342,-0.0332633419319322,0,0.0139882274201861,5000,1.00018445129527,0.000638916497387391,0.0533612367806649,992.433312988281,8825.985,9818.41831298828,,,91,0,13227.5328345555,13246.4983597177
2011-06-01T04:31:32Z,1306902692,202,54.1039903,25.1677499,9000,0,6.3,117.5,-216161.36,-108271.13,118.8,Air+FixedWing,Blue,Enemies,E-2C,Blue AWACS #001,us,,140.329108191982,88.1733779907227,0.461667134447208,9000,9000,140.329108191982,0,6.30000282459342,-0.0376680615740537,0,0.0139882274201861,5000,0.988993347874708,0.000340495349869435,0.154728937835732,984.612930297852,8825.985,9810.59793029785,,,92,0,13367.8609759083,13387.0245139499
2011-06-01T04:31:33Z,1306902693,202,54.1052278,25.1671629,9000,0,6.3,117.5,-216037.95,-108338.87,118.8,Air+FixedWing,Blue,Enemies,E-2C,Blue AWACS #001,us,,140.773037530996,88.462158203125,0.463127612522498,9000,9000,140.773037530996,0,6.30000282459342,-0.0361161811381005,0,0.0139882274201861,5000,0.992551381467236,-0.000211830724233411,0.122500687233677,990.852404785156,8825.985,9816.83740478516,,,93,0,13508.6255027557,13527.987669447
2011-06-01T04:31:34Z,1306902694,202,54.1064662,25.1665754,9000,0,6.3,117.5,-215914.44,-108406.66,118.8,Air+FixedWing,Blue,Enemies,E-2C,Blue AWACS #001,us,,140.898991759722,88.5440444946289,0.463541987904747,9000,9000,140.898991759722,0,6.30000282459342,-0.039569069149531,0,0.0139882274201861,5000,0.995676642431731,-0.00132333152181342,0.0941924402929808,992.626293945313,8825.985,9818.61129394531,,,94,0,13649.5013314483,13669.062283844
2011-06-01T04:31:35Z,1306902695,202,54.1077035,25.1659884,9000,0,6.3,117.5,-215791.06,-108474.4,118.8,Air+FixedWing,Blue,Enemies,E-2C,Blue AWACS #001,us,,140.745643561855,88.4442138671875,0.463037489415486,9000,9000,140.745643561855,0,6.30000282459342,-0.0343696199226316,0,0.0139882274201861,5000,1.00300328465414,0.00106257794585421,0.0278285751200122,990.466809082031,8825.985,9816.45180908203,,,95,0,13790.2448043311,13810.0043556683
2011-06-01T04:31:36Z,1306902696,202,54.1089335,25.1654049,9000,0,6.3,117.5,-215668.39,-108541.73,118.8,Air+FixedWing,Blue,Enemies,E-2C,Blue AWACS #001,us,,139.937548195685,87.9185943603516,0.46037894567594,9000,9000,139.937548195685,0,6.30000282459342,-0.0378807216665702,0,0.0139882274201861,5000,0.98359312497471,0.000121815976261703,0.203643522929472,979.125869750977,8825.985,9805.11086975098,,,96,0,13930.1627981564,13950.1197836259
2011-06-01T04:31:37Z,1306902697,202,54.1101717,25.1648174,9000,0,6.3,117.5,-215544.91,-108609.52,118.8,Air+FixedWing,Blue,Enemies,E-2C,Blue AWACS #001,us,,140.864078887072,88.5214385986328,0.463427128442732,9000,9000,140.864078887072,0,6.30000282459342,-0.0375162065678305,0,0.0139882274201861,5000,0.999472119842011,-0.00124701407259035,0.0598134514633605,992.134436035156,8825.985,9818.11943603515,,,97,0,14071.0201705045,14091.1759156356
2011-06-01T04:31:38Z,1306902698,202,54.1114057,25.164232,9000,0,6.3,117.5,-215421.86,-108677.07,118.8,Air+FixedWing,Blue,Enemies,E-2C,Blue AWACS #001,us,,140.371540030336,88.2011642456055,0.461806730468836,9000,9000,140.371540030336,0,6.30000282459342,-0.0330481306436233,0,0.0139882274201861,5000,0.9947152446074,0.00258404289315241,0.102900668926883,985.208462524414,8825.985,9811.19346252441,,,98,0,14211.3934142528,14231.7472359066
2011-06-01T04:31:39Z,1306902699,202,54.112639,25.1636468,9000,0,6.4,117.5,-215298.86,-108744.57,118.8,Air+FixedWing,Blue,Enemies,E-2C,Blue AWACS #001,us,,140.304133937671,88.1569366455078,0.461584971932451,9000,9000,140.304133937671,0,6.39999669631503,-0.0370654537207953,0,0.0523391626455858,5000,0.995141225113049,-0.00404631201466333,0.0992244917928504,984.2625,8825.985,9810.2475,,,99,0,14351.6945300792,14372.2463264765
2011-06-01T04:31:40Z,1306902700,202,54.113871,25.1630622,9000,0,6.4,117.5,-215175.98,-108812.05,118.8,Air+FixedWing,Blue,Enemies,E-2C,Blue AWACS #001,us,,140.183280428931,88.07861328125,0.46118737735078,9000,9000,140.183280428931,0,6.39999669631503,-0.0376467814978531,0,0.0523391626455858,5000,0.9816644047837,0.00423759679077378,0.219373114629955,982.56760559082,8825.985,9808.55260559082,,,100,0,14491.8533130352,14512.6028833354
2011-06-01T04:31:41Z,1306902701,202,54.1151125,25.1624732,9000,0,6.4,117.5,-215052.16,-108880,118.8,Air+FixedWing,Blue,Enemies,E-2C,Blue AWACS #001,us,,141.24812118496,88.7713775634766,0.464690584823644,9000,9000,141.24812118496,0,6.39999669631503,-0.0377369719422661,0,0.0139882274201861,5000,1.01088986695796,-0.00171617404809581,-0.0411778867340835,997.551586914063,8825.985,9823.53658691406,,,101,0,14633.0861403016,14654.035000057
2011-06-01T04:31:42Z,1306902702,202,54.1163409,25.1618903,9000,0,6.4,117.5,-214929.66,-108947.24,118.8,Air+FixedWing,Blue,Enemies,E-2C,Blue AWACS #001,us,,139.741768200439,87.7913284301758,0.459734851299857,9000,9000,139.741768200439,0,6.39999669631503,-0.0360866122458433,0,0.0139882274201861,5000,0.993129768755037,-0.000489705923628413,0.11715703859588,976.388088989258,8825.985,9802.37308898926,,,102,0,14772.8266956377,14793.9727391468
2011-06-01T04:31:43Z,1306902703,202,54.1175696,25.1613072,9000,0,6.4,117.5,-214807.11,-109014.52,118.8,Air+FixedWing,Blue,Enemies,E-2C,Blue AWACS #001,us,,139.797896855897,87.8278732299805,0.459919508324046,9000,9000,139.797896855897,0,6.39999669631503,-0.0375234925951775,0,0.0139882274201861,5000,0.984512306992524,0.00110122782351853,0.193983481170219,977.172598266602,8825.985,9803.1575982666,,,103,0,14912.6154953415,14933.9587906809
2011-06-01T04:31:44Z,1306902704,202,54.1188055,25.1607208,9000,0,6.4,117.5,-214683.84,-109082.17,118.8,Air+FixedWing,Blue,Enemies,E-2C,Blue AWACS #001,us,,140.612170421707,88.3575439453125,0.462598377652206,9000,9000,140.612170421707,0,6.39999669631503,-0.035930176139217,0,0.0139882274201861,5000,0.998331372929836,-0.00159778239652126,0.070783668403734,988.589123535156,8825.985,9814.57412353515,,,104,0,15053.2151036501,15074.7567949282
2011-06-01T04:31:45Z,1306902705,202,54.1200379,25.1601359,9000,0,6.4,117.5,-214560.94,-109149.65,118.8,Air+FixedWing,Blue,Enemies,E-2C,Blue AWACS #001,us,,140.210672831561,88.0962448120117,0.461277495304142,9000,9000,140.210672831561,0,6.39999669631503,-0.0339392508469131,0,0.0139882274201861,5000,0.995086638146105,0.00167752417043149,0.0997111458212374,982.951638793945,8825.985,9808.93663879394,,,105,0,15193.4189366667,15215.1584654161
2011-06-01T04:31:46Z,1306902706,202,54.1212692,25.1595516,9000,0,6.4,117.5,-214438.12,-109217.05,118.8,Air+FixedWing,Blue,Enemies,E-2C,Blue AWACS #001,us,,140.094656198274,88.02099609375,0.460895813503924,9000,9000,140.094656198274,0,6.39999669631503,-0.0405336510329498,0,0.0139882274201861,5000,0.996347210055297,-0.000903094398033757,0.0884728881925699,981.325634765625,8825.985,9807.31063476562,,,106,0,15333.5007651983,15355.4379592624
2011-06-01T04:31:47Z,1306902707,202,54.1224986,25.1589682,9000,0,6.4,117.5,-214315.52,-109284.36,118.8,Air+FixedWing,Blue,Enemies,E-2C,Blue AWACS #001,us,,139.867722500094,87.8734512329102,0.460149226915453,9000,9000,139.867722500094,0,6.39999669631503,-0.0370337060483326,0,0.0139882274201861,5000,0.992974133168579,0.000277875199395002,0.118544561833591,978.148989868164,8825.985,9804.13398986816,,,107,0,15473.3608398147,15495.4953862827
2011-06-01T04:31:48Z,1306902708,202,54.1237285,25.1583845,9000,0,6.4,117.5,-214192.84,-109351.7,118.8,Air+FixedWing,Blue,Enemies,E-2C,Blue AWACS #001,us,,139.937548195685,87.9185943603516,0.46037894567594,9000,9000,139.937548195685,0,6.39999669631503,-0.0366029279718832,0,0.0139882274201861,5000,1.00088349118327,0.000361041297992386,0.0480310096924409,979.125869750977,8825.985,9805.11086975098,,,108,0,15613.2864300837,15635.6184214028
2011-06-01T04:31:49Z,1306902709,202,54.124953,25.1578034,9000,0,6.4,117.5,-214070.72,-109418.73,118.8,Air+FixedWing,Blue,Enemies,E-2C,Blue AWACS #001,us,,139.311536139555,87.5113830566406,0.45831943574385,9000,9000,139.311536139555,0,6.39999669631503,-0.0359898351147426,0,0.0139882274201861,5000,0.985376046326807,-0.00134045314524921,0.186283067499319,970.385205078125,8825.985,9796.37020507812,,,109,0,15752.5965093347,15775.1250769764
2011-06-01T04:31:50Z,1306902710,202,54.1261838,25.1572192,9000,0,6.4,117.5,-213947.95,-109486.12,118.8,Air+FixedWing,Blue,Enemies,E-2C,Blue AWACS #001,us,,140.04980563743,87.991584777832,0.460748260154732,9000,9000,140.04980563743,0,6.39999669631503,-0.0362661651769165,0,0.0139882274201861,5000,1.00156430144762,0.00154885954479547,0.0419614462734451,980.697402954102,8825.985,9806.6824029541,,,110,0,15892.6303578311,15915.3565230841
2011-06-01T04:31:51Z,1306902711,202,54.1274087,25.1566379,9000,0,6.4,117.5,-213825.78,-109553.18,118.8,Air+FixedWing,Blue,Enemies,E-2C,Blue AWACS #001,us,,139.363905501885,87.5456848144531,0.458491725112401,9000,9000,139.363905501885,0,6.39999669631503,-0.0367853633350815,0,0.0139882274201861,5000,0.988791903914521,-0.00182331041950331,0.155829995117125,971.114907836914,8825.985,9797.09990783691,,,111,0,16031.9872336388,16054.9100412471
2011-06-01T04:31:52Z,1306902712,202,54.1286374,25.1560546,9000,0,6.4,117.5,-213703.23,-109620.46,118.8,Air+FixedWing,Blue,Enemies,E-2C,Blue AWACS #001,us,,139.801656548941,87.8302307128906,0.459931877295363,9000,9000,139.801656548941,0,6.39999669631503,-0.0397054907479678,0,0.0139882274201861,5000,0.991627999857396,0.00146226912151092,0.130545616944603,977.225158691406,8825.985,9803.21015869141,,,112,0,16171.7824616882,16194.9025301976
2011-06-01T04:31:53Z,1306902713,202,54.1298676,25.1554707,9000,0,6.4,117.5,-213580.52,-109687.82,118.8,Air+FixedWing,Blue,Enemies,E-2C,Blue AWACS #001,us,,139.989917501058,87.9527435302734,0.460551234857112,9000,9000,139.989917501058,0,6.39999669631503,-0.0376467814978531,0,0.0139882274201861,5000,0.991896490329318,-0.000771005447710574,0.128151969210354,979.858850097656,8825.985,9805.84385009766,,,113,0,16311.7584546397,16335.0760391232
2011-06-01T04:31:54Z,1306902714,202,54.1310995,25.154886,9000,0,6.4,117.5,-213457.66,-109755.27,118.8,Air+FixedWing,Blue,Enemies,E-2C,Blue AWACS #001,us,,140.154543999163,88.0597991943359,0.461092837697843,9000,9000,140.154543999163,0,6.39999669631503,-0.0337767087027117,0,0.0139882274201861,5000,1.00108190747072,0.000291572498143638,0.0462620877135573,982.164810180664,8825.985,9808.14981018066,,,114,0,16451.9122409642,16475.4275922993
2011-06-01T04:31:55Z,1306902715,202,54.1323256,25.154304,9000,0,6.4,117.5,-213335.36,-109822.4,118.8,Air+FixedWing,Blue,Enemies,E-2C,Blue AWACS #001,us,,139.511075362947,87.6414260864258,0.458975897561786,9000,9000,139.511075362947,0,6.39999669631503,-0.0342262009423048,0,0.0139882274201861,5000,0.997623269182012,7.63174492230685e-05,0.0770965588369233,973.167007446289,8825.985,9799.15200744629,,,115,0,16591.4145465508,16615.126745453
2011-06-01T04:31:56Z,1306902716,202,54.1335488,25.1537233,9000,0,6.4,117.5,-213213.36,-109889.37,118.8,Air+FixedWing,Blue,Enemies,E-2C,Blue AWACS #001,us,,139.17188464831,87.4206314086914,0.457859997893678,9000,9000,139.17188464831,0,6.39999669631503,-0.0383867320760018,0,0.0139882274201861,5000,0.997070801020645,0.000982836171943985,0.0820219260324016,968.440673828125,8825.985,9794.42567382812,,,116,0,16730.5893559925,16754.4979403411
2011-06-01T04:31:57Z,1306902717,202,54.1347693,25.153144,9000,0,6.4,117.5,-213091.61,-109956.19,118.8,Air+FixedWing,Blue,Enemies,E-2C,Blue AWACS #001,us,,138.881304222698,87.2317199707031,0.456904020661676,9000,9000,138.881304222698,0,6.39999669631503,-0.0353191787992311,0,0.0139882274201861,5000,0.980882545899833,-0.0019064765181007,0.226343547258275,964.400833129883,8825.985,9790.38583312988,,,117,0,16869.4530637559,16893.5575945651
2011-06-01T04:31:58Z,1306902718,202,54.1359998,25.1525598,9000,0,6.4,117.5,-212968.88,-110023.57,118.8,Air+FixedWing,Blue,Enemies,E-2C,Blue AWACS #001,us,,140.014892875904,87.9688262939453,0.460633401058302,9000,9000,140.014892875904,0,6.39999669631503,-0.0398174012979133,0,0.0139882274201861,5000,1.00156430144762,0.00154885954479547,0.0419614462734451,980.208511352539,8825.985,9806.19351135254,,,118,0,17009.4687433363,17033.7708461192
2011-06-01T04:31:59Z,1306902719,202,54.1372243,25.1519785,9000,0,6.4,117.5,-212846.73,-110090.61,118.8,Air+FixedWing,Blue,Enemies,E-2C,Blue AWACS #001,us,,139.32899259045,87.5228118896484,0.458376865522789,9000,9000,139.32899259045,0,6.39999669631503,-0.0366029279718832,0,0.0139882274201861,5000,0.995864816078397,-0.00216038144468558,0.0927735296326821,970.628408813477,8825.985,9796.61340881347,,,119,0,17148.7878352162,17173.2865270386
2011-06-01T04:32:00Z,1306902720,202,54.1384472,25.1513979,9000,0,6.4,117.5,-212724.77,-110157.58,118.8,Air+FixedWing,Blue,Enemies,E-2C,Blue AWACS #001,us,,139.144491278401,87.4028625488281,0.457769876758072,9000,9000,139.144491278401,0,6.39999669631503,-0.0340633881115715,0,0.0431146153104601,5000,0.98662481197005,0.00250087679455502,0.175150065157866,968.05947265625,8825.985,9794.04447265625,,,120,0,17287.9322221161,17312.6272564575
2011-06-01T04:32:01Z,1306902721,202,54.1396755,25.1508148,9000,0,6.5,117.5,-212602.23,-110224.83,118.8,Air+FixedWing,Blue,Enemies,E-2C,Blue AWACS #001,us,,139.772922007671,87.8113708496094,0.459837343855375,9000,9000,139.772922007671,0,6.49999046451537,-0.0379301805943546,0,0.0513960362511687,5000,1.00321619172817,-0.000472584300192621,0.0285548205595869,976.823486328125,8825.985,9802.80848632812,,,121,0,17427.6944219451,17452.5866705827
2011-06-01T04:32:02Z,1306902722,202,54.1408964,25.1502351,9000,0,6.5,117.5,-212480.44,-110291.68,118.8,Air+FixedWing,Blue,Enemies,E-2C,Blue AWACS #001,us,,138.93743256753,87.2685089111328,0.457088676663939,9000,9000,138.93743256753,0,6.49999046451537,-0.0363581809407924,0,0.0139882274201861,5000,0.986949872821371,-0.00056944769753864,0.171322680863347,965.180508422852,8825.985,9791.16550842285,,,122,0,17566.6119121686,17591.700183157
2011-06-01T04:32:03Z,1306902723,202,54.1421224,25.1496531,9000,0,6.5,117.5,-212358.14,-110358.81,118.8,Air+FixedWing,Blue,Enemies,E-2C,Blue AWACS #001,us,,139.511075362947,87.6414260864258,0.458975897561786,9000,9000,139.511075362947,0,6.49999046451537,-0.0362371487112286,0,0.0139882274201861,5000,1.00366264428909,8.65904232845454e-05,0.0246363509159337,973.167007446289,8825.985,9799.15200744629,,,123,0,17706.118617108,17731.4037418708
2011-06-01T04:32:04Z,1306902724,202,54.1433407,25.1490746,9000,0,6.5,117.5,-212236.61,-110425.52,118.8,Air+FixedWing,Blue,Enemies,E-2C,Blue AWACS #001,us,,138.636913946796,87.0733184814453,0.456100003877018,9000,9000,138.636913946796,0,6.49999046451537,-0.0409497997196415,0,0.0139882274201861,5000,0.989209853727925,-0.000635492172700232,0.151487053626189,961.00969543457,8825.985,9786.99469543457,,,124,0,17844.7438150644,17870.224549734
2011-06-01T04:32:05Z,1306902725,202,54.1445625,25.1484945,9000,0,6.5,117.5,-212114.75,-110492.42,118.8,Air+FixedWing,Blue,Enemies,E-2C,Blue AWACS #001,us,,139.01477696753,87.318717956543,0.457343131124409,9000,9000,139.01477696753,0,6.49999046451537,-0.033676923877906,0,0.0139882274201861,5000,0.997775606691282,0.00140307329572365,0.0763062933401019,966.255410766602,8825.985,9792.2404107666,,,125,0,17983.7669646037,18009.4438707176
2011-06-01T04:32:06Z,1306902726,202,54.1457809,25.147916,9000,0,6.5,117.5,-211993.2,-110559.13,118.8,Air+FixedWing,Blue,Enemies,E-2C,Blue AWACS #001,us,,138.650611265852,87.0820465087891,0.456145066530945,9000,9000,138.650611265852,0,6.49999046451537,-0.0411493441082821,0,0.0139882274201861,5000,0.98214151533496,-0.00176411459371603,0.213525155427135,961.199600219727,8825.985,9787.18460021973,,,126,0,18122.4069749951,18148.2795119169
2011-06-01T04:32:07Z,1306902727,202,54.1470081,25.1473333,9000,0,6.5,117.5,-211870.8,-110626.34,118.8,Air+FixedWing,Blue,Enemies,E-2C,Blue AWACS #001,us,,139.640789344762,87.7256469726562,0.459402642112891,9000,9000,139.640789344762,0,6.49999046451537,-0.033233648945289,0,0.0139882274201861,5000,0.997775606691282,0.00140307329572365,0.0763062933401019,974.977502441406,8825.985,9800.96250244141,,,127,0,18262.0476872863,18288.1172670759
2011-06-01T04:32:08Z,1306902728,202,54.1482318,25.1467521,9000,0,6.5,117.5,-211748.7,-110693.35,118.8,Air+FixedWing,Blue,Enemies,E-2C,Blue AWACS #001,us,,139.276623247418,87.488899230957,0.458204576217726,9000,9000,139.276623247418,0,6.49999046451537,-0.0345108645417774,0,0.0139882274201861,5000,1.00256823601773,-0.000962290223821033,0.0342418632691852,969.898889160156,8825.985,9795.88388916016,,,128,0,18401.3060347291,18427.5721178438
2011-06-01T04:32:09Z,1306902729,202,54.1494489,25.1461741,9000,0,6.5,117.5,-211627.3,-110760,118.8,Air+FixedWing,Blue,Enemies,E-2C,Blue AWACS #001,us,,138.497262645346,86.9825134277344,0.455640566651249,9000,9000,138.497262645346,0,6.49999046451537,-0.033897627201259,0,0.0139882274201861,5000,0.981754237195893,0.00193485342170354,0.216924257066154,959.074588012695,8825.985,9785.05958801269,,,129,0,18539.8035851697,18566.2650980719
2011-06-01T04:32:10Z,1306902730,202,54.1506749,25.145592,9000,0,6.5,117.5,-211504.98,-110827.12,118.8,Air+FixedWing,Blue,Enemies,E-2C,Blue AWACS #001,us,,139.521013762264,87.6477203369141,0.459008593788486,9000,9000,139.521013762264,0,6.49999046451537,-0.0425335007635107,0,0.0139882274201861,5000,1.01357974487719,-0.00261926844612957,-0.0624050528271343,973.3056640625,8825.985,9799.2906640625,,,130,0,18679.3112829601,18705.9696510373
2011-06-01T04:32:11Z,1306902731,202,54.1518858,25.145017,9000,0,6.5,117.5,-211384.2,-110893.44,118.8,Air+FixedWing,Blue,Enemies,E-2C,Blue AWACS #001,us,,137.787728074065,86.5214385986328,0.45330627694803,9000,9000,137.787728074065,0,6.49999046451537,-0.0390756466484535,0,0.0139882274201861,5000,0.977637281681815,0.00192800477232922,0.253058365408581,949.272900390625,8825.985,9775.25790039062,,,131,0,18817.1041652244,18843.9569687529
