ISOTime,UnixTime,Id,Longitude,Latitude,Altitude,Roll,Pitch,Yaw,U,V,Heading,Type,Color,Coalition,Name,Group,Country,Pilot,TAS,CAS,M,ASL,AGL,GS,VS,AOA,AOS,RRT,TRT,TRD,G,LatG,LonG,Ek,Ep,Em,FFW,FFV,RelativeTime,Elev,GroundDistance,AirDistance
2018-07-19T08:46:23Z,1531989983,1A009,40.9632204,43.8650142,7536.48,6.7,-8.8,186.5,540452.25,-110314.4,181,Weapon+Missile,Red,Allies,R-27ET,,xu,,340.825095514407,248.244644165039,1.0987941046974,7536.47509765625,6129.04833984375,NaN,NaN,0.0955387866974123,NaN,1.3384438697557,2.45479615698144,NaN,NaN,NaN,NaN,NaN,7390.75735164307,NaN,,,0.629999876022339,1407.4267578125,NaN,NaN
2018-07-19T08:46:24Z,1531989984,1A009,40.9623777,43.8602077,7448.44,5.4,-8.8,188.9,540436.31,-110854.98,183.3,Weapon+Missile,Red,Allies,R-27ET,,xu,,547.938712487588,399.416015625,1.76440719187154,7448.44287109375,6006.62048339844,540.820820354583,-88.0322265625,0.207179377753535,NaN,1.3384438697557,2.3374779238503,5000,5.75982093811035,5.75982093811035,5.75982093811035,15011.8416321278,7304.42722818115,22316.2688603089,,,1.62999987602234,1441.82238769531,539.317629359173,547.080377948253
2018-07-19T08:46:25Z,1531989985,1A009,40.9604158,43.8531525,7335.09,4.4,-6.8,194.1,540354.5,-111654.14,188.5,Weapon+Missile,Red,Allies,R-27ET,,xu,,811.290752126898,570.601379394531,2.60842460676455,7335.0908203125,5955.86242675781,803.333054884655,-113.35205078125,0.148120118869852,NaN,0.892295913170466,5.47914829699343,5000,10.9857168197632,10.9857168197632,10.9857168197632,32909.6342243314,7193.26683930176,40102.9010636331,,,2.62999987602234,1379.22839355469,1340.33365095345,1356.99605703029
2018-07-19T08:46:26Z,1531989986,1A009,40.956699,43.84454,7238.04,3.8,-4,200.8,540148.31,-112639.98,195.2,Weapon+Missile,Red,Allies,R-27ET,,xu,,1011.8318941395,703.226806640625,3.24894486033919,7238.04443359375,5958.84509277344,1007.16720599052,-97.04638671875,0.573863538416145,NaN,0.384621612541758,5.71277363689325,5000,8.87829113006592,8.87829113006592,8.87829113006592,51190.189099896,7098.09684447021,58288.2859443662,,,3.62999987602234,1279.19934082031,2344.43664268018,2366.91970792022
2018-07-19T08:46:27Z,1531989987,1A009,40.9520586,43.8360873,7172.79,3.2,-3.6,202,539866.06,-113615.24,196.4,Weapon+Missile,Red,Allies,R-27ET,,xu,,1017.38227028926,709.212707519531,3.26390246101998,7172.78662109375,5947.57763671875,1015.28720163638,-65.2578125,0.0365590266810605,NaN,0.646135895483206,2.45298175880051,5000,1.3298271894455,1.3298271894455,1.3298271894455,51753.3341949463,7034.1007917749,58787.4349867212,,,4.62999987602234,1225.208984375,3356.46578614033,3382.19157870173
2018-07-19T08:46:28Z,1531989988,1A009,40.9473034,43.8275448,7108.97,2.6,-3.5,202,539575.38,-114601.34,196.4,Weapon+Missile,Red,Allies,R-27ET,,xu,,1030.02546239984,719.844482421875,3.30163505343801,7108.9716796875,5704.97290039062,1028.0467433173,-63.81494140625,0.0564657145230747,NaN,0.507674300628708,0.080962747894337,5000,1.0078672170639,1.0078672170639,1.0078672170639,53047.6226595998,6971.51971226074,60019.1423718605,,,5.62999987602234,1403.99877929688,4381.21642121866,4410.0723668905
2018-07-19T08:46:29Z,1531989989,1A009,40.9425265,43.8189625,7044.96,2.1,-3.5,202,539283.31,-115592.01,196.4,Weapon+Missile,Red,Allies,R-27ET,,xu,,1034.80856585148,725.369689941406,3.31412368529904,7044.9599609375,5749.03588867188,1032.8268334151,-64.01171875,0.0509651471119913,NaN,0.399975877795947,0.0342640208323925,5000,1.00312829017639,1.00312829017639,1.00312829017639,53541.4383979797,6908.74566009277,60450.1840580725,,,6.62999987602234,1295.92407226562,5410.74743121302,5442.73157489412
2018-07-19T08:46:30Z,1531989990,1A009,40.9376938,43.810277,6980.24,1.7,-3.5,202,538987.69,-116594.55,196.4,Weapon+Missile,Red,Allies,R-27ET,,xu,,1047.21892738642,736.01171875,3.35096811453856,6980.2392578125,5805.01794433594,1045.21706475898,-64.720703125,0.0495444208746741,NaN,0.399975877795947,0.0197823405926261,5000,1.00326573848724,1.00326573848724,1.00326573848724,54833.3740938187,6845.2763317627,61678.6504255814,,,7.62999987602234,1175.22131347656,6452.62588889239,6487.76161518039
2018-07-19T08:46:31Z,1531989991,1A009,40.9328472,43.8015638,6915.37,1.4,-3.5,202,538691.12,-117600.27,196.4,Weapon+Missile,Red,Allies,R-27ET,,xu,,1050.53702110809,740.678344726562,3.3586755743502,6915.3662109375,5779.99096679688,1048.53207891214,-64.873046875,0.0485618107436399,NaN,0.292332096476546,0.0197823405926261,5000,1.00164294242859,1.00164294242859,1.00164294242859,55181.4016359329,6781.65760524902,61963.059241182,,,8.62999987602234,1135.37524414062,7497.81553853114,7536.09896310063
2018-07-19T08:46:32Z,1531989992,1A009,40.9279666,43.7927865,6850.06,1.1,-3.5,202,538392.31,-118613.34,196.4,Weapon+Missile,Red,Allies,R-27ET,,xu,,1058.24455466786,748.321960449219,3.38037393781933,6850.056640625,5624.98913574219,1056.22734177343,-65.3095703125,0.0458243457409624,NaN,0.353858440520021,0.0197823405926261,5000,1.00255918502808,1.00255918502808,1.00255918502808,55994.0768742085,6717.61079547852,62711.687669687,,,9.62999987602234,1225.06750488281,8550.66170498325,8592.10276781558
2018-07-19T08:46:33Z,1531989993,1A009,40.9231619,43.7841425,6785.78,0.9,-3.5,202,538098.12,-119610.98,196.4,Weapon+Missile,Red,Allies,R-27ET,,xu,,1042.09650135378,739.952331542969,3.32594638422406,6785.77587890625,5197.38830566406,1040.11206213881,-64.28076171875,0.0472823339081918,NaN,0.199987938897973,0.0197823405926261,5000,1.0052946805954,1.0052946805954,1.0052946805954,54298.2559066892,6654.5729022876,60952.8288089768,,,10.6299998760223,1588.38757324219,9587.48206320845,9632.02004196116
2018-07-19T08:46:34Z,1531989994,1A009,40.9186541,43.7760302,6725.48,0.8,-3.5,202,537822,-120547.25,196.4,Weapon+Missile,Red,Allies,R-27ET,,xu,,977.99494282962,699.120910644531,3.11886165079073,6725.478515625,5164.59533691406,976.13438428407,-60.29736328125,0.0436421512252467,NaN,0.0922895160652123,0.0197823405926261,5000,1.00354516506195,1.00354516506195,1.00354516506195,47823.7054100156,6595.44138852539,54419.146798541,,,11.6299998760223,1560.88317871094,10560.5084177678,10607.9415305216
2018-07-19T08:46:35Z,1531989995,1A009,40.9144533,43.768468,6669.29,0.6,-3.5,202,537564.62,-121419.99,196.4,Weapon+Missile,Red,Allies,R-27ET,,xu,,911.635075073976,656.472106933594,2.90507197012999,6669.28515625,4904.53332519531,909.901542183156,-56.193359375,0.0443334349473982,NaN,0.199987938897973,0.0197823405926261,5000,1.00338089466095,1.00338089466095,1.00338089466095,41553.9255052567,6540.33452775391,48094.2600330106,,,12.6299998760223,1764.75183105469,11467.5252389249,11517.6479824873
2018-07-19T08:46:36Z,1531989996,1A009,40.9104957,43.7613415,6616.35,0.5,-3.5,202,537322.12,-122242.42,196.4,Weapon+Missile,Red,Allies,R-27ET,,xu,,859.068538904733,622.843383789062,2.73564204464096,6616.35205078125,4713.59411621094,857.436202222269,-52.93310546875,0.042512189423598,NaN,0,0.0197823405926261,5000,1.00200295448303,1.00200295448303,1.00200295448303,36899.9377267957,6488.42488387939,43388.3626106751,,,13.6299998760223,1902.75793457031,12322.2670447276,12374.9157724531
2018-07-19T08:46:37Z,1531989997,1A009,40.9067678,43.7546268,6566.49,0.4,-3.5,202,537093.56,-123017.31,196.4,Weapon+Missile,Red,Allies,R-27ET,,xu,,809.433653067634,590.968078613281,2.57588417310469,6566.48681640625,4472.806640625,807.896216799621,-49.865234375,0.0445618943941203,NaN,0.0615263440434749,0.0197823405926261,5000,1.0022007226944,1.0022007226944,1.0022007226944,32759.1419359207,6439.52379381103,39198.6657297318,,,14.6299998760223,2093.68017578125,13127.6017833855,13182.6235036825
2018-07-19T08:46:38Z,1531989998,1A009,40.903262,43.7483104,6519.59,0.3,-3.5,202,536878.56,-123746.2,196.4,Weapon+Missile,Red,Allies,R-27ET,,xu,,761.383879066798,559.955444335938,2.42147388136729,6519.5947265625,4477.71923828125,759.938512784351,-46.89208984375,0.0393184575253269,NaN,0.199987938897973,0.0197823405926261,5000,1.00075197219849,1.00075197219849,1.00075197219849,28985.2705651403,6393.53836252441,35378.8089276647,,,15.6299998760223,2041.87548828125,13885.1473398179,13942.3946318401
2018-07-19T08:46:39Z,1531989999,1A009,40.8999544,43.7423497,6475.35,0.3,-3.5,202,536675.75,-124434.05,196.4,Weapon+Missile,Red,Allies,R-27ET,,xu,,718.491903262253,532.221374511719,2.28372862754034,6475.34619140625,4316.67041015625,717.128079348411,-44.24853515625,0.0447484050961642,NaN,0,0.0197823405926261,5000,1.00010704994202,1.00010704994202,1.00010704994202,25811.5307526708,6350.14537279541,32161.6761254662,,,16.6299998760223,2158.67578125,14600.0188044446,14659.3610742108
2018-07-19T08:46:40Z,1531990000,1A009,40.8967997,43.736663,6433.14,0.2,-3.5,202,536482.25,-125090.25,196.4,Weapon+Missile,Red,Allies,R-27ET,,xu,,685.43147096672,510.942169189453,2.17743456537617,6433.13525390625,3989.18627929688,684.130497892743,-42.2109375,0.0442749474087727,NaN,0,0.0197823405926261,5000,1.00105273723602,1.00105273723602,1.00105273723602,23490.8150695801,6308.75058377197,29799.5656533521,,,17.6299998760223,2443.94897460938,15282.0076347493,15343.3437648025
2018-07-19T08:46:41Z,1531990001,1A009,40.8938153,43.7312822,6393.2,0.2,-3.5,202,536299.12,-125711.14,196.4,Weapon+Missile,Red,Allies,R-27ET,,xu,,648.563389161688,486.911895751953,2.059231845425,6393.20361328125,4190.71264648438,647.332938940921,-39.931640625,0.0404347749156386,NaN,0,0.0197823405926261,5000,1.00048387050629,1.00048387050629,1.00048387050629,21031.7234880447,6269.59102141846,27301.3145094632,,,18.6299998760223,2202.49096679688,15927.3093692058,15990.5274237806
2018-07-19T08:46:42Z,1531990002,1A009,40.8909833,43.7261752,6355.31,0.1,-3.5,202,536125.31,-126300.43,196.4,Weapon+Missile,Red,Allies,R-27ET,,xu,,615.555282509405,465.300598144531,1.95345537710852,6355.31005859375,4341.43310546875,614.387812654498,-37.8935546875,0.0394376376039335,NaN,0.199987938897973,0.0197823405926261,5000,0.999197244644165,0.999197244644165,0.999197244644165,18945.4152912617,6232.43013861084,25177.8454298725,,,19.6299998760223,2013.876953125,16539.7622622592,16604.7623813025
2018-07-19T08:46:43Z,1531990003,1A009,40.8882826,43.7213039,6319.16,0.1,-3.5,202,535959.56,-126862.5,196.4,Weapon+Missile,Red,Allies,R-27ET,,xu,,587.113875092438,446.603607177734,1.86231253642572,6319.1630859375,4293.62890625,586.000084209762,-36.14697265625,0.0418646404472502,NaN,0,0.0197823405926261,5000,1.00061106681824,1.00061106681824,1.00061106681824,17235.135116303,6196.9820676709,23432.1171839739,,,20.6299998760223,2025.5341796875,17123.9341049851,17190.6308129123
2018-07-19T08:46:44Z,1531990004,1A009,40.8856939,43.7166337,6284.52,0.1,-3.5,201.9,535800.62,-127401.38,196.4,Weapon+Missile,Red,Allies,R-27ET,,xu,,562.892178169559,430.611541748047,1.78467025095,6284.51904296875,4150.75732421875,561.825056873801,-34.64404296875,0.0473056547775511,NaN,0,0.0197823405926261,5000,0.99970942735672,0.99970942735672,0.99970942735672,15842.3802122235,6163.00786727295,22005.3880794965,,,21.6299998760223,2133.76171875,17683.987851878,17752.3073494069
2018-07-19T08:46:45Z,1531990005,1A009,40.8832415,43.7122084,6251.69,0.1,-3.5,201.9,535650,-127911.96,196.4,Weapon+Missile,Red,Allies,R-27ET,,xu,,533.351088538364,410.705657958984,1.69028149172592,6251.69384765625,4111.095703125,532.340013710931,-32.8251953125,0.0377474640371472,NaN,0,0.0197823405926261,5000,0.998601019382477,0.998601019382477,0.998601019382477,14223.1691822529,6130.81734711182,20353.9865293647,,,22.6299998760223,2140.59814453125,18214.6668849327,18284.5211461569
2018-07-19T08:46:46Z,1531990006,1A009,40.8808912,43.7079669,6220.23,0.1,-3.5,201.9,535505.69,-128401.34,196.4,Weapon+Missile,Red,Allies,R-27ET,,xu,,511.186713043066,395.682037353516,1.61937103730479,6220.22607421875,4122.6689453125,510.217242776702,-31.4677734375,0.0466526025666477,NaN,0,0.0197823405926261,5000,0.999716222286224,0.999716222286224,0.999716222286224,13065.5927795887,6099.95800307373,19165.5507826624,,,23.6299998760223,2097.55712890625,18723.2931869313,18794.6162853391
2018-07-19T08:46:47Z,1531990007,1A009,40.8786451,43.7039125,6190.15,0.1,-3.5,201.9,535367.75,-128869.12,196.4,Weapon+Missile,Red,Allies,R-27ET,,xu,,488.621059473318,380.109222412109,1.54727680783594,6190.1513671875,3973.19116210938,487.694629617564,-30.07470703125,0.040972539251721,NaN,0.0922895160652123,0.0197823405926261,5000,0.999286890029907,0.999286890029907,0.999286890029907,11937.5269880414,6070.46479050293,18007.9917785443,,,24.6299998760223,2216.96020507812,19209.4741317862,19282.1986351676
2018-07-19T08:46:48Z,1531990008,1A009,40.8764925,43.7000265,6161.33,0,-3.5,201.9,535235.5,-129317.48,196.4,Weapon+Missile,Red,Allies,R-27ET,,xu,,468.337568406588,365.874084472656,1.48248765531256,6161.326171875,3861.32299804688,467.449661563886,-28.8251953125,0.0390751966473291,NaN,0,0.0197823405926261,5000,0.999814569950104,0.999814569950104,0.999814569950104,10967.0038990498,6042.1969303418,17009.2008293916,,,25.6299998760223,2300.00317382812,19675.454688649,19749.5202264354
2018-07-19T08:46:49Z,1531990009,1A009,40.8744286,43.6962997,6133.69,0,-3.5,201.9,535108.69,-129747.45,196.4,Weapon+Missile,Red,Allies,R-27ET,,xu,,449.13060168211,352.104370117188,1.42117598367188,6133.68994140625,3750.52807617188,448.279529013776,-27.63623046875,0.0369491565692223,NaN,0,0.0197823405926261,5000,0.998007833957672,0.998007833957672,0.998007833957672,10085.9148683667,6015.09504638916,16101.0099147559,,,26.6299998760223,2383.16186523438,20122.3410880805,20197.6902534369
2018-07-19T08:46:50Z,1531990010,1A009,40.8724626,43.6927494,6107.35,0,-3.5,201.9,534987.88,-130157.04,196.4,Weapon+Missile,Red,Allies,R-27ET,,xu,,427.850920764139,336.362976074219,1.35337540711209,6107.3515625,3780.17163085938,427.039459763747,-26.33837890625,0.0428734053143565,NaN,0,0.0197823405926261,5000,1.00034523010254,1.00034523010254,1.00034523010254,9152.82051993609,5989.26592003906,15142.0864399751,,,27.6299998760223,2327.17993164062,20548.0568689829,20624.6277556425
2018-07-19T08:46:51Z,1531990011,1A009,40.870571,43.6893328,6082.02,0,-3.5,201.9,534871.62,-130551.22,196.4,Weapon+Missile,Red,Allies,R-27ET,,xu,,411.744428695677,324.176025390625,1.30199685320409,6082.01806640625,3900.51904296875,410.964339739591,-25.33349609375,0.0448426948886398,NaN,0,0.0197823405926261,5000,0.997923076152802,0.997923076152802,0.997923076152802,8476.67372809649,5964.42224709229,14441.0959751888,,,28.6299998760223,2181.4990234375,20957.7402041987,21035.4843452628
2018-07-19T08:46:52Z,1531990012,1A009,40.8687536,43.6860499,6057.67,0,-3.5,201.9,534759.94,-130929.95,196.4,Weapon+Missile,Red,Allies,R-27ET,,xu,,395.601863058284,311.639373779297,1.25055440113318,6057.66796875,4000.22827148438,394.851752939399,-24.35009765625,0.0357764182527577,NaN,0,0.0197823405926261,5000,0.999984800815582,0.999984800815582,0.999984800815582,7825.04170275927,5940.54295857422,13765.5846613335,,,29.6299998760223,2057.43969726562,21351.3810123901,21430.2514664797
2018-07-19T08:46:53Z,1531990013,1A009,40.8670206,43.6829191,6034.45,0,-3.5,201.9,534653.38,-131291.14,196.4,Weapon+Missile,Red,Allies,R-27ET,,xu,,377.301668626789,297.009857177734,1.19234396264287,6034.453125,4150.49389648438,376.58680297937,-23.21484375,0.0447740752922954,NaN,0,0.0197823405926261,5000,0.998129665851593,0.998129665851593,0.998129665851593,7117.82745742798,5917.77697382812,13035.6044312561,,,30.6299998760223,1883.95922851562,21726.7860330787,21806.7287807356
2018-07-19T08:46:54Z,1531990014,1A009,40.865348,43.6798968,6012.04,0,-3.5,201.9,534550.56,-131639.81,196.4,Weapon+Missile,Red,Allies,R-27ET,,xu,,364.204533797101,286.399719238281,1.15061849355121,6012.03759765625,4256.36267089844,363.514080294375,-22.41552734375,0.0417563531279761,NaN,0,0.0197823405926261,5000,0.999505698680878,0.999505698680878,0.999505698680878,6632.2471219182,5895.79485070557,12528.0419726238,,,31.6299998760223,1755.67492675781,22089.1755676624,22170.1524806157
2018-07-19T08:46:55Z,1531990015,1A009,40.8637488,43.677007,5990.61,0,-3.5,201.9,534452.25,-131973.2,196.4,Weapon+Missile,Red,Allies,R-27ET,,xu,,348.243886227147,273.186370849609,1.09988766670917,5990.60986328125,4298.63635253906,347.584027961787,-21.427734375,0.0385357174925545,NaN,0,0.0197823405926261,5000,0.998647272586823,0.998647272586823,0.998647272586823,6063.69021472931,5874.78142157471,11938.471636304,,,32.6299998760223,1691.97351074219,22435.6753660887,22517.6396060631
2018-07-19T08:46:56Z,1531990016,1A009,40.862218,43.6742402,5970.09,0,-3.5,201.9,534358.12,-132292.38,196.4,Weapon+Missile,Red,Allies,R-27ET,,xu,,333.393329747589,260.752655029297,1.05270281884181,5970.09375,4327.8623046875,332.761478263359,-20.51611328125,0.0427664669659704,NaN,0,0.0197823405926261,5000,0.999018490314484,0.999018490314484,0.999018490314484,5557.55561600924,5854.66198734375,11412.217603353,,,33.6299998760223,1642.2314453125,22767.4212240638,22850.3297095158
2018-07-19T08:46:57Z,1531990017,1A009,40.8607496,43.6715859,5950.41,0,-3.5,201.9,534267.81,-132598.58,196.4,Weapon+Missile,Red,Allies,R-27ET,,xu,,319.850011652269,249.37841796875,1.00968075341349,5950.4130859375,4434.65832519531,319.243952826073,-19.6806640625,0.041293768525216,NaN,0,0.0197823405926261,5000,0.998752176761627,0.998752176761627,0.998752176761627,5115.20149769783,5835.3618489209,10950.5633466187,,,34.6299998760223,1515.75476074219,23085.6664717007,23169.4797421705
2018-07-19T08:46:58Z,1531990018,1A009,40.859336,43.6690305,5931.47,0,-3.5,201.9,534180.94,-132893.38,196.4,Weapon+Missile,Red,Allies,R-27ET,,xu,,307.914639151836,239.444839477539,0.9717645986087,5931.466796875,4523.70642089844,307.331194535741,-18.9462890625,0.0438169334320416,NaN,0,0.0197823405926261,5000,0.998606562614441,0.998606562614441,0.998606562614441,4740.57125020027,5816.78188635742,10557.3531365577,,,35.6299998760223,1407.76037597656,23392.0628991698,23476.7462414179
2018-07-19T08:46:59Z,1531990019,1A009,40.8579841,43.6665861,5913.34,0,-3.5,201.9,534097.69,-133175.34,196.4,Weapon+Missile,Red,Allies,R-27ET,,xu,,294.559913444616,228.346038818359,0.929398746567466,5913.33935546875,4586.25842285156,294.001596044243,-18.12744140625,0.0288353502699784,NaN,0,0.0197823405926261,5000,0.998604774475098,0.998604774475098,0.998604774475098,4338.27713042498,5799.00493903076,10137.2820694557,,,36.6299998760223,1327.08093261719,23685.1391679462,23770.6542036552
2018-07-19T08:47:00Z,1531990020,1A009,40.8566832,43.6642339,5895.89,0,-3.5,201.9,534017.75,-133446.7,196.4,Weapon+Missile,Red,Allies,R-27ET,,xu,,283.425891898859,219.185394287109,0.894065961167582,5895.89453125,4638.38232421875,282.888519220276,-17.44482421875,0.042667165494407,NaN,0,0.0197823405926261,5000,0.999316215515137,0.999316215515137,0.999316215515137,4016.51180993319,5781.89741048828,9798.40922042147,,,37.6299998760223,1257.51220703125,23967.1660793295,24053.4807176262
2018-07-19T08:47:01Z,1531990021,1A009,40.8554307,43.6619689,5879.1,0,-3.5,201.9,533940.62,-133707.98,196.4,Weapon+Missile,Red,Allies,R-27ET,,xu,,272.943602647685,210.618927001953,0.860811913692435,5879.10009765625,4669.01416015625,272.426425345565,-16.79443359375,0.0396931273914148,NaN,0,0.0197823405926261,5000,0.997867166996002,0.997867166996002,0.997867166996002,3724.91051131487,5765.42769726807,9490.33820858294,,,38.6299998760223,1210.0859375,24238.7284583821,24325.8121112054
2018-07-19T08:47:02Z,1531990022,1A009,40.8542178,43.6597751,5862.83,0,-3.5,201.9,533866,-133961.05,196.4,Weapon+Missile,Red,Allies,R-27ET,,xu,,264.337467312857,203.648941040039,0.83349379246014,5862.828125,4654.40966796875,263.836160393624,-16.27197265625,0.0447121181037491,NaN,0,0.0197823405926261,5000,0.999050557613373,0.999050557613373,0.999050557613373,3493.71483126879,5749.47034320312,9243.18517447191,,,39.6299998760223,1208.41845703125,24501.746653965,24589.5748118612
2018-07-19T08:47:03Z,1531990023,1A009,40.8530436,43.6576515,5847.08,0,-3.5,201.9,533793.75,-134206.02,196.4,Weapon+Missile,Red,Allies,R-27ET,,xu,,255.886148902181,196.834075927734,0.806680788429115,5847.0810546875,4615.28527832031,255.40115696011,-15.7470703125,0.0375527447416972,NaN,0,0.0197823405926261,5000,0.99884170293808,0.99884170293808,0.99884170293808,3273.88605999947,5734.02774249512,9007.91380249458,,,40.6299998760223,1231.79577636719,24756.3584426273,24844.9063745154
2018-07-19T08:47:04Z,1531990024,1A009,40.8519124,43.6556052,5831.91,0,-3.5,201.9,533724.19,-134442.06,196.4,Weapon+Missile,Red,Allies,R-27ET,,xu,,246.55062349916,189.321273803711,0.777097683990618,5831.91064453125,4568.29858398438,246.083458614178,-15.17041015625,0.0486335677357335,NaN,0,0.0197823405926261,5000,0.997402727603912,0.997402727603912,0.997402727603912,3039.36049739122,5719.15065221924,8758.51114961046,,,41.6299998760223,1263.61206054688,25001.6943952438,25090.9351019367
2018-07-19T08:47:05Z,1531990025,1A009,40.8508128,43.6536162,5817.15,0,-3.5,201.9,533656.56,-134671.5,196.4,Weapon+Missile,Red,Allies,R-27ET,,xu,,239.650697531641,183.825485229492,0.755205500226775,5817.154296875,4484.50378417969,239.195959479357,-14.75634765625,0.0376751208154038,NaN,0,0.0197823405926261,5000,0.999721527099609,0.999721527099609,0.999721527099609,2871.62284137011,5704.67961854492,8576.30245991503,,,42.6299998760223,1332.65051269531,25240.1627256565,25330.0769098639
2018-07-19T08:47:06Z,1531990026,1A009,40.8497483,43.6516903,5802.88,0,-3.5,201.9,533591,-134893.64,196.4,Weapon+Missile,Red,Allies,R-27ET,,xu,,232.053315482017,177.778381347656,0.731128795098296,5802.876953125,4355.05444335938,231.613684141591,-14.27734375,0.0362748363914233,NaN,0,0.0197823405926261,5000,0.998292624950409,0.998292624950409,0.998292624950409,2692.43706130981,5690.67832723633,8383.11538854614,,,43.6299998760223,1447.82250976562,25471.0632695352,25561.6283732133
2018-07-19T08:47:07Z,1531990027,1A009,40.848718,43.6498261,5789.05,0,-3.5,201.9,533527.62,-135108.69,196.4,Weapon+Missile,Red,Allies,R-27ET,,xu,,224.616571292667,171.880432128906,0.70757121576191,5789.0546875,4210.82873535156,224.190876425125,-13.822265625,0.0482011361364926,NaN,0,0.0197823405926261,5000,0.998582899570465,0.998582899570465,0.998582899570465,2522.63020496368,5677.12331511719,8199.75352008087,,,44.6299998760223,1578.22595214844,25694.5647379916,25785.7595613228
2018-07-19T08:47:08Z,1531990028,1A009,40.8477189,43.6480183,5775.65,0,-3.5,201.9,533466.06,-135317.22,196.4,Weapon+Missile,Red,Allies,R-27ET,,xu,,217.841483418328,166.533004760742,0.686109728313649,5775.64990234375,4069.1796875,217.428663319288,-13.40478515625,0.0488262284906615,NaN,0,0.170461591404964,5000,0.816693544387817,0.816693544387817,0.816693544387817,2372.74559489489,5663.97771148193,8036.72330637682,,,45.6299998760223,1706.47021484375,25911.3039309041,26003.1090041532
2018-07-19T08:47:09Z,1531990029,1A009,40.8467486,43.6462627,5760.85,-0.4,-5.2,201.9,533406.38,-135519.72,196.4,Weapon+Missile,Red,Allies,R-27ET,,xu,,211.631613164456,161.667327880859,0.666423552068137,5760.84814453125,3926.41796875,211.113352624248,-14.8017578125,0.0628755673639508,NaN,0.569255286185543,1.50782338310532,4953.24659637171,0.0893867313861847,0.0893867313861847,0.0893867313861847,2239.3969845295,5649.46214565674,7888.85913018623,,,46.6299998760223,1834.43017578125,26121.7881903647,26214.3029582017
2018-07-19T08:47:10Z,1531990030,1A009,40.8458127,43.6445695,5737.8,-0.8,-7.9,201.9,533348.75,-135715.03,196.4,Weapon+Missile,Red,Allies,R-27ET,,xu,,204.936622718383,156.492752075195,0.645148753415336,5737.7958984375,3786.40551757812,203.63598228518,-23.05224609375,0.0645591999909093,NaN,0.47696577012033,2.67742711101242,4338.98227317507,0.0171166472136974,0.0171166472136974,0.0171166472136974,2099.95096656084,5626.85561474121,7726.80658130205,,,47.6299998760223,1951.39038085938,26324.7906980599,26418.7919603066
2018-07-19T08:47:11Z,1531990031,1A009,40.8449012,43.6429217,5705.82,-1.2,-10.5,201.9,533292.56,-135905.09,196.5,Weapon+Missile,Red,Allies,R-27ET,,xu,,200.75648110879,153.40576171875,0.631728335484296,5705.8212890625,3657.21655273438,198.19381691289,-31.974609375,0.030038477110109,NaN,0.369267347287569,2.72740680682057,4170.90754031348,0.0117830522358418,0.0117830522358418,0.0117830522358418,2015.15823535919,5595.49923443848,7610.65746979767,,,48.6299998760223,2048.60473632812,26522.3693662307,26619.1161419055
2018-07-19T08:47:12Z,1531990032,1A009,40.8440216,43.6413336,5665.48,-1.6,-13.3,202,533238.38,-136088.31,196.5,Weapon+Missile,Red,Allies,R-27ET,,xu,,195.276257355749,149.345092773438,0.614163441422607,5665.47998046875,3529.38208007812,191.063851912947,-40.34130859375,0.0159552618302588,NaN,0.400030519309307,2.7769485167482,4045.40131671726,0.0226159915328026,0.0226159915328026,0.0226159915328026,1906.64083434343,5555.93792504639,7462.57875938982,,,49.6299998760223,2136.09790039062,26712.8328414207,26813.9711158656
2018-07-19T08:47:13Z,1531990033,1A009,40.8431662,43.6397922,5616.86,-1.9,-16.1,202,533185.69,-136266.14,196.5,Weapon+Missile,Red,Allies,R-27ET,,xu,,191.734857839157,146.890914916992,0.60264732959361,5616.86474609375,3430.3232421875,185.469174520365,-48.615234375,0.0716041409942184,NaN,0.276923189708997,2.76198207817282,3960.37671380842,0.030512522906065,0.030512522906065,0.030512522906065,1838.11278553009,5508.26266622803,7346.37545175812,,,50.6299998760223,2186.54150390625,26897.7436694908,27005.3241003308
2018-07-19T08:47:14Z,1531990034,1A009,40.8423317,43.6382925,5560.08,-2.1,-18.9,202.1,533134.19,-136439.17,196.6,Weapon+Missile,Red,Allies,R-27ET,,xu,,189.253226687969,145.337219238281,0.594412247448112,5560.078125,3360.330078125,180.532721345917,-56.78662109375,0.0161009452707456,NaN,0.230805752433071,2.77738949083649,3894.06982704456,0.0235606785863638,0.0235606785863638,0.0235606785863638,1790.83919059038,5452.57401445313,7243.41320504351,,,51.6299998760223,2199.748046875,27077.7157741797,27194.1930053935
2018-07-19T08:47:15Z,1531990035,1A009,40.8415198,43.6368382,5495.49,-2.3,-21.6,202.2,533084.06,-136606.97,196.7,Weapon+Missile,Red,Allies,R-27ET,,xu,,186.655007231615,143.74104309082,0.585764849593612,5495.48876953125,3300.75366210938,175.123690244255,-64.58935546875,0.0177956427769382,NaN,0.199987938897973,2.79271216646577,3888.36520096406,0.0424997992813587,0.0424997992813587,0.0424997992813587,1742.00458623171,5389.23349417236,7131.23808040407,,,52.6299998760223,2194.73510742188,27252.318876353,27380.5016054829
2018-07-19T08:47:16Z,1531990036,1A009,40.8407317,43.6354328,5423.61,-2.5,-24.4,202.3,533035.25,-136769.17,196.8,Weapon+Missile,Red,Allies,R-27ET,,xu,,184.008018010566,142.150756835938,0.576925327573534,5423.61083984375,3239.71630859375,169.388647541728,-71.8779296875,0.0620355503420238,NaN,0.200042580411333,2.72850241185213,3887.92496962085,0.0352571159601212,0.0352571159601212,0.0352571159601212,1692.94753460884,5318.74532425537,7011.69285886421,,,53.6299998760223,2183.89453125,27421.16161664,27564.1401985807
2018-07-19T08:47:17Z,1531990037,1A009,40.8399637,43.6340702,5344.52,-2.7,-27.1,202.4,532987.69,-136926.45,196.9,Weapon+Missile,Red,Allies,R-27ET,,xu,,182.3608552763,141.405624389648,0.571181703845172,5344.5166015625,3180.97192382812,164.315498379832,-79.09423828125,0.0495508855427057,NaN,0.199987938897973,2.67649372297365,3915.08404460271,0.0475255101919174,0.0475255101919174,0.0475255101919174,1662.77407685518,5241.18037307129,6903.95444992647,,,54.6299998760223,2163.54467773438,27584.9839809165,27746.1813877363
2018-07-19T08:47:18Z,1531990038,1A009,40.8392101,43.6327411,5257.88,-2.8,-29.7,202.5,532940.88,-137079.91,197,Weapon+Missile,Red,Allies,R-27ET,,xu,,182.333339203065,142.01301574707,0.570463154406011,5257.87841796875,3114.14672851562,160.434633818623,-86.63818359375,0.0360181113198563,NaN,0.199987938897973,2.64178590326282,3971.28354810817,0.039847370237112,0.039847370237112,0.039847370237112,1662.272329247,5156.21733875732,6818.48966800432,,,55.6299998760223,2143.73168945312,27744.9108875461,27928.1850252494
2018-07-19T08:47:19Z,1531990039,1A009,40.8384745,43.6314527,5164.36,-2.9,-32.3,202.7,532895.12,-137228.69,197.2,Weapon+Missile,Red,Allies,R-27ET,,xu,,181.590723582638,142.09294128418,0.567462262814574,5164.35693359375,3037.90795898438,155.656425667438,-93.521484375,0.0138758822480267,NaN,0.199987938897973,2.55987528652827,4084.5591602323,0.0548553504049778,0.0548553504049778,0.0548553504049778,1648.75954456329,5064.50409228271,6713.26363684601,,,56.6299998760223,2126.44897460938,27900.0964987623,28109.4809444695
2018-07-19T08:47:20Z,1531990040,1A009,40.8377574,43.6302066,5064.43,-3,-34.8,202.8,532850.38,-137372.62,197.3,Weapon+Missile,Red,Allies,R-27ET,,xu,,180.846171741081,142.213851928711,0.564417340134403,5064.43310546875,2947.98193359375,150.733428297276,-99.923828125,0.0161126587457299,NaN,0.200042580411333,2.51117433019878,4201.12980681408,0.0492144785821438,0.0492144785821438,0.0492144785821438,1635.26689167023,4966.51229137451,6601.77918304474,,,57.6299998760223,2116.451171875,28050.3624978626,28290.0380500517
2018-07-19T08:47:21Z,1531990041,1A009,40.8370571,43.6290002,4958.25,-3.1,-37.3,203,532806.62,-137512.05,197.5,Weapon+Missile,Red,Allies,R-27ET,,xu,,180.630489163661,142.808609008789,0.562984874253106,4958.25,2847.42211914062,146.125020884569,-106.18310546875,0.348923700637704,NaN,0.199987938897973,1.88626303411798,5000,0.391534447669983,0.391534447669983,0.391534447669983,1631.36868077517,4862.38223625,6493.75091702517,,,58.6299998760223,2110.82788085938,28196.0335717024,28470.3940097694
2018-07-19T08:47:22Z,1531990042,1A009,40.8363617,43.6278126,4848.64,-2.5,-37.2,203.2,532763.06,-137649.34,197.7,Weapon+Missile,Red,Allies,R-27ET,,xu,,181.004584202356,143.912368774414,0.563368600911746,4848.63916015625,2745.41528320312,144.042088609599,-109.61083984375,0.0583606822842428,NaN,0.569196375803951,0.747050126201146,5000,0.67215770483017,0.67215770483017,0.67215770483017,1638.13297511339,4754.89072199463,6393.02369710802,,,59.6299998760223,2103.22387695312,28339.623732624,28651.1269196629
2018-07-19T08:47:23Z,1531990043,1A009,40.8356647,43.6266306,4737.88,-2.5,-38.7,203.3,532719.25,-137786,197.8,Weapon+Missile,Red,Allies,R-27ET,,xu,,181.276037380279,144.944641113281,0.563425197045458,4737.884765625,2648.26440429688,143.507720420584,-110.75439453125,0.0127204238658672,NaN,0.200042580411333,1.29082165642825,4840.50972303172,0.0975454524159431,0.0975454524159431,0.0975454524159431,1643.05008641481,4646.27776368164,6289.32785009646,,,60.6299998760223,2089.62036132812,28482.6864646777,28832.135911643
2018-07-19T08:47:24Z,1531990044,1A009,40.8349792,43.6254778,4621.1,-2.7,-40.9,203.5,532676.06,-137919.34,198,Weapon+Missile,Red,Allies,R-27ET,,xu,,182.44036982162,146.766098022461,0.566211105210266,4621.099609375,2540.13696289062,140.163175692878,-116.78515625,0.0133700779934578,NaN,0.199987938897973,2.2846306158078,4609.5653557593,0.049884956330061,0.049884956330061,0.049884956330061,1664.22442703247,4531.75064842773,6195.97507546021,,,61.6299998760223,2080.96264648438,28622.4028488139,29014.3119115744
2018-07-19T08:47:25Z,1531990045,1A009,40.8343125,43.6243676,4499.12,-2.8,-43.2,203.7,532634,-138047.8,198.3,Weapon+Missile,Red,Allies,R-27ET,,xu,,182.067173710244,147.355850219727,0.564188545910555,4499.1201171875,2421.23657226562,135.164563508767,-121.9794921875,0.0234314545186388,NaN,0.199987938897973,2.18408169348875,4823.70769377651,0.0671670287847519,0.0671670287847519,0.0671670287847519,1657.4227871418,4412.12962972168,6069.55241686348,,,62.6299998760223,2077.88354492188,28757.1541804105,29196.1439536341
2018-07-19T08:47:26Z,1531990046,1A009,40.833657,43.6232875,4370.9,-2.9,-45.3,204,532592.44,-138172.83,198.5,Weapon+Missile,Red,Allies,R-27ET,,xu,,183.846202709483,149.796875,0.568788299203395,4370.90478515625,2297.33935546875,131.758319975676,-128.21533203125,0.0299479192126579,NaN,0,2.11529507180096,5000,0.0590382143855095,0.0590382143855095,0.0590382143855095,1689.97131253481,4286.39334113525,5976.36465367006,,,63.6299998760223,2073.5654296875,28888.4835382782,29379.7483265847
2018-07-19T08:47:27Z,1531990047,1A009,40.8330163,43.6222444,4237.6,-3,-47.3,204.2,532551.75,-138293.64,198.8,Weapon+Missile,Red,Allies,R-27ET,,xu,,184.450327811385,151.303863525391,0.569709541911254,4237.59765625,2155.47778320312,127.479931018572,-133.30712890625,0.0612501529274212,NaN,0,2.04575563520059,5000,0.0707515329122543,0.0707515329122543,0.0707515329122543,1701.09617148638,4155.66370556641,5856.75987705278,,,64.6299998760223,2082.11987304688,29015.5629890144,29563.9812800774
2018-07-19T08:47:28Z,1531990048,1A009,40.8323853,43.62123,4098.39,-3.1,-49.3,204.5,532511.5,-138411.19,199.1,Weapon+Missile,Red,Allies,R-27ET,,xu,,186.589174500426,154.168975830078,0.575319623453553,4098.39208984375,1986.33618164062,124.247053575792,-139.20556640625,0.0568591015881923,NaN,0,1.93345195731995,5000,0.0682461708784103,0.0682461708784103,0.0682461708784103,1740.77600203753,4019.14967878662,5759.92568082415,,,65.6299998760223,2112.05590820312,29139.4080318258,29750.3568057377
2018-07-19T08:47:29Z,1531990049,1A009,40.8317668,43.6202494,3954.29,-3.2,-51.1,204.9,532471.94,-138524.86,199.4,Weapon+Missile,Red,Allies,R-27ET,,xu,,187.756734209143,156.266555786133,0.577887415956198,3954.28759765625,1808.51245117188,120.359821253879,-144.1044921875,0.040616376599003,NaN,0.0615263440434749,1.81920551750726,5000,0.0744497999548912,0.0744497999548912,0.0744497999548912,1762.62956204414,3877.83144695557,5640.46100899971,,,66.6299998760223,2145.77514648438,29259.4023327148,29937.927916413
2018-07-19T08:47:30Z,1531990050,1A009,40.8311583,43.6192989,3805.06,-3.3,-52.8,205.1,532432.88,-138635.14,199.7,Weapon+Missile,Red,Allies,R-27ET,,xu,,189.619615179269,159.018859863281,0.582547466105488,3805.06372070312,1636.3779296875,116.995012747606,-149.223876953125,0,NaN,0.199987938897973,1.75182025853809,5000,0.0837922915816307,0.0837922915816307,0.0837922915816307,1797.77992303669,3731.49281366333,5529.27273670002,,,67.6299998760223,2168.68579101562,29376.0272482817,30127.36309853
2018-07-19T08:47:31Z,1531990051,1A009,40.8305589,43.6183774,3650.81,-3.3,-54.4,205.5,532394.19,-138742.11,200.1,Weapon+Missile,Red,Allies,R-27ET,,xu,,191.6628797987,161.992324829102,0.58770923275914,3650.80541992188,1470.00146484375,113.749884100216,-154.25830078125,0.0297417378662829,NaN,0,1.68354398004735,5000,0.0807234421372414,0.0807234421372414,0.0807234421372414,1836.73297463655,3580.21709712769,5416.95007176424,,,68.6299998760223,2180.80395507812,29489.4153809374,30318.8507631667
2018-07-19T08:47:32Z,1531990052,1A009,40.8299705,43.6174881,3492.34,-3.4,-56,205.9,532356.06,-138845.44,200.5,Weapon+Missile,Red,Allies,R-27ET,,xu,,192.981315158606,164.393020629883,0.590604820800995,3492.33911132812,1306.51684570312,110.137264543004,-158.46630859375,0.0518096698377858,NaN,0,1.57981731221695,5000,0.0905921757221222,0.0905921757221222,0.0905921757221222,1862.08940001726,3424.8147346106,5286.90413462786,,,69.6299998760223,2185.822265625,29599.1835943192,30511.656700978
2018-07-19T08:47:33Z,1531990053,1A009,40.8293902,43.6166264,3329.27,-3.5,-57.5,206.3,532318.25,-138945.61,200.8,Weapon+Missile,Red,Allies,R-27ET,,xu,,195.081402274374,167.53857421875,0.595845579280399,3329.26684570312,1150.4208984375,107.070956366634,-163.072265625,0.0223604613557705,NaN,0.199987938897973,1.49782580042942,5000,0.0764820426702499,0.0764820426702499,0.0764820426702499,1902.83767566681,3264.89547124146,5167.73314690826,,,70.6299998760223,2178.84594726562,29705.8983277699,30706.5740712819
2018-07-19T08:47:34Z,1531990054,1A009,40.8288166,43.6157904,3161.43,-3.5,-58.9,206.8,532280.81,-139042.89,201.3,Weapon+Missile,Red,Allies,R-27ET,,xu,,197.571348453756,171.09880065918,0.60222152954542,3161.42993164062,995.08837890625,104.236308490912,-167.8369140625,0.055594031060033,NaN,0,1.43303836122238,5000,0.0971297919750214,0.0971297919750214,0.0971297919750214,1951.72188649178,3100.30368391235,5052.02557040413,,,71.6299998760223,2166.34155273438,29809.8089397174,30904.0016168682
2018-07-19T08:47:35Z,1531990055,1A009,40.8282541,43.6149871,2990.51,-3.6,-60.2,207.3,532243.88,-139136.45,201.8,Weapon+Missile,Red,Allies,R-27ET,,xu,,198.320292786497,173.163497924805,0.603255616780488,2990.51293945312,838.437744140625,100.589861877328,-170.9169921875,0.00573634934339183,NaN,0,1.34295638364126,5000,0.0956178084015846,0.0956178084015846,0.0956178084015846,1966.5469265461,2932.6913717688,4899.2382983149,,,72.6299998760223,2152.0751953125,29910.0686784326,31102.1791415591
