ISOTime,UnixTime,Id,Longitude,Latitude,Altitude,Roll,Pitch,Yaw,U,V,Heading,Type,Color,Coalition,Name,Group,Country,Pilot,TAS,CAS,M,ASL,AGL,GS,VS,AOA,AOS,RRT,TRT,TRD,G,LatG,LonG,Ek,Ep,Em,FFW,FFV,RelativeTime,Elev,GroundDistance,AirDistance
2018-07-19T08:59:41Z,1531990781,1DA04,40.8622695,44.0532302,3148.25,-57,4.6,141.9,530332.94,-90184.82,136.4,Weapon+Missile,Red,Allies,R-27ER,,xu,,261.748371182466,228.851348876953,0.797713449386418,3148.25,2450.97253417969,NaN,NaN,4.3282699763014,NaN,12.6461772105486,3.00635547513361,NaN,NaN,NaN,NaN,NaN,3087.37858625,NaN,,,0.779999971389771,697.277465820312,NaN,NaN
2018-07-19T08:59:42Z,1531990782,1DA04,40.8649786,44.0504756,3145.78,-46.4,2.4,140.7,530579.38,-90470.02,135.2,Weapon+Missile,Red,Allies,R-27ER,,xu,,376.926938382892,334.866058349609,1.14870124939882,3145.7783203125,2446.79815673828,376.918834337345,-2.4716796875,2.27661810499805,NaN,9.59998797280383,2.6866877803099,3115.88702892647,5.96694469451904,5.96694469451904,5.96694469451904,7103.69584393501,3084.95469648926,10188.6505404243,,,1.77999997138977,698.980163574219,375.505741653568,375.699149152586
2018-07-19T08:59:43Z,1531990783,1DA04,40.8700668,44.0463714,3168.68,-39.4,3.3,135,531030.94,-90886.82,129.5,Weapon+Missile,Red,Allies,R-27ER,,xu,,614.946656081938,533.7626953125,1.87459711110593,3168.68139648438,2452.7880859375,614.52000693893,22.903076171875,0.230561914361288,NaN,6.38462860969614,5.01586979908299,5000,9.31590938568115,9.31590938568115,9.31590938568115,18907.9694913179,3107.41494168335,22015.3844330012,,,2.77999997138977,715.893310546875,987.455911542996,988.380467112711
2018-07-19T08:59:44Z,1531990784,1DA04,40.8779769,44.0412186,3243.41,-34.8,5.9,130.7,531719.94,-91398.35,125.2,Weapon+Missile,Red,Allies,R-27ER,,xu,,861.376831087928,733.269409179688,2.62819513578376,3243.4130859375,2532.10168457031,858.128906241109,74.731689453125,0.459109129950099,NaN,5.10771108398392,3.43239267940967,5000,0.850423276424408,0.850423276424408,0.850423276424408,37098.502256754,3180.7016939209,40279.2039506749,,,3.77999997138977,711.311401367188,1841.64514518209,1846.2602841519
2018-07-19T08:59:45Z,1531990785,1DA04,40.8871794,44.0353612,3322.19,-27.4,2.9,132.2,532520.06,-91978.12,126.6,Weapon+Missile,Red,Allies,R-27ER,,xu,,991.233036181635,836.999572753906,3.02730518562714,3322.18920898438,2599.42260742188,988.097795997727,78.776123046875,0.0756992699881975,NaN,7.29234025982332,1.95508081854385,5000,5.63506126403809,5.63506126403809,5.63506126403809,49127.1466008931,3257.95468062866,52385.1012815218,,,4.77999997138977,722.7666015625,2825.25954180163,2833.52881342267
2018-07-19T08:59:46Z,1531990786,1DA04,40.8961737,44.029299,3343.62,-21,-0.5,134.4,533305.88,-92582.17,128.8,Weapon+Missile,Red,Allies,R-27ER,,xu,,991.379419961721,836.263061523438,3.02854230986793,3343.619140625,2623.12261962891,991.147775235114,21.429931640625,0.0995884874052878,NaN,6.2461772601254,3.90589063442234,5000,6.64595317840576,6.64595317840576,6.64595317840576,49141.6577161819,3278.97026454102,52420.6279807229,,,5.77999997138977,720.496520996094,3811.95364015105,3820.97107867888
2018-07-19T08:59:47Z,1531990787,1DA04,40.9047774,44.0228961,3312.28,-16.2,-2.9,137.7,534064.19,-93227.04,132.1,Weapon+Missile,Red,Allies,R-27ER,,xu,,995.928411908783,841.255920410156,3.04127861460733,3312.28442382812,2559.80944824219,995.435350573009,-31.334716796875,0.0296376954613143,NaN,4.41538261914391,4.12139377490682,5000,6.84938144683838,6.84938144683838,6.84938144683838,49593.6700823575,3248.24140449341,52841.9114868509,,,6.77999997138977,752.474975585938,4803.06158086542,4813.09110959349
2018-07-19T08:59:48Z,1531990788,1DA04,40.912791,44.0161241,3247.22,-12.9,-4.3,141.7,534779.25,-93917.39,136.1,Weapon+Missile,Red,Allies,R-27ER,,xu,,996.059009368519,843.982849121094,3.03927189645625,3247.21606445312,2412.19421386719,993.93141551741,-65.068359375,0.0828802305218138,NaN,2.90768153911342,4.10165922396053,5000,7.3705587387085,7.3705587387085,7.3705587387085,49606.6775072098,3184.43114184692,52791.1086490567,,,7.77999997138977,835.021850585938,5792.91173593019,5805.58551468711
2018-07-19T08:59:49Z,1531990789,1DA04,40.9201007,44.0089476,3171.52,-10.9,-4.1,145.8,535442.44,-94658.07,140.2,Weapon+Missile,Red,Allies,R-27ER,,xu,,997.072987418059,847.877197265625,3.03957160575589,3171.51611328125,2319.12908935547,994.195181858848,-75.699951171875,0.101212892808496,NaN,1.73846585132854,3.91838347730111,5000,6.69238948822021,6.69238948822021,6.69238948822021,49707.7271119386,3110.19484923096,52817.9219611696,,,8.77999997138977,852.387023925781,6783.20903104471,6799.26876107253
2018-07-19T08:59:50Z,1531990790,1DA04,40.9267316,44.0014895,3105.48,-9.4,-3.5,148.7,536054.31,-95435.27,143.2,Weapon+Missile,Red,Allies,R-27ER,,xu,,991.354995535329,845.794372558594,3.01972292345583,3105.47705078125,2166.43988037109,989.152955511418,-66.0390625,0.100854099717409,NaN,1.49230583364128,2.94464652290153,5000,4.61474990844727,4.61474990844727,4.61474990844727,49139.2363586426,3045.43265200439,52184.669010647,,,9.77999997138977,939.037170410156,7768.69563754839,7787.44942644874
2018-07-19T08:59:51Z,1531990791,1DA04,40.9329868,43.9937894,3050.76,-8.2,-2.5,150.8,536638.75,-96242.23,145.2,Weapon+Missile,Red,Allies,R-27ER,,xu,,997.871538969296,853.435852050781,3.03756079806606,3050.75537109375,2107.45495605469,996.369984522381,-54.7216796875,0.044027292675109,NaN,0.969227748886904,2.52971381148372,5000,5.21828079223633,5.21828079223633,5.21828079223633,49787.3804142475,2991.76901599365,52779.1494302412,,,10.7799999713898,943.300415039062,8761.49744457388,8782.23658100303
2018-07-19T08:59:52Z,1531990792,1DA04,40.9385937,43.9862372,3023.02,-7.5,-0.8,152.8,537169.75,-97037.74,147.3,Weapon+Missile,Red,Allies,R-27ER,,xu,,956.857000140573,820.312622070312,2.91173459396642,3023.02075195312,2079.94439697266,956.454969990297,-27.734619140625,0.12475075023837,NaN,0.846115296644717,2.5345497988595,5000,4.62613391876221,4.62613391876221,4.62613391876221,45778.7659359008,2964.57064571411,48743.3365816149,,,11.7799999713898,943.076354980469,9714.61721990705,9736.21341950493
2018-07-19T08:59:53Z,1531990793,1DA04,40.9435724,43.9790834,3024.43,-6.9,1,153.7,537646.12,-97793.85,148.1,Weapon+Missile,Red,Allies,R-27ER,,xu,,893.664647606318,767.600280761719,2.71948520666838,3024.42602539062,2050.94165039062,893.663542720576,1.4052734375,0.0555334559001483,NaN,0.661553339987218,1.84047301903539,5000,3.58211445808411,3.58211445808411,3.58211445808411,39931.8251190662,2965.9487481897,42897.7738672559,,,12.7799999713898,973.484375,10605.2475336191,10627.267068036
2018-07-19T08:59:54Z,1531990794,1DA04,40.9481621,43.9724247,3049.89,-6.3,2.6,153.3,538086.06,-98497.96,147.7,Weapon+Missile,Red,Allies,R-27ER,,xu,,830.640370076776,714.38818359375,2.52847598375447,3049.88989257812,2113.11145019531,830.249971917579,25.4638671875,0.397608135912732,NaN,0.569242479580849,2.77361196933865,5000,6.27760076522827,6.27760076522827,6.27760076522827,34498.1712200642,2990.92027150513,37489.0914915693,,,13.7799999713898,936.778442382812,11432.6662761321,11455.4713599852
2018-07-19T08:59:55Z,1531990795,1DA04,40.9527909,43.9664708,3110.65,-6.9,6.4,148.3,538521.62,-99123.44,142.7,Weapon+Missile,Red,Allies,R-27ER,,xu,,764.609680910986,657.949096679688,2.3291899922909,3110.65454101562,2241.96398925781,762.191328764023,60.7646484375,0.393139870412251,NaN,0.353858440520021,3.73611518354427,5000,5.18049097061157,5.18049097061157,5.18049097061157,29231.39820714,3050.51003546509,32281.9082426051,,,14.7799999713898,868.690551757812,12192.1529403864,12217.7505816363
2018-07-19T08:59:56Z,1531990796,1DA04,40.9574299,43.961115,3191.45,-5.8,6.6,148,538951.62,-99682.36,142.4,Weapon+Missile,Red,Allies,R-27ER,,xu,,709.804416895347,610.695922851562,2.16435831960192,3191.45458984375,2350.97778320312,705.190514934451,80.800048828125,0.046779641803381,NaN,1.13844824689491,1.50223031194872,5000,1.08494222164154,1.08494222164154,1.08494222164154,25191.1155122072,3129.74781534912,28320.8633275563,,,15.7799999713898,840.476806640625,12894.7247951839,12925.2982499098
2018-07-19T08:59:57Z,1531990797,1DA04,40.9618114,43.9560691,3268.46,-4.8,6.6,148,539357.69,-100208.85,142.4,Weapon+Missile,Red,Allies,R-27ER,,xu,,669.336392408027,575.700500488281,2.04287157764281,3268.4638671875,2427.18933105469,664.891553115833,77.00927734375,0.0509641383173596,NaN,1.12305556182664,0.0139882274201861,5000,1.00969219207764,1.00969219207764,1.00969219207764,22400.5603100896,3205.26811831543,25605.828428405,,,16.7799999713898,841.274536132812,13557.1456627789,13592.5136386129
2018-07-19T08:59:58Z,1531990798,1DA04,40.9659649,43.9512849,3341.64,-4,6.6,148,539742.69,-100708.02,142.4,Weapon+Missile,Red,Allies,R-27ER,,xu,,634.621787809583,545.776489257812,1.93864490606918,3341.64208984375,2463.43395996094,630.388579601109,73.17822265625,0.0570354767623822,NaN,0.769238956215285,0.0139882274201861,5000,1.0040363073349,1.0040363073349,1.0040363073349,20137.2406781316,3277.03144003662,23414.2721181682,,,17.7799999713898,878.208129882812,14185.1780943598,14225.1183042677
2018-07-19T08:59:59Z,1531990799,1DA04,40.9698937,43.9467583,3410.99,-3.4,6.6,148,540106.88,-101180.3,142.4,Weapon+Missile,Red,Allies,R-27ER,,xu,,600.415630841095,516.588806152344,1.83570272216039,3410.9921875,2436.75122070312,596.397093984686,69.35009765625,0.0627740210023332,NaN,0.569221562126516,0.0139882274201861,5000,1.00200998783112,1.00200998783112,1.00200998783112,18024.9464879155,3345.04065355469,21369.9871414702,,,18.7799999713898,974.240966796875,14779.3706778082,14823.6566543315
2018-07-19T09:00:00Z,1531990800,1DA04,40.9736235,43.9424602,3476.94,-2.8,6.6,148,540452.69,-101628.73,142.4,Weapon+Missile,Red,Allies,R-27ER,,xu,,570.109633892133,490.79931640625,1.74444948783299,3476.94311523438,2369.40502929688,566.282146802809,65.950927734375,0.0646165364053142,NaN,0.569251017317311,0.0513960362511687,5000,0.997419655323029,0.997419655323029,0.997419655323029,16251.2497328311,3409.71642010132,19660.9661529324,,,19.7799999713898,1107.5380859375,15343.5400029838,15391.9702759618
2018-07-19T09:00:01Z,1531990801,1DA04,40.9771572,43.9383871,3539.5,-2.3,6.7,148,540780.38,-102053.7,142.4,Weapon+Missile,Red,Allies,R-27ER,,xu,,540.263478722686,465.570190429688,1.65438974032107,3539.5029296875,2382.43811035156,536.62919791708,62.559814453125,0.0642942052262416,NaN,0.400030519309307,0.0513960362511687,5000,1.00156140327454,1.00156140327454,1.00156140327454,14594.2313220769,3471.06664054199,18065.2979626189,,,20.7799999713898,1157.06481933594,15878.1649497044,15930.5351085702
2018-07-19T09:00:02Z,1531990802,1DA04,40.9805359,43.934492,3599.39,-1.9,6.7,148,541093.75,-102460.06,142.4,Weapon+Missile,Red,Allies,R-27ER,,xu,,516.647406169252,445.466400146484,1.58323342296114,3599.38916015625,2472.30725097656,513.164867953429,59.88623046875,0.057518216147124,NaN,0.400030519309307,0.0171320104161963,5000,1.00058901309967,1.00058901309967,1.00058901309967,13346.2271150708,3529.79497074463,16876.0220858154,,,21.7799999713898,1127.08190917969,16389.4000657844,16445.5499837898
2018-07-19T09:00:03Z,1531990803,1DA04,40.9837369,43.9308012,3656.18,-1.6,6.7,148,541390.62,-102845.12,142.4,Weapon+Missile,Red,Allies,R-27ER,,xu,,489.517435123777,422.595336914062,1.5011404284173,3656.18212890625,2597.93969726562,486.211762497292,56.79296875,0.0527323076686407,NaN,0.246151479950797,0.0171320104161963,5000,0.997506260871887,0.997506260871887,0.997506260871887,11981.3659645081,3585.48984744385,15566.8558119519,,,22.7799999713898,1058.24243164062,16873.8113298045,16933.5527761568
2018-07-19T09:00:04Z,1531990804,1DA04,40.9867827,43.9272887,3710.26,-1.3,6.7,148,541673.19,-103211.57,142.4,Weapon+Missile,Red,Allies,R-27ER,,xu,,465.890497480834,402.535766601562,1.42963577126176,3710.2607421875,2601.36560058594,462.741244356407,54.07861328125,0.0552779653298157,NaN,0.199987938897973,0.0171320104161963,5000,0.99835479259491,0.99835479259491,0.99835479259491,10852.6977821469,3638.5228507373,14491.2206328842,,,23.7799999713898,1108.89514160156,17334.8080442808,17397.9749829037
2018-07-19T09:00:05Z,1531990805,1DA04,40.9896903,43.9239351,3761.93,-1.1,6.7,148,541942.94,-103561.43,142.4,Weapon+Missile,Red,Allies,R-27ER,,xu,,444.787727862509,384.454345703125,1.36574696506966,3761.927734375,2604.76123046875,441.776691072979,51.6669921875,0.05065944119014,NaN,0.200042580411333,0.0171320104161963,5000,0.995737016201019,0.995737016201019,0.995737016201019,9891.80614285469,3689.19086163086,13580.9970044856,,,24.7799999713898,1157.16650390625,17774.934033404,17841.3792783884
2018-07-19T09:00:06Z,1531990806,1DA04,40.9924627,43.9207371,3811.21,-0.9,6.7,148,542200.19,-103895.06,142.4,Weapon+Missile,Red,Allies,R-27ER,,xu,,424.166876316706,366.626098632812,1.30321991149792,3811.2138671875,2596.61596679688,421.293740846764,49.2861328125,0.0473418091565085,NaN,0.199987938897973,0.0171320104161963,5000,0.995887994766235,0.995887994766235,0.995887994766235,8995.87694821358,3737.52404706543,12733.400995279,,,25.7799999713898,1214.59790039062,18194.638990344,18264.2156437845
2018-07-19T09:00:07Z,1531990807,1DA04,40.9950955,43.9176997,3858.04,-0.7,6.7,148,542444.5,-104211.94,142.4,Weapon+Missile,Red,Allies,R-27ER,,xu,,402.853609626915,347.965423583984,1.23845110840264,3858.03979492188,2590.12524414062,400.12293521023,46.825927734375,0.0432720710436035,NaN,0.199987938897973,0.0171320104161963,5000,0.995908856391907,0.995908856391907,0.995908856391907,8114.55153947175,3783.44459548706,11897.9961349588,,,26.7799999713898,1267.91455078125,18593.2584973251,18665.8140740365
2018-07-19T09:00:08Z,1531990808,1DA04,40.9976155,43.914792,3902.88,-0.6,6.7,148,542678.38,-104515.27,142.4,Weapon+Missile,Red,Allies,R-27ER,,xu,,385.64394991296,332.493347167969,1.18620143951773,3902.88452148438,2583.30017089844,383.027683861107,44.8447265625,0.0469016141902969,NaN,0.200042580411333,0.0171320104161963,5000,0.994637072086334,0.994637072086334,0.994637072086334,7436.06280522347,3827.42224926147,11263.4850544849,,,27.7799999713898,1319.58435058594,18974.8430319086,19050.2552722654
2018-07-19T09:00:09Z,1531990809,1DA04,41.0000149,43.9120232,3945.59,-0.5,6.7,148,542901.06,-104804.11,142.4,Weapon+Missile,Red,Allies,R-27ER,,xu,,367.205493593991,315.650634765625,1.13008265034426,3945.59228515625,2574.16003417969,364.713478566057,42.707763671875,0.0418740429413288,NaN,0.199987938897973,0.0171320104161963,5000,0.995386064052582,0.995386064052582,0.995386064052582,6741.99372628033,3869.30425832275,10611.2979846031,,,28.7799999713898,1371.43225097656,19338.1923992521,19416.3279747744
2018-07-19T09:00:10Z,1531990810,1DA04,41.0022869,43.9094011,3986.05,-0.4,6.7,148,543111.94,-105077.64,142.4,Weapon+Missile,Red,Allies,R-27ER,,xu,,347.742002435326,297.627166748047,1.07071887368425,3986.05078125,2514.72387695312,345.38038501276,40.45849609375,0.0487710672741723,NaN,0.199987938897973,0.0171320104161963,5000,0.993371844291687,0.993371844291687,0.993371844291687,6046.22501288652,3908.98048939453,9955.20550228106,,,29.7799999713898,1471.32690429688,19682.2850000825,19763.003459417
2018-07-19T09:00:11Z,1531990811,1DA04,41.0044603,43.9068925,4024.76,-0.3,6.7,148,543313.75,-105339.34,142.4,Weapon+Missile,Red,Allies,R-27ER,,xu,,332.732814902584,283.518280029297,1.02499564763766,4024.76000976562,2465.43933105469,330.47348114595,38.709228515625,0.0460226729882865,NaN,0.153836884284726,0.0171320104161963,5000,0.995416224002838,0.995416224002838,0.995416224002838,5535.55630564988,3946.94127497681,9482.49758062668,,,30.7799999713898,1559.32067871094,20011.4794700962,20094.6712984699
2018-07-19T09:00:12Z,1531990812,1DA04,41.0065184,43.9045169,4061.42,-0.3,6.7,148,543504.75,-105587.15,142.4,Weapon+Missile,Red,Allies,R-27ER,,xu,,315.017889544291,267.050628662109,0.970865063865829,4061.423828125,2449.81091308594,312.877028808844,36.663818359375,0.0353330064595058,NaN,0,0.0171320104161963,5000,0.99318265914917,0.99318265914917,0.99318265914917,4961.81353664696,3982.8961984082,8944.70973505517,,,31.7799999713898,1611.61291503906,20323.2159382372,20408.7526641163
2018-07-19T09:00:13Z,1531990813,1DA04,41.0084819,43.9022502,4096.41,-0.2,6.7,148,543687.06,-105823.6,142.4,Weapon+Missile,Red,Allies,R-27ER,,xu,,300.619028520262,253.696853637695,0.926890689949035,4096.40771484375,2526.09509277344,298.576502723365,34.98388671875,0.0447929083091921,NaN,0.200042580411333,0.0171320104161963,5000,0.994242668151855,0.994242668151855,0.994242668151855,4518.5900154233,4017.20367167725,8535.79368710054,,,32.7799999713898,1570.31262207031,20620.6616859946,20708.4375691071
2018-07-19T09:00:14Z,1531990814,1DA04,41.0103563,43.9000862,4129.81,-0.2,6.7,148,543861.12,-106049.34,142.4,Weapon+Missile,Red,Allies,R-27ER,,xu,,287.007433113844,241.174789428711,0.885289373662962,4129.81396484375,2634.25805664062,285.056641956533,33.40625,0.0412262548589016,NaN,0,0.0171320104161963,5000,0.993892967700958,0.993892967700958,0.993892967700958,4118.66333312988,4049.9640118335,8168.62734496338,,,33.7799999713898,1495.55590820312,20904.6198263897,20994.5358603043
2018-07-19T09:00:15Z,1531990815,1DA04,41.0121555,43.8980088,4161.88,-0.2,6.7,148,544028.19,-106266.05,142.4,Weapon+Missile,Red,Allies,R-27ER,,xu,,275.49705667187,230.626495361328,0.850123583157642,4161.88427734375,2723.26416015625,273.624054664453,32.0703125,0.0444475153248294,NaN,0,0.0171320104161963,5000,0.993661403656006,0.993661403656006,0.993661403656006,3794.93141174316,4081.41424484131,7876.34565658447,,,34.7799999713898,1438.6201171875,21177.2115692628,21269.1836240977
2018-07-19T09:00:16Z,1531990816,1DA04,41.013879,43.8960187,4192.61,-0.1,6.7,148,544188.25,-106473.64,142.4,Weapon+Missile,Red,Allies,R-27ER,,xu,,263.9303517531,220.120391845703,0.814742379035012,4192.60986328125,2818.54443359375,262.135783412552,30.7255859375,0.0339316920078361,NaN,0.12306949675561,0.0171320104161963,5000,0.992873549461365,0.992873549461365,0.992873549461365,3482.96152882576,4111.54575157471,7594.50728040047,,,35.7799999713898,1374.0654296875,21438.3514496038,21532.2947278603
2018-07-19T09:00:17Z,1531990817,1DA04,41.0155333,43.8941083,4222.1,-0.1,6.7,148,544341.88,-106672.91,142.4,Weapon+Missile,Red,Allies,R-27ER,,xu,,253.337750562056,210.554672241211,0.782330355338098,4222.0966796875,2907.22778320312,251.615864996757,29.48681640625,0.0533377817113333,NaN,0,0.0171320104161963,5000,0.994979858398438,0.994979858398438,0.994979858398438,3209.00079299212,4140.46244038574,7349.46323337786,,,36.7799999713898,1314.86889648438,21689.0269848669,21784.8627908307
2018-07-19T09:00:18Z,1531990818,1DA04,41.017127,43.8922678,4250.52,-0.1,6.7,148,544489.88,-106864.89,142.4,Weapon+Missile,Red,Allies,R-27ER,,xu,,244.063170682936,202.209335327148,0.75395631318898,4250.51904296875,2959.54174804688,242.402558875348,28.42236328125,0.0385656152621833,NaN,0,0.0171320104161963,5000,0.992149949073792,0.992149949073792,0.992149949073792,2978.34156419039,4168.33525727295,7146.67682146334,,,37.7799999713898,1290.97729492188,21930.5219573149,22028.1838735649
2018-07-19T09:00:19Z,1531990819,1DA04,41.0186622,43.8904947,4277.89,-0.1,6.7,148,544632.5,-107049.84,142.4,Weapon+Missile,Red,Allies,R-27ER,,xu,,235.150837133723,194.239593505859,0.726672208430223,4277.8916015625,2960.87365722656,233.552262332701,27.37255859375,0.0351594837646269,NaN,0,0.0171320104161963,5000,0.994889080524445,0.994889080524445,0.994889080524445,2764.79581023455,4195.17856744629,6959.97437768084,,,38.7799999713898,1317.01794433594,22163.1742159339,22262.5953272879
2018-07-19T09:00:20Z,1531990820,1DA04,41.0201342,43.8887945,4304.15,-0.1,6.7,148,544769.19,-107227.2,142.4,Weapon+Missile,Red,Allies,R-27ER,,xu,,225.459730812021,185.660491943359,0.696952469518869,4304.14990234375,2967.84423828125,223.925415837305,26.25830078125,0.041083133389263,NaN,0,0.0171320104161963,5000,0.991765260696411,0.991765260696411,0.991765260696411,2541.60451089144,4220.92916398193,6762.53367487337,,,39.7799999713898,1336.3056640625,22386.2594867072,22487.3697085794
2018-07-19T09:00:21Z,1531990821,1DA04,41.0215548,43.8871536,4329.48,-0.1,6.7,148,544901.19,-107398.36,142.4,Weapon+Missile,Red,Allies,R-27ER,,xu,,217.623699931513,178.728805541992,0.6729419236548,4329.47998046875,2985.53894042969,216.144539403758,25.330078125,0.0490898774580815,NaN,0,0.0171320104161963,5000,0.994931638240814,0.994931638240814,0.994931638240814,2368.00373859406,4245.76948504639,6613.77322364044,,,40.7799999713898,1343.94104003906,22601.5615849161,22704.3014375614
2018-07-19T09:00:22Z,1531990822,1DA04,41.0229211,43.8855754,4353.86,0,6.7,148,545028.12,-107562.98,142.4,Weapon+Missile,Red,Allies,R-27ER,,xu,,209.299153271187,171.428863525391,0.64739747139351,4353.85595703125,2981.09997558594,207.874835722509,24.3759765625,0.0447586475242115,NaN,0,0.0171320104161963,5000,0.975163578987122,0.975163578987122,0.975163578987122,2190.30677800179,4269.67415210205,6459.98093010384,,,41.7799999713898,1372.75598144531,22808.6444487713,22912.9540265479
2018-07-19T09:00:23Z,1531990823,1DA04,41.0242387,43.8840533,4377.18,0.2,6.1,148,545150.44,-107721.75,142.4,Weapon+Missile,Red,Allies,R-27ER,,xu,,201.775321052153,164.856536865234,0.624306806466375,4377.17822265625,2973.65454101562,200.422933098526,23.322265625,0.0411819154040808,NaN,0.430769198699567,0.984754156252518,5000,0.349692523479462,0.349692523479462,0.349692523479462,2035.66400928497,4292.54548172119,6328.20949100616,,,42.7799999713898,1403.52368164062,23008.3580554847,23114.160564154
2018-07-19T09:00:24Z,1531990824,1DA04,41.0255077,43.8825867,4393.37,1.5,3.4,148,545268.38,-107874.73,142.4,Weapon+Missile,Red,Allies,R-27ER,,xu,,193.838109240759,158.026763916016,0.599869864292093,4393.36865234375,2987.38146972656,193.160768740877,16.1904296875,0.0390780174464923,NaN,1.18461552320744,2.34239630038295,3985.44799480822,0.0516321361064911,0.0516321361064911,0.0516321361064911,1878.66062970161,4308.42286945068,6187.0834991523,,,43.7799999713898,1405.98718261719,23200.7641883958,23307.3785076592
2018-07-19T09:00:25Z,1531990825,1DA04,41.0267418,43.8811598,4399.95,2.5,0.5,148,545383.06,-108023.56,142.4,Weapon+Missile,Red,Allies,R-27ER,,xu,,188.012263979148,153.075820922852,0.581888477281731,4399.9453125,3001.82360839844,187.897203139786,6.57666015625,0.0809197741436057,NaN,1.04615360818782,2.82697645076737,3794.89672219764,0.0644596293568611,0.0644596293568611,0.0644596293568611,1767.43057032824,4314.87236988281,6082.30294021105,,,44.7799999713898,1398.12170410156,23387.9371550548,23494.7959249807
2018-07-19T09:00:26Z,1531990826,1DA04,41.027938,43.8797767,4397.29,3.4,-2.4,148,545494.19,-108167.83,142.4,Weapon+Missile,Red,Allies,R-27ER,,xu,,182.121836528782,148.154418945312,0.563639225608811,4397.29443359375,2996.39685058594,182.102543040015,-2.65087890625,0.091945717305415,NaN,0.907692440220144,2.90777139878969,3620.12893943722,0.0761530995368958,0.0761530995368958,0.0761530995368958,1658.41816703081,4312.27274572022,5970.69091275103,,,45.7799999713898,1400.89758300781,23569.3708388218,23676.3740839782
2018-07-19T09:00:27Z,1531990827,1DA04,41.0291027,43.8784307,4385.78,4.2,-5.2,148,545602.44,-108308.23,142.4,Weapon+Missile,Red,Allies,R-27ER,,xu,,177.664254024841,144.507064819336,0.549764567564876,4385.77880859375,2994.96411132812,177.290658352499,-11.515625,0.0603442880916823,NaN,0.769231272252469,2.8774319119399,3476.12503254828,0.0797697305679321,0.0797697305679321,0.0797697305679321,1578.22935791016,4300.97977532959,5879.20913323975,,,46.7799999713898,1390.81469726562,23745.9674237275,23853.4670642584
2018-07-19T09:00:28Z,1531990828,1DA04,41.0302386,43.8771192,4365.65,4.8,-8.2,148,545708,-108445.02,142.3,Weapon+Missile,Red,Allies,R-27ER,,xu,,173.94730712309,141.54296875,0.538127521818449,4365.6513671875,2996.93188476562,172.778910049266,-20.12744140625,0.0583612586173833,NaN,0.661538825835231,2.92740541788912,3397.4674182029,0.0933920741081238,0.0933920741081238,0.0933920741081238,1512.88328276873,4281.24149800293,5794.12478077166,,,47.7799999713898,1368.71948242188,23918.0706728492,24026.8605390415
2018-07-19T09:00:29Z,1531990829,1DA04,41.0313411,43.8758491,4337.4,5.3,-11.1,147.9,545810.38,-108577.46,142.3,Weapon+Missile,Red,Allies,R-27ER,,xu,,169.76534046934,138.246627807617,0.525004919055233,4337.40478515625,2998.27880859375,167.398928993655,-28.24658203125,0.063432977032029,NaN,0.569230526749801,2.97351196955106,3304.29786364242,0.0998123958706856,0.0998123958706856,0.0998123958706856,1441.01354123354,4253.54106363525,5694.55460486879,,,48.7799999713898,1339.1259765625,24084.8539421155,24196.1310251494
2018-07-19T09:00:30Z,1531990830,1DA04,41.0324249,43.8746045,4300.94,5.8,-14.1,147.8,545911,-108707.23,142.2,Weapon+Missile,Red,Allies,R-27ER,,xu,,168.20877767332,137.19792175293,0.519954629300171,4300.93994140625,2992.22021484375,164.208733192363,-36.46484375,0.0782849502992654,NaN,0.384614782352588,2.92856014674568,3278.15657918779,0.104696735739708,0.104696735739708,0.104696735739708,1414.70964431763,4217.78126763916,5632.49091195679,,,49.7799999713898,1308.7197265625,24248.4382596698,24363.8384152876
2018-07-19T09:00:31Z,1531990831,1DA04,41.0334766,43.8734019,4257,6.2,-16.9,147.7,546008.62,-108832.58,142,Weapon+Missile,Red,Allies,R-27ER,,xu,,164.84547319063,134.684829711914,0.509279310537925,4257.00390625,2973.99731445312,158.882519007572,-43.93603515625,0.0464419588738703,NaN,0.369231488794427,2.88319893947692,3262.05029425008,0.116593241691589,0.116593241691589,0.116593241691589,1358.70150157213,4174.69473572266,5533.39623729479,,,50.7799999713898,1283.00659179688,24406.6945533866,24528.1827047183
2018-07-19T09:00:32Z,1531990832,1DA04,41.0345094,43.8722273,4205.46,6.5,-19.8,147.5,546104.38,-108954.95,141.9,Weapon+Missile,Red,Allies,R-27ER,,xu,,163.707295963143,134.080047607422,0.505438633336161,4205.4638671875,2947.17004394531,155.38244149517,-51.5400390625,0.03987062761183,NaN,0.307692338146258,2.8804444522507,3279.84202301176,0.120023779571056,0.120023779571056,0.120023779571056,1340.0039375782,4124.15122331543,5464.15516089363,,,51.7799999713898,1258.29382324219,24561.5020395037,24691.4418269784
2018-07-19T09:00:33Z,1531990833,1DA04,41.0355254,43.8710795,4146.43,6.7,-22.6,147.3,546198.5,-109074.5,141.7,Weapon+Missile,Red,Allies,R-27ER,,xu,,163.205408362106,134.056625366211,0.503519465672991,4146.4296875,2901.46044921875,152.154431244265,-59.0341796875,0.0232295980398657,NaN,0.16923074329176,2.83168693341715,3323.27069984274,0.125874236226082,0.125874236226082,0.125874236226082,1331.80026593208,4066.25846949219,5398.05873542427,,,52.7799999713898,1244.96923828125,24713.0757076508,24854.1984099664
2018-07-19T09:00:34Z,1531990834,1DA04,41.0365165,43.8699685,4080.67,7,-25.4,147.1,546290.25,-109190.13,141.4,Weapon+Missile,Red,Allies,R-27ER,,xu,,161.59597852196,133.143447875977,0.498147360375913,4080.67065429688,2838.07861328125,147.611008487376,-65.759033203125,0.0384951726087942,NaN,0.16923074329176,2.75947988105907,3399.72337535005,0.137021839618683,0.137021839618683,0.137021839618683,1305.66301372349,4001.77088719604,5307.43390091954,,,53.7799999713898,1242.59204101562,24860.1185898337,25015.3621718882
2018-07-19T09:00:35Z,1531990835,1DA04,41.0374939,43.868883,4007.84,7.1,-28.1,146.9,546380.62,-109303.05,141.2,Weapon+Missile,Red,Allies,R-27ER,,xu,,161.935383758203,133.917541503906,0.498743413143987,4007.84155273438,2753.39416503906,144.63398797833,-72.8291015625,0,NaN,0.0923074453117836,2.68705234165685,3494.63291566948,0.137573093175888,0.137573093175888,0.137573093175888,1311.15342564583,3930.34993631226,5241.50336195808,,,54.7799999713898,1254.44738769531,25004.1793200903,25176.8672776162
2018-07-19T09:00:36Z,1531990836,1DA04,41.0384598,43.8678214,3927.99,7.3,-30.7,146.5,546469.81,-109413.41,140.9,Weapon+Missile,Red,Allies,R-27ER,,xu,,162.814791761915,135.199661254883,0.500956964574552,3927.98681640625,2667.39904785156,141.88684753155,-79.854736328125,0.0637394405520728,NaN,0.199999891729021,2.62041210691574,3613.3242563428,0.13677667081356,0.13677667081356,0.13677667081356,1325.43282082379,3852.03919131103,5177.47201213482,,,55.7799999713898,1260.58776855469,25145.5186142212,25339.2816806438
2018-07-19T09:00:37Z,1531990837,1DA04,41.0394073,43.8667921,3841.94,7.4,-33.2,146.2,546557.12,-109520.31,140.6,Weapon+Missile,Red,Allies,R-27ER,,xu,,162.656945595733,135.646926879883,0.499940111167177,3841.93530273438,2576.80029296875,138.030500054562,-86.051513671875,0.0722803296268296,NaN,0.199999891729021,2.51257836096004,3783.89098762546,0.152994126081467,0.152994126081467,0.152994126081467,1322.86409752667,3767.65148365601,5090.51558118268,,,56.7799999713898,1265.13500976562,25283.0329584396,25501.5718575176
2018-07-19T09:00:38Z,1531990838,1DA04,41.040344,43.8657873,3749.33,7.5,-35.6,145.9,546643.38,-109624.59,140.3,Weapon+Missile,Red,Allies,R-27ER,,xu,,163.974952692396,137.401016235352,0.503416747000604,3749.32983398438,2488.43640136719,135.321883921509,-92.60546875,0.0568496019078144,NaN,0.199999891729021,2.42209927191171,3963.69081724835,0.154277130961418,0.154277130961418,0.154277130961418,1344.38925552368,3676.83654164429,5021.22579716797,,,57.7799999713898,1260.89343261719,25417.8018729192,25665.1568715018
2018-07-19T09:00:39Z,1531990839,1DA04,41.0412641,43.864814,3651.08,7.5,-37.9,145.5,546727.94,-109725.47,139.9,Weapon+Missile,Red,Allies,R-27ER,,xu,,164.257715547876,138.315246582031,0.50367658503593,3651.0830078125,2397.79602050781,131.636462517648,-98.246826171875,0.082806523199357,NaN,0,2.3298394244807,4149.82104719778,0.156058266758919,0.156058266758919,0.156058266758919,1349.02985585034,3580.48931785645,4929.51917370678,,,58.7799999713898,1253.28698730469,25548.9254818605,25829.0647559589
2018-07-19T09:00:40Z,1531990840,1DA04,41.0421753,43.8638645,3546.64,7.6,-40.1,145.1,546811.5,-109823.81,139.4,Weapon+Missile,Red,Allies,R-27ER,,xu,,166.018649283115,140.552261352539,0.508425158893142,3546.6416015625,2303.27526855469,129.051092867564,-104.44140625,0.0453746368186321,NaN,0.169229889518113,2.09860998687568,4705.57364412769,0.19866444170475,0.19866444170475,0.19866444170475,1378.1095954895,3478.06728619629,4856.17688168579,,,59.7799999713898,1243.36633300781,25677.4564216583,25994.7356892087
2018-07-19T09:00:41Z,1531990841,1DA04,41.0430772,43.862939,3436.84,7.5,-42,144.6,546894.06,-109919.53,139,Weapon+Missile,Red,Allies,R-27ER,,xu,,167.435648027746,142.544723510742,0.512076999759687,3436.84155273438,2197.18627929688,126.406667181017,-109.800048828125,0.0465939868992195,NaN,0,2.03247817434091,4726.34142552113,0.173268184065819,0.173268184065819,0.173268184065819,1401.73481152356,3370.39022131226,4772.12503283581,,,60.7799999713898,1239.6552734375,25803.3720073607,26161.8528627633
2018-07-19T09:00:42Z,1531990842,1DA04,41.0439695,43.8620384,3321.57,7.5,-44,144.2,546975.56,-110012.57,138.6,Weapon+Missile,Red,Allies,R-27ER,,xu,,169.071047645438,144.780731201172,0.51635267480606,3321.57446289062,2065.15100097656,123.687174560982,-115.26708984375,0.0883810150062001,NaN,0,2.02165787403514,4923.7072790905,0.174276068806648,0.174276068806648,0.174276068806648,1429.2509575963,3257.35182065063,4686.60277824694,,,61.7799999713898,1256.42346191406,25926.574348313,26330.6172158977
2018-07-19T09:00:43Z,1531990843,1DA04,41.0448531,43.8611621,3200.81,7.5,-45.9,143.7,547056.19,-110102.97,138,Weapon+Missile,Red,Allies,R-27ER,,xu,,171.047516672379,147.372711181641,0.52162274385502,3200.80615234375,1921.615234375,121.129138226281,-120.768310546875,0.0415607377596796,NaN,0,1.93782733381358,5000,0.16641928255558,0.16641928255558,0.16641928255558,1462.86264798939,3138.91856538818,4601.78121337758,,,62.7799999713898,1279.19091796875,26047.1783973784,26501.3368678676
2018-07-19T09:00:44Z,1531990844,1DA04,41.0457234,43.8603149,3075.45,7.5,-47.7,143.1,547135.38,-110190.26,137.5,Weapon+Missile,Red,Allies,R-27ER,,xu,,172.061608504637,149.168670654297,0.523918845018429,3075.44604492188,1771.9248046875,117.856016343583,-125.360107421875,0.0439915816370395,NaN,0,1.84230735171436,5000,0.176822334527969,0.176822334527969,0.176822334527969,1480.25985606015,3015.98229564331,4496.24215170346,,,63.7799999713898,1303.52124023438,26164.5451917867,26673.1032185246
2018-07-19T09:00:45Z,1531990845,1DA04,41.0465852,43.8594919,2945.12,7.5,-49.4,142.6,547213.62,-110274.91,137,Weapon+Missile,Red,Allies,R-27ER,,xu,,173.995074923361,151.830322265625,0.528972698476064,2945.1162109375,1621.39306640625,115.27541139025,-130.329833984375,0.0236581290038935,NaN,0,1.69091236677962,5000,0.177616328001022,0.177616328001022,0.177616328001022,1513.71430487931,2888.17238899902,4401.88669387833,,,64.7799999713898,1323.72314453125,26279.3410436849,26846.8167627967
2018-07-19T09:00:46Z,1531990846,1DA04,41.0474355,43.858696,2810.56,7.5,-51,142.1,547290.62,-110356.64,136.4,Weapon+Missile,Red,Allies,R-27ER,,xu,,175.256572459338,153.944747924805,0.531945275726429,2810.56005859375,1477.00463867188,112.292065866831,-134.55615234375,0.0545471643969047,NaN,0,1.65601959835267,5000,0.176366686820984,0.176366686820984,0.176366686820984,1535.74330950975,2756.21787986084,4291.96118937059,,,65.7799999713898,1333.55541992188,26391.1777599357,27021.8141873299
2018-07-19T09:00:47Z,1531990847,1DA04,41.0482845,43.8579176,2670.3,7.4,-52.5,141.4,547367.31,-110436.43,135.8,Weapon+Missile,Red,Allies,R-27ER,,xu,,178.659201298869,158.044448852539,0.541361018591297,2670.3037109375,1338.56970214844,110.667371663372,-140.25634765625,0,NaN,0,1.57839161694942,5000,0.190325930714607,0.190325930714607,0.190325930714607,1595.95551043749,2618.67338868652,4214.62889912401,,,66.7799999713898,1331.73400878906,26501.4199203772,27200.2395858808
2018-07-19T09:00:48Z,1531990848,1DA04,41.0491264,43.8571621,2525.6,7.4,-53.9,140.9,547443.25,-110513.73,135.2,Weapon+Missile,Red,Allies,R-27ER,,xu,,180.783220602026,161.060775756836,0.546849772127048,2525.59692382812,1197.4541015625,108.362902396174,-144.706787109375,0.0106118710130177,NaN,0,1.43719858675715,5000,0.186381846666336,0.186381846666336,0.186381846666336,1634.12864256203,2476.76450730591,4110.89314986794,,,67.7799999713898,1328.14282226562,26609.3000786777,27380.7601266301
2018-07-19T09:00:49Z,1531990849,1DA04,41.0499633,43.8564275,2376.3,7.4,-55.2,140.2,547518.56,-110588.77,134.6,Weapon+Missile,Red,Allies,R-27ER,,xu,,183.282850036564,164.482223510742,0.553425186989952,2376.29541015625,1052.13854980469,106.309271151732,-149.301513671875,0,NaN,0.0154089067675488,1.39293202402459,5000,0.183613151311874,0.183613151311874,0.183613151311874,1679.63015587628,2330.34973840088,4009.97989427716,,,68.7799999713898,1324.15686035156,26715.1373731916,27563.7931439845
2018-07-19T09:00:50Z,1531990850,1DA04,41.0507945,43.8557141,2222.76,7.3,-56.5,139.6,547593.12,-110661.47,133.9,Weapon+Missile,Red,Allies,R-27ER,,xu,,185.518208230231,167.726135253906,0.559154433778546,2222.7646484375,904.146118164062,104.140821924045,-153.53076171875,0.0272548835379772,NaN,0,1.30492279541316,5000,0.192661002278328,0.192661002278328,0.192661002278328,1720.85027924776,2179.78749395996,3900.63777320772,,,69.7799999713898,1318.61853027344,26818.8593610562,27749.0975000301
2018-07-19T09:00:51Z,1531990851,1DA04,41.051622,43.8550201,2064.86,7.3,-57.6,139,547667.19,-110732.06,133.3,Weapon+Missile,Red,Allies,R-27ER,,xu,,188.153877470159,171.404724121094,0.56603983951114,2064.8623046875,756.0869140625,102.316818975731,-157.90234375,0.015247242553825,NaN,0,1.22100100813315,5000,0.19711534678936,0.19711534678936,0.19711534678936,1770.09408035278,2024.93819202637,3795.03227237915,,,70.7799999713898,1308.775390625,26920.7423063703,27937.03436124
2018-07-19T09:00:52Z,1531990852,1DA04,41.0524469,43.8543444,1902.58,7.2,-58.7,138.3,547740.88,-110800.63,132.6,Weapon+Missile,Red,Allies,R-27ER,,xu,,190.964122521429,175.316513061523,0.573396242609125,1902.57995605469,606.852416992188,100.656521957584,-162.282348632812,0,NaN,0,1.17351006250382,5000,0.194000065326691,0.194000065326691,0.194000065326691,1823.36480451897,1865.79357260437,3689.15837712334,,,71.7799999713898,1295.7275390625,27020.9558624915,28127.7817477296
2018-07-19T09:00:53Z,1531990853,1DA04,41.0532675,43.853688,1736.41,7.2,-59.8,137.6,547814,-110867.09,131.9,Weapon+Missile,Red,Allies,R-27ER,,xu,,193.328132852031,178.880142211914,0.579362966195685,1736.40991210938,459.35986328125,98.8093287461544,-166.170043945312,0,NaN,0,1.08349766747486,5000,0.197144344449043,0.197144344449043,0.197144344449043,1868.78834760264,1702.83642645874,3571.62477406138,,,72.7799999713898,1277.05004882812,27119.3317273271,28320.9029963336
2018-07-19T09:00:54Z,1531990854,1DA04,41.054081,43.8530531,1567.17,7.1,-60.8,136.8,547886.31,-110931.23,131.2,Weapon+Missile,Red,Allies,R-27ER,,xu,,194.900622539105,181.754852294922,0.582920387553864,1567.17004394531,310.204467773438,96.664986887401,-169.239868164062,0.0160164522337517,NaN,0,1.03281915793725,5000,0.199496179819107,0.199496179819107,0.199496179819107,1899.31263330653,1536.86881114563,3436.18144445216,,,73.7799999713898,1256.96557617188,27215.5577515028,28515.5985979532
2018-07-19T09:00:55Z,1531990855,1DA04,41.0548848,43.8524409,1395.54,7.1,-61.7,136.2,547957.62,-110992.91,130.5,Weapon+Missile,Red,Allies,R-27ER,,xu,,195.822638051659,184.054931640625,0.584508167523269,1395.54064941406,153.57568359375,94.2860355850624,-171.62939453125,0.046242872378451,NaN,0,0.977773489477354,5000,0.196610033512115,0.196610033512115,0.196610033512115,1917.32527867556,1368.55787095764,3285.8831496332,,,74.7799999713898,1241.96496582031,27309.4174549941,28711.226780102
2018-07-19T09:00:56Z,1531990856,1DA04,41.0556765,43.8518528,1222.25,7,-62.6,135.4,548027.69,-111052.01,129.8,Weapon+Missile,Red,Allies,R-27ER,,xu,,196.036273496697,185.706573486328,0.583970490316919,1222.25073242188,-8.7886962890625,91.6560155980637,-173.289916992188,0.0385065595566583,NaN,0.199987938897973,0.932123173107633,5000,0.197204113006592,0.197204113006592,0.197204113006592,1921.51102632359,1198.6185145105,3120.12954083408,,,75.7799999713898,1231.03942871094,27400.6514989113,28907.0748404495
2018-07-19T09:00:57Z,1531990857,1DA04,41.0564566,43.851288,1047.36,7,-63.5,134.7,548096.56,-111108.61,129,Weapon+Missile,Red,Allies,R-27ER,,xu,,196.300187315661,187.427093505859,0.58357602288915,1047.36145019531,-189.31982421875,89.1487661296633,-174.889282226562,0.049966114995445,NaN,0,0.933224861276415,5000,0.197729617357254,0.197729617357254,0.197729617357254,1926.68817700818,1027.11071655579,2953.79889356397,,,76.7799999713898,1236.68127441406,27489.3919830977,29103.197090676
2018-07-19T09:00:58Z,1531990858,1DA04,41.0572247,43.850746,871.09,7,-64.2,134,548164.25,-111162.78,128.3,Weapon+Missile,Red,Allies,R-27ER,,xu,,196.439211567445,189.045455932617,0.58280571514107,871.088439941406,-376.302185058594,86.6959612511772,-176.273010253906,0.0307806509843814,NaN,0,0.866230737358934,5000,0.198334559798241,0.198334559798241,0.198334559798241,1929.41819206197,854.245944955139,2783.66413701711,,,77.7799999713898,1247.390625,27575.6673696123,29299.456754151
