ISOTime,UnixTime,Id,Longitude,Latitude,Altitude,Roll,Pitch,Yaw,U,V,Heading,Type,Color,Coalition,Name,Group,Country,Pilot,TAS,CAS,M,ASL,AGL,GS,VS,AOA,AOS,RRT,TRT,TRD,G,LatG,LonG,Ek,Ep,Em,FFW,FFV,RelativeTime,Elev,GroundDistance,AirDistance
2018-07-19T08:59:55Z,1531990795,1F506,40.9040282,44.098012,6087.04,66.1,0.2,138.6,533198.38,-84887.41,133,Weapon+Missile,Red,Allies,R-27ER,,xu,,158.830398360819,117.916389465332,0.502278124068945,6087.03564453125,5030.80981445312,NaN,NaN,NaN,NaN,NaN,NaN,NaN,NaN,NaN,NaN,NaN,5969.34281034424,NaN,,,0.139999866485596,1056.22583007812,NaN,NaN
2018-07-19T08:59:56Z,1531990796,1F506,40.9057274,44.0969711,6068.93,55.1,0.5,138.6,533345.56,-84989.91,133,Weapon+Missile,Red,Allies,R-27ER,,xu,,180.272425607009,134.565902709961,0.569950794274231,6068.93212890625,5007.30859375,179.361116623002,-18.103515625,8.0509115115519,NaN,10.5538443809636,6.17672567921346,1842.1299213032,1.31282842159271,1.31282842159271,1.31282842159271,1624.90737171173,5951.58932619385,7576.49669790558,,,1.1399998664856,1061.62353515625,178.551151814381,179.635855263003
2018-07-19T08:59:57Z,1531990797,1F506,40.9089941,44.0946474,6055.4,45.5,1.5,137.3,533632.06,-85222.8,131.7,Weapon+Missile,Red,Allies,R-27ER,,xu,,369.463541724171,290.235900878906,1.16789292620141,6055.40380859375,4995.80334472656,369.215781370313,-13.5283203125,1.6820831052554,NaN,8.58461888097891,1.35062305754118,5000,2.60395526885986,2.60395526885986,2.60395526885986,6825.16543316841,5938.32257595459,12763.488009123,,,2.1399998664856,1059.60046386719,546.136990101153,547.819691491026
2018-07-19T08:59:58Z,1531990798,1F506,40.9144286,44.090609,6064.33,39.3,-0.4,135,534110.62,-85629.38,129.4,Weapon+Missile,Red,Allies,R-27ER,,xu,,628.018688291336,479.964691162109,1.98542984677381,6064.32763671875,5041.49822998047,627.955283547137,8.923828125,0.312313274684309,NaN,5.43076537134718,2.25793930374845,5000,2.47888565063477,2.47888565063477,2.47888565063477,19720.3736421585,5947.07386186279,25667.4475040213,,,3.1399998664856,1022.82940673828,1171.3411818208,1173.68151276741
2018-07-19T08:59:59Z,1531990799,1F506,40.922074,44.0849294,6037.8,33.8,-2,137.5,534783.94,-86201.13,131.9,Weapon+Missile,Red,Allies,R-27ER,,xu,,883.719590797241,657.7880859375,2.79284137572251,6037.80224609375,5161.33673095703,883.321413083049,-26.525390625,0.156914950004671,NaN,6.58463020897245,1.84103138700004,5000,4.12439966201782,4.12439966201782,4.12439966201782,39048.0157579422,5921.06133966553,44969.0770976077,,,4.1399998664856,876.465515136719,2050.79099638897,2054.36522972283
2018-07-19T09:00:00Z,1531990800,1F506,40.9299657,44.0785363,6008.8,28,-1.5,139.3,535484.75,-86850.2,133.7,Weapon+Missile,Red,Allies,R-27ER,,xu,,955.64714146643,709.033142089844,3.01901486194714,6008.79931640625,5204.80181884766,955.206935204357,-29.0029296875,0.0161983320629007,NaN,5.67692538903444,2.28615204044542,5000,3.60500955581665,3.60500955581665,3.60500955581665,45663.0729496479,5892.61918162354,51555.6921312714,,,5.1399998664856,803.997497558594,3001.96989012292,3006.88403790531
2018-07-19T09:00:01Z,1531990801,1F506,40.937762,44.071805,5987.55,23.1,-1.1,141.3,536181.69,-87537.51,135.7,Weapon+Missile,Red,Allies,R-27ER,,xu,,979.06694362203,726.226623535156,3.09214531759877,5987.54541015625,5264.6953125,978.836223053939,-21.25390625,0.0713837010946346,NaN,4.61540470898774,2.00238628184854,5000,4.07350301742554,4.07350301742554,4.07350301742554,47928.6040046692,5871.77621965088,53800.3802243201,,,6.1399998664856,722.85009765625,3976.78080326859,3982.84314501731
2018-07-19T09:00:02Z,1531990802,1F506,40.9453906,44.0647106,5973.84,18.9,-0.6,143.3,536869.25,-88266.41,137.7,Weapon+Missile,Red,Allies,R-27ER,,xu,,1002.10919849433,742.936157226562,3.16435441932714,5973.84423828125,5251.90405273438,1002.01553061626,-13.701171875,0.0457566165553872,NaN,3.84616148390422,2.08329627586969,5000,3.80892467498779,3.80892467498779,3.80892467498779,50211.142285347,5858.33995993408,56069.4822452811,,,7.1399998664856,721.940185546875,4974.78079891692,4981.87290870934
2018-07-19T09:00:03Z,1531990803,1F506,40.9528042,44.0573248,5967.29,15.5,-0.1,144.8,537542.88,-89029.3,139.2,Weapon+Missile,Red,Allies,R-27ER,,xu,,1017.75614294702,754.205200195312,3.21348883518968,5967.29443359375,5204.60455322266,1017.73506698204,-6.5498046875,0.157844475169485,NaN,3.24614302569694,1.19581436540361,5000,2.28834128379822,2.28834128379822,2.28834128379822,51791.3783253193,5851.91679572022,57643.2951210395,,,8.1399998664856,762.689880371094,5988.52504557107,5996.58725974901
2018-07-19T09:00:04Z,1531990804,1F506,40.9603733,44.0497605,5973.29,12.6,0.4,143.1,538231,-89810.76,137.5,Weapon+Missile,Red,Allies,R-27ER,,xu,,1041.25932068162,770.548645019531,3.28795490806998,5973.2919921875,5117.19049072266,1041.24204784347,5.99755859375,0.108905689513209,NaN,2.35384711252647,1.26059550803001,5000,4.67674684524536,4.67674684524536,4.67674684524536,54211.0486453176,5857.79839151855,60068.8470368361,,,9.1399998664856,856.101501464844,7025.71508870861,7034.76549491867
2018-07-19T09:00:05Z,1531990805,1F506,40.9684583,44.042382,5968.97,11.3,-1,140.4,538958.69,-90567.5,134.8,Weapon+Missile,Red,Allies,R-27ER,,xu,,1049.8602373548,776.787048339844,3.31492735739601,5968.9697265625,5064.19354248047,1049.85133995177,-4.322265625,0.083994213972555,NaN,1.13845593085773,2.83104660318247,5000,5.13252019882202,5.13252019882202,5.13252019882202,55110.3258989334,5853.55969689941,60963.8855958328,,,10.1399998664856,904.776184082031,8071.25440743974,8081.29256002331
2018-07-19T09:00:06Z,1531990806,1F506,40.9770282,44.0351758,5927.58,11.1,-3.9,138.7,539723.44,-91301.25,133.1,Weapon+Missile,Red,Allies,R-27ER,,xu,,1060.63392545488,786.038940429688,3.34714356761356,5927.5849609375,4903.86578369141,1059.82622396316,-41.384765625,0.0670234282085062,NaN,0.138461594854498,3.33673609352705,5000,6.11448431015015,6.11448431015015,6.11448431015015,56247.2161912918,5812.97510571777,62060.1912970096,,,11.1399998664856,1023.71917724609,9126.63161395853,9138.46436440074
2018-07-19T09:00:07Z,1531990807,1F506,40.9852791,44.0284442,5822.28,11.7,-8.3,138.6,540457.69,-91984.68,133,Weapon+Missile,Red,Allies,R-27ER,,xu,,1008.60745453014,753.207397460938,3.1786115090302,5822.27685546875,4664.04833984375,1003.09481119999,-105.30810546875,0.119678793044884,NaN,0.692307974272492,4.12767754894323,5000,6.45354700088501,6.45354700088501,6.45354700088501,50864.4498666883,5709.70313246826,56574.1529991565,,,12.1399998664856,1158.228515625,10125.438092281,10143.7219626408
2018-07-19T09:00:08Z,1531990808,1F506,40.9928519,44.0222061,5654.64,12,-12.3,139,541132.38,-92618.54,133.4,Weapon+Missile,Red,Allies,R-27ER,,xu,,940.78893379415,710.929443359375,2.95846167163947,5654.6376953125,4504.67041015625,925.73264495298,-167.63916015625,0.0879054725843482,NaN,0.199999891729021,4.06870185366793,5000,5.24831056594849,5.24831056594849,5.24831056594849,44254.1908974767,5545.30527547363,49799.4961729503,,,13.1399998664856,1149.96728515625,11047.1904998461,11081.4105617132
2018-07-19T09:00:09Z,1531990809,1F506,40.9998345,44.0163575,5439.02,11.8,-15.7,139.6,541755.62,-93213.66,134,Weapon+Missile,Red,Allies,R-27ER,,xu,,888.31552276293,680.508422851562,2.78571050570704,5439.02197265625,4203.88537597656,861.750734333891,-215.61572265625,0.105310591749451,NaN,0.369212705774209,3.3743608309003,5000,3.66318392753601,3.66318392753601,3.66318392753601,39455.2233990789,5333.85848281494,44789.0818818938,,,14.1399998664856,1235.13659667969,11905.2798693643,11966.8984264359
2018-07-19T09:00:10Z,1531990810,1F506,41.0062353,44.0108651,5194.75,11.2,-18.1,140.3,542328.44,-93773.75,134.7,Weapon+Missile,Red,Allies,R-27ER,,xu,,837.543559563847,651.388610839844,2.61829753653214,5194.75,4069.63940429688,801.130711895071,-244.27197265625,0.0411547839039125,NaN,0.769243225083516,2.58061024674454,5000,2.44574785232544,2.44574785232544,2.44574785232544,35073.960708344,5094.30950875,40168.270217094,,,15.1399998664856,1125.11059570312,12703.0378246688,12801.8523435721
2018-07-19T09:00:11Z,1531990811,1F506,41.012202,44.0056282,4931.58,10.4,-20.2,141,542863.81,-94308.81,135.3,Weapon+Missile,Red,Allies,R-27ER,,xu,,801.357665038538,632.703247070312,2.49680896124653,4931.5849609375,3933.82073974609,756.913647341128,-263.1650390625,0.101250843907805,NaN,0.800006397105253,2.10638807823644,5000,2.09093809127808,2.09093809127808,2.09093809127808,32108.7053658009,4836.23276571777,36944.9381315186,,,16.1399998664856,997.764221191406,13456.7462319412,13600.7481270104
2018-07-19T09:00:12Z,1531990812,1F506,41.0176701,44.0006449,4659.44,9.2,-21.9,142.8,543356.44,-94819.57,137.2,Weapon+Missile,Red,Allies,R-27ER,,xu,,760.009899943898,609.6611328125,2.35985915785409,4659.44140625,3698.87329101562,709.614637429912,-272.1435546875,0.0636123203378889,NaN,1.3384438697557,2.77375326887711,5000,4.26006937026978,4.26006937026978,4.26006937026978,28880.7524006367,4569.35110666016,33450.1035072968,,,17.1399998664856,960.568115234375,14163.4562031148,14358.5425606042
2018-07-19T09:00:13Z,1531990813,1F506,41.0224188,43.9957667,4379.04,8.1,-23.9,147.3,543790.38,-95324.27,141.7,Weapon+Missile,Red,Allies,R-27ER,,xu,,722.249291509754,588.699279785156,2.23474126607662,4379.0400390625,3373.95788574219,665.596809161314,-280.4013671875,0.114701513334809,NaN,1.27691752571222,4.16416911524449,5000,5.50415325164795,5.50415325164795,5.50415325164795,26082.2019543171,4294.37129990723,30376.5732542243,,,18.1399998664856,1005.08215332031,14826.3991618863,15078.7795503568
2018-07-19T09:00:14Z,1531990814,1F506,41.0262956,43.9909977,4096.57,6.6,-25.2,152.3,544153.19,-95823.67,146.7,Weapon+Missile,Red,Allies,R-27ER,,xu,,678.844634929288,562.571838378906,2.09306784491539,4096.56787109375,3077.84326171875,617.283980591844,-282.47216796875,0.111721152731012,NaN,1.6153670594647,4.74290342333754,5000,5.58925485610962,5.58925485610962,5.58925485610962,23041.5019186139,4017.36073130615,27058.8626499201,,,19.1399998664856,1018.724609375,15441.4051351367,15755.9247747178
2018-07-19T09:00:15Z,1531990815,1F506,41.0293527,43.9862981,3820.54,4.8,-25.6,157.7,544449.56,-96321.79,152.1,Weapon+Missile,Red,Allies,R-27ER,,xu,,641.990015982497,540.444458007812,1.97269125401345,3820.53833007812,2856.75433349609,579.619593447211,-276.029541015625,0.178647554105153,NaN,1.73841974755165,4.75282939574886,5000,5.18458795547485,5.18458795547485,5.18458795547485,20607.5590310603,3746.66822146606,24354.2272525264,,,20.1399998664856,963.783996582031,16019.0331990136,16396.4407987602
2018-07-19T09:00:16Z,1531990816,1F506,41.0316956,43.9816735,3558.39,3.4,-25.4,161.9,544687.81,-96817.18,156.2,Weapon+Missile,Red,Allies,R-27ER,,xu,,609.010923631039,520.251403808594,1.86533876736087,3558.39453125,2624.13677978516,549.704405874549,-262.143798828125,0.116909123612442,NaN,1.3384438697557,3.66943844997978,5000,3.16729998588562,3.16729998588562,3.16729998588562,18544.7152550966,3489.59297298828,22034.3082280848,,,21.1399998664856,934.257751464844,16566.9701057053,17004.1427570678
2018-07-19T09:00:17Z,1531990817,1F506,41.0336304,43.9771708,3314.62,2.2,-23.8,162.9,544892.12,-97302.23,157.3,Weapon+Missile,Red,Allies,R-27ER,,xu,,580.041146388791,502.176330566406,1.77132899174083,3314.61987304688,2368.95330810547,526.328459730207,-243.774658203125,0.0890164394877511,NaN,1.27691752571222,1.72578122954448,5000,3.23014998435974,3.23014998435974,3.23014998435974,16822.3865752012,3250.53169780151,20072.9182730027,,,22.1399998664856,945.666564941406,17091.624759732,17582.9218943984
2018-07-19T09:00:18Z,1531990818,1F506,41.0355787,43.972844,3103.03,1.3,-21.3,160.7,545095.5,-97767.63,155.1,Weapon+Missile,Red,Allies,R-27ER,,xu,,550.206650478337,482.120330810547,1.67591066668389,3103.03002929688,2155.84381103516,507.894768876823,-211.58984375,0.0972521035397438,NaN,0.769243225083516,3.24658378634182,5000,4.49293184280396,4.49293184280396,4.49293184280396,15136.3679115295,3043.03294368042,18179.40085521,,,23.1399998664856,947.186218261719,17597.94031524,18131.9061492905
2018-07-19T09:00:19Z,1531990819,1F506,41.0377624,43.9687565,2926.46,0.4,-18.5,157.1,545315.31,-98204.58,151.4,Weapon+Missile,Red,Allies,R-27ER,,xu,,520.014876388534,460.510955810547,1.58057233131973,2926.46069335938,1963.65496826172,489.12037503254,-176.5693359375,0.0739276104333676,NaN,0.769243225083516,4.49406511772199,5000,5.20131397247314,5.20131397247314,5.20131397247314,13520.7735832691,2869.87757585327,16390.6511591224,,,24.1399998664856,962.805725097656,18085.4282796866,18650.6025471413
2018-07-19T09:00:20Z,1531990820,1F506,41.040215,43.9649304,2788.73,-1.4,-13.1,153.5,545553.75,-98610.38,147.8,Weapon+Missile,Red,Allies,R-27ER,,xu,,490.408307021598,438.151733398438,1.48811502713925,2788.7275390625,1812.61340332031,470.669614276535,-137.733154296875,0.188200765785529,NaN,2.50771761414852,6.00863864871798,3977.38336944966,6.83184289932251,6.83184289932251,6.83184289932251,12025.0153797895,2734.80749209473,14759.8228718842,,,25.1399998664856,976.114135742188,18554.4982948403,19139.6774922938
2018-07-19T09:00:21Z,1531990821,1F506,41.0428087,43.9613953,2710.66,-3.7,-6.6,150.7,545800.38,-98982.73,145.1,Weapon+Missile,Red,Allies,R-27ER,,xu,,453.385391435537,407.95068359375,1.37448248257328,2710.65991210938,1714.11291503906,446.613657190488,-78.067626953125,0.206013461067208,NaN,2.13845026686095,6.76887626938084,4426.04194245987,5.52465724945068,5.52465724945068,5.52465724945068,10277.9156583577,2658.24930270874,12936.1649610665,,,26.1399998664856,996.546997070312,18999.5247534588,19591.6884461501
2018-07-19T09:00:22Z,1531990822,1F506,41.0454245,43.958153,2677.57,-4.3,-3.4,149.4,546045.69,-99322.36,143.7,Weapon+Missile,Red,Allies,R-27ER,,xu,,420.266307619077,379.760711669922,1.27357336489113,2677.56762695312,1650.755859375,418.961418251025,-33.09228515625,0.128359958421003,NaN,0.338483684698322,3.4319354836221,5000,1.88337934017181,1.88337934017181,1.88337934017181,8831.18846598864,2625.79685688599,11456.9853228746,,,27.1399998664856,1026.81176757812,19416.9120503548,20010.5612906276
2018-07-19T09:00:23Z,1531990823,1F506,41.0479517,43.9550785,2654.04,-3.7,-3.3,149.3,546282,-99644.05,143.7,Weapon+Missile,Red,Allies,R-27ER,,xu,,399.849704186864,362.06005859375,1.21136154637381,2654.04443359375,1605.673828125,399.157168684843,-23.523193359375,0.0554011941444688,NaN,0.769238956215285,0.405300036934398,5000,1.02164912223816,1.02164912223816,1.02164912223816,7993.98929691613,2602.72848447021,10596.7177813863,,,28.1399998664856,1048.37060546875,19814.5853335242,20409.0956105542
2018-07-19T09:00:24Z,1531990824,1F506,41.0503555,43.9521548,2631.87,-3,-3.3,149.3,546506.88,-99949.94,143.7,Weapon+Missile,Red,Allies,R-27ER,,xu,,380.30169339597,344.754241943359,1.15183421353321,2631.87377929688,1585.16711425781,379.654896040984,-22.170654296875,0.047484512780278,NaN,0.630739368433528,0.0532655904281015,5000,1.00509810447693,1.00509810447693,1.00509810447693,7231.46889999211,2580.98649977417,9812.45539976628,,,29.1399998664856,1046.70666503906,20192.7896005655,20788.1056025658
2018-07-19T09:00:25Z,1531990825,1F506,41.0526283,43.9493901,2610.96,-2.5,-3.3,149.3,546719.44,-100239.2,143.7,Weapon+Missile,Red,Allies,R-27ER,,xu,,359.569442784855,325.914733886719,1.08876915250948,2610.96240234375,1562.57885742188,358.960859284874,-20.911376953125,0.0402318010453894,NaN,0.399975877795947,0.0139882274201861,5000,1.00244915485382,1.00244915485382,1.00244915485382,6464.50920923054,2560.47944429443,9024.98865352498,,,30.1399998664856,1048.38354492188,20550.416072982,21146.4896595446
2018-07-19T09:00:26Z,1531990826,1F506,41.0547845,43.9467672,2591.15,-2,-3.3,149.3,546921.12,-100513.61,143.7,Weapon+Missile,Red,Allies,R-27ER,,xu,,341.135403872849,308.855773925781,1.03270650857285,2591.15234375,1525.04919433594,340.55972362275,-19.81005859375,0.040294916819388,NaN,0.50769094921481,0.0139882274201861,5000,1.00266253948212,1.00266253948212,1.00266253948212,5818.66818877459,2541.05241318359,8359.72060195818,,,31.1399998664856,1066.10314941406,20889.7004872521,21486.4900421287
2018-07-19T09:00:27Z,1531990827,1F506,41.0568395,43.9442672,2572.3,-1.7,-3.3,149.3,547113.38,-100775.16,143.7,Weapon+Missile,Red,Allies,R-27ER,,xu,,325.1555941428,294.032165527344,0.984109634459729,2572.30444335938,1504.91455078125,324.60886779819,-18.847900390625,0.0394726181344598,NaN,0.399975877795947,0.0139882274201861,5000,1.00075149536133,1.00075149536133,1.00075149536133,5286.30802011788,2522.56893694702,7808.8769570649,,,32.1399998664856,1067.38989257812,21213.0885130357,21810.5575333766
2018-07-19T09:00:28Z,1531990828,1F506,41.0587839,43.9419015,2554.48,-1.4,-3.3,149.3,547295.31,-101022.68,143.7,Weapon+Missile,Red,Allies,R-27ER,,xu,,307.705678629072,277.824462890625,0.931097748239988,2554.48461914062,1480.34838867188,307.189255224512,-17.81982421875,0.0333210779307729,NaN,0.384642743439503,0.0139882274201861,5000,1.00152492523193,1.00152492523193,1.00152492523193,4734.13923302889,2505.09365902954,7239.23289205843,,,33.1399998664856,1074.13623046875,21519.1069864726,22117.2171845781
2018-07-19T09:00:29Z,1531990829,1F506,41.0606397,43.9396435,2537.5,-1.2,-3.3,149.3,547468.94,-101258.91,143.7,Weapon+Missile,Red,Allies,R-27ER,,xu,,293.661297217307,264.857574462891,0.888420117791838,2537.50439453125,1444.63720703125,293.169966837612,-16.980224609375,0.0296846784186157,NaN,0.199987938897973,0.0139882274201861,5000,0.999439120292664,0.999439120292664,0.999439120292664,4311.84787416756,2488.44174706299,6800.28962123055,,,34.1399998664856,1092.8671875,21811.1761953702,22409.8959628258
2018-07-19T09:00:30Z,1531990830,1F506,41.0624195,43.9374778,2521.22,-1,-3.3,149.3,547635.5,-101485.48,143.7,Weapon+Missile,Red,Allies,R-27ER,,xu,,281.683781018135,253.850814819336,0.852018618988554,2521.22436523438,1418.49731445312,281.212932019076,-16.280029296875,0.0316424756458733,NaN,0.169220498008005,0.0139882274201861,5000,1.00003004074097,1.00003004074097,1.00003004074097,3967.28762443364,2472.47649213257,6439.7641165662,,,35.1399998664856,1102.72705078125,22091.3207023105,22690.6240207612
2018-07-19T09:00:31Z,1531990831,1F506,41.0641183,43.9354105,2505.7,-0.8,-3.3,149.3,547794.44,-101701.76,143.7,Weapon+Missile,Red,Allies,R-27ER,,xu,,268.842586109977,242.060806274414,0.813026740425637,2505.69995117188,1376.4697265625,268.393980324292,-15.5244140625,0.0282763264602293,NaN,0.199987938897973,0.0139882274201861,5000,0.999586641788483,0.999586641788483,0.999586641788483,3613.81680531502,2457.25224261597,6071.06904793099,,,36.1399998664856,1129.23022460938,22358.7204095654,22958.5791974295
2018-07-19T09:00:32Z,1531990832,1F506,41.0657545,43.9334191,2490.76,-0.7,-3.3,149.3,547947.56,-101910.09,143.7,Weapon+Missile,Red,Allies,R-27ER,,xu,,258.981106964827,233.059875488281,0.783064261906047,2490.75537109375,1348.73840332031,258.549556741093,-14.944580078125,0.027588036806722,NaN,0,0.0139882274201861,5000,0.998760581016541,0.998760581016541,0.998760581016541,3353.56068823636,2442.59661599365,5796.15730423001,,,37.1399998664856,1142.01696777344,22616.2959230149,23216.688609742
2018-07-19T09:00:33Z,1531990833,1F506,41.0673363,43.9314941,2476.31,-0.6,-3.3,149.3,548095.62,-102111.48,143.7,Weapon+Missile,Red,Allies,R-27ER,,xu,,250.37842318651,225.235626220703,0.756922456243398,2476.31005859375,1340.91479492188,249.961372504114,-14.4453125,0.0323953750083036,NaN,0.0769183887815102,0.0139882274201861,5000,0.999360680580139,0.999360680580139,0.999360680580139,3134.46773986816,2428.43060361084,5562.898343479,,,38.1399998664856,1135.39526367188,22865.2947579911,23466.2028978836
2018-07-19T09:00:34Z,1531990834,1F506,41.0688487,43.9296532,2462.51,-0.5,-3.3,149.4,548237.19,-102304.07,143.7,Weapon+Missile,Red,Allies,R-27ER,,xu,,239.421935800137,215.243515014648,0.723680615239477,2462.50537109375,1314.58508300781,239.023626332864,-13.8046875,0.0286348841697931,NaN,0.0153836137232786,0.0139882274201861,5000,0.999027371406555,0.999027371406555,0.999027371406555,2866.14316711426,2414.89282974365,5281.03599685791,,,39.1399998664856,1147.92028808594,23103.4065302178,23704.8065370306
2018-07-19T09:00:35Z,1531990835,1F506,41.0703138,43.9278699,2449.14,-0.4,-3.3,149.4,548374.31,-102490.63,143.7,Weapon+Missile,Red,Allies,R-27ER,,xu,,231.921296189194,208.452560424805,0.700897379384485,2449.13916015625,1282.25817871094,231.535811552446,-13.3662109375,0.0285711836002115,NaN,0,0.0139882274201861,5000,0.99810129404068,0.99810129404068,0.99810129404068,2689.37438130379,2401.78505449463,5091.15943579842,,,40.1399998664856,1166.88098144531,23334.0755751665,23935.9511802683
2018-07-19T09:00:36Z,1531990836,1F506,41.0717291,43.926147,2436.22,-0.3,-3.3,149.4,548506.75,-102670.87,143.7,Weapon+Missile,Red,Allies,R-27ER,,xu,,224.033271992738,201.308563232422,0.676954519993368,2436.224609375,1257.50756835938,223.660728197622,-12.91455078125,0.0268329932745029,NaN,0,0.0139882274201861,5000,0.999043941497803,0.999043941497803,0.999043941497803,2509.54534798861,2389.12020655273,4898.66555454134,,,41.1399998664856,1178.71704101562,23556.9213079316,24159.2560189857
2018-07-19T09:00:37Z,1531990837,1F506,41.0730946,43.9244848,2423.77,-0.3,-3.3,149.4,548634.62,-102844.77,143.7,Weapon+Missile,Red,Allies,R-27ER,,xu,,216.212576104272,194.231399536133,0.653226010426227,2423.76684570312,1227.88195800781,215.853381233516,-12.457763671875,0.030342261992717,NaN,0.0307757118221668,0.0139882274201861,5000,0.998459935188293,0.998459935188293,0.998459935188293,2337.39390328229,2376.90331374145,4714.29721702374,,,42.1399998664856,1195.88488769531,23771.9213050291,24374.6984096767
2018-07-19T09:00:38Z,1531990838,1F506,41.0744167,43.922875,2411.71,-0.2,-3.3,149.4,548758.38,-103013.16,143.7,Weapon+Missile,Red,Allies,R-27ER,,xu,,209.320113943155,188.010818481445,0.632311533906651,2411.70678710938,1173.43505859375,208.972402694448,-12.06005859375,0.0319598088638337,NaN,0,0.0139882274201861,5000,0.999399363994598,0.999399363994598,0.999399363994598,2190.74550505877,2365.07643638062,4555.82194143938,,,43.1399998664856,1238.27172851562,23980.1224440377,24583.3273358645
2018-07-19T09:00:39Z,1531990839,1F506,41.0756917,43.9213229,2400.09,-0.2,-3.3,149.4,548877.75,-103175.53,143.7,Weapon+Missile,Red,Allies,R-27ER,,xu,,201.868955997805,181.280303955078,0.609718805594608,2400.0859375,1116.22351074219,201.534193748852,-11.620849609375,0.0341317783248231,NaN,0,0.0139882274201861,5000,0.998212337493896,0.998212337493896,0.998212337493896,2037.55376978219,2353.68027589844,4391.23404568062,,,44.1399998664856,1283.86242675781,24180.8809971556,24784.4975440538
2018-07-19T09:00:40Z,1531990840,1F506,41.0769236,43.9198229,2388.85,-0.1,-3.3,149.4,548993.12,-103332.45,143.7,Weapon+Missile,Red,Allies,R-27ER,,xu,,195.094918681067,175.173141479492,0.589179935834471,2388.85375976562,1089.5302734375,194.771315851477,-11.232177734375,0.0238529925484877,NaN,0.199987938897973,0.0139882274201861,5000,0.997484862804413,0.997484862804413,0.997484862804413,1903.10136475861,2342.66527232056,4245.76663707917,,,45.1399998664856,1299.32348632812,24374.8941967392,24978.9083232605
2018-07-19T09:00:41Z,1531990841,1F506,41.0781183,43.9183682,2377.96,-0.1,-3.3,149.4,549104.94,-103484.62,143.7,Weapon+Missile,Red,Allies,R-27ER,,xu,,189.148329723545,169.824722290039,0.571147366501844,2377.95532226562,1090.55810546875,188.834093048013,-10.8984375,0.0283209672308415,NaN,0,0.0139882274201861,5000,0.998729288578033,0.998729288578033,0.998729288578033,1788.85453186035,2331.97755610962,4120.83208796997,,,46.1399998664856,1287.39721679688,24563.0425653389,25167.4422622168
2018-07-19T09:00:42Z,1531990842,1F506,41.0792745,43.9169603,2367.41,-0,-3.4,149.4,549213.19,-103631.91,143.7,Weapon+Missile,Red,Allies,R-27ER,,xu,,183.093832652569,164.378540039062,0.552796004997482,2367.4091796875,1075.14807128906,182.789853197952,-10.546142578125,0.251781752689977,NaN,0.123069510095824,0.76567861338871,5000,0.523669898509979,0.523669898509979,0.523669898509979,1676.16757777035,2321.63532319824,3997.80290096859,,,47.1399998664856,1292.26110839844,24745.1353770658,25349.907840754
2018-07-19T09:00:43Z,1531990843,1F506,41.0803939,43.9155974,2352.55,1.3,-6.4,149.3,549318,-103774.49,143.7,Weapon+Missile,Red,Allies,R-27ER,,xu,,177.580919330192,159.462051391602,0.536056702276001,2352.5498046875,1043.23693847656,176.958135966577,-14.859375,0.0470579558659993,NaN,1.33846169228056,2.28852830594635,3328.34172729518,0.042552225291729,0.042552225291729,0.042552225291729,1576.74914550781,2307.06325421387,3883.81239972168,,,48.1399998664856,1309.31286621094,24921.4211160513,25526.8837273877
2018-07-19T09:00:44Z,1531990844,1F506,41.0814746,43.9142827,2328.99,2.4,-9.4,149.3,549419.19,-103912.01,143.6,Weapon+Missile,Red,Allies,R-27ER,,xu,,172.349998933729,154.867172241211,0.520120633600485,2328.98999023438,993.7880859375,170.732121393107,-23.559814453125,0.044625462502933,NaN,0.969231163981489,3.0543109729982,3207.47516817252,0.0554888546466827,0.0554888546466827,0.0554888546466827,1485.22610662282,2283.95896877319,3769.18507539601,,,49.1399998664856,1335.20190429688,25091.5083956784,25698.6567921372
2018-07-19T09:00:45Z,1531990845,1F506,41.0825195,43.9130134,2297.13,3.4,-12.5,149.3,549517,-104044.77,143.6,Weapon+Missile,Red,Allies,R-27ER,,xu,,167.949362550051,151.085205078125,0.506648523674398,2297.1298828125,939.1240234375,164.899732977453,-31.860107421875,0.0224472959868921,NaN,0.969230737094666,3.07017173946802,3143.72351905234,0.0732220485806465,0.0732220485806465,0.0732220485806465,1410.34941904843,2252.71487652832,3663.06429557675,,,50.1399998664856,1358.005859375,25255.7851972152,25866.0530625073
2018-07-19T09:00:46Z,1531990846,1F506,41.0835359,43.9117821,2257.23,4.1,-15.6,149.2,549612.12,-104173.52,143.5,Weapon+Missile,Red,Allies,R-27ER,,xu,,164.976402676084,148.656723022461,0.49744443661746,2257.2314453125,882.46533203125,160.079130822853,-39.8984375,0.0344846332553705,NaN,0.769231272252469,3.07753831193129,3104.25791998601,0.0829737782478333,0.0829737782478333,0.0829737782478333,1360.86067199707,2213.58787531738,3574.44854731445,,,51.1399998664856,1374.76611328125,25415.2559074019,26030.4944049768
2018-07-19T09:00:47Z,1531990847,1F506,41.0845218,43.9105924,2209.77,4.8,-18.6,149.1,549704.38,-104297.91,143.4,Weapon+Missile,Red,Allies,R-27ER,,xu,,161.974309768802,146.247146606445,0.488117614610649,2209.77001953125,828.0283203125,154.86474772488,-47.46142578125,0.0818203825588733,NaN,0.569231380523448,3.02922411506356,3062.39583891536,0.0843947678804398,0.0843947678804398,0.0843947678804398,1311.78385125399,2167.04411620361,3478.8279674576,,,52.1399998664856,1381.74169921875,25569.4973043446,26191.9244525844
2018-07-19T09:00:48Z,1531990848,1F506,41.085484,43.9094374,2154.79,5.4,-21.6,148.9,549794.25,-104418.62,143.2,Weapon+Missile,Red,Allies,R-27ER,,xu,,160.221851310863,145.024856567383,0.482522230299779,2154.79370117188,783.199462890625,150.494671191803,-54.976318359375,0.0504045951791325,NaN,0.553846379417994,2.98116562340288,3102.56523258228,0.106312908232212,0.106312908232212,0.106312908232212,1283.55208187401,2113.13076495972,3396.68284683373,,,53.1399998664856,1371.59423828125,25719.4559798438,26351.691128877
2018-07-19T09:00:49Z,1531990849,1F506,41.0864187,43.9083228,2092.95,5.8,-24.5,148.7,549881.56,-104535.05,143.1,Weapon+Missile,Red,Allies,R-27ER,,xu,,158.130451692115,143.531768798828,0.475875638919417,2092.95458984375,746.4736328125,145.537500536803,-61.839111328125,0,NaN,0.369230635020781,2.93090183441394,3122.34761852664,0.107548132538795,0.107548132538795,0.107548132538795,1250.26198761761,2052.48731284912,3302.74930046673,,,54.1399998664856,1346.48095703125,25864.419801145,26509.3381487335
2018-07-19T09:00:50Z,1531990850,1F506,41.0873355,43.9072383,2024,6.2,-27.4,148.5,549967.06,-104648.29,142.8,Weapon+Missile,Red,Allies,R-27ER,,xu,,157.754195765893,143.656753540039,0.474356967771556,2024.00451660156,704.17724609375,141.88824363435,-68.9500732421875,0.0390980994445815,NaN,0.369231488794427,2.88369178031422,3202.32345959808,0.120648942887783,0.120648942887783,0.120648942887783,1244.31931408718,1984.87038927307,3229.18970336025,,,55.1399998664856,1319.82727050781,26005.7672445103,26666.6471139362
2018-07-19T09:00:51Z,1531990851,1F506,41.0882273,43.9061933,1948.84,6.5,-30.2,148.2,550050.19,-104757.34,142.6,Weapon+Missile,Red,Allies,R-27ER,,xu,,156.373747329713,142.89582824707,0.469789586909076,1948.83764648438,651.001831054688,137.122902867182,-75.1668701171875,0.031571971191932,NaN,0.199999891729021,2.80344602218986,3258.16552203069,0.11750440299511,0.11750440299511,0.11750440299511,1222.63744269684,1911.1568705896,3133.79431328644,,,56.1399998664856,1297.83581542969,26142.3297771991,26822.5669711714
2018-07-19T09:00:52Z,1531990852,1F506,41.0891054,43.9051756,1866.89,6.8,-32.9,147.9,550131.81,-104863.45,142.2,Weapon+Missile,Red,Allies,R-27ER,,xu,,156.961378461752,143.996994018555,0.471100534084945,1866.89233398438,589.0029296875,133.872476961811,-81.9453125,0.0703828054414319,NaN,0.26153904237719,2.66996982509923,3419.59259361029,0.135843858122826,0.135843858122826,0.135843858122826,1231.84371643066,1830.79597070679,3062.63968713745,,,57.1399998664856,1277.88940429688,26275.7230302742,26979.153819092
2018-07-19T09:00:53Z,1531990853,1F506,41.0899665,43.9041898,1778.79,7,-35.4,147.6,550211.81,-104966.17,141.9,Weapon+Missile,Red,Allies,R-27ER,,xu,,157.20377513439,144.823638916016,0.471340169210929,1778.79077148438,517.153442382812,130.196549883484,-88.1015625,0.115508129656295,NaN,0.199999891729021,2.15305812050491,5000,0.387690812349319,0.387690812349319,0.387690812349319,1235.6513458252,1744.39785191772,2980.04919774292,,,58.1399998664856,1261.63732910156,26405.3923457003,27135.9518702585
2018-07-19T09:00:54Z,1531990854,1F506,41.0908196,43.9032239,1687.11,5.7,-35.2,147.4,550290.88,-105066.72,141.7,Weapon+Missile,Red,Allies,R-27ER,,xu,,157.371914662198,145.608383178711,0.471337649891288,1687.10998535156,438.70654296875,127.908377280441,-91.6807861328125,0.0543578975472992,NaN,1.72312012381082,0.271242793516647,5000,1.09688425064087,1.09688425064087,1.09688425064087,1238.29597622231,1654.48971378479,2892.7856900071,,,59.1399998664856,1248.40344238281,26532.8353321105,27292.9738697703
2018-07-19T09:00:55Z,1531990855,1F506,41.0916871,43.902245,1597.44,4.6,-34.5,147.4,550371.31,-105168.62,141.7,Weapon+Missile,Red,Allies,R-27ER,,xu,,157.781525472618,146.60823059082,0.472069185835356,1597.43542480469,368.541015625,129.820965068017,-89.674560546875,0.28232168751369,NaN,0.769243225083516,0.101354391053222,5000,0.510153114795685,0.510153114795685,0.510153114795685,1244.75048902333,1566.54901086609,2811.29949988942,,,60.1399998664856,1228.89440917969,26662.1249380764,27450.3458439416
2018-07-19T09:00:56Z,1531990856,1F506,41.0925469,43.9012808,1505.21,5.1,-37.1,147.1,550450.94,-105268.93,141.4,Weapon+Missile,Red,Allies,R-27ER,,xu,,157.823554854045,147.28369140625,0.471687059950814,1505.2099609375,293.670166015625,128.07317549452,-92.2254638671875,0.0656649564522221,NaN,0.569230526749801,1.90732264176324,3575.63884749947,0.112366534769535,0.112366534769535,0.112366534769535,1245.4137233384,1476.10672634277,2721.52044968117,,,61.1399998664856,1211.53979492188,26789.7027442299,27607.792823205
2018-07-19T09:00:57Z,1531990857,1F506,41.0933888,43.9003473,1407.03,5.6,-39.5,146.8,550528.81,-105365.98,141.1,Weapon+Missile,Red,Allies,R-27ER,,xu,,158.498929173744,148.600067138672,0.473164376335513,1407.03002929688,204.913818359375,124.429142777187,-98.179931640625,0,NaN,0.569231380523448,2.45515717405116,3751.00736803419,0.114953316748142,0.114953316748142,0.114953316748142,1256.09552746117,1379.82510368042,2635.92063114159,,,62.1399998664856,1202.1162109375,26913.6375882103,27765.926180194
2018-07-19T09:00:58Z,1531990858,1F506,41.0942129,43.8994451,1303.28,5.9,-41.8,146.4,550604.88,-105459.68,140.7,Weapon+Missile,Red,Allies,R-27ER,,xu,,159.15160740452,149.940582275391,0.474540610157025,1303.28295898438,108.3359375,120.68877139575,-103.7470703125,0,NaN,0.230769040166282,2.32466299486348,3987.24964979703,0.128313004970551,0.128313004970551,0.128313004970551,1266.46170697212,1278.08398297241,2544.54568994453,,,63.1399998664856,1194.94702148438,27033.8689720607,27924.7505600628
2018-07-19T09:00:59Z,1531990859,1F506,41.0950235,43.8985705,1193.85,6.2,-44.1,146,550679.56,-105550.45,140.3,Weapon+Missile,Red,Allies,R-27ER,,xu,,160.596837650837,152.083084106445,0.478243077482258,1193.85388183594,8.956787109375,117.544125067528,-109.429077148438,0.0447601099145611,NaN,0.276923189708997,2.25828636273565,4251.28382819255,0.141583204269409,0.141583204269409,0.141583204269409,1289.56721317247,1170.77071703064,2460.33793020311,,,64.1399998664856,1184.89709472656,27150.9517316672,28085.0267687832
2018-07-19T09:01:00Z,1531990860,1F506,41.0958161,43.8977289,1079.79,6.5,-46.1,145.6,550752.5,-105637.66,139.9,Weapon+Missile,Red,Allies,R-27ER,,xu,,161.050350253538,153.322952270508,0.478961816641999,1079.79150390625,-91.064697265625,113.696918418278,-114.062377929688,0.0164715043712629,NaN,0.353845633915327,2.13354875235782,4477.61671324265,0.138738632202148,0.138738632202148,0.138738632202148,1296.86076583937,1058.91373517822,2355.77450101759,,,65.1399998664856,1170.85620117188,27264.1724900059,28245.7555347641
2018-07-19T09:01:01Z,1531990861,1F506,41.0965978,43.8969131,960.42,6.7,-48.1,145.1,550824.25,-105722.11,139.4,Weapon+Missile,Red,Allies,R-27ER,,xu,,162.873847440805,155.925201416016,0.48371891537178,960.423095703125,-197.566528320312,110.810980066159,-119.368408203125,0.0262563076124822,NaN,0.16923074329176,1.99619108682793,4793.64523015402,0.145848378539085,0.145848378539085,0.145848378539085,1326.39450900853,941.853315147705,2268.24782415623,,,66.1399998664856,1157.98962402344,27374.5281054763,28408.3319002727
2018-07-19T09:01:02Z,1531990862,1F506,41.0973613,43.8961312,837.3,6.8,-50,144.6,550894.12,-105802.94,138.9,Weapon+Missile,Red,Allies,R-27ER,,xu,,163.015503135907,156.946395874023,0.483455006888288,837.303833007812,-310.0185546875,106.844285836986,-123.119262695312,0.0356237120306074,NaN,0.200000745502667,1.87347713343513,5000,0.160442590713501,0.160442590713501,0.160442590713501,1328.70271313265,821.114563396606,2149.81727652926,,,67.1399998664856,1147.32238769531,27480.9562475462,28571.0847653255
2018-07-19T09:01:03Z,1531990863,1F506,41.0981163,43.895373,709.22,6.9,-51.7,144,550963.12,-105881.19,138.3,Weapon+Missile,Red,Allies,R-27ER,,xu,,165.197820972476,159.991638183594,0.489208451190797,709.216918945312,-429.458862304688,104.326710386171,-128.0869140625,0.034279169914775,NaN,0,1.79400724211179,5000,0.156849205493927,0.156849205493927,0.156849205493927,1364.51600270271,695.504209817505,2060.02021252022,,,68.1399998664856,1138.67578125,27584.8407633993,28736.011619123
2018-07-19T09:01:04Z,1531990864,1F506,41.0988597,43.8946422,577.01,7,-53.4,143.4,551030.88,-105956.5,137.7,Weapon+Missile,Red,Allies,R-27ER,,xu,,166.552349962234,162.281814575195,0.49247518730706,577.013854980469,-553.301574707031,101.301703619683,-132.203063964844,0.0183697982361638,NaN,0,1.6746824499295,5000,0.156653463840485,0.156653463840485,0.156653463840485,1386.98426389713,565.857292094421,1952.84155599155,,,69.1399998664856,1130.3154296875,27685.7055905077,28902.3047796177
2018-07-19T09:01:05Z,1531990865,1F506,41.0995892,43.8939408,441.44,7.1,-54.9,142.8,551097.12,-106028.62,137.1,Weapon+Missile,Red,Allies,R-27ER,,xu,,167.249509799749,163.967346191406,0.493773412616512,441.436126708984,-680.626373291016,97.9340498754136,-135.577728271484,0.0198412431724689,NaN,0,1.58056062889772,5000,0.175594449043274,0.175594449043274,0.175594449043274,1398.61992641282,432.900959199066,1831.52088561189,,,70.1399998664856,1122.0625,27783.2818167645,29069.3495661569
2018-07-19T09:01:06Z,1531990866,1F506,41.1003087,43.8932649,302.13,7.2,-56.4,142.2,551162.38,-106098.03,136.5,Weapon+Missile,Red,Allies,R-27ER,,xu,,168.760560757391,166.494659423828,0.497446967231645,302.133087158203,-810.583709716797,95.2616924007888,-139.303039550781,0.0652647391116596,NaN,0.199999891729021,1.5318773883714,5000,0.170880258083344,0.170880258083344,0.170880258083344,1424.00634335745,296.291343917999,1720.29768727545,,,71.1399998664856,1112.716796875,27878.1122716069,29237.8701892683
2018-07-19T09:01:07Z,1531990867,1F506,41.1010196,43.892613,159.1,7.2,-57.8,141.4,551226.69,-106164.8,135.7,Weapon+Missile,Red,Allies,R-27ER,,xu,,170.446930983377,169.243133544922,0.501605015753153,159.10383605957,-944.97087097168,92.7080881682737,-143.029251098633,0.0548589833354144,NaN,0,1.43529040265778,5000,0.161947548389435,0.161947548389435,0.161947548389435,1452.60781408261,156.027563389359,1608.63537747197,,,72.1399998664856,1104.07470703125,27970.4052404945,29408.0934977988
2018-07-19T09:01:08Z,1531990868,1F506,41.1017177,43.8919888,13.48,7.3,-59,140.7,551289.56,-106228.64,135,Weapon+Missile,Red,Allies,R-27ER,,xu,,170.98323449095,170.883239746094,0.502357204588609,13.4776916503906,-1082.12423706055,89.6007396258753,-145.62614440918,0.00651817733156419,NaN,0.199999891729021,1.32405757037295,5000,0.187689498066902,0.187689498066902,0.187689498066902,1461.76332384936,13.2171004823303,1474.98042433169,,,73.1399998664856,1095.60192871094,28059.6524356836,29578.8923599317
2018-07-19T09:01:09Z,1531990869,1F506,41.1024062,43.8913891,-135.03,7.3,-60.3,140,551351.5,-106289.81,134.3,Weapon+Missile,Red,Allies,R-27ER,,xu,,172.143750004716,173.181442260742,0.504922895717668,-135.032302856445,-1226.0747833252,87.053157307852,-148.509994506836,0.0569008630943475,NaN,0,1.25030561460197,5000,0.171186447143555,0.171186447143555,0.171186447143555,1481.6735332843,-132.421453280716,1349.25208000359,,,74.1399998664856,1091.04248046875,28146.3001094496,29750.8309965243
2018-07-19T09:01:10Z,1531990870,1F506,41.1030835,43.8908145,-285.86,7.3,-61.4,139.2,551412.19,-106348.28,133.5,Weapon+Missile,Red,Allies,R-27ER,,xu,,172.7731379285,174.976608276367,0.505913042617526,-285.859985351562,-1374.37158203125,84.2707979243848,-150.827682495117,0.0303482842243477,NaN,0,1.18057717386066,5000,0.188198804855347,0.188198804855347,0.188198804855347,1492.52785948302,-280.33288253479,1212.19497694823,,,75.1399998664856,1088.51159667969,28230.2255819061,29923.4346174077
2018-07-19T09:01:11Z,1531990871,1F506,41.1037562,43.8902595,-440.21,7.4,-62.5,138.4,551472.38,-106404.62,132.7,Weapon+Missile,Red,Allies,R-27ER,,xu,,174.988296631242,178.421340942383,0.511516813496697,-440.212280273438,-1524.73327636719,82.4395112203724,-154.352294921875,0.034141812957503,NaN,0,1.1216187675017,5000,0.17862556874752,0.17862556874752,0.17862556874752,1531.04519789517,-431.700775834351,1099.34442206082,,,76.1399998664856,1084.52099609375,28312.2627097611,30098.2315143394
2018-07-19T09:01:12Z,1531990872,1F506,41.1044187,43.8897282,-596.53,7.4,-63.4,137.6,551531.44,-106458.38,131.9,Weapon+Missile,Red,Allies,R-27ER,,xu,,175.54187854606,180.211624145508,0.51224292927439,-596.534606933594,-1675.28118896484,79.8641428366645,-156.322326660156,0.0202607363436299,NaN,0,1.08539272480443,5000,0.189263045787811,0.189263045787811,0.189263045787811,1540.74755617399,-585.000610308533,955.746945865455,,,77.1399998664856,1078.74658203125,28391.7714084593,30273.6090370149
