ISOTime,UnixTime,Id,Longitude,Latitude,Altitude,Roll,Pitch,Yaw,U,V,Heading,Type,Color,Coalition,Name,Group,Country,Pilot,TAS,CAS,M,ASL,AGL,GS,VS,AOA,AOS,RRT,TRT,TRD,G,LatG,LonG,Ek,Ep,Em,FFW,FFV,RelativeTime,Elev,GroundDistance,AirDistance
2018-07-19T08:59:59Z,1531990799,1F80E,40.5563777,43.8535322,9314.27,5.7,-1.9,146.9,507866.34,-114678.3,141.6,Weapon+Missile,Red,Allies,R-27ER,,xu,,367.448989191096,247.032897949219,1.21426805262079,9314.2744140625,7528.80102539062,NaN,NaN,1.03839804562915,NaN,1.16921910287946,1.0602026095408,NaN,NaN,NaN,NaN,NaN,9134.1829182666,NaN,,,0.670000076293945,1785.47338867188,NaN,NaN
2018-07-19T09:00:00Z,1531990800,1F80E,40.5603137,43.8492265,9286.3,4.6,-1.6,147.3,508226.78,-115127.58,142,Weapon+Missile,Red,Allies,R-27ER,,xu,,576.6724708288,384.4169921875,1.90490666667361,9286.3046875,7492.37353515625,575.993778619016,-27.9697265625,0.770973946675578,NaN,0.969231163981489,1.21843349733546,5000,4.34028291702271,4.34028291702271,4.34028291702271,16627.5569305897,9106.75398636719,25734.3109169569,,,1.67000007629395,1793.93115234375,574.087723102885,575.604782535501
2018-07-19T09:00:01Z,1531990801,1F80E,40.565619,43.8427385,9259.17,3.7,-1.6,151.8,508719.66,-115809.17,146.5,Weapon+Missile,Red,Allies,R-27ER,,xu,,841.565205541569,536.064819335938,2.77884634167644,9259.171875,7423.73254394531,841.127698785424,-27.1328125,0.234012372496492,NaN,0.769243225083516,2.92949694987903,5000,4.95112943649292,4.95112943649292,4.95112943649292,35411.5997589111,9080.14578679687,44491.745545708,,,2.67000007629395,1835.43933105469,1412.57084047475,1415.74516243754
2018-07-19T09:00:02Z,1531990802,1F80E,40.5717359,43.8342599,9227.6,3.2,-1.7,152.1,509298.25,-116705.88,146.8,Weapon+Missile,Red,Allies,R-27ER,,xu,,1067.63489852763,666.011352539062,3.52374521205925,9227.595703125,7326.4541015625,1067.16785086688,-31.576171875,0.0437266367124031,NaN,0.569255286185543,1.09446097486638,5000,2.04267835617065,2.04267835617065,2.04267835617065,56992.2138277054,9049.18014020508,66041.3939679105,,,3.67000007629395,1901.1416015625,2476.54402044161,2481.72805542091
2018-07-19T09:00:03Z,1531990803,1F80E,40.5782894,43.8255443,9191.71,2.7,-2,150.8,509914.53,-117625.66,145.5,Weapon+Missile,Red,Allies,R-27ER,,xu,,1107.74639463602,690.426635742188,3.65427032902037,9191.712890625,7416.16784667969,1107.16507287585,-35.8828125,0.0378813800984917,NaN,0.384621612541758,1.24166563874532,5000,2.64376306533813,2.64376306533813,2.64376306533813,61355.1037414551,9013.99112188477,70369.0948633399,,,4.67000007629395,1775.54504394531,3580.31144212346,3587.67152220712
2018-07-19T09:00:04Z,1531990804,1F80E,40.5852703,43.8167425,9149.1,2.4,-2.3,149.4,510566.25,-118551.79,144.1,Weapon+Missile,Red,Allies,R-27ER,,xu,,1133.25235624172,706.795837402344,3.73614994360589,9149.09765625,7629.64294433594,1132.45081338068,-42.615234375,0.0811774237624925,NaN,0.24616001768726,1.34815703908569,5000,2.72887587547302,2.72887587547302,2.72887587547302,64213.0451463699,8972.19985306641,73185.2449994363,,,5.67000007629395,1519.45471191406,4709.20135622167,4718.98745583865
2018-07-19T09:00:05Z,1531990805,1F80E,40.5927038,43.8078541,9098.49,2.2,-2.7,148.3,511255.34,-119484.16,143,Weapon+Missile,Red,Allies,R-27ER,,xu,,1160.48269157864,724.591125488281,3.82318060845618,9098.48828125,7695.78991699219,1159.37861314401,-50.609375,0.0227930450370507,NaN,0.199987938897973,1.32804309247536,5000,2.42855787277222,2.42855787277222,2.42855787277222,67336.0038726807,8922.56901033203,76258.5728830127,,,6.67000007629395,1402.69836425781,5864.87417838265,5877.41947879581
2018-07-19T09:00:06Z,1531990806,1F80E,40.6005355,43.7989008,9038.34,2,-3.1,147.1,511977.38,-120420.7,141.8,Weapon+Missile,Red,Allies,R-27ER,,xu,,1184.08910542346,740.78369140625,3.89763240084656,9038.33984375,7519.58850097656,1182.56043188026,-60.1484375,0.0686695340096664,NaN,0.199987938897973,1.30773224431785,5000,2.93266868591309,2.93266868591309,2.93266868591309,70103.350479126,8863.58354287109,78966.9340219971,,,7.67000007629395,1518.75134277344,7043.54844470089,7059.30111270884
2018-07-19T09:00:07Z,1531990807,1F80E,40.6088526,43.7898698,8971.3,1.7,-3.2,145.5,512739.47,-121362.22,140.2,Weapon+Missile,Red,Allies,R-27ER,,xu,,1213.14973028133,760.606140136719,3.98951092015582,8971.3046875,7199.34362792969,1211.29622962684,-67.03515625,0.0584911869848634,NaN,0.338449533752472,1.47583835427409,5000,3.54007792472839,3.54007792472839,3.54007792472839,73586.6134040833,8797.84451136719,82384.4579154504,,,8.67000007629395,1771.96105957031,8250.74794169984,8270.06212886853
2018-07-19T09:00:08Z,1531990808,1F80E,40.6176491,43.7808682,8900.68,1.5,-3.3,143.9,513540,-122296.82,138.6,Weapon+Missile,Red,Allies,R-27ER,,xu,,1232.60639677138,775.073181152344,4.04946114562423,8900.677734375,6967.1884765625,1230.5813109478,-70.626953125,0.0222585415730102,NaN,0.199987938897973,1.65036484205014,5000,3.7890100479126,3.7890100479126,3.7890100479126,75965.9264680862,8728.58313038086,84694.5095984671,,,9.67000007629395,1933.4892578125,9477.0638165616,9500.12539435512
2018-07-19T09:00:09Z,1531990809,1F80E,40.6268129,43.7720512,8828.11,1.4,-3.4,142.2,514368.41,-123208.14,136.9,Weapon+Missile,Red,Allies,R-27ER,,xu,,1233.70467571112,778.815856933594,4.04893335953178,8828.11328125,7578.66284179688,1231.5687666607,-72.564453125,0.0402167357512139,NaN,0,1.71465570516017,5000,3.75675773620605,3.75675773620605,3.75675773620605,76101.3613435745,8657.42171095703,84758.7830545316,,,10.6700000762939,1249.45043945312,10704.213366605,10731.121066144
2018-07-19T09:00:10Z,1531990810,1F80E,40.6359175,43.7638172,8754.92,1.3,-3.7,140.4,515186.25,-124054.99,135.1,Weapon+Missile,Red,Allies,R-27ER,,xu,,1179.56884681289,749.604064941406,3.86728703829379,8754.923828125,7289.19226074219,1177.29604107155,-73.189453125,0.00845518117562567,NaN,0,1.74147935213469,5000,3.58020639419556,3.58020639419556,3.58020639419556,69569.1332185745,8585.6473759082,78154.7805944827,,,11.6700000762939,1465.73156738281,11877.179123163,11907.9816654439
2018-07-19T09:00:11Z,1531990811,1F80E,40.6448914,43.7561881,8678.62,1.4,-4.1,138.6,515987.53,-124835.59,133.3,Weapon+Missile,Red,Allies,R-27ER,,xu,,1121.24952639609,717.801635742188,3.67215551765341,8678.6201171875,6969.65832519531,1118.65018845957,-76.3037109375,0.0312405898985568,NaN,0.200000105172432,1.92657801225057,5000,3.83805394172668,3.83805394172668,3.83805394172668,62860.0250221729,8510.81899722168,71370.8440193946,,,12.6700000762939,1708.96179199219,12991.546114689,13026.477375124
2018-07-19T09:00:12Z,1531990812,1F80E,40.6538267,43.7490979,8596.28,1.5,-4.7,136.6,516780.28,-125556.47,131.3,Weapon+Missile,Red,Allies,R-27ER,,xu,,1074.66450507212,693.020263671875,3.51553787537984,8596.2841796875,6767.22241210938,1071.50575913427,-82.3359375,0.0388083991214436,NaN,0.138461381411087,2.10538830929668,5000,3.7850296497345,3.7850296497345,3.7850296497345,57745.1899230957,8430.07502507324,66175.2649481689,,,13.6700000762939,1829.06176757812,14058.8623919946,14098.4058742945
2018-07-19T09:00:13Z,1531990813,1F80E,40.6627233,43.7425187,8506.4,1.8,-5.4,134.5,517564.84,-126220.83,129.2,Weapon+Missile,Red,Allies,R-27ER,,xu,,1031.98433558271,670.634765625,3.37168907171788,8506.3955078125,6538.00244140625,1028.06210685767,-89.888671875,0.0519478885069857,NaN,0.369230848464192,2.11279372846086,5000,3.59479737281799,3.59479737281799,3.59479737281799,53249.5834444046,8341.92435066895,61591.5077950736,,,14.6700000762939,1968.39306640625,15082.7232192476,15127.5724279112
2018-07-19T09:00:14Z,1531990814,1F80E,40.6715067,43.7364605,8408.64,2,-6.1,132.6,518335.03,-126828.05,127.2,Weapon+Missile,Red,Allies,R-27ER,,xu,,985.631122453502,646.069396972656,3.21586836329168,8408.6416015625,6276.13354492188,980.771575527052,-97.75390625,0.0348523501930162,NaN,0.261538615490366,2.10517892130994,5000,3.39670872688293,3.39670872688293,3.39670872688293,48573.4354774475,8246.06051619629,56819.4959936438,,,15.6700000762939,2132.50805664062,16059.3716253263,16110.3894170968
2018-07-19T09:00:15Z,1531990815,1F80E,40.6801969,43.7308669,8302.77,2.2,-6.8,130.6,519093.03,-127384.3,125.3,Weapon+Missile,Red,Allies,R-27ER,,xu,,946.143638626326,625.656494140625,3.08250017084156,8302.765625,5976.6923828125,940.201075568413,-105.8759765625,0.0627826577227323,NaN,0.246153614384913,2.04577954086269,5000,3.11162757873535,3.11162757873535,3.11162757873535,44759.3892456532,8142.23165164063,52901.6208972938,,,16.6700000762939,2326.0732421875,16995.4987124552,17053.7033834175
2018-07-19T09:00:16Z,1531990816,1F80E,40.688726,43.7257306,8189.81,2.5,-7.6,128.8,519833.44,-127890.87,123.5,Weapon+Missile,Red,Allies,R-27ER,,xu,,904.193164974736,603.698120117188,2.94122916626615,8189.81298828125,5635.70043945312,897.110350762554,-112.95263671875,0.0485232026138663,NaN,0.199999891729021,1.93388225923766,5000,2.68520259857178,2.68520259857178,2.68520259857178,40878.2639793515,8031.46295415283,48909.7269335044,,,17.6700000762939,2554.11254882812,17888.6124121706,17955.0769351643
2018-07-19T09:00:17Z,1531990817,1F80E,40.6971699,43.7209451,8069.33,2.6,-8.2,127.3,520563.47,-128359.04,121.9,Weapon+Missile,Red,Allies,R-27ER,,xu,,875.582940440379,589.835205078125,2.84343742335516,8069.3349609375,5627.556640625,867.254593829043,-120.47802734375,0.0438663706727128,NaN,0,1.60215096358584,5000,1.9424375295639,1.9424375295639,1.9424375295639,38332.274279511,7913.31436946777,46245.5886489787,,,18.6700000762939,2441.7783203125,18751.8861334456,18827.8068208569
2018-07-19T09:00:18Z,1531990818,1F80E,40.7054134,43.7164807,7947.14,2.5,-8.5,126.3,521274.09,-128792.96,120.9,Weapon+Missile,Red,Allies,R-27ER,,xu,,841.550675814429,572.445007324219,2.7283341577722,7947.140625,5541.1142578125,832.63202210131,-122.1943359375,0.0416445063937331,NaN,0.199987938897973,1.13605287820864,5000,1.47178244590759,1.47178244590759,1.47178244590759,35410.3769981861,7793.48266101563,43203.8596592017,,,19.6700000762939,2406.0263671875,19580.6524966932,19666.5624573647
2018-07-19T09:00:19Z,1531990819,1F80E,40.7134408,43.7122812,7824.65,2.5,-8.9,125.4,521964.69,-129199.03,120,Weapon+Missile,Red,Allies,R-27ER,,xu,,810.442350429542,556.598205566406,2.6230767518654,7824.64990234375,5426.62744140625,801.13221520103,-122.49072265625,0.0330005468815903,NaN,0,0.938296490178561,5000,1.26924705505371,1.26924705505371,1.26924705505371,32840.840168488,7673.36029648193,40514.20046497,,,20.6700000762939,2398.0224609375,20377.9761013004,20474.2145441713
2018-07-19T09:00:20Z,1531990820,1F80E,40.7213075,43.7082932,7700.09,2.4,-9.3,124.5,522640.19,-129582.73,119.1,Weapon+Missile,Red,Allies,R-27ER,,xu,,786.793513507952,545.206726074219,2.5422098991695,7700.087890625,5611.96362304688,776.870863229382,-124.56201171875,0.04853853546876,NaN,0.138461594854498,1.01485053105653,5000,1.63694500923157,1.63694500923157,1.63694500923157,30952.2016449094,7551.20669125977,38503.4083361691,,,21.6700000762939,2088.12426757812,21151.1397949453,21258.2768579785
2018-07-19T09:00:21Z,1531990821,1F80E,40.7289843,43.7045599,7576.72,2.5,-9.8,123,523297.81,-129939.53,117.6,Weapon+Missile,Red,Allies,R-27ER,,xu,,758.28406021176,530.515808105469,2.44598538406714,7576.71826171875,5384.61547851562,748.180894326209,-123.36962890625,0,NaN,0.476923081438018,1.60709217856352,5000,2.30524635314941,2.30524635314941,2.30524635314941,28749.7357985616,7430.22241412842,36179.95821269,,,22.6700000762939,2192.10278320312,21895.6877573588,22013.8563061165
2018-07-19T09:00:22Z,1531990822,1F80E,40.7365015,43.7011384,7444.56,3.2,-11,121.3,523939.38,-130262.82,115.9,Weapon+Missile,Red,Allies,R-27ER,,xu,,730.468023771364,516.225219726562,2.35204290643221,7444.56201171875,5007.47607421875,718.413710433187,-132.15625,0.0625672549785571,NaN,0.569230953636625,1.82447180680076,5000,0.656919419765472,0.656919419765472,0.656919419765472,26679.1766876221,7300.62140522217,33979.7980928442,,,23.6700000762939,2437.0859375,22610.5551182954,22741.6645751395
2018-07-19T09:00:23Z,1531990823,1F80E,40.7437537,43.6978991,7309.34,1.9,-10.3,123.9,524557.81,-130567.84,118.5,Weapon+Missile,Red,Allies,R-27ER,,xu,,702.698114174,501.762664794922,2.25849816881913,7309.33935546875,4850.15625,689.564698125122,-135.22265625,1.02253795138801,NaN,2.8308128826468,0.365708365162743,5000,1.29297089576721,1.29297089576721,1.29297089576721,24689.2319831848,7168.01327903076,31857.2452622156,,,24.6700000762939,2459.18310546875,23296.631081947,23441.7180357156
2018-07-19T09:00:24Z,1531990824,1F80E,40.7505144,43.6948069,7181.56,3.8,-12.6,119.4,525135.06,-130860.18,114,Weapon+Missile,Red,Allies,R-27ER,,xu,,659.552863214111,476.912139892578,2.11618580275777,7181.56005859375,4905.13012695312,647.056744547232,-127.779296875,0.11988822241901,NaN,2.3999995545219,2.35513567040208,5000,5.93616437911987,5.93616437911987,5.93616437911987,21750.4989686966,7042.70459486084,28793.2035635574,,,25.6700000762939,2276.42993164062,23940.5058711106,24098.8669737715
2018-07-19T09:00:25Z,1531990825,1F80E,40.7571214,43.692338,7033.28,5.2,-14.6,116,525693.5,-131084.38,110.6,Weapon+Missile,Red,Allies,R-27ER,,xu,,619.760686599905,454.173706054688,1.98456273259245,7033.27880859375,5210.06652832031,601.760732810992,-148.28125,0.149381627910002,NaN,0.476923081438018,3.68483241570852,5000,1.65618073940277,1.65618073940277,1.65618073940277,19205.1654327393,6897.29036282959,26102.4557955688,,,26.6700000762939,1823.21228027344,24539.1187886378,24716.219238856
2018-07-19T09:00:26Z,1531990826,1F80E,40.7635865,43.6900807,6880.16,4.6,-14.8,115.7,526238.31,-131286.11,110.2,Weapon+Missile,Red,Allies,R-27ER,,xu,,600.802992029532,444.773895263672,1.91992785304918,6880.1552734375,5349.25170898438,580.962492948461,-153.12353515625,0.684610883458882,NaN,0.738425411548419,0.735566924019915,5000,3.25337648391724,3.25337648391724,3.25337648391724,18048.2117615819,6747.12747122559,24795.3392328075,,,27.6700000762939,1530.90356445312,25116.9991289291,25314.6516742755
2018-07-19T09:00:27Z,1531990827,1F80E,40.769656,43.6877142,6744.28,1.5,-12.5,121.2,526752.44,-131502.94,115.7,Weapon+Missile,Red,Allies,R-27ER,,xu,,574.281962842697,429.722930908203,1.83186343716108,6744.28466796875,5016.51342773438,557.977554580841,-135.87060546875,0.0724792318222305,NaN,2.87693031992273,4.3458939820755,5000,6.25891399383545,6.25891399383545,6.25891399383545,16489.988642323,6613.88392391357,23103.8725662366,,,28.6700000762939,1727.77124023438,25672.0617797644,25886.6777618532
2018-07-19T09:00:28Z,1531990828,1F80E,40.7751141,43.685064,6636.7,-0.9,-10.3,126.6,527220.31,-131755.91,121.2,Weapon+Missile,Red,Allies,R-27ER,,xu,,542.656128235684,410.304565429688,1.72851482773075,6636.6953125,4552.80932617188,531.883637745666,-107.58935546875,0.116216763226208,NaN,2.10768709483921,5.6122025164594,5000,5.24113655090332,5.24113655090332,5.24113655090332,14723.7836755872,6508.37480863281,21232.15848422,,,29.6700000762939,2083.88598632812,26201.2877266701,26427.2732419265
2018-07-19T09:00:29Z,1531990829,1F80E,40.7800199,43.6822299,6552.09,-1.8,-9,129.6,527645.56,-132033.47,124.2,Weapon+Missile,Red,Allies,R-27ER,,xu,,514.817044442642,392.621978759766,1.63800558362233,6552.08984375,4401.2529296875,507.817392284126,-84.60546875,0.12476409062875,NaN,0.184579032130425,3.04424946402053,5000,1.74641335010529,1.74641335010529,1.74641335010529,13251.8294624329,6425.40518662109,19677.234649054,,,30.6700000762939,2150.8369140625,26706.7641251894,26940.2967179713
2018-07-19T09:00:30Z,1531990830,1F80E,40.7846609,43.6794425,6475.16,-1.6,-8.9,129.7,528049,-132307.84,124.2,Weapon+Missile,Red,Allies,R-27ER,,xu,,493.924116491767,379.270660400391,1.5699354872885,6475.1640625,4348.9609375,487.896973787756,-76.92578125,0.0609138184443522,NaN,0.199987938897973,0.387908400955989,5000,1.00339865684509,1.00339865684509,1.00339865684509,12198.0516426086,6349.96676535156,18548.0184079602,,,31.6700000762939,2126.203125,27192.4390762722,27432.5159392436
2018-07-19T09:00:31Z,1531990831,1F80E,40.7891694,43.6767323,6400.54,-1.3,-8.9,129.7,528441,-132574.64,124.2,Weapon+Missile,Red,Allies,R-27ER,,xu,,480.01409980435,370.57421875,1.52422373670002,6400.53857421875,4252.11254882812,474.177785761591,-74.62548828125,0.0582025695028866,NaN,0.307673768569452,0.0532655904281015,5000,0.992779791355133,0.992779791355133,0.992779791355133,11520.676800549,6276.78416088623,17797.4609614353,,,32.6700000762939,2148.42602539062,27664.4233523688,27910.8338846867
2018-07-19T09:00:32Z,1531990832,1F80E,40.7935461,43.674101,6328.13,-1.1,-8.9,129.7,528821.56,-132833.62,124.2,Weapon+Missile,Red,Allies,R-27ER,,xu,,465.986846908318,361.576751708984,1.47827426426125,6328.1298828125,4340.22045898438,460.326756663558,-72.40869140625,0.0548099360028141,NaN,0.200042580411333,0.0242283218322616,5000,0.993478298187256,0.993478298187256,0.993478298187256,10857.1870745778,6205.77549152832,17062.9625661061,,,33.6700000762939,1987.90942382812,28122.6535490038,28375.2013919295
2018-07-19T09:00:33Z,1531990833,1F80E,40.7977989,43.6715438,6257.81,-0.9,-8.9,129.7,529191.38,-133085.31,124.2,Weapon+Missile,Red,Allies,R-27ER,,xu,,452.827441548313,352.987884521484,1.43520324121022,6257.810546875,4338.95275878906,447.334195889941,-70.3193359375,0.0522856535082923,NaN,0.169220711451416,0.0242283218322616,5000,0.992317795753479,0.992317795753479,0.992317795753479,10252.6345909595,6136.81577995117,16389.4503709107,,,34.6700000762939,1918.85778808594,28567.9443966814,28826.4443570682
2018-07-19T09:00:34Z,1531990834,1F80E,40.8019024,43.6690762,6189.98,-0.8,-8.9,129.7,529548.31,-133328.19,124.2,Weapon+Missile,Red,Allies,R-27ER,,xu,,437.028559112721,342.165588378906,1.38389986003178,6189.9775390625,4175.76025390625,431.732144426669,-67.8330078125,0.0498232932447694,NaN,0.199987938897973,0.0242283218322616,5000,0.990493774414062,0.990493774414062,0.990493774414062,9549.69807400703,6070.29432334473,15619.9923973518,,,35.6700000762939,2014.21728515625,28997.6351667839,29261.8705723327
2018-07-19T09:00:35Z,1531990835,1F80E,40.8058962,43.6666742,6123.98,-0.7,-8.9,129.7,529895.69,-133564.59,124.2,Weapon+Missile,Red,Allies,R-27ER,,xu,,425.339047894809,334.186279296875,1.3457220307702,6123.9775390625,4136.83923339844,420.187226916838,-66,0.0506840903557737,NaN,0,0.0242283218322616,5000,0.990298926830292,0.990298926830292,0.990298926830292,9045.66528320312,6005.57043334473,15051.2357165479,,,36.6700000762939,1987.13830566406,29415.869640241,29685.6794294362
2018-07-19T09:00:36Z,1531990836,1F80E,40.8097617,43.6643491,6060.11,-0.6,-8.9,129.7,530231.94,-133793.39,124.2,Weapon+Missile,Red,Allies,R-27ER,,xu,,411.692804660561,324.443634033203,1.30146164919131,6060.111328125,4081.083984375,406.708830134982,-63.8662109375,0.0427920294292635,NaN,0,0.0242283218322616,5000,0.990290939807892,0.990290939807892,0.990290939807892,8474.54827046394,5942.9390755957,14417.4873460596,,,37.6700000762939,1979.02734375,29820.6957937683,30095.8944014932
2018-07-19T09:00:37Z,1531990837,1F80E,40.8135071,43.6620959,5998.24,-0.5,-8.9,129.7,530557.75,-134015.12,124.2,Weapon+Missile,Red,Allies,R-27ER,,xu,,398.933289152319,315.137451171875,1.26010942070175,5998.24169921875,4161.18017578125,394.106480805493,-61.86962890625,0.0413031699021772,NaN,0,0.0242283218322616,5000,0.990250647068024,0.990250647068024,0.990250647068024,7957.38845969439,5882.26569596436,13839.6541556587,,,38.6700000762939,1837.0615234375,30212.9800851904,30493.3939471453
2018-07-19T09:00:38Z,1531990838,1F80E,40.8171279,43.6599175,5938.44,-0.4,-8.9,129.7,530872.75,-134229.48,124.2,Weapon+Missile,Red,Allies,R-27ER,,xu,,385.682079316346,305.183044433594,1.21730550328861,5938.4443359375,4254.89245605469,381.01829568984,-59.79736328125,0.0491702544196893,NaN,0.138453163839742,0.0242283218322616,5000,0.987907946109772,0.987907946109772,0.987907946109772,7437.53331528902,5823.62451470215,13261.1578299912,,,39.6700000762939,1683.55187988281,30592.2331870381,30877.6828348558
2018-07-19T09:00:39Z,1531990839,1F80E,40.820642,43.6578031,5880.41,-0.3,-8.9,129.7,531178.44,-134437.53,124.2,Weapon+Missile,Red,Allies,R-27ER,,xu,,374.29472687355,296.537475585938,1.18047401576913,5880.408203125,4407.89587402344,369.767967587128,-58.0361328125,0.0401027001741038,NaN,0.169220551368858,0.0242283218322616,5000,0.991318047046661,0.991318047046661,0.991318047046661,7004.82712826729,5766.71051051758,12771.5376387849,,,40.6700000762939,1472.51232910156,30960.3252954192,31250.6589454513
2018-07-19T09:00:40Z,1531990840,1F80E,40.8240267,43.6557663,5824.53,-0.3,-8.9,129.7,531472.94,-134637.94,124.2,Weapon+Missile,Red,Allies,R-27ER,,xu,,360.576815747964,285.734161376953,1.13638565221554,5824.52685546875,4552.24877929688,356.220318116559,-55.88134765625,0.0397642441001967,NaN,0,0.0242283218322616,5000,0.988709986209869,0.988709986209869,0.988709986209869,6500.78200274706,5711.90962871826,12212.6916314653,,,41.6700000762939,1272.27807617188,31314.8930800325,31609.9246669208
2018-07-19T09:00:41Z,1531990841,1F80E,40.8273196,43.6537845,5770.16,-0.3,-8.9,129.7,531759.5,-134832.92,124.2,Weapon+Missile,Red,Allies,R-27ER,,xu,,350.8460107484,278.136199951172,1.10493991703291,5770.158203125,4519.54858398438,346.607808481561,-54.36865234375,0.0434239439714316,NaN,0.0461635944136766,0.0242283218322616,5000,0.98777562379837,0.98777562379837,0.98777562379837,6154.64616290331,5658.59219426758,11813.2383571709,,,42.6700000762939,1250.60961914062,31659.8666459291,31959.4660089753
2018-07-19T09:00:42Z,1531990842,1F80E,40.830501,43.6518697,5717.63,-0.2,-8.9,129.7,532036.31,-135021.31,124.2,Weapon+Missile,Red,Allies,R-27ER,,xu,,338.932603308639,268.545745849609,1.06669537324487,5717.630859375,4355.06384277344,334.837554261974,-52.52734375,0.0390083194535062,NaN,0,0.0242283218322616,5000,0.989904701709747,0.989904701709747,0.989904701709747,5743.76547927857,5607.08046670898,11350.8459459875,,,43.6700000762939,1362.56701660156,31993.1823564315,32297.1917528496
2018-07-19T09:00:43Z,1531990843,1F80E,40.8335739,43.6500199,5666.9,-0.2,-8.9,129.7,532303.75,-135203.3,124.2,Weapon+Missile,Red,Allies,R-27ER,,xu,,327.436497765216,259.214691162109,1.02983955891677,5666.90087890625,4143.45715332031,323.482811213194,-50.72998046875,0.0464287572277389,NaN,0,0.0242283218322616,5000,0.988703548908234,0.988703548908234,0.988703548908234,5360.73300343752,5557.3313504126,10918.0643538501,,,44.6700000762939,1523.44372558594,32315.1453802814,32623.4107413353
2018-07-19T09:00:44Z,1531990844,1F80E,40.8365453,43.6482312,5617.85,-0.2,-8.9,129.7,532562.38,-135379.27,124.2,Weapon+Missile,Red,Allies,R-27ER,,xu,,316.635384229335,250.475250244141,0.995238385492188,5617.84912109375,3902.16394042969,312.812869942339,-49.0517578125,0.0402309183240247,NaN,0,0.0242283218322616,5000,0.988906979560852,0.988906979560852,0.988906979560852,5012.89832730293,5509.2280083374,10522.1263356403,,,45.6700000762939,1715.68518066406,32626.4913073849,32938.8690510466
2018-07-19T09:00:45Z,1531990845,1F80E,40.8394048,43.6465096,5570.65,-0.1,-8.9,129.7,532811.25,-135548.64,124.2,Weapon+Missile,Red,Allies,R-27ER,,xu,,304.720236447484,240.757736206055,0.957204791277073,5570.64990234375,3625.86779785156,301.042615338759,-47.19921875,0.0401102543626776,NaN,0,0.0242283218322616,5000,0.987532556056976,0.987532556056976,0.987532556056976,4642.72112503052,5462.94138648193,10105.6625115125,,,46.6700000762939,1944.78210449219,32926.125703936,33242.4577529722
2018-07-19T09:00:46Z,1531990846,1F80E,40.842176,43.6448409,5524.9,-0.1,-8.9,129.7,533052.44,-135712.78,124.2,Weapon+Missile,Red,Allies,R-27ER,,xu,,295.307211855412,233.206573486328,0.927090107991638,5524.90283203125,3464.95263671875,291.742274844837,-45.7470703125,0.0391907163145028,NaN,0,0.0242283218322616,5000,0.989052772521973,0.989052772521973,0.989052772521973,4360.31746869087,5418.07883577393,9778.3963044648,,,47.6700000762939,2059.9501953125,33216.5363705692,33536.6990323194
2018-07-19T09:00:47Z,1531990847,1F80E,40.8448719,43.6432175,5480.4,-0.1,-8.9,129.7,533287.12,-135872.47,124.2,Weapon+Missile,Red,Allies,R-27ER,,xu,,287.330450185177,226.887924194336,0.901531941808016,5480.400390625,3440.54052734375,283.863207042582,-44.50244140625,0.0424034121251688,NaN,0,0.0242283218322616,5000,0.988146543502808,0.988146543502808,0.988146543502808,4127.93938018084,5374.43684907227,9502.3762292531,,,48.6700000762939,2039.85986328125,33499.0620347953,33822.9489339771
2018-07-19T09:00:48Z,1531990848,1F80E,40.847487,43.6416427,5437.24,-0.1,-8.9,129.7,533514.75,-136027.38,124.2,Weapon+Missile,Red,Allies,R-27ER,,xu,,278.697519743771,220.012954711914,0.873960647057683,5437.2353515625,3454.88598632812,275.334500043243,-43.1650390625,0.0324351518595595,NaN,0,0.0242283218322616,5000,0.987788677215576,0.987788677215576,0.987788677215576,3883.61537556648,5332.10640604004,9215.72178160652,,,49.6700000762939,1982.34936523438,33773.1267843201,34100.6238031749
2018-07-19T09:00:49Z,1531990849,1F80E,40.8500117,43.6401221,5395.55,-0.1,-8.9,129.7,533734.56,-136176.94,124.2,Weapon+Missile,Red,Allies,R-27ER,,xu,,269.117223463378,212.341247558594,0.843466976746292,5395.55078125,3460.61730957031,265.869284729357,-41.6845703125,0.0416046102095692,NaN,0,0.0242283218322616,5000,0.989563882350922,0.989563882350922,0.989563882350922,3621.20399823189,5291.22780689453,8912.43180512642,,,50.6700000762939,1934.93347167969,34037.7353978152,34368.7176152278
2018-07-19T09:00:50Z,1531990850,1F80E,40.8524804,43.6386352,5354.8,-0.1,-8.9,129.7,533949.5,-136323.2,124.2,Weapon+Missile,Red,Allies,R-27ER,,xu,,263.157910202111,207.729461669922,0.824358836307416,5354.8037109375,3455.4384765625,259.984157138258,-40.7470703125,0.0398335236490028,NaN,0,0.0242283218322616,5000,0.986728191375732,0.986728191375732,0.986728191375732,3462.60428509712,5251.26858118652,8713.87286628365,,,51.6700000762939,1899.365234375,34296.4940192786,34630.8802553986
2018-07-19T09:00:51Z,1531990851,1F80E,40.8548793,43.6371902,5315.2,0,-8.9,129.7,534158.31,-136465.33,124.2,Weapon+Missile,Red,Allies,R-27ER,,xu,,255.676474345395,201.831954956055,0.800516920647696,5315.2021484375,3472.2236328125,252.590925769811,-39.6015625,0.040642186506016,NaN,0.199987938897973,0.0242283218322616,5000,0.989566385746002,0.989566385746002,0.989566385746002,3268.52297668457,5212.43271489746,8480.95569158203,,,52.6700000762939,1842.978515625,34547.9410900143,34885.6345050733
2018-07-19T09:00:52Z,1531990852,1F80E,40.8572276,43.6357755,5276.44,0,-8.9,129.7,534362.81,-136604.45,124.2,Weapon+Missile,Red,Allies,R-27ER,,xu,,250.356945234844,197.747024536133,0.78347320021537,5276.43896484375,3450.96655273438,247.337857241871,-38.76318359375,0.0346117179033823,NaN,0,0.0242283218322616,5000,0.987906754016876,0.987906754016876,0.987906754016876,3133.93000136614,5174.4190174585,8308.34901882464,,,53.6700000762939,1825.47241210938,34794.0995351497,35135.0282292634
2018-07-19T09:00:53Z,1531990853,1F80E,40.8595051,43.6344034,5238.85,0,-8.9,129.7,534561.12,-136739.39,124.2,Weapon+Missile,Red,Allies,R-27ER,,xu,,242.794700521989,191.777755737305,0.759442952907935,5238.84521484375,3423.13024902344,239.86658075376,-37.59375,0.040011255547672,NaN,0,0.0242283218322616,5000,0.988223791122437,0.988223791122437,0.988223791122437,2947.46333007813,5137.55214261475,8085.01547269287,,,54.6700000762939,1815.71496582031,35032.8407870149,35376.9056415409
2018-07-19T09:00:54Z,1531990854,1F80E,40.8617322,43.6330615,5202.08,0,-8.9,129.7,534755.06,-136871.36,124.2,Weapon+Missile,Red,Allies,R-27ER,,xu,,237.442701616117,187.652893066406,0.742353962676766,5202.08203125,3447.83203125,234.579421268816,-36.76318359375,0.0541408978301622,NaN,0,0.0541761800424684,5000,0.98376727104187,0.98376727104187,0.98376727104187,2818.95182753801,5101.49977517578,7920.45160271379,,,55.6700000762939,1754.25,35266.3186840544,35613.4489397127
2018-07-19T09:00:55Z,1531990855,1F80E,40.863897,43.6317526,5166.24,0,-8.9,129.8,534943.62,-137000.16,124.3,Weapon+Missile,Red,Allies,R-27ER,,xu,,231.146719250923,182.735412597656,0.722339733420776,5166.244140625,3477.70617675781,228.35159604438,-35.837890625,0.0508433212284621,NaN,0,0.0541761800424684,5000,0.986697971820831,0.986697971820831,0.986697971820831,2671.44029102325,5066.35481016602,7737.79510118927,,,56.6700000762939,1688.53796386719,35493.593688063,35843.714622819
2018-07-19T09:00:56Z,1531990856,1F80E,40.8660106,43.6304742,5131.23,0,-8.9,129.8,535127.75,-137125.94,124.3,Weapon+Missile,Red,Allies,R-27ER,,xu,,225.718090447227,178.535034179688,0.70506062346207,5131.23388671875,3522.50207519531,222.986408726098,-35.01025390625,0.04003427568874,NaN,0,0.0221173298063182,5000,0.987874448299408,0.987874448299408,0.987874448299408,2547.43281775713,5032.02147951904,7579.45429727617,,,57.6700000762939,1608.73181152344,35715.5262258538,36068.5686238605
2018-07-19T09:00:57Z,1531990857,1F80E,40.8680744,43.6292258,5097.05,0,-8.9,129.8,535307.5,-137248.77,124.3,Weapon+Missile,Red,Allies,R-27ER,,xu,,220.375578589067,174.400329589844,0.688073156525474,5097.04931640625,3548.58142089844,217.708086186562,-34.1845703125,0.0508390583091518,NaN,0,0.0221173298063182,5000,0.987304091453552,0.987304091453552,0.987304091453552,2428.26978192329,4998.49786787354,7426.76764979683,,,58.6700000762939,1548.46789550781,35932.2391709911,36288.1328061251
2018-07-19T09:00:58Z,1531990858,1F80E,40.8700841,43.6280101,5063.75,0,-8.9,129.8,535482.56,-137368.36,124.3,Weapon+Missile,Red,Allies,R-27ER,,xu,,214.612181430682,169.910873413086,0.669794575718691,5063.75,3547.74084472656,212.013074939525,-33.29931640625,0.0675301012118332,NaN,0,0.219842791887098,5000,0.794386804103851,0.794386804103851,0.794386804103851,2302.9194209218,4965.84239375,7268.7618146718,,,59.6700000762939,1516.00915527344,36143.2773536242,36501.9480017146
2018-07-19T09:00:59Z,1531990859,1F80E,40.8720539,43.6268185,5029.18,1,-10.6,129.8,535654.19,-137485.59,124.3,Weapon+Missile,Red,Allies,R-27ER,,xu,,210.69878266994,166.963088989258,0.657292308270868,5029.18212890625,3565.78125,207.843785826376,-34.56787109375,0.0634010713259037,NaN,1.53846147728788,1.43091950847579,5000,0.129517108201981,0.129517108201981,0.129517108201981,2219.69885092974,4931.94289244385,7151.64174337358,,,60.6700000762939,1463.40087890625,36350.1278489946,36711.828442467
2018-07-19T09:01:00Z,1531990860,1F80E,40.8739615,43.6256655,4987.34,2.5,-13,129.8,535820.38,-137599,124.3,Weapon+Missile,Red,Allies,R-27ER,,xu,,205.499985003413,163.010467529297,0.640733833966001,4987.33740234375,3587.17834472656,201.194589130306,-41.8447265625,0.0495773172287372,NaN,1.33846179900227,2.42694742556195,4878.54397909189,0.100116401910782,0.100116401910782,0.100116401910782,2111.51219182014,4890.90723366943,7002.41942548958,,,61.6700000762939,1400.15905761719,36550.3802049999,36916.5599456967
2018-07-19T09:01:01Z,1531990861,1F80E,40.8758187,43.6245446,4937.93,3.6,-15.3,129.7,535982.19,-137709.25,124.2,Weapon+Missile,Red,Allies,R-27ER,,xu,,201.939272907306,160.468063354492,0.629237527894053,4937.9296875,3579.39770507812,195.801807081166,-49.40771484375,0.0452521327223652,NaN,1.13846190727325,2.4082288652547,4877.04829998983,0.12224617600441,0.12224617600441,0.12224617600441,2038.97349711657,4842.45481699219,6881.42831410875,,,62.6700000762939,1358.53198242188,36745.2322290126,37117.7253973591
2018-07-19T09:01:02Z,1531990862,1F80E,40.8776221,43.6234587,4881.55,4.6,-17.7,129.7,536139.25,-137816.02,124.2,Weapon+Missile,Red,Allies,R-27ER,,xu,,198.105750627156,157.748504638672,0.616851917301225,4881.552734375,3548.11657714844,189.914527058597,-56.376953125,0.0603231978114561,NaN,0.969230310207843,2.34813856848422,4902.8209075249,0.145628720521927,0.145628720521927,0.145628720521927,1962.29442157745,4787.16791225586,6749.46233383331,,,63.6700000762939,1333.43615722656,36934.2634855488,37315.1240056174
2018-07-19T09:01:03Z,1531990863,1F80E,40.8793778,43.6224047,4818.52,5.3,-20,129.6,536292.12,-137919.59,124.1,Weapon+Missile,Red,Allies,R-27ER,,xu,,195.121602739968,155.775268554688,0.607076079076077,4818.51904296875,3503.1708984375,184.659669672388,-63.03369140625,0.0588950450469279,NaN,0.769231272252469,2.29425584645223,4942.75022886111,0.164283722639084,0.164283722639084,0.164283722639084,1903.6219927907,4725.35297727295,6628.97497006365,,,64.6700000762939,1315.34814453125,37118.0609861017,37509.5620754403
2018-07-19T09:01:04Z,1531990864,1F80E,40.8810871,43.6213825,4749.23,6,-22.2,129.4,536440.94,-138019.98,123.9,Weapon+Missile,Red,Allies,R-27ER,,xu,,192.417813426189,154.073364257812,0.59814056148686,4749.228515625,3436.40051269531,179.508879290526,-69.29052734375,0.0394506443677381,NaN,0.569230526749801,2.25963020245485,4974.99794144746,0.175756096839905,0.175756096839905,0.175756096839905,1851.23074618578,4657.40218227539,6508.63292846117,,,65.6700000762939,1312.82800292969,37296.7293728954,37701.3209706146
2018-07-19T09:01:05Z,1531990865,1F80E,40.8827623,43.6203856,4673.53,6.6,-24.5,129.3,536586.75,-138117.84,123.8,Weapon+Missile,Red,Allies,R-27ER,,xu,,191.227138384546,153.668304443359,0.593872698015194,4673.53125,3365.18603515625,175.606783558155,-75.697265625,0.0410184189021662,NaN,0.569230526749801,2.17745811754113,5000,0.182801470160484,0.182801470160484,0.182801470160484,1828.39092273712,4583.16852328125,6411.55944601837,,,66.6700000762939,1308.34521484375,37471.4833063815,37891.8836814066
2018-07-19T09:01:06Z,1531990866,1F80E,40.8843944,43.6194198,4592.16,7,-26.6,129.1,536728.75,-138212.56,123.6,Weapon+Missile,Red,Allies,R-27ER,,xu,,189.096201156896,152.517715454102,0.586654375757565,4592.1572265625,3291.56091308594,170.691656508344,-81.3740234375,0,NaN,0.461538080332564,2.11538770624158,5000,0.196436583995819,0.196436583995819,0.196436583995819,1787.86866459847,4503.36786658691,6291.23653118538,,,67.6700000762939,1300.59631347656,37641.3654689643,38080.3607932584
2018-07-19T09:01:07Z,1531990867,1F80E,40.8859935,43.6184797,4504.99,7.3,-28.7,128.9,536867.81,-138304.69,123.4,Weapon+Missile,Red,Allies,R-27ER,,xu,,188.213070921365,152.444610595703,0.583276287778545,4504.986328125,3209.09790039062,166.809455760907,-87.1708984375,0.0589551323804142,NaN,0.24615318749809,2.06538154345039,5000,0.20167388021946,0.20167388021946,0.20167388021946,1771.20800328255,4417.8824174707,6189.09042075325,,,68.6700000762939,1295.88842773438,37807.3711636645,38267.9666995359
2018-07-19T09:01:08Z,1531990868,1F80E,40.8875554,43.6175682,4412.54,7.6,-30.7,128.7,537003.56,-138393.91,123.2,Weapon+Missile,Red,Allies,R-27ER,,xu,,186.906160468441,152.051544189453,0.57855624848566,4412.54248046875,3117.02233886719,162.443983734586,-92.44384765625,0.0349719744982562,NaN,0.199999891729021,2.02668873524568,5000,0.206196516752243,0.206196516752243,0.206196516752243,1746.69564105272,4327.22597160889,6073.92161266161,,,69.6700000762939,1295.52014160156,37969.0505813139,38454.3068711102
2018-07-19T09:01:09Z,1531990869,1F80E,40.8890877,43.6166814,4314.68,7.8,-32.6,128.5,537136.62,-138480.61,123,Weapon+Missile,Red,Allies,R-27ER,,xu,,186.54961930287,152.493057250977,0.576747286528333,4314.6767578125,3025.06091308594,158.817696718645,-97.86572265625,0.0273004868355397,NaN,0.199999891729021,1.99606835686628,5000,0.219122290611267,0.219122290611267,0.219122290611267,1740.03802310228,4231.2524827002,5971.29050580248,,,70.6700000762939,1289.61584472656,38127.1519005035,38640.3389667794
2018-07-19T09:01:10Z,1531990870,1F80E,40.8905945,43.615817,4211.38,8,-34.6,128.2,537267.5,-138565.02,122.7,Weapon+Missile,Red,Allies,R-27ER,,xu,,186.878383748731,153.554626464844,0.577020728333736,4211.376953125,2930.61633300781,155.732721879708,-103.2998046875,0.0552465273591202,NaN,0.199999891729021,1.90827203805788,5000,0.217371121048927,0.217371121048927,0.217371121048927,1746.17651562691,4129.94997973633,5876.12649536324,,,71.6700000762939,1280.76062011719,38282.0907107502,38826.6424440863
2018-07-19T09:01:11Z,1531990871,1F80E,40.8920626,43.6149831,4103.89,8.1,-36.4,127.9,537394.88,-138646.34,122.4,Weapon+Missile,Red,Allies,R-27ER,,xu,,185.450991483374,153.15966796875,0.571849213955207,4103.89013671875,2830.20629882812,151.124632476032,-107.48681640625,0.0598598044332246,NaN,0,1.84209476207645,5000,0.220471933484077,0.220471933484077,0.220471933484077,1719.60351210833,4024.54142092529,5744.14493303362,,,72.6700000762939,1273.68383789062,38432.4783671577,39011.5731281012
2018-07-19T09:01:12Z,1531990872,1F80E,40.8935165,43.6141658,3990.61,8.2,-38.1,127.6,537520.94,-138725.92,122.1,Weapon+Missile,Red,Allies,R-27ER,,xu,,187.23283147108,155.5400390625,0.576533870288858,3990.61303710938,2719.49926757812,149.078609749238,-113.277099609375,0.0401802129391755,NaN,0.0307700022109074,1.79885731675274,5000,0.223461508750916,0.223461508750916,0.223461508750916,1752.80665903389,3913.45453403686,5666.26119307076,,,73.6700000762939,1271.11376953125,38580.8314104827,39198.303593744
2018-07-19T09:01:13Z,1531990873,1F80E,40.8949428,43.613373,3872.83,8.2,-39.8,127.3,537644.5,-138803,121.8,Weapon+Missile,Red,Allies,R-27ER,,xu,,187.297941805041,156.498291015625,0.5758957391169,3872.83447265625,2602.65783691406,145.632169384946,-117.778564453125,0,NaN,0,1.7179068752051,5000,0.227140292525291,0.227140292525291,0.227140292525291,1754.02595022023,3797.95321812744,5551.97916834767,,,74.6700000762939,1270.17663574219,38725.7573648339,39385.1222898236
2018-07-19T09:01:14Z,1531990874,1F80E,40.8963487,43.6126006,3750.21,8.3,-41.4,127,537766.19,-138877.95,121.5,Weapon+Missile,Red,Allies,R-27ER,,xu,,188.316087287896,158.319137573242,0.578152303491464,3750.20849609375,2476.75695800781,142.918923182046,-122.6259765625,0.0285938275127498,NaN,0.153846595959952,1.65669920217509,5000,0.228563159704208,0.228563159704208,0.228563159704208,1773.14743657112,3677.69821482178,5450.8456513929,,,75.6700000762939,1273.45153808594,38867.9955601688,39572.9866615352
2018-07-19T09:01:15Z,1531990875,1F80E,40.8977344,43.6118487,3622.88,8.2,-43.1,126.6,537886.06,-138950.8,121.1,Weapon+Missile,Red,Allies,R-27ER,,xu,,189.4455371539,160.285369873047,0.580711077874639,3622.87670898438,2345.81372070312,140.271977026997,-127.331787109375,0.0536494176597055,NaN,0.199987938897973,1.60724447043767,5000,0.230599358677864,0.230599358677864,0.230599358677864,1794.48057737648,3552.82838781616,5347.30896519265,,,76.6700000762939,1277.06298828125,39007.5681424819,39761.9745330692
2018-07-19T09:01:16Z,1531990876,1F80E,40.8990968,43.611119,3491.4,8.2,-44.5,126.3,538003.81,-139021.36,120.8,Weapon+Missile,Red,Allies,R-27ER,,xu,,190.076964525881,161.861892700195,0.581709624072471,3491.40380859375,2211.77624511719,137.27391924998,-131.472900390625,0.00905229565053716,NaN,0,1.51161605908538,5000,0.229556113481522,0.229556113481522,0.229556113481522,1806.46262216866,3423.89751595459,5230.36013812325,,,77.6700000762939,1279.62756347656,39144.1534768632,39951.6096870414
2018-07-19T09:01:17Z,1531990877,1F80E,40.9004441,43.6104069,3355.19,8.2,-45.9,125.9,538120.12,-139090.05,120.4,Weapon+Missile,Red,Allies,R-27ER,,xu,,191.83756820694,164.477386474609,0.58612277119209,3355.18676757812,2074.67626953125,135.079866421684,-136.217041015625,0.0109515535251603,NaN,0,1.46174425892177,5000,0.237968921661377,0.237968921661377,0.237968921661377,1840.08262877762,3290.314231427,5130.39686020463,,,78.6700000762939,1280.51049804688,39278.5969918594,40143.0504058186
2018-07-19T09:01:18Z,1531990878,1F80E,40.9017721,43.6097149,3214.82,8.1,-47.4,125.5,538234.75,-139156.7,120,Weapon+Missile,Red,Allies,R-27ER,,xu,,193.08923929113,166.696426391602,0.58894089851104,3214.82470703125,1934.52746582031,132.59693167288,-140.362060546875,0.0454147841663764,NaN,0,1.41333507973589,5000,0.224961623549461,0.224961623549461,0.224961623549461,1864.17271650136,3152.6660713208,5016.83878782216,,,79.6700000762939,1280.29724121094,39410.4783832435,40335.6954939332
2018-07-19T09:01:19Z,1531990879,1F80E,40.9030778,43.6090441,3070.86,8,-48.7,125.1,538347.25,-139221.14,119.6,Weapon+Missile,Red,Allies,R-27ER,,xu,,193.737210563038,168.42366027832,0.589887225226806,3070.86059570312,1790.71472167969,129.64737331026,-143.964111328125,0.021584637175108,NaN,0.107698422832761,1.31605034750987,5000,0.236474573612213,0.236474573612213,0.236474573612213,1876.70533783734,3011.48550608521,4888.19084392254,,,80.6700000762939,1280.14587402344,39539.520710121,40529.0707820863
2018-07-19T09:01:20Z,1531990880,1F80E,40.9043706,43.6083895,2922.46,8,-49.9,124.7,538458.56,-139283.86,119.2,Weapon+Missile,Red,Allies,R-27ER,,xu,,195.824844920928,171.48583984375,0.595176046506401,2922.45825195312,1642.7392578125,127.76585716776,-148.40234375,0.0437861625439372,NaN,0,1.26621152435335,5000,0.23634660243988,0.23634660243988,0.23634660243988,1917.36849441528,2865.95252165161,4783.3210160669,,,81.6700000762939,1279.71899414062,39666.6744860983,40724.5357010393
2018-07-19T09:01:21Z,1531990881,1F80E,40.9056488,43.6077522,2769.95,7.9,-51.1,124.3,538568.56,-139344.81,118.8,Weapon+Missile,Red,Allies,R-27ER,,xu,,197.671044551687,174.390625,0.599685821020972,2769.95068359375,1489.78051757812,125.758830494187,-152.507568359375,0.0212743442770937,NaN,0,1.22671851679869,5000,0.228188708424568,0.228188708424568,0.228188708424568,1953.69209270775,2716.39368712647,4670.08577983422,,,82.6700000762939,1280.17016601562,39791.763743154,40921.816842545
2018-07-19T09:01:22Z,1531990882,1F80E,40.9069125,43.6071316,2613.46,7.8,-52.3,123.9,538677.19,-139403.97,118.4,Weapon+Missile,Red,Allies,R-27ER,,xu,,199.473433459904,177.313049316406,0.604019622504098,2613.45532226562,1332.28955078125,123.688530345633,-156.495361328125,0.0248235548500095,NaN,0,1.19409454511494,5000,0.231193915009499,0.231193915009499,0.231193915009499,1989.48253281415,2562.92416360962,4552.40669642376,,,83.6700000762939,1281.16577148438,39914.8356794618,41120.9406400909
2018-07-19T09:01:23Z,1531990883,1F80E,40.9081555,43.6065308,2453.94,7.7,-53.4,123.5,538783.94,-139461.11,118,Weapon+Missile,Red,Allies,R-27ER,,xu,,200.26736250641,179.36393737793,0.605269534964299,2453.93603515625,1172.30981445312,121.081020500286,-159.519287109375,0.0184439219196536,NaN,0,1.15179379620288,5000,0.231048539280891,0.231048539280891,0.231048539280891,2005.35082426369,2406.4891819165,4411.8400061802,,,84.6700000762939,1281.62622070312,40035.3043955592,41320.8672442929
2018-07-19T09:01:24Z,1531990884,1F80E,40.9093865,43.6059452,2290.45,7.6,-54.4,123.1,538889.56,-139516.66,117.5,Weapon+Missile,Red,Allies,R-27ER,,xu,,202.409969131492,182.701217651367,0.610556518468172,2290.44995117188,1006.64868164062,119.340252837279,-163.486083984375,0.00848980185286463,NaN,0,1.08993629470636,5000,0.236028477549553,0.236028477549553,0.236028477549553,2048.48978019059,2246.16410136597,4294.65388155655,,,85.6700000762939,1283.80126953125,40154.028468634,41522.9404785876
