ISOTime,UnixTime,Id,Longitude,Latitude,Altitude,Roll,Pitch,Yaw,U,V,Heading,Type,Color,Coalition,Name,Group,Country,Pilot,TAS,CAS,M,ASL,AGL,GS,VS,AOA,AOS,RRT,TRT,TRD,G,LatG,LonG,Ek,Ep,Em,FFW,FFV,RelativeTime,Elev,GroundDistance,AirDistance
2018-07-19T08:23:38Z,1531988618,30C,41.038305,43.8905218,13823.22,-0.8,0.2,162.7,546210.5,-106892.51,157.1,Weapon+Missile,Red,Allies,AIM-54A-MK,,xu,,255.75957624318,120.458686828613,0.866403455990208,13823.216796875,12608.3079833984,NaN,NaN,NaN,NaN,NaN,NaN,NaN,NaN,NaN,NaN,NaN,13555.9449001074,NaN,,,0.059999942779541,1214.90881347656,NaN,NaN
2018-07-19T08:23:39Z,1531988619,30C,41.0392595,43.8883055,13788.74,0,-1.9,162.7,546311.31,-107131.23,157.1,Weapon+Missile,Red,Allies,AIM-54A-MK,,xu,,261.41659690869,123.846755981445,0.885567009227196,13788.7373046875,12585.7445068359,259.132787886467,-34.4794921875,6.99141656058767,NaN,0.630787660005394,3.20085566883162,5000,0.107413232326508,0.107413232326508,0.107413232326508,3416.93185696602,13522.1320689014,16939.0639258674,,,1.05999994277954,1202.99279785156,258.322538126067,261.167702208573
2018-07-19T08:23:40Z,1531988620,30C,41.0403552,43.8857679,13742.13,0.3,-3.2,163,546426.94,-107404.55,157.4,Weapon+Missile,Red,Allies,AIM-54A-MK,,xu,,300.40809163321,146.212219238281,1.01765342522684,13742.1337890625,12537.2769775391,296.771180962872,-46.603515625,2.53788937168867,NaN,0.0307794470818691,0.927281636203152,2695.87638861235,4.44732332229614,4.44732332229614,4.44732332229614,4512.25107593536,13476.429632251,17988.6807081863,,,2.05999994277954,1204.85681152344,554.170409225219,561.294440614181
2018-07-19T08:23:41Z,1531988621,30C,41.0415436,43.8828357,13726.54,-0.1,-1.9,164.5,546554.38,-107720.96,158.8,Weapon+Missile,Red,Allies,AIM-54A-MK,,xu,,341.469205906116,170.427825927734,1.15675082222529,13726.5439453125,12479.2160644531,341.113141573297,-15.58984375,0.0462730622831783,NaN,0.369212705774209,1.49488220234055,5000,2.13876533508301,2.13876533508301,2.13876533508301,5830.06092910767,13461.1412181299,19291.2021472375,,,3.05999994277954,1247.32788085938,894.219644134538,902.432329854665
2018-07-19T08:23:42Z,1531988622,30C,41.0427447,43.8795404,13718.29,-0.4,-0.6,166.1,546686.69,-108077.65,160.5,Weapon+Missile,Red,Allies,AIM-54A-MK,,xu,,380.526910384167,193.228286743164,1.28906152839667,13718.2880859375,12421.3907470703,380.437340849318,-8.255859375,0.0509744582253462,NaN,0.369267347287569,2.18858342848202,5000,2.41700148582458,2.41700148582458,2.41700148582458,7240.03647632599,13453.0449857959,20693.0814621219,,,4.05999994277954,1296.89733886719,1273.50065717855,1282.61900704151
2018-07-19T08:23:43Z,1531988623,30C,41.0439166,43.8758666,13720.06,-0.7,1.1,168,546820.88,-108476.6,162.4,Weapon+Missile,Red,Allies,AIM-54A-MK,,xu,,420.919250927574,216.034896850586,1.42589340760289,13720.05859375,12408.4757080078,420.915527277761,1.7705078125,0.0425607014653809,NaN,0.200042580411333,2.46552860286241,5000,2.77041268348694,2.77041268348694,2.77041268348694,8858.65079007149,13454.7812608398,22313.4320509113,,,5.05999994277954,1311.58288574219,1693.14441987075,1703.16913726995
2018-07-19T08:23:44Z,1531988624,30C,41.0450021,43.8718279,13735.18,-0.9,2.7,170.1,546952.06,-108916.77,164.5,Weapon+Missile,Red,Allies,AIM-54A-MK,,xu,,459.546840004033,236.89045715332,1.55674706776298,13735.1826171875,12480.8670654297,459.297901228336,15.1240234375,0.0445516731354526,NaN,0.199987938897973,2.71317930933603,5000,3.12033653259277,3.12033653259277,3.12033653259277,10559.1649078846,13469.6128612842,24028.7777691688,,,6.05999994277954,1254.31555175781,2151.08336415399,2162.34284158776
2018-07-19T08:23:45Z,1531988625,30C,41.0459409,43.8674532,13766.84,-1.1,4.6,172.4,547075.12,-109395.42,166.8,Weapon+Missile,Red,Allies,AIM-54A-MK,,xu,,495.235852967136,255.167755126953,1.67764609577322,13766.8427734375,12561.5622558594,494.222808630189,31.66015625,0.0582251096087956,NaN,0.199987938897973,2.91245263969209,5000,3.43772912025452,3.43772912025452,3.43772912025452,12262.9275032043,13500.6608684131,25763.5883716174,,,7.05999994277954,1205.28051757812,2643.86673302527,2657.2024481774
2018-07-19T08:23:46Z,1531988626,30C,41.0466764,43.8627695,13817.88,-1.1,6.5,174.8,547185.25,-109910.02,169.1,Weapon+Missile,Red,Allies,AIM-54A-MK,,xu,,528.722110645845,271.311767578125,1.79108313616551,13817.8798828125,12581.1685791016,526.253060563491,51.037109375,0.0416436978500412,NaN,0,2.965739427719,5000,3.39497971534729,3.39497971534729,3.39497971534729,13977.3535142899,13550.7111752783,27528.0646895682,,,8.05999994277954,1236.71130371094,3168.58749308146,3185.52879556864
2018-07-19T08:23:47Z,1531988627,30C,41.0471901,43.8577842,13888.77,-1,7.6,176.3,547280.81,-110459.86,170.6,Weapon+Missile,Red,Allies,AIM-54A-MK,,xu,,562.56321311018,286.644622802734,1.90572223809201,13888.771484375,12538.4183349609,558.078623110359,70.8916015625,0.0671537751099502,NaN,0.199987938897973,1.64084718688513,5000,1.32190954685211,1.32190954685211,1.32190954685211,15823.8684372425,13620.2320877246,29444.1005249671,,,9.05999994277954,1350.35314941406,3725.07326159918,3747.71090677158
2018-07-19T08:23:48Z,1531988628,30C,41.0476835,43.8524386,13967.54,-0.8,7.4,176.2,547378.69,-111049.91,170.5,Weapon+Missile,Red,Allies,AIM-54A-MK,,xu,,603.274213830582,304.416717529297,2.04363360093943,13967.54296875,12578.5203857422,598.109379898247,78.771484375,0.0305555874208469,NaN,0.199987938897973,0.0759755425315707,5000,0.774800539016724,0.774800539016724,0.774800539016724,18196.9888536453,13697.4805254492,31894.4693790945,,,10.0599999427795,1389.02258300781,4321.46004141387,4350.56847123569
2018-07-19T08:23:49Z,1531988629,30C,41.0482366,43.8467209,14049.34,-0.6,7.2,175.9,547485.38,-111680.82,170.3,Weapon+Missile,Red,Allies,AIM-54A-MK,,xu,,645.077659015596,321.799774169922,2.18524569583184,14049.337890625,12697.3453369141,639.870906446374,81.794921875,0.0345131524062597,NaN,0.200042580411333,0.316209797484676,5000,0.751769125461578,0.751769125461578,0.751769125461578,20806.2593080521,13777.6939425098,34583.9532505618,,,11.0599999427795,1351.99255371094,4959.50406748953,4995.22403671322
2018-07-19T08:23:50Z,1531988630,30C,41.048862,43.8405836,14134.28,-0.5,6.9,175.7,547602.44,-112357.8,170.1,Weapon+Missile,Red,Allies,AIM-54A-MK,,xu,,692.254243451273,340.614929199219,2.34505967580975,14134.279296875,12782.4676513672,687.023212912465,84.94140625,0.0363980089463483,NaN,0.0153837204449843,0.33934266102773,5000,0.746258914470673,0.746258914470673,0.746258914470673,23960.7968788147,13860.9930066699,37821.7898854846,,,12.0599999427795,1351.81164550781,5644.5482572493,5687.0163084031
2018-07-19T08:23:51Z,1531988631,30C,41.0495593,43.8340967,14220.94,-0.4,6.7,175.5,547729.12,-113073.02,169.9,Weapon+Missile,Red,Allies,AIM-54A-MK,,xu,,731.503517716711,355.216430664062,2.47801933803702,14220.9384765625,12821.1585693359,726.352244443295,86.6591796875,0.0257217890678574,NaN,0.0923021092264945,0.331023730742493,5000,0.728896498680115,0.728896498680115,0.728896498680115,26754.8698215961,13945.9766311182,40700.8464527143,,,13.0599999427795,1399.77990722656,6368.82934187562,6418.06188054958
2018-07-19T08:23:52Z,1531988632,30C,41.0503394,43.827215,14309.48,-0.3,6.4,175.2,547866.75,-113831.48,169.6,Weapon+Missile,Red,Allies,AIM-54A-MK,,xu,,775.922141540048,371.322235107422,2.62849053350958,14309.48046875,12829.619140625,770.853737975994,88.5419921875,0.0408286182663522,NaN,0,0.331466759223618,5000,0.723354876041412,0.723354876041412,0.723354876041412,30102.7584866047,14032.8066638867,44135.5651504914,,,14.0599999427795,1479.861328125,7137.46081357251,7193.48414989171
2018-07-19T08:23:53Z,1531988633,30C,41.0512103,43.819928,14399.55,-0.2,6.2,175,548016.06,-114634.25,169.3,Weapon+Missile,Red,Allies,AIM-54A-MK,,xu,,821.485958917372,387.309478759766,2.78284115225742,14399.548828125,13007.9333496094,816.533447776569,90.068359375,0.0424457915479652,NaN,0,0.366510085297,5000,0.717450082302094,0.717450082302094,0.717450082302094,33741.9590349197,14121.1335515332,47863.0925864529,,,15.0599999427795,1391.61547851562,7951.65709424211,8014.46840132815
2018-07-19T08:23:54Z,1531988634,30C,41.0521782,43.8122414,14490.57,-0.1,5.9,174.7,548177.62,-115480.64,169,Weapon+Missile,Red,Allies,AIM-54A-MK,,xu,,866.466744825939,402.593292236328,2.93521671111933,14490.5712890625,13211.8251953125,861.672519867113,91.0224609375,0.0317009091789936,NaN,0.0615347483778051,0.401662774438381,5000,0.700502216815948,0.700502216815948,0.700502216815948,37538.230994463,14210.3960931885,51748.6270876514,,,16.0599999427795,1278.74609375,8810.84777888209,8880.40215382067
2018-07-19T08:23:55Z,1531988635,30C,41.053252,43.804139,14582.16,-0.1,5.6,174.4,548352.19,-116372.41,168.8,Weapon+Missile,Red,Allies,AIM-54A-MK,,xu,,913.293929361087,418.189575195312,3.09384707449218,14582.15625,13167.1999511719,908.690264247335,91.5849609375,0.0270174301735175,NaN,0,0.402149638860156,5000,0.697071850299835,0.697071850299835,0.697071850299835,41705.2900703907,14300.2102589063,56005.500329297,,,17.0599999427795,1414.95629882812,9716.91915790657,9793.14501193011
2018-07-19T08:23:56Z,1531988636,30C,41.054435,43.7956492,14673.35,0,5.3,174.1,548539.75,-117306.34,168.5,Weapon+Missile,Red,Allies,AIM-54A-MK,,xu,,956.940993317033,432.257476806641,3.24170455694008,14673.3544921875,13036.4182128906,952.585400535039,91.1982421875,0.0319135618647739,NaN,0,0.401784543904678,5000,0.694842219352722,0.694842219352722,0.694842219352722,45786.8032345295,14389.6451830811,60176.4484176106,,,18.0599999427795,1636.93627929688,10666.7604663514,10749.5228758139
2018-07-19T08:23:57Z,1531988637,30C,41.0557411,43.7867309,14763.88,0,5,173.8,548741.94,-118286.95,168.2,Weapon+Missile,Red,Allies,AIM-54A-MK,,xu,,1005.31326616452,447.826202392578,3.40556901505646,14763.8837890625,13037.4324951172,1001.22884973101,90.529296875,0,NaN,0,0.419650584545712,5000,0.687083899974823,0.687083899974823,0.687083899974823,50532.7381563187,14478.424096001,65011.1622523196,,,19.0599999427795,1726.45129394531,11665.0750386967,11754.2281244691
2018-07-19T08:23:58Z,1531988638,30C,41.0571692,43.7774423,14852.38,0.1,4.7,173.6,548958,-119307.71,167.9,Weapon+Missile,Red,Allies,AIM-54A-MK,,xu,,1047.12815327857,460.754058837891,3.54721987028388,14852.3818359375,13057.4340820312,1043.38174465911,88.498046875,0.0132897447590317,NaN,0.107692313015105,0.468245326097517,5000,0.683303415775299,0.683303415775299,0.683303415775299,54823.868469429,14565.2110331396,69389.0795025687,,,20.0599999427795,1794.94775390625,12705.43294695,12800.7500203723
2018-07-19T08:23:59Z,1531988639,30C,41.0587398,43.7677054,14938.7,0.1,4.3,173.2,549190.38,-120377.16,167.6,Weapon+Missile,Red,Allies,AIM-54A-MK,,xu,,1097.79875552344,476.774780273438,3.71887008001181,14938.69921875,13232.8911132812,1094.40002606598,86.3173828125,0.0455060449887651,NaN,0,0.4924830527801,5000,0.704473912715912,0.704473912715912,0.704473912715912,60258.1053814411,14649.8594693555,74907.9648507966,,,21.0599999427795,1705.80810546875,13796.6641133542,13897.930305998
2018-07-19T08:24:00Z,1531988640,30C,41.0604521,43.7575853,15021.23,0.1,3.9,172.9,549438.38,-121488.08,167.2,Weapon+Missile,Red,Allies,AIM-54A-MK,,xu,,1141.25472003717,490.049072265625,3.86608019973097,15021.2275390625,13655.3095703125,1138.26684584658,82.5283203125,0.0408561038431241,NaN,0,0.481432393672401,5000,0.731521606445312,0.731521606445312,0.731521606445312,65123.1168003559,14730.7921045947,79853.9089049506,,,22.0599999427795,1365.91796875,14931.6094932203,15038.5308590737
2018-07-19T08:24:01Z,1531988641,30C,41.0623284,43.747007,15099.53,0.2,3.6,172.6,549704.69,-122648.6,166.9,Weapon+Missile,Red,Allies,AIM-54A-MK,,xu,,1193.25959782004,506.366546630859,4.04225036118208,15099.53125,13432.2325439453,1190.68761505404,78.3037109375,0.0257846867100619,NaN,0,0.508416656814124,5000,0.751896739006042,0.751896739006042,0.751896739006042,71193.4233894825,14807.5818132812,86001.0052027637,,,23.0599999427795,1667.29870605469,16118.8023236088,16231.1004233045
2018-07-19T08:24:02Z,1531988642,30C,41.064373,43.736008,15172.08,0.2,3.1,172.2,549989.06,-123854.54,166.6,Weapon+Missile,Red,Allies,AIM-54A-MK,,xu,,1241.135774358,521.192749023438,4.2044342583459,15172.08203125,13315.4774169922,1239.01347633157,72.55078125,0.0583076795012695,NaN,0,0.545728432785169,5000,0.828214049339294,0.828214049339294,0.828214049339294,77020.9005195618,14878.7298251758,91899.6303447376,,,24.0599999427795,1856.60461425781,17354.1982510337,17471.5515111483
2018-07-19T08:24:03Z,1531988643,30C,41.0665896,43.7246301,15237.32,0.2,2.7,171.8,550291.5,-125101.23,166.2,Weapon+Missile,Red,Allies,AIM-54A-MK,,xu,,1284.50523071887,534.496887207031,4.35135132564564,15237.31640625,13442.9144287109,1282.84767765409,65.234375,0.0318150339233981,NaN,0,0.585430454800602,5000,0.894823253154755,0.894823253154755,0.894823253154755,82497.684387207,14942.7028935352,97440.3872807422,,,25.0599999427795,1794.40197753906,18633.2734424012,18755.3343484436
2018-07-19T08:24:04Z,1531988644,30C,41.0690062,43.7127907,15294.33,0.3,2.2,171.5,550615.12,-126397.59,165.8,Weapon+Missile,Red,Allies,AIM-54A-MK,,xu,,1337.3671999425,551.366088867188,4.53042494430949,15294.3251953125,13577.6163330078,1336.15157278344,57.0087890625,0.0280319256905973,NaN,0,0.626522687116397,5000,0.986328721046448,0.986328721046448,0.986328721046448,89427.5513741016,14998.6094176611,104426.160791763,,,26.0599999427795,1716.70886230469,19965.4859473504,20091.9517614658
2018-07-19T08:24:05Z,1531988645,30C,41.0716176,43.7005802,15341.21,0.3,1.7,171,550958.56,-127733.66,165.4,Weapon+Missile,Red,Allies,AIM-54A-MK,,xu,,1380.30122407052,564.950256347656,4.67586695446013,15341.2109375,13335.3566894531,1379.50469239872,46.8857421875,0.0239727952263819,NaN,0,0.65537431330503,5000,1.08410120010376,1.08410120010376,1.08410120010376,95261.5734585285,15044.5886240234,110306.162082552,,,27.0599999427795,2005.85424804688,21340.9014397607,21471.4674446036
2018-07-19T08:24:06Z,1531988646,30C,41.0744135,43.6881071,15376.16,0.4,1.1,170.6,551319.75,-129097.45,164.9,Weapon+Missile,Red,Allies,AIM-54A-MK,,xu,,1411.23237442383,574.638977050781,4.78064839004705,15376.1552734375,12949.1364746094,1410.79966969369,34.9443359375,0.0423471199750855,NaN,0.199999998450727,0.706942615064597,5000,1.18005669116974,1.18005669116974,1.18005669116974,99578.8407310963,15078.8573112256,114657.698042322,,,28.0599999427795,2427.01879882812,22747.520644993,22881.9067654762
2018-07-19T08:24:07Z,1531988647,30C,41.0773087,43.675794,15397.16,0.4,0.5,170.1,551687.25,-130442.66,164.5,Weapon+Missile,Red,Allies,AIM-54A-MK,,xu,,1394.67235631873,567.930908203125,4.72455017027257,15397.1611328125,12831.0688476562,1394.51415745827,21.005859375,0.0352897668673059,NaN,0,0.737692180068847,5000,1.22420024871826,1.22420024871826,1.22420024871826,97255.5490739822,15099.4570223096,112355.006096292,,,29.0599999427795,2566.09228515625,24137.8869224726,24275.7854603381
2018-07-19T08:24:08Z,1531988648,30C,41.0802942,43.6636915,15404.16,0.4,-0,169.7,552059.81,-131763.77,164,Weapon+Missile,Red,Allies,AIM-54A-MK,,xu,,1372.64750835521,559.839477539062,4.64993945706466,15404.1630859375,13207.2407226562,1372.62964955817,7.001953125,0.0212941938430937,NaN,0,0.737692180068847,5000,1.28210377693176,1.28210377693176,1.28210377693176,94208.0591096878,15106.3235926709,109314.382702359,,,30.0599999427795,2196.92236328125,25506.4108886445,25647.6317363906
2018-07-19T08:24:09Z,1531988649,30C,41.0833854,43.6517519,15397.11,0.5,-0.6,169.1,552439.25,-133065.92,163.5,Weapon+Missile,Red,Allies,AIM-54A-MK,,xu,,1356.33089046738,554.311828613281,4.59466577255306,15397.1083984375,13018.7915039062,1356.31254356078,-7.0546875,0.00495966436693377,NaN,0,0.770519349880398,5000,1.35027575492859,1.35027575492859,1.35027575492859,91981.6742218018,15099.4053075537,107081.079529355,,,31.0599999427795,2378.31689453125,26858.6392452122,27003.1435386027
2018-07-19T08:24:10Z,1531988650,30C,41.0865908,43.639968,15375.83,0.5,-1.3,168.6,552826.25,-134349.86,162.9,Weapon+Missile,Red,Allies,AIM-54A-MK,,xu,,1341.16268735147,549.712707519531,4.54328242341783,15375.828125,12860.9704589844,1340.99384931708,-21.2802734375,0.0456979126911242,NaN,0,0.841070561612428,5000,1.43232262134552,1.43232262134552,1.43232262134552,89935.8676971913,15078.5364882031,105014.404185394,,,32.0599999427795,2514.85766601562,28195.5793760623,28343.477814899
2018-07-19T08:24:11Z,1531988651,30C,41.0899175,43.6283428,15340.33,0.6,-1.8,168,553221.38,-135615.22,162.4,Weapon+Missile,Red,Allies,AIM-54A-MK,,xu,,1326.09141195556,545.651916503906,4.49222742371456,15340.3271484375,12737.6398925781,1325.61612600533,-35.5009765625,0.0237953770021638,NaN,0.199999998450727,0.878457256220932,5000,1.51060581207275,1.51060581207275,1.51060581207275,87925.9216431141,15043.7219230225,102969.643566137,,,33.0599999427795,2602.68725585938,29517.1589139347,29668.7152099567
2018-07-19T08:24:12Z,1531988652,30C,41.093351,43.6169468,15290.72,0.6,-2.5,167.4,553622.75,-136854.25,161.7,Weapon+Missile,Red,Allies,AIM-54A-MK,,xu,,1303.36534609704,539.340515136719,4.41524128583419,15290.7197265625,12372.6525878906,1302.42094927161,-49.607421875,0.0419116603208871,NaN,0,0.911422684002323,5000,1.5691442489624,1.5691442489624,1.5691442489624,84938.0612703323,14995.0736606494,99933.1349309818,,,34.0599999427795,2918.06713867188,30815.578731373,30971.1978997255
2018-07-19T08:24:13Z,1531988653,30C,41.0969175,43.6057068,15226.47,0.7,-3.2,166.7,554033.19,-138074.88,161.1,Weapon+Missile,Red,Allies,AIM-54A-MK,,xu,,1289.38445354515,536.63427734375,4.36788003429198,15226.470703125,12945.9812011719,1287.78271926255,-64.2490234375,0.0302668748670712,NaN,0.199999998450727,0.945827093903618,5000,1.61154758930206,1.61154758930206,1.61154758930206,83125.6134521961,14932.0668920801,98057.6803442762,,,35.0599999427795,2280.48950195312,32099.4046934414,32259.6980294237
2018-07-19T08:24:14Z,1531988654,30C,41.100615,43.5946336,15147.55,0.7,-3.9,166.1,554452.5,-139275.94,160.4,Weapon+Missile,Red,Allies,AIM-54A-MK,,xu,,1274.59875773454,534.118957519531,4.31779245541143,15147.5537109375,13037.994140625,1272.15333256746,-78.9169921875,0.0671543458604275,NaN,0,0.945516747183205,5000,1.63630640506744,1.63630640506744,1.63630640506744,81230.0996609211,14854.6757599365,96084.7754208576,,,36.0599999427795,2109.5595703125,33367.5978723697,33533.3581399459
2018-07-19T08:24:15Z,1531988655,30C,41.1044299,43.5837681,15054.41,0.8,-4.6,165.4,554879.12,-140452.97,159.7,Weapon+Missile,Red,Allies,AIM-54A-MK,,xu,,1255.42310631969,530.459167480469,4.25283359482556,15054.41015625,13066.1451416016,1251.96304022985,-93.1435546875,0.037035272737781,NaN,0.153846275794835,0.98366047221167,5000,1.6611533164978,1.6611533164978,1.6611533164978,78804.3587940693,14763.3331358789,93567.6919299482,,,37.0599999427795,1988.26501464844,34615.6321826588,34787.8100689682
2018-07-19T08:24:16Z,1531988656,30C,41.108385,43.5730523,14946.95,0.8,-5.3,164.6,555315.5,-141612.23,159,Weapon+Missile,Red,Allies,AIM-54A-MK,,xu,,1243.32965161049,529.819396972656,4.2118661710097,14946.9453125,13005.2425537109,1238.67668498751,-107.46484375,0.0325083298628611,NaN,0,1.01533248627984,5000,1.68385970592499,1.68385970592499,1.68385970592499,77293.4311286926,14657.9461248828,91951.3772535754,,,38.0599999427795,1941.70275878906,35850.4215629272,36030.160187262
2018-07-19T08:24:17Z,1531988657,30C,41.1124507,43.5625743,14826.94,0.9,-5.9,164,555758.31,-142744.2,158.3,Weapon+Missile,Red,Allies,AIM-54A-MK,,xu,,1221.40812253912,525.934509277344,4.13760545777658,14826.9384765625,12983.0968017578,1215.49831802961,-120.0068359375,0.0317836717821063,NaN,0.0769230845365645,1.01388587355797,5000,1.7347686290741,1.7347686290741,1.7347686290741,74591.8900902271,14540.2596211182,89132.1497113453,,,39.0599999427795,1843.84167480469,37062.0417005931,37250.5232068174
2018-07-19T08:24:18Z,1531988658,30C,41.1166758,43.552221,14693.62,0.9,-6.6,163.1,556212.75,-143861.03,157.5,Weapon+Missile,Red,Allies,AIM-54A-MK,,xu,,1213.09203572677,527.487182617188,4.1094341319542,14693.6201171875,12798.1506347656,1205.7439621235,-133.318359375,0.0438454949030048,NaN,0,1.05401462231398,5000,1.81539559364319,1.81539559364319,1.81539559364319,73579.6143571854,14409.5189722217,87989.133329407,,,40.0599999427795,1895.46948242188,38263.9124436008,38462.5300112477
2018-07-19T08:24:19Z,1531988659,30C,41.1210274,43.5420918,14548.52,1,-7.3,162.2,556675.12,-144951.94,156.5,Weapon+Missile,Red,Allies,AIM-54A-MK,,xu,,1193.70030441619,525.240478515625,4.04374328560583,14548.5224609375,12403.9284667969,1184.84897219606,-145.09765625,0.0328463784484912,NaN,0.200000105172432,1.13152147458116,5000,2.18999171257019,2.18999171257019,2.18999171257019,71246.0208381653,14267.2267791553,85513.2476173206,,,41.0599999427795,2144.59399414062,39444.8933777899,39655.0781424421
2018-07-19T08:24:20Z,1531988660,30C,41.1255419,43.5322088,14392.13,1,-8,161,557148,-146014.19,155.4,Weapon+Missile,Red,Allies,AIM-54A-MK,,xu,,1173.22022163354,522.854431152344,3.97436557251101,14392.1259765625,12012.9130859375,1162.74925419241,-156.396484375,0.0314094748995393,NaN,0,1.29551388966635,5000,2.49956583976746,2.49956583976746,2.49956583976746,68822.284422493,14113.8542208057,82936.1386432986,,,42.0599999427795,2379.212890625,40603.8123275112,40827.1080734416
2018-07-19T08:24:21Z,1531988661,30C,41.1302666,43.5225448,14224.41,1.1,-8.7,159.9,557635.56,-147050.41,154.2,Weapon+Missile,Red,Allies,AIM-54A-MK,,xu,,1157.40920523356,522.542724609375,3.92080464840845,14224.4072265625,11657.7287597656,1145.19277384107,-167.71875,0.0486914265287484,NaN,0,1.38284767660189,5000,2.54236698150635,2.54236698150635,2.54236698150635,66979.8034179688,13949.3783128369,80929.1817308057,,,43.0599999427795,2566.67846679688,41745.1906283559,41983.2765439225
2018-07-19T08:24:22Z,1531988662,30C,41.1351909,43.5131215,14046.26,1.2,-9.3,158.6,558136.81,-148058.28,152.9,Weapon+Missile,Red,Allies,AIM-54A-MK,,xu,,1139.6492635494,521.734191894531,3.86064160357017,14046.2587890625,11240.2294921875,1125.63918647362,-178.1484375,0.0250854212016696,NaN,0.200000105172432,1.41104792685929,5000,2.57015085220337,2.57015085220337,2.57015085220337,64940.0221954346,13774.674375376,78714.6965708106,,,44.0599999427795,2806.029296875,42866.9778314521,43121.5767583745
2018-07-19T08:24:23Z,1531988663,30C,41.1403212,43.5039269,13857.72,1.3,-10,157.3,558652.25,-149039.06,151.6,Weapon+Missile,Red,Allies,AIM-54A-MK,,xu,,1123.90169636294,521.9755859375,3.80729561811697,13857.71875,11127.0576171875,1107.97458308294,-188.5400390625,0.0506507204914226,NaN,0.123076807192456,1.45916404824109,5000,2.87346029281616,2.87346029281616,2.87346029281616,63157.7511543751,13589.7797579688,76747.5309123438,,,45.0599999427795,2730.6611328125,43971.152505574,44244.1135405596
2018-07-19T08:24:24Z,1531988664,30C,41.1455219,43.4951557,13651.24,2.6,-14,156.2,559168.94,-149972.23,150.5,Weapon+Missile,Red,Allies,AIM-54A-MK,,xu,,1086.46633558614,513.915344238281,3.68048071472337,13651.240234375,11104.8410644531,1066.66570252693,-206.478515625,0.331540982638756,NaN,2.64615423612387,4.35179953438662,5000,10.9921960830688,10.9921960830688,10.9921960830688,59020.4549180985,13387.2935044434,72407.7484225418,,,46.0599999427795,2546.39916992188,45034.0344482843,45329.1154476752
2018-07-19T08:24:25Z,1531988665,30C,41.150001,43.4881844,13379.34,5.1,-20.9,152.8,559607.62,-150711.12,147.1,Weapon+Missile,Red,Allies,AIM-54A-MK,,xu,,901.29678840611,446.213623046875,3.05320592025634,13379.33984375,11064.2561035156,859.305579156298,-271.900390625,0.65770939112793,NaN,2.10769221748109,6.0787253542256,5000,7.29241991043091,7.29241991043091,7.29241991043091,40616.7950395584,13120.6503078711,53737.4453474295,,,47.0599999427795,2315.08374023438,45890.2438866248,46229.1902085236
2018-07-19T08:24:26Z,1531988666,30C,41.1544985,43.4822237,13084.39,4.6,-21.2,149.9,560036.81,-151337.56,144.2,Weapon+Missile,Red,Allies,AIM-54A-MK,,xu,,814.630358770404,417.57177734375,2.75961732718128,13084.3876953125,10967.5422363281,759.358842420696,-294.9521484375,0.0673749650538268,NaN,0.769243225083516,3.34175756322748,5000,3.56243538856506,3.56243538856506,3.56243538856506,33181.1310715199,12831.4010592236,46012.5321307435,,,48.0599999427795,2116.84545898438,46646.707918935,47042.5851645089
2018-07-19T08:24:27Z,1531988667,30C,41.1592618,43.4765099,12798.44,4,-20.8,147.6,560484.75,-151934.44,141.9,Weapon+Missile,Red,Allies,AIM-54A-MK,,xu,,799.170924609605,418.341278076172,2.70724741250863,12798.439453125,10991.2183837891,746.262533919029,-285.9482421875,0.0275969834896743,NaN,0.769243225083516,2.20194413227221,5000,3.38358688354492,3.38358688354492,3.38358688354492,31933.7083370686,12550.9816262988,44484.6899633674,,,49.0599999427795,1807.22106933594,47390.0847743726,47840.4700805261
2018-07-19T08:24:28Z,1531988668,30C,41.1642345,43.4710417,12524.75,3.4,-20.3,145.4,560947.12,-152502.33,139.7,Weapon+Missile,Red,Allies,AIM-54A-MK,,xu,,781.790799312974,417.778259277344,2.64837102225286,12524.7490234375,10844.4978027344,732.318511706409,-273.6904296875,0.0759059713949161,NaN,0.569255286185543,2.14531204565588,5000,3.23340272903442,3.23340272903442,3.23340272903442,30559.842694521,12282.5830010693,42842.4256955903,,,50.0599999427795,1680.25122070312,48119.4102448043,48620.8136328674
2018-07-19T08:24:29Z,1531988669,30C,41.1693869,43.4658193,12262.91,2.8,-19.8,143.3,561421.44,-153041.44,137.6,Weapon+Missile,Red,Allies,AIM-54A-MK,,xu,,764.30936971771,416.666168212891,2.5891514565988,12262.9140625,10549.4792480469,718.060767532345,-261.8349609375,0.0309614915446371,NaN,0.569255286185543,2.081038898349,5000,3.07039046287537,3.07039046287537,3.07039046287537,29208.4406319141,12025.8106191016,41234.2512510157,,,51.0599999427795,1713.43481445312,48834.42155621,49383.5636009233
2018-07-19T08:24:30Z,1531988670,30C,41.1747211,43.4608087,12011.05,2.4,-19.4,141.2,561908.12,-153555.55,135.5,Weapon+Missile,Red,Allies,AIM-54A-MK,,xu,,751.405190513849,417.247406005859,2.54543764684369,12011.0478515625,10134.9884033203,707.935853110394,-251.8662109375,0.0453167361127075,NaN,0.47691112860697,1.98339686185202,5000,2.95752930641174,2.95752930641174,2.95752930641174,28230.4880165577,11778.8142413525,40009.3022579102,,,52.0599999427795,1876.05944824219,49539.31218481,50133.3636943686
2018-07-19T08:24:31Z,1531988671,30C,41.1802103,43.4560097,11769.12,2,-18.8,139.3,562405.12,-154044.86,133.6,Weapon+Missile,Red,Allies,AIM-54A-MK,,xu,,738.218239323557,417.316497802734,2.50076592720345,11769.1171875,9602.45239257812,697.449440931922,-241.9306640625,0.0265301673837931,NaN,0.569255286185543,1.96776021096434,5000,3.12870454788208,3.12870454788208,3.12870454788208,27248.3084434986,11541.5613066797,38789.8697501783,,,53.0599999427795,2166.66479492188,50233.6661594255,50869.8805790613
2018-07-19T08:24:32Z,1531988672,30C,41.1858563,43.4514199,11539.32,1.6,-18.2,137,562912.62,-154509.66,131.3,Weapon+Missile,Red,Allies,AIM-54A-MK,,xu,,725.532970394387,417.186462402344,2.45779369131755,11539.322265625,9143.6240234375,688.180488687209,-229.794921875,0.0631182864390608,NaN,0.399975877795947,2.06051631432723,5000,3.05360841751099,3.05360841751099,3.05360841751099,26319.9045564651,11316.2094696191,37636.1140260843,,,54.0599999427795,2395.6982421875,50918.6645517291,51593.5827351545
2018-07-19T08:24:33Z,1531988673,30C,41.1916129,43.4470708,11321.61,1.2,-17.5,135.1,563426.44,-154946.78,129.4,Weapon+Missile,Red,Allies,AIM-54A-MK,,xu,,708.857057132775,414.628448486328,2.40130286859302,11321.6142578125,8965.12475585938,674.597324914093,-217.7080078125,0.040038476033624,NaN,0.369212705774209,1.99105862655349,5000,2.81857204437256,2.81857204437256,2.81857204437256,25123.9163723469,11102.7108461377,36226.6272184846,,,55.0599999427795,2356.48950195312,51590.1027190528,52300.5787242674
2018-07-19T08:24:34Z,1531988674,30C,41.197487,43.4429104,11114.54,1,-17,133.4,563947.81,-155361.97,127.7,Weapon+Missile,Red,Allies,AIM-54A-MK,,xu,,697.92025855033,414.508666992188,2.36425369831958,11114.5390625,8672.09155273438,666.492723727161,-207.0751953125,0.0231819505743561,NaN,0.199987938897973,1.80282587010393,5000,2.57417821884155,2.57417821884155,2.57417821884155,24354.634364748,10899.6394497266,35254.2738144746,,,56.0599999427795,2442.44750976562,52253.33928881,52996.5037238602
2018-07-19T08:24:35Z,1531988675,30C,41.2034354,43.4389497,10916.49,0.8,-16.6,131.6,564473.06,-155754.34,125.8,Weapon+Missile,Red,Allies,AIM-54A-MK,,xu,,684.886716967657,412.531280517578,2.31678401009277,10916.48828125,8463.46118164062,655.626191609975,-198.05078125,0.0611435925149109,NaN,0.199987938897973,1.71881838529418,5000,2.4755220413208,2.4755220413208,2.4755220413208,23453.4907539368,10705.417980332,34158.9087342688,,,57.0599999427795,2453.02709960938,52905.6923197495,53679.3359292803
2018-07-19T08:24:36Z,1531988676,30C,41.2094437,43.435182,10727,0.6,-16.1,130,565001.06,-156124.75,124.2,Weapon+Missile,Red,Allies,AIM-54A-MK,,xu,,672.228911206311,409.813507080078,2.26755912881866,10726.9970703125,8138.25024414062,644.96882873443,-189.4912109375,0.0703474573465883,NaN,0.199987938897973,1.66395115552635,5000,2.29947781562805,2.29947781562805,2.29947781562805,22594.5854530811,10519.590581958,33114.1760350391,,,58.0599999427795,2588.74682617188,53547.3902802969,54349.4715073856
2018-07-19T08:24:37Z,1531988677,30C,41.21552,43.4315838,10543.92,0.6,-15.9,128.3,565532.75,-156475.73,122.5,Weapon+Missile,Red,Allies,AIM-54A-MK,,xu,,662.871685494559,408.569427490234,2.22994186776311,10543.919921875,7776.26147460938,637.088399792675,-183.0771484375,0.0740837498300628,NaN,0,1.69513331696498,5000,2.34943747520447,2.34943747520447,2.34943747520447,21969.9435715199,10340.0532301855,32309.9968017054,,,59.0599999427795,2767.65844726562,54181.2039345456,55010.2118740622
2018-07-19T08:24:38Z,1531988678,30C,41.2216559,43.4281931,10363.21,1.2,-16.5,126,566067.06,-156803.16,120.3,Weapon+Missile,Red,Allies,AIM-54A-MK,,xu,,652.189406435583,406.466186523438,2.18817424767148,10363.2099609375,7465.46411132812,626.653757576515,-180.7099609375,0.11367533349928,NaN,0.769230952087351,2.36968824220244,5000,3.0449640750885,3.0449640750885,3.0449640750885,21267.5510933399,10162.8372963428,31430.3883896827,,,60.0599999427795,2897.74584960938,54804.5148661008,55660.1712447337
2018-07-19T08:24:39Z,1531988679,30C,41.2277953,43.4251162,10169.72,3.5,-19.3,123.1,566598.25,-157095.64,117.4,Weapon+Missile,Red,Allies,AIM-54A-MK,,xu,,636.510894239408,401.766967773438,2.12952685450165,10169.71875,7315.28833007812,606.388711780975,-193.4912109375,0.0622494789862576,NaN,2.50769242782596,3.7206025432787,5000,4.16671180725098,4.16671180725098,4.16671180725098,20257.3059242725,9973.08723796875,30230.3931622413,,,61.0599999427795,2854.43041992188,55407.5762212844,56294.4374205991
2018-07-19T08:24:40Z,1531988680,30C,41.2337406,43.4224171,9946.44,6.8,-23.9,120.8,567109.56,-157347.67,115.1,Weapon+Missile,Red,Allies,AIM-54A-MK,,xu,,612.221865364651,392.626068115234,2.0416172723663,9946.435546875,7086.5439453125,570.052825300263,-223.283203125,0.102364702807558,NaN,3.5538464629006,4.93054536842389,5000,4.70220184326172,4.70220184326172,4.70220184326172,18740.7806215286,9754.12121557617,28494.9018371048,,,62.0599999427795,2859.8916015625,55974.430748041,56904.5141974618
2018-07-19T08:24:41Z,1531988681,30C,41.2392903,43.4201056,9690.38,9.4,-28.2,118.9,567584.56,-157559.8,113.2,Weapon+Missile,Red,Allies,AIM-54A-MK,,xu,,579.816797742822,378.981994628906,1.92640898035465,9690.3779296875,6780.92578125,520.213432761016,-256.0576171875,0.183933452093706,NaN,1.89230903219391,4.30023245992667,5000,2.36179232597351,2.36179232597351,2.36179232597351,16809.375947237,9503.01447241699,26312.390419654,,,63.0599999427795,2909.4521484375,56491.6851493811,57482.3913333845
2018-07-19T08:24:42Z,1531988682,30C,41.2445789,43.4179552,9413.59,8.7,-29.3,119.4,568036.75,-157756.11,113.7,Weapon+Missile,Red,Allies,AIM-54A-MK,,xu,,565.351355824709,375.498992919922,1.8709039055256,9413.5927734375,6478.8759765625,492.962607925287,-276.78515625,0.127107252360571,NaN,2.07692392281748,1.33076705729372,5000,1.17948317527771,1.17948317527771,1.17948317527771,15981.1077766418,9231.58095716309,25212.6887338049,,,64.0599999427795,2934.716796875,56981.7515298276,58045.8582511941
2018-07-19T08:24:43Z,1531988683,30C,41.2498186,43.4158469,9143.3,7.3,-28.8,118.6,568484.5,-157948.08,112.9,Weapon+Missile,Red,Allies,AIM-54A-MK,,xu,,557.128294191471,375.366607666016,1.83661088187782,9143.296875,6058.5322265625,487.167387533856,-270.2958984375,0.0693807894835479,NaN,1.35385277652325,0.943340905045733,5000,1.90456247329712,1.90456247329712,1.90456247329712,15519.5968094349,8966.51122992187,24486.1080393568,,,65.0599999427795,3084.7646484375,57466.0918930623,58601.1315822986
2018-07-19T08:24:44Z,1531988684,30C,41.2551259,43.4137585,8881.74,5.3,-27.4,118.3,568937.56,-158137.28,112.5,Weapon+Missile,Red,Allies,AIM-54A-MK,,xu,,556.304148797435,379.446624755859,1.82712948487752,8881.7421875,5804.87426757812,490.982129426332,-261.5546875,0.0430671075734835,NaN,1.67689340350817,1.28161477487049,5000,2.50683927536011,2.50683927536011,2.50683927536011,15473.7152984619,8710.01370230469,24183.7290007666,,,66.0599999427795,3076.86791992188,57954.1764728338,59155.488084205
2018-07-19T08:24:45Z,1531988685,30C,41.2604198,43.411694,8639.16,2.8,-25,118,569389.25,-158323.91,112.3,Weapon+Missile,Red,Allies,AIM-54A-MK,,xu,,545.617037448702,377.129150390625,1.78594042148401,8639.1572265625,5602.06494140625,488.723324879476,-242.5849609375,0.0842763129727547,NaN,2.7077055530465,2.22635928379066,5000,3.67882394790649,3.67882394790649,3.67882394790649,14884.8975777149,8472.11912158691,23357.0166993018,,,67.0599999427795,3037.09228515625,58440.0562409192,59699.1567083045
2018-07-19T08:24:46Z,1531988686,30C,41.2656978,43.4096701,8427.88,0.1,-21.7,117.5,569839.25,-158506.12,111.8,Weapon+Missile,Red,Allies,AIM-54A-MK,,xu,,529.471565095453,370.662414550781,1.72799553873937,8427.8837890625,5585.56274414062,485.493226370423,-211.2734375,0.0312920450919466,NaN,3.01539191477723,3.4160106841288,5000,4.40224504470825,4.40224504470825,4.40224504470825,14017.0069122314,8264.93065600098,22281.9375682324,,,68.0599999427795,2842.32104492188,58922.6851544446,60226.5947063242
2018-07-19T08:24:47Z,1531988687,30C,41.2709023,43.4077046,8256.47,-2.9,-17.5,117.3,570282.69,-158682.42,111.5,Weapon+Missile,Red,Allies,AIM-54A-MK,,xu,,507.051796714489,359.179901123047,1.6508971941989,8256.4658203125,5392.04370117188,477.197448171106,-171.41796875,0.0363948621760198,NaN,3.12303569609663,4.19557475193503,5000,4.76690196990967,4.76690196990967,4.76690196990967,12855.0762275696,8096.82705367676,20951.9032812463,,,69.0599999427795,2864.42211914062,59397.0488838414,60731.5640888113
2018-07-19T08:24:48Z,1531988688,30C,41.2759322,43.4058463,8129.81,-5.2,-13.6,116.5,570710.75,-158848.19,110.8,Weapon+Missile,Red,Allies,AIM-54A-MK,,xu,,476.189628735506,340.819976806641,1.54770462590675,8129.8134765625,5222.392578125,459.037848480809,-126.65234375,0.148175271286936,NaN,1.53843180865367,3.65939892567351,5000,3.44174599647522,3.44174599647522,3.44174599647522,11337.8281257629,7972.62353299316,19310.4516587561,,,70.0599999427795,2907.4208984375,59853.410034355,61205.7388679677
2018-07-19T08:24:49Z,1531988689,30C,41.2808493,43.4040795,8030.75,-6.2,-11.3,116.4,571128.81,-159004.67,110.7,Weapon+Missile,Red,Allies,AIM-54A-MK,,xu,,457.250646095383,329.388214111328,1.48412401650148,8030.7451171875,5261.34057617188,446.389531155683,-99.068359375,0.346550078667896,NaN,1.09228385206844,1.91150165031823,5000,2.09029960632324,2.09029960632324,2.09029960632324,10453.9076677322,7875.47066034668,18329.3783280789,,,71.0599999427795,2769.40454101562,60297.0607872027,61660.8647325932
2018-07-19T08:24:50Z,1531988690,30C,41.2855819,43.4022697,7941.78,-4.8,-12.4,119,571532.31,-159167.42,113.2,Weapon+Missile,Red,Allies,AIM-54A-MK,,xu,,444.088552884929,321.490661621094,1.43964341571773,7941.77978515625,5280.24877929688,435.085982881545,-88.96533203125,0.144452831911858,NaN,2.00000489370573,1.77921230531761,5000,1.61608266830444,1.61608266830444,1.61608266830444,9860.73214017153,7788.22547301025,17648.9576131818,,,72.0599999427795,2661.53100585938,60729.6054856328,62102.9943226691
2018-07-19T08:24:51Z,1531988691,30C,41.290107,43.4004031,7837.38,-1.6,-16,120,571919.69,-159338.14,114.2,Weapon+Missile,Red,Allies,AIM-54A-MK,,xu,,436.008740549942,317.260314941406,1.41143100778749,7837.3798828125,5320.9306640625,423.325267644825,-104.39990234375,0.0546252173208465,NaN,3.67691153070542,3.63188478926258,5000,2.53463506698608,2.53463506698608,2.53463506698608,9505.18109179735,7685.84414277832,17191.0252345757,,,73.0599999427795,2516.44921875,61150.4693187391,62537.1189332478
2018-07-19T08:24:52Z,1531988692,30C,41.2944077,43.3985881,7703.01,2.1,-20.9,120.4,572288.38,-159504.92,114.7,Weapon+Missile,Red,Allies,AIM-54A-MK,,xu,,426.38066820209,312.225433349609,1.37773425851871,7703.0146484375,5498.64306640625,404.655974882137,-134.365234375,0.0380786365231735,NaN,3.64615220066509,4.97923223748821,4633.1800854731,3.02125430107117,3.02125430107117,3.02125430107117,9090.02371082306,7554.07686020996,16644.100571033,,,74.0599999427795,2204.37158203125,61552.7448314307,62961.705949226
2018-07-19T08:24:53Z,1531988693,30C,41.2983706,43.3968343,7538.73,4.8,-26,122.8,572628.94,-159667.62,117,Weapon+Missile,Red,Allies,AIM-54A-MK,,xu,,411.636265392896,303.629150390625,1.32712451066738,7538.73046875,5612.337890625,377.432276429846,-164.2841796875,0.103437657637207,NaN,2.03076977327476,5.29579955268726,4449.90374965988,3.1418125629425,3.1418125629425,3.1418125629425,8472.22074933052,7392.96911513672,15865.1898644672,,,75.0599999427795,1926.392578125,61928.055818079,63371.8089078498
2018-07-19T08:24:54Z,1531988694,30C,41.3019026,43.3950415,7354.52,4.8,-28.9,127.4,572935.12,-159838.16,121.6,Weapon+Missile,Red,Allies,AIM-54A-MK,,xu,,395.937420872272,294.226959228516,1.27333344209154,7354.5166015625,5444.84399414062,350.473525937142,-184.2138671875,0.165420357660413,NaN,0.815360662359442,4.74545151078478,5000,2.93067216873169,2.93067216873169,2.93067216873169,7838.32206234932,7212.31702307129,15050.6390854206,,,76.0599999427795,1909.67260742188,62276.5515975728,63766.3565127169
2018-07-19T08:24:55Z,1531988695,30C,41.3050771,43.3931261,7164.84,3.4,-30,132.4,573213.69,-160025.19,126.6,Weapon+Missile,Red,Allies,AIM-54A-MK,,xu,,385.426926872533,288.59375,1.23637077034415,7164.8427734375,5161.33251953125,335.526086739634,-189.673828125,0.200314868329692,NaN,1.69235695178908,4.39075978718602,5000,3.00911402702332,3.00911402702332,3.00911402702332,7427.69579792023,7026.31053841309,14454.0063363333,,,77.0599999427795,2003.51025390625,62610.3229267595,64150.587181686
2018-07-19T08:24:56Z,1531988696,30C,41.3079029,43.3910907,6978.45,1.5,-29.5,137.2,573465.38,-160228.39,131.4,Weapon+Missile,Red,Allies,AIM-54A-MK,,xu,,373.338662682256,281.438262939453,1.19460788205101,6978.4462890625,4788.08911132812,323.478140940026,-186.396484375,0.0258332334337858,NaN,2.30767503373719,4.44658889968805,4789.76968088927,3.27661919593811,3.27661919593811,3.27661919593811,6969.08785266876,6843.51803006348,13812.6058827322,,,78.0599999427795,2190.35717773438,62932.1771329498,64522.8285202439
2018-07-19T08:24:57Z,1531988697,30C,41.3104269,43.3889325,6805.4,-1,-27.5,142.2,573693.94,-160447.69,136.4,Weapon+Missile,Red,Allies,AIM-54A-MK,,xu,,360.93856785769,273.604187011719,1.15226910410828,6805.40087890625,4422.01806640625,316.752167776348,-173.04541015625,0.120179395970547,NaN,2.50766297263516,4.85347522137676,3982.95899439747,3.69574236869812,3.69574236869812,3.69574236869812,6513.83248835802,6673.8184529126,13187.6509412706,,,79.0599999427795,2383.3828125,63247.4658752377,64882.7821983042
2018-07-19T08:24:58Z,1531988698,30C,41.3125955,43.3866794,6651.43,-2.8,-25.8,148.1,573894.81,-160680.42,142.3,Weapon+Missile,Red,Allies,AIM-54A-MK,,xu,,343.836638251832,261.38427734375,1.09543163853193,6651.42822265625,4184.4384765625,307.434635218026,-153.97265625,0.0882190170738347,NaN,1.53848645016703,5.53744438844631,3322.10073516797,3.79724764823914,3.79724764823914,3.79724764823914,5911.18169021606,6522.82285797119,12434.0045481873,,,80.0599999427795,2466.98974609375,63553.5546159034,65225.7044512682
2018-07-19T08:24:59Z,1531988699,30C,41.3143186,43.3843714,6511.38,-3.6,-25.3,155.2,574060.25,-160922.86,149.4,Weapon+Missile,Red,Allies,AIM-54A-MK,,xu,,325.20657871322,247.431137084961,1.03416144960304,6511.37890625,3963.76293945312,293.505549883644,-140.04931640625,0.135025147395191,NaN,0.569255286185543,6.34259178356247,2777.0461757608,3.88040733337402,3.88040733337402,3.88040733337402,5287.9659419179,6385.48139509766,11673.4473370156,,,81.0599999427795,2547.61596679688,63845.8549730753,65550.0957667765
2018-07-19T08:25:00Z,1531988700,30C,41.3155361,43.382076,6380.87,-3.9,-25.4,162.8,574184.5,-161168,157,Weapon+Missile,Red,Allies,AIM-54A-MK,,xu,,304.245665062887,231.351135253906,0.965843461585842,6380.86669921875,3752.81909179688,274.83083619818,-130.51220703125,1.23697320788275,NaN,0.323095268498283,3.89474376569687,5000,1.12902271747589,1.12902271747589,1.12902271747589,4628.27123547792,6257.49264158936,10885.7638770673,,,82.0599999427795,2628.04760742188,64119.7023340387,65853.7031997444
2018-07-19T08:25:01Z,1531988701,30C,41.3166035,43.3799092,6257.88,-2.3,-25.7,156.5,574295.19,-161400.09,150.8,Weapon+Missile,Red,Allies,AIM-54A-MK,,xu,,285.033590540746,216.71565246582,0.903393844094795,6257.88330078125,3595.99829101562,257.136600750093,-122.9833984375,0.286464734592891,NaN,1.72307402003392,1.78561101863114,4145.92589086555,2.20458483695984,2.20458483695984,2.20458483695984,4062.20738682747,6136.88712716064,10199.0945139881,,,83.0599999427795,2661.88500976562,64375.9090090523,66138.1270300455
2018-07-19T08:25:02Z,1531988702,30C,41.3178225,43.3779241,6142.25,-2.4,-25.2,158.4,574416.12,-161610.75,152.6,Weapon+Missile,Red,Allies,AIM-54A-MK,,xu,,269.021244904772,204.713958740234,0.851354397340487,6142.25244140625,3454.21728515625,242.903138247147,-115.630859375,0.0747815090937778,NaN,0.769243225083516,0.789089940542575,2928.60333990217,2.69481015205383,2.69481015205383,2.69481015205383,3618.62151050568,6023.49199045166,9642.11350095734,,,84.0599999427795,2688.03515625,64617.9016381044,66406.5387184881
2018-07-19T08:25:03Z,1531988703,30C,41.3187209,43.3759458,6034.05,-2.9,-24.6,165.3,574511.06,-161823.27,159.5,Weapon+Missile,Red,Allies,AIM-54A-MK,,xu,,256.680309699301,195.674865722656,0.811153559349915,6034.04541015625,3303.39013671875,232.757426896309,-108.20703125,0.190500100017759,NaN,0.461502221839422,6.19953688649114,2365.31253684833,2.99235320091248,2.99235320091248,2.99235320091248,3294.23906936646,5917.37714215088,9211.61621151733,,,85.0599999427795,2730.6552734375,64849.8093986452,66662.649421115
2018-07-19T08:25:04Z,1531988704,30C,41.3192633,43.3740071,5934.02,-3.3,-24,172,574576.62,-162034.28,166.2,Weapon+Missile,Red,Allies,AIM-54A-MK,,xu,,242.551260912151,185.109619140625,0.765506152734344,5934.02001953125,3143.35473632812,220.966140846037,-100.025390625,0.162785462903981,NaN,0.369212705774209,6.13174299011053,2310.75806243069,2.80673003196716,2.80673003196716,2.80673003196716,2941.55570850372,5819.28574245361,8760.84145095734,,,86.0599999427795,2790.66528320312,65070.0431091799,66904.7217667396
2018-07-19T08:25:05Z,1531988705,30C,41.3194887,43.3721287,5842.35,-3.4,-23,178.3,574615.88,-162241.17,172.5,Weapon+Missile,Red,Allies,AIM-54A-MK,,xu,,229.669188956266,175.497329711914,0.723987420390245,5842.3486328125,2991.51147460938,210.580847212871,-91.67138671875,0.0589606101142318,NaN,0,5.88796073202808,2268.65830126117,2.65788888931274,2.65788888931274,2.65788888931274,2637.39681779146,5729.38682199707,8366.78363978853,,,87.0599999427795,2850.83715820312,65279.9401560165,67133.9417393351
2018-07-19T08:25:06Z,1531988706,30C,41.3194373,43.3703042,5758.26,-3.4,-21.8,184.3,574632.06,-162444.31,178.5,Weapon+Missile,Red,Allies,AIM-54A-MK,,xu,,220.452935708849,168.784713745117,0.694178441815534,5758.25732421875,2866.17822265625,203.784564385138,-84.09130859375,0.0461510411373909,NaN,0,5.68514979056878,2260.35865505347,2.52523732185364,2.52523732185364,2.52523732185364,2429.9748431325,5646.92141885498,8076.89626198748,,,88.0599999427795,2892.0791015625,65483.08855042,67353.977448557
2018-07-19T08:25:07Z,1531988707,30C,41.3191427,43.3685625,5682.53,-3.2,-20.4,190,574627.62,-162640.25,184.2,Weapon+Missile,Red,Allies,AIM-54A-MK,,xu,,210.108799388713,161.087554931641,0.660958761929557,5682.53076171875,2788.05932617188,195.987742760868,-75.7265625,0.0728273999119204,NaN,0.199987938897973,5.48026204471497,2233.54302457867,2.40178918838501,2.40178918838501,2.40178918838501,2207.28537902832,5572.65902944092,7779.94440846924,,,89.0599999427795,2894.47143554688,65678.4294595138,67563.6463775725
2018-07-19T08:25:08Z,1531988708,30C,41.3186361,43.3669063,5614.75,-2.9,-18.9,195.3,574605.06,-162828.41,189.5,Weapon+Missile,Red,Allies,AIM-54A-MK,,xu,,201.261040163204,154.527191162109,0.632572105015101,5614.75048828125,2708.37963867188,189.504197368587,-67.7802734375,0.0545690198611653,NaN,0.215426300856318,5.29583669184087,2215.77581940604,2.29882407188416,2.29882407188416,2.29882407188416,2025.30031437874,5506.18928759033,7531.48960196907,,,90.0599999427795,2906.37084960938,65867.3005881218,67764.4688894284
2018-07-19T08:25:09Z,1531988709,30C,41.3179445,43.3653363,5554.48,-2.5,-17.3,200.5,574566.5,-163008.5,194.7,Weapon+Missile,Red,Allies,AIM-54A-MK,,xu,,193.78643589189,149.004547119141,0.608606442120409,5554.4814453125,2618.103515625,184.176071180033,-60.26904296875,0.0887967100723848,NaN,0.369234050115366,5.07405703439597,2219.98970277238,2.19380879402161,2.19380879402161,2.19380879402161,1877.65913678408,5447.08554656738,7324.74468335146,,,91.0599999427795,2936.3779296875,66050.8100678267,67957.774565968
2018-07-19T08:25:10Z,1531988710,30C,41.3171011,43.3638693,5501.88,-1.9,-15.6,205.3,574514.44,-163178.38,199.5,Weapon+Missile,Red,Allies,AIM-54A-MK,,xu,,185.295659985826,142.607406616211,0.581546716503805,5501.88427734375,2535.7431640625,177.673913479863,-52.59716796875,0.127727321677781,NaN,0.60001845820728,4.89942958788625,2214.65579981281,2.09631562232971,2.09631562232971,2.09631562232971,1716.72408047915,5395.50534484131,7112.22942532045,,,92.0599999427795,2966.14111328125,66227.8133410976,68142.5743347209
2018-07-19T08:25:11Z,1531988711,30C,41.3161231,43.3624951,5456.16,-1.4,-13.9,209.8,574450.5,-163339.02,204,Weapon+Missile,Red,Allies,AIM-54A-MK,,xu,,178.841516908405,137.786010742188,0.560960912734507,5456.158203125,2472.6650390625,172.897120585164,-45.72607421875,0.0578743206368145,NaN,0.569251017317311,4.68880277558234,2216.20372462308,2.0112202167511,2.0112202167511,2.0112202167511,1599.21440850496,5350.66338426758,6949.87779277254,,,93.0599999427795,2983.4931640625,66400.0441597899,68320.9147797976
2018-07-19T08:25:12Z,1531988712,30C,41.3150419,43.3612263,5417.26,-0.8,-12.2,214.1,574377,-163488.8,208.3,Weapon+Missile,Red,Allies,AIM-54A-MK,,xu,,171.316944275512,132.061813354492,0.537090928415356,5417.26318359375,2488.46240234375,166.84325833417,-38.89501953125,0.0812152717632821,NaN,0.569213237833465,4.52853750934987,2221.5667827688,1.92227387428284,1.92227387428284,1.92227387428284,1467.47476979494,5312.52039993897,6779.99516973391,,,94.0599999427795,2928.80078125,66566.1991736933,68491.699428933
2018-07-19T08:25:13Z,1531988713,30C,41.3138695,43.3600515,5384.4,-0.3,-10.6,218.2,574295.06,-163628.89,212.4,Weapon+Missile,Red,Allies,AIM-54A-MK,,xu,,165.589975672187,127.728172302246,0.518917792142597,5384.3994140625,2529.2587890625,162.296064940936,-32.86376953125,0.102952300610895,NaN,0.569209022326087,4.34140612090397,2232.45448005313,1.85031259059906,1.85031259059906,1.85031259059906,1371.00200215578,5280.2920513916,6651.29405354738,,,95.0599999427795,2855.140625,66727.7813277158,68656.7238361711
2018-07-19T08:25:14Z,1531988714,30C,41.3126285,43.3589734,5357.26,0.3,-8.9,222.1,574206.44,-163758.78,216.3,Weapon+Missile,Red,Allies,AIM-54A-MK,,xu,,159.570561685356,123.125144958496,0.499880593755487,5357.25537109375,2544.47802734375,157.244920706173,-27.14404296875,0.0959944331447255,NaN,0.584615421133549,4.11123386851642,2268.42573524831,1.76752018928528,1.76752018928528,1.76752018928528,1273.138207829,5253.67283849365,6526.81104632265,,,96.0599999427795,2812.77734375,66884.2802758648,68815.6891938756
2018-07-19T08:25:15Z,1531988715,30C,41.3113401,43.3579919,5335.41,0.8,-7.4,225.6,574112.88,-163878.33,219.8,Weapon+Missile,Red,Allies,AIM-54A-MK,,xu,,153.370199714412,118.348159790039,0.480322632766649,5335.41455078125,2551.37060546875,151.807103682653,-21.8408203125,0.0328215944030527,NaN,0.523076910815615,3.92166282187636,2369.76793600984,1.66883218288422,1.66883218288422,1.66883218288422,1176.12090802193,5232.25431044189,6408.37521846382,,,97.0599999427795,2784.0439453125,67035.3125826076,68968.4178303025
2018-07-19T08:25:16Z,1531988716,30C,41.3100162,43.3570974,5318.24,1.2,-5.9,228.8,574015.56,-163988.48,223.1,Weapon+Missile,Red,Allies,AIM-54A-MK,,xu,,147.98297815446,114.190254211426,0.463349190240252,5318.24365234375,2541.41357421875,146.983407465987,-17.1708984375,0.118569365043447,NaN,0.369230848464192,3.24254970586328,3342.93342637881,1.29550468921661,1.29550468921661,1.29550468921661,1094.94809117317,5215.41541132568,6310.36350249886,,,98.0599999427795,2776.830078125,67181.5884249746,69115.8193783757
2018-07-19T08:25:17Z,1531988717,30C,41.3086878,43.3562749,5302.84,-0.1,-7.8,230,573917,-164090.67,224.2,Weapon+Missile,Red,Allies,AIM-54A-MK,,xu,,142.808014066763,110.193450927734,0.447057780748538,5302.83984375,2543.92016601562,141.974827214193,-15.40380859375,0.106921803573053,NaN,2.50771761414852,2.01938021939035,2383.87956520039,0.147564992308617,0.147564992308617,0.147564992308617,1019.70644408464,5200.30943537109,6220.01587945574,,,99.0599999427795,2758.91967773438,67322.8118043034,69257.9972440594
2018-07-19T08:25:18Z,1531988718,30C,41.307409,43.3554898,5279.76,-2.1,-11.6,230,573822.06,-164188.31,224.2,Weapon+Missile,Red,Allies,AIM-54A-MK,,xu,,138.127867318508,106.632904052734,0.432279125179193,5279.76416015625,2556.62255859375,136.186712114804,-23.07568359375,0.100910126457341,NaN,1.90769915594124,3.77702972421994,2089.67813487056,0.0628295913338661,0.0628295913338661,0.0628295913338661,953.965386497974,5177.67992011963,6131.6453066176,,,100.05999994278,2723.1416015625,67458.2791590329,69395.5267050777
2018-07-19T08:25:19Z,1531988719,30C,41.30618,43.3547366,5248.59,-3.8,-15.3,230.1,573730.75,-164281.98,224.3,Weapon+Missile,Red,Allies,AIM-54A-MK,,xu,,134.477282456195,103.927185058594,0.420686837519241,5248.59130859375,2591.44116210938,130.81434486426,-31.1728515625,0.0539369904405434,NaN,1.73847438906501,3.74280578072312,2050.76767199438,0.074354276061058,0.074354276061058,0.074354276061058,904.206974840164,5147.10979564209,6051.31677048225,,,101.05999994278,2657.15014648438,67588.3774694066,69529.4119825046
2018-07-19T08:25:20Z,1531988720,30C,41.3049933,43.3540117,5209.66,-5.1,-19,230.2,573642.69,-164372.19,224.4,Weapon+Missile,Red,Allies,AIM-54A-MK,,xu,,131.935355968213,102.133445739746,0.412529874253554,5209.6640625,2626.72192382812,126.061919967989,-38.92724609375,0.0264738907049403,NaN,1.3384438697557,3.72879450141448,2065.2934964037,0.10301449149847,0.10301449149847,0.10301449149847,870.34690772295,5108.93520785156,5979.28211557451,,,102.05999994278,2582.94213867188,67713.8331583387,69660.866455474
2018-07-19T08:25:21Z,1531988721,30C,41.3038533,43.3533188,5163.69,-6.3,-22.7,230.4,573557.94,-164458.45,224.6,Weapon+Missile,Red,Allies,AIM-54A-MK,,xu,,129.376406871131,100.358207702637,0.404291584715104,5163.6865234375,2656.26831054688,120.931057039293,-45.9775390625,0.0765730360765,NaN,1.16921910287946,3.63122311468674,2078.06171203558,0.111416205763817,0.111416205763817,0.111416205763817,836.912732744217,5063.84664450684,5900.75937725105,,,103.05999994278,2507.41821289062,67834.1035193828,69789.7168691448
2018-07-19T08:25:22Z,1531988722,30C,41.3027462,43.3526504,5110.62,-7.1,-26.2,230.6,573475.62,-164541.72,224.8,Weapon+Missile,Red,Allies,AIM-54A-MK,,xu,,128.546058090209,99.9812927246094,0.401425471033121,5110.62451171875,2653.43090820312,117.083354764418,-53.06201171875,0.078789913458977,NaN,0.769243225083516,3.53240137645405,2147.76213206695,0.13012383878231,0.13012383878231,0.13012383878231,826.204452526569,5011.81058678467,5838.01503931124,,,104.05999994278,2457.19360351562,67950.5746724944,69917.7909399684
2018-07-19T08:25:23Z,1531988723,30C,41.3016728,43.3520082,5050.97,-7.9,-29.6,230.8,573395.69,-164621.8,225.1,Weapon+Missile,Red,Allies,AIM-54A-MK,,xu,,127.911602967941,99.7915954589844,0.399141287542732,5050.96826171875,2634.49682617188,113.148177226881,-59.65625,0.103740223747575,NaN,0.769188583570156,3.33425203910328,2209.71897872728,0.13103075325489,0.13103075325489,0.13103075325489,818.068908691406,4953.30779037842,5771.37669906982,,,105.05999994278,2416.47143554688,68063.0898494762,70045.2221391213
2018-07-19T08:25:24Z,1531988724,30C,41.3006317,43.351392,4985.05,-8.5,-32.7,231.2,573318.12,-164698.72,225.4,Weapon+Missile,Red,Allies,AIM-54A-MK,,xu,,127.584123755178,99.8766403198242,0.397786384757636,4985.05322265625,2591.09326171875,109.237888389357,-65.9150390625,0.0465288818862321,NaN,0.569255286185543,3.18982811599018,2597.98094997283,0.21684242784977,0.21684242784977,0.21684242784977,813.885431718826,4888.66721859619,5702.55265031502,,,106.05999994278,2393.9599609375,68171.7582096967,70172.392078201
2018-07-19T08:25:25Z,1531988725,30C,41.2996176,43.3507995,4913.9,-8,-34.1,231.6,573242.5,-164772.8,225.8,Weapon+Missile,Red,Allies,AIM-54A-MK,,xu,,127.54978772994,100.221939086914,0.397320896326387,4913.90380859375,2532.35302734375,105.86174582216,-71.1494140625,0,NaN,1.55383559277934,1.26968488898971,5000,0.905581712722778,0.905581712722778,0.905581712722778,813.447417497635,4818.89347845459,5632.34089595222,,,107.05999994278,2381.55078125,68277.0647204261,70299.5491385574
2018-07-19T08:25:26Z,1531988726,30C,41.2985924,43.3502077,4843.19,-6.3,-33.1,231.8,573165.94,-164846.88,226.1,Weapon+Missile,Red,Allies,AIM-54A-MK,,xu,,127.867827505171,100.848762512207,0.397955418752555,4843.1875,2445.81640625,106.533492432031,-70.71630859375,0.027816945466737,NaN,1.61538755003221,0.834647409028266,5000,1.04329335689545,1.04329335689545,1.04329335689545,817.509065544605,4749.5444696875,5567.05353523211,,,108.05999994278,2397.37109375,68383.0212369005,70427.0040743739
2018-07-19T08:25:27Z,1531988727,30C,41.2975489,43.3496108,4773.86,-4.9,-32.3,232.1,573087.94,-164921.69,226.3,Weapon+Missile,Red,Allies,AIM-54A-MK,,xu,,128.404987105256,101.64672088623,0.399277444003352,4773.85546875,2348.8203125,108.07825940609,-69.33203125,0,NaN,1.13844739312126,0.804440737341326,5000,0.996009528636932,0.996009528636932,0.996009528636932,824.392035675049,4681.55297326172,5505.94500893677,,,109.05999994278,2425.03515625,68490.4932087349,70554.9672622059
2018-07-19T08:25:28Z,1531988728,30C,41.2964933,43.3490114,4705.71,-3.8,-31.7,232.3,573009.06,-164996.86,226.5,Weapon+Missile,Red,Allies,AIM-54A-MK,,xu,,128.514149614115,102.096267700195,0.399273729286726,4705.7099609375,2248.2255859375,108.959058439469,-68.1455078125,0.0259162014154012,NaN,0.969218357376796,0.610385724872007,5000,0.959557771682739,0.959557771682739,0.959557771682739,825.794332551956,4614.72505884277,5440.51939139473,,,110.05999994278,2457.484375,68598.9084705355,70683.08890368
2018-07-19T08:25:29Z,1531988729,30C,41.2954338,43.348413,4638.69,-3.1,-31.4,232.4,572929.81,-165071.94,226.6,Weapon+Missile,Red,Allies,AIM-54A-MK,,xu,,128.098780726572,102.116203308105,0.397647688743921,4638.6875,2138.39135742188,109.166328845096,-67.0224609375,0.0389399092638818,NaN,0.661553339987218,0.333233056815154,5000,0.899248361587524,0.899248361587524,0.899248361587524,820.464881181717,4548.9984771875,5369.46335836922,,,111.05999994278,2500.29614257812,68707.5009475607,70810.7666981891
2018-07-19T08:25:30Z,1531988730,30C,41.2943726,43.3478159,4572.15,-2.5,-31.3,232.5,572850.38,-165146.91,226.7,Weapon+Missile,Red,Allies,AIM-54A-MK,,xu,,127.897935028981,102.305976867676,0.396692451579437,4572.14990234375,2017.81640625,109.227422760095,-66.53759765625,0.0233101756786059,NaN,0.569196375803951,0.164324693116134,5000,0.883529663085938,0.883529663085938,0.883529663085938,817.894089233875,4483.74738398193,5301.64147321581,,,112.05999994278,2554.33349609375,68816.1204538093,70938.2127388537
2018-07-19T08:25:31Z,1531988731,30C,41.2933101,43.3472198,4505.96,-2.1,-31.1,232.5,572770.88,-165221.77,226.8,Weapon+Missile,Red,Allies,AIM-54A-MK,,xu,,127.690628260842,102.488311767578,0.39572080096945,4505.962890625,1887.61547851562,109.197875553468,-66.18701171875,0.0349068051240602,NaN,0.399975877795947,0.149025683025113,5000,0.885095655918121,0.885095655918121,0.885095655918121,815.244827282429,4418.84009813476,5234.08492541719,,,113.05999994278,2618.34741210938,68924.7517149304,71065.4851773555
2018-07-19T08:25:32Z,1531988732,30C,41.2922453,43.3466237,4439.98,-1.7,-31.1,232.6,572691.12,-165296.66,226.8,Weapon+Missile,Red,Allies,AIM-54A-MK,,xu,,127.756676166309,102.892944335938,0.395598507926238,4439.98486328125,1755.68334960938,109.401408642168,-65.97802734375,0.0486295177336074,NaN,0.399975877795947,0.11364096755515,5000,0.877603352069855,0.877603352069855,0.877603352069855,816.088415253162,4354.13775594971,5170.22617120287,,,114.05999994278,2684.30151367188,69033.5391615897,71192.7817357332
2018-07-19T08:25:33Z,1531988733,30C,41.2911784,43.3460276,4374.17,-1.4,-31,232.6,572611.19,-165371.53,226.9,Weapon+Missile,Red,Allies,AIM-54A-MK,,xu,,127.780577724309,103.262573242188,0.395347092841378,4374.169921875,1619.42333984375,109.527482995137,-65.81494140625,0.047133952422219,NaN,0.353866978256483,0.108802939126746,5000,0.870756924152374,0.870756924152374,0.870756924152374,816.393802177906,4289.59534643555,5105.98914861345,,,115.05999994278,2754.74658203125,69142.4504835622,71320.0989783384
2018-07-19T08:25:34Z,1531988734,30C,41.290115,43.3454342,4308.8,-1.1,-30.9,232.7,572531.62,-165446.09,226.9,Weapon+Missile,Red,Allies,AIM-54A-MK,,xu,,127.132069829979,103.077247619629,0.393019859841662,4308.80322265625,1482.39599609375,109.040166051323,-65.36669921875,0.015260710637947,NaN,0.353866764813072,0.0593470334505648,5000,0.875129282474518,0.875129282474518,0.875129282474518,808.128158962727,4225.49251234619,5033.62067130892,,,116.05999994278,2826.4072265625,69250.9586248397,71446.8383024669
2018-07-19T08:25:35Z,1531988735,30C,41.2890539,43.3448429,4243.76,-1,-30.8,232.7,572452.12,-165520.41,226.9,Weapon+Missile,Red,Allies,AIM-54A-MK,,xu,,126.7803177107,103.132484436035,0.391614907801709,4243.759765625,1361.50805664062,108.823699883114,-65.04345703125,0.0514633603385331,NaN,0.169220498008005,0.0670851975531529,5000,0.870568156242371,0.870568156242371,0.870568156242371,803.662447941303,4161.70667055664,4965.36911849794,,,117.05999994278,2882.25170898438,69359.1845054372,71573.1680446736
2018-07-19T08:25:36Z,1531988736,30C,41.2879943,43.3442531,4178.97,-0.8,-30.8,232.7,572372.75,-165594.55,227,Weapon+Missile,Red,Allies,AIM-54A-MK,,xu,,126.469479215879,103.218780517578,0.390340009284788,4178.97314453125,1261.07373046875,108.615021522765,-64.78662109375,0.0222532674726085,NaN,0.138453163839742,0.0670851975531529,5000,0.868827700614929,0.868827700614929,0.868827700614929,799.726458656788,4098.17269878174,4897.89915743853,,,118.05999994278,2917.8994140625,69467.2066306362,71699.1898691843
2018-07-19T08:25:37Z,1531988737,30C,41.2869301,43.3436611,4114.03,-0.6,-30.8,232.8,572293,-165668.94,227,Weapon+Missile,Red,Allies,AIM-54A-MK,,xu,,126.929744977545,103.945777893066,0.391444722966924,4114.03369140625,1146.0859375,109.059743204771,-64.939453125,0.0473440749333042,NaN,0.169266815228314,0.0523391626455858,5000,0.86757230758667,0.86757230758667,0.86757230758667,805.558008003235,4034.48884998291,4840.04685798614,,,119.05999994278,2967.94775390625,69575.675436163,71825.6727418537
