ISOTime,UnixTime,Id,Longitude,Latitude,Altitude,Roll,Pitch,Yaw,U,V,Heading,Type,Color,Coalition,Name,Group,Country,Pilot,TAS,CAS,M,ASL,AGL,GS,VS,AOA,AOS,RRT,TRT,TRD,G,LatG,LonG,Ek,Ep,Em,FFW,FFV,RelativeTime,Elev,GroundDistance,AirDistance
2018-07-19T09:02:39Z,1531990959,3AA04,41.1234472,44.0340008,1655.6,16.2,6.1,214.2,551472,-90278,208.5,Weapon+Missile,Red,Allies,R-27ER,,xu,,220.767284553389,205.418594360352,0.660966528312098,1655.59533691406,195.37158203125,NaN,NaN,3.92766643772515,NaN,4.47694311413324,1.74875987065964,NaN,NaN,NaN,NaN,NaN,1623.58440107483,NaN,,,0.869999885559082,1460.22375488281,NaN,NaN
2018-07-19T09:02:40Z,1531990960,3AA04,41.1210546,44.0313559,1670.3,12.8,5.2,212.6,551309.38,-90590.88,206.9,Weapon+Missile,Red,Allies,R-27ER,,xu,,352.921949944936,331.633941650391,1.05681297493369,1670.30065917969,217.366943359375,352.615450951883,14.705322265625,1.86487549328202,NaN,3.27690619771868,2.91715970724728,4671.04523159736,4.25508737564087,4.25508737564087,4.25508737564087,6227.6951376468,1638.00539593445,7865.70053358124,,,1.86999988555908,1452.93371582031,351.220671627263,351.61987905978
2018-07-19T09:02:41Z,1531990961,3AA04,41.1175126,44.0267494,1708.95,9.7,2.9,205.5,551076.25,-91130.83,199.8,Weapon+Missile,Red,Allies,R-27ER,,xu,,589.398098144498,544.858520507812,1.76573152385463,1708.94616699219,174.178100585938,588.129783995221,38.6455078125,0.343793173561569,NaN,3.0769182588207,7.13120115626391,3939.95429485151,10.8077478408813,10.8077478408813,10.8077478408813,17369.5059048176,1675.90369285339,19045.409597671,,,2.86999988555908,1534.76806640625,937.159249171783,938.986387294265
2018-07-19T09:02:42Z,1531990962,3AA04,41.1138496,44.0198088,1725.18,7.2,-0.1,198.2,550859,-91931.05,192.5,Weapon+Missile,Red,Allies,R-27ER,,xu,,829.3437754686,757.565368652344,2.48503842287294,1725.17846679688,95.4300537109375,829.184907214044,16.2322998046875,0.486572938788075,NaN,2.15380453211514,5.80953351177024,5000,3.43623423576355,3.43623423576355,3.43623423576355,34390.5548954256,1691.82214114136,36082.3770365669,,,3.86999988555908,1629.74841308594,1763.54996108438,1765.75893479844
2018-07-19T09:02:43Z,1531990963,3AA04,41.1101426,44.0118674,1718.92,5.8,-0.6,199.2,550649.12,-92842.79,193.5,Weapon+Missile,Red,Allies,R-27ER,,xu,,935.607022178048,852.794921875,2.80323914623748,1718.92004394531,253.967041015625,935.586090155409,-6.2584228515625,0.0529139727586638,NaN,1.3384438697557,0.942303036457008,5000,2.13318514823914,2.13318514823914,2.13318514823914,43768.0249974437,1685.68472489563,45453.7097223393,,,4.86999988555908,1464.95300292969,2696.06058662155,2698.54232661239
2018-07-19T09:02:44Z,1531990964,3AA04,41.1061931,44.0039456,1711.11,4.8,-0.2,200.5,550419.56,-93754.29,194.8,Weapon+Missile,Red,Allies,R-27ER,,xu,,939.995813462208,857.034912109375,2.81613120650394,1711.11376953125,447.7080078125,939.963398971604,-7.8062744140625,0.0371759161086335,NaN,0.969231163981489,1.37863003478941,5000,3.22710657119751,3.22710657119751,3.22710657119751,44179.6064663239,1678.02938479736,45857.6358511213,,,5.86999988555908,1263.40576171875,3632.89549605052,3635.661655519
2018-07-19T09:02:45Z,1531990965,3AA04,41.1020135,43.9961278,1716.71,4.1,0.8,201.3,550170.31,-94656.02,195.6,Weapon+Missile,Red,Allies,R-27ER,,xu,,935.557394941215,852.837463378906,2.80301778578757,1716.70690917969,553.488891601562,935.540675768866,5.5931396484375,0.110902616457301,NaN,0.569255286185543,0.866964715890445,5000,2.1109881401062,2.1109881401062,2.1109881401062,43763.3819614597,1683.5143810907,45446.8963425504,,,6.86999988555908,1163.21801757812,4565.30302003031,4568.33650358597
2018-07-19T09:02:46Z,1531990966,3AA04,41.097899,43.9882998,1732.53,3.3,1.1,200.5,549926.25,-95558.37,194.8,Weapon+Missile,Red,Allies,R-27ER,,xu,,934.90922754117,851.63623046875,2.80159518313787,1732.53149414062,636.228759765625,934.775291849566,15.8245849609375,0.0549660354407898,NaN,0.769243225083516,0.585430454800602,5000,1.48175609111786,1.48175609111786,1.48175609111786,43702.7631870814,1699.03299770142,45401.7961847828,,,7.86999988555908,1096.302734375,5496.9367348641,5500.3564788842
2018-07-19T09:02:47Z,1531990967,3AA04,41.0938685,43.9804189,1750.56,2.7,1.1,200.1,549689.38,-96465.9,194.4,Weapon+Missile,Red,Allies,R-27ER,,xu,,938.108593755541,853.790954589844,2.8117766151398,1750.55920410156,680.966796875,937.935357768094,18.0277099609375,0.0321955054619478,NaN,0.72307114629423,0.422439035954796,5000,1.28290951251984,1.28290951251984,1.28290951251984,44002.3866838999,1716.71214189026,45719.0988257902,,,8.86999988555908,1069.59240722656,6431.750617775,6435.59937889869
2018-07-19T09:02:48Z,1531990968,3AA04,41.0899109,43.9724825,1768.87,2.2,1.1,199.6,549458.94,-97379.01,193.9,Weapon+Missile,Red,Allies,R-27ER,,xu,,941.915753840423,856.47314453125,2.82379381365248,1768.86535644531,616.835693359375,941.737846812551,18.30615234375,0.0575483520594471,NaN,0.569200644672183,0.526845734494434,5000,1.57084572315216,1.57084572315216,1.57084572315216,44360.2643666387,1734.66434477844,46094.9287114171,,,9.86999988555908,1152.02966308594,7370.38969906339,7374.67587342052
2018-07-19T09:02:49Z,1531990969,3AA04,41.0860613,43.964518,1789.76,1.8,1.4,198.9,549237.38,-98294.37,193.3,Weapon+Missile,Red,Allies,R-27ER,,xu,,942.023980969706,855.744934082031,2.8248104835558,1789.7568359375,760.1220703125,941.792294939091,20.8914794921875,0.0722826384549594,NaN,0.369212705774209,0.798580915281131,5000,1.89076018333435,1.89076018333435,1.89076018333435,44370.4590361007,1755.15188751465,46125.6109236153,,,10.8699998855591,1029.634765625,8309.1073900354,8313.88781867054
2018-07-19T09:02:50Z,1531990970,3AA04,41.0825698,43.9568777,1810.12,1.5,1.2,197.4,549040.81,-99170.86,191.7,Weapon+Missile,Red,Allies,R-27ER,,xu,,898.493301795576,816.157287597656,2.69492087774287,1810.12451171875,842.692687988281,898.262417757075,20.36767578125,0.118891527597536,NaN,0.369212705774209,1.1696259260219,5000,2.0220832824707,2.0220832824707,2.0220832824707,40364.5106685758,1775.12575428467,42139.6364228604,,,11.8699998855591,967.431823730469,9204.45509361805,9209.71976377429
2018-07-19T09:02:51Z,1531990971,3AA04,41.0795371,43.949729,1825.3,1.1,1,197.4,548875.69,-99989.1,191.7,Weapon+Missile,Red,Allies,R-27ER,,xu,,834.87534174354,759.067321777344,2.50455280881251,1825.29992675781,836.489440917969,834.737409626396,15.1754150390625,0.14291435781574,NaN,0.399975877795947,0.286845133375925,5000,2.46601390838623,2.46601390838623,2.46601390838623,34850.8418125696,1790.00775267395,36640.8495652436,,,12.8699998855591,988.810485839844,10036.5301486777,10042.1702867729
2018-07-19T09:02:52Z,1531990972,3AA04,41.0764668,43.943157,1839.26,0.9,1,200.1,548701.12,-100743.55,194.5,Weapon+Missile,Red,Allies,R-27ER,,xu,,774.510426003158,705.128051757812,2.32384429663807,1839.25756835938,834.597106933594,774.384648755717,13.9576416015625,0.131930167489164,NaN,0.338449533752472,2.51327994945385,5000,4.2849440574646,4.2849440574646,4.2849440574646,29993.3199993797,1803.69552327515,31797.0155226548,,,13.8699998855591,1004.66046142578,10808.3982440682,10814.3862715253
2018-07-19T09:02:53Z,1531990973,3AA04,41.0731389,43.9371679,1839.16,0.3,-1.3,204.3,548499.5,-101435.27,198.6,Weapon+Missile,Red,Allies,R-27ER,,xu,,720.497515936864,657.4072265625,2.16178135627434,1839.16381835938,778.698974609375,720.497509837563,-0.09375,0.0604294108060999,NaN,0.769243225083516,4.59929869603802,5000,6.54361915588379,6.54361915588379,6.54361915588379,25955.8335235596,1803.6035859314,27759.437109491,,,14.8699998855591,1060.46484375,11526.485035734,11532.6801380667
2018-07-19T09:02:54Z,1531990974,3AA04,41.0693951,43.9318298,1809.12,-0.5,-3.8,209.3,548257.25,-102057.92,203.6,Weapon+Missile,Red,Allies,R-27ER,,xu,,668.796514814083,612.607482910156,2.00594966609122,1809.11535644531,691.45166015625,668.121147819812,-30.0484619140625,0.102435810047337,NaN,0.769243225083516,5.65265687313974,5000,6.19540452957153,6.19540452957153,6.19540452957153,22364.4389113732,1774.13611102844,24138.5750224016,,,15.8699998855591,1117.66369628906,12192.2113290397,12199.2744287649
2018-07-19T09:02:55Z,1531990975,3AA04,41.0653384,43.9271637,1756.9,-1.2,-5.9,215.9,547982.5,-102608.38,210.2,Weapon+Missile,Red,Allies,R-27ER,,xu,,617.423820863836,568.548828125,1.85073138334133,1756.90454101562,564.849487304688,615.212325398529,-52.2108154296875,0.26047069774427,NaN,0.615427364974829,6.09901058917372,5000,6.76820945739746,6.76820945739746,6.76820945739746,19060.6087285049,1722.93479171509,20783.54352022,,,16.8699998855591,1192.05505371094,12805.056081889,12814.5098925834
2018-07-19T09:02:56Z,1531990976,3AA04,41.0609539,43.9231841,1697.72,-0.9,-5.3,220.3,547673.88,-103085.12,214.6,Weapon+Missile,Red,Allies,R-27ER,,xu,,571.001066053286,528.803527832031,1.71039252861374,1697.724609375,413.926513671875,567.926010255737,-59.179931640625,0.148512945434832,NaN,0.892308506331748,4.3997547194361,5000,3.58791184425354,3.58791184425354,3.58791184425354,16302.1108716995,1664.89910405273,17967.0099757522,,,17.8699998855591,1283.79809570312,13370.5925982588,13383.2867129767
2018-07-19T09:02:57Z,1531990977,3AA04,41.056643,43.9195707,1659.56,0.4,-2.6,221.3,547367.06,-103520.6,215.6,Weapon+Missile,Red,Allies,R-27ER,,xu,,534.06977245012,496.803314208984,1.59905306062732,1659.55688476562,345.658081054688,532.704183053847,-38.167724609375,0.0739515457742306,NaN,1.33847055018214,2.84060139750108,5000,3.68133568763733,3.68133568763733,3.68133568763733,14261.5260922462,1627.46935239868,15888.9954446449,,,18.8699998855591,1313.89880371094,13900.9582269011,13915.1631620547
2018-07-19T09:02:58Z,1531990978,3AA04,41.0525253,43.9161951,1648.66,1.5,0.1,221.4,547073.25,-103928.1,215.7,Weapon+Missile,Red,Allies,R-27ER,,xu,,502.494506066703,468.884582519531,1.50432215664439,1648.66223144531,296.6259765625,502.376387936625,-10.8946533203125,0.0448483610562295,NaN,0.769230845365645,2.64249047996439,5000,3.39520406723022,3.39520406723022,3.39520406723022,12625.036431361,1616.78534720032,14241.8217785613,,,19.8699998855591,1352.03625488281,14401.1772693905,14415.6305283049
2018-07-19T09:02:59Z,1531990979,3AA04,41.0487466,43.9129951,1660.38,2.8,3.5,218.5,546804.56,-104313.41,212.8,Weapon+Missile,Red,Allies,R-27ER,,xu,,469.889405100585,439.516174316406,1.40690483630839,1660.38220214844,233.44384765625,469.743222742489,11.719970703125,0.607386901391916,NaN,1.6307695629299,3.20147081376071,5000,3.79718518257141,3.79718518257141,3.79718518257141,11039.8026512891,1628.2787122699,12668.081363559,,,20.8699998855591,1426.93835449219,14868.852009853,14883.5733766906
2018-07-19T09:03:00Z,1531990980,3AA04,41.0454346,43.9099166,1690.92,2.5,4.2,217.8,546572.12,-104681.53,212.1,Weapon+Missile,Red,Allies,R-27ER,,xu,,436.428380873921,408.891937255859,1.30718553921847,1690.91540527344,341.388671875,435.358995702581,30.533203125,0.0427032058938988,NaN,0.446147956585233,2.19691263073144,5000,1.14296185970306,1.14296185970306,1.14296185970306,9523.48658161163,1658.22155591248,11181.7081375241,,,21.8699998855591,1349.52673339844,15302.4256681656,15318.3344388501
2018-07-19T09:03:01Z,1531990981,3AA04,41.0423164,43.9069989,1721.06,2,4.2,217.7,546353.44,-105030.25,212.1,Weapon+Missile,Red,Allies,R-27ER,,xu,,412.719636125773,386.882873535156,1.23660978875876,1721.05688476562,479.440795898438,411.617527879721,30.1414794921875,0.0225727541919544,NaN,0.569200644672183,0.0609732788135823,5000,1.00254034996033,1.00254034996033,1.00254034996033,8516.87490218952,1687.78024989868,10204.6551520882,,,22.8699998855591,1241.61608886719,15712.3509907199,15729.4757562821
2018-07-19T09:03:02Z,1531990982,3AA04,41.0393835,43.904254,1749.46,1.7,4.2,217.7,546147.75,-105358.3,212.1,Weapon+Missile,Red,Allies,R-27ER,,xu,,388.244493887154,363.941650390625,1.16366344973996,1749.45690917969,469.174682617188,387.204371936801,28.4000244140625,0.0191736584320742,NaN,0.24616001768726,0.0171320104161963,5000,0.999843120574951,0.999843120574951,0.999843120574951,7536.6893516846,1715.6311598407,9252.3205115253,,,23.8699998855591,1280.2822265625,16097.9674626906,16116.2412504812
2018-07-19T09:03:03Z,1531990983,3AA04,41.0366209,43.9016681,1776.24,1.4,4.2,217.7,545953.94,-105667.34,212.1,Weapon+Missile,Red,Allies,R-27ER,,xu,,365.767019130455,342.518859863281,1.09663728291389,1776.2353515625,443.874267578125,364.78545380419,26.7784423828125,0.0199444616204726,NaN,0.199987938897973,0.0171320104161963,5000,0.999452710151672,0.999452710151672,0.999452710151672,6689.27561417893,1741.89184104004,8431.16745521897,,,24.8699998855591,1332.36108398438,16461.2314777253,16480.5910612947
2018-07-19T09:03:04Z,1531990984,3AA04,41.0340211,43.8992342,1801.46,1.1,4.2,217.7,545771.5,-105958.2,212.1,Weapon+Missile,Red,Allies,R-27ER,,xu,,344.265737984136,321.665252685547,1.03247800204424,1801.4599609375,428.740966796875,343.340381300599,25.224609375,0.0241146807667717,NaN,0.369212705774209,0.0171320104161963,5000,0.999326109886169,0.999326109886169,0.999326109886169,5925.9449174881,1766.62873259277,7692.57365008087,,,25.8699998855591,1372.71899414062,16803.1286438955,16823.5131102244
2018-07-19T09:03:05Z,1531990985,3AA04,41.0315831,43.8969515,1825.13,0.9,4.2,217.7,545600.5,-106230.98,212.1,Weapon+Missile,Red,Allies,R-27ER,,xu,,322.817325761384,300.787902832031,0.968421769255324,1825.13305664062,450.311889648438,321.948148545014,23.673095703125,0.0210682087077391,NaN,0.169224766876236,0.0171320104161963,5000,0.998556852340698,0.998556852340698,0.998556852340698,5210.55129058659,1789.84410899048,7000.39539957707,,,26.8699998855591,1374.82116699219,17123.7776381413,17145.1257064943
2018-07-19T09:03:06Z,1531990986,3AA04,41.0292843,43.894799,1847.47,0.8,4.2,217.7,545439.19,-106488.22,212.1,Weapon+Missile,Red,Allies,R-27ER,,xu,,304.450850566628,282.934722900391,0.913563768901369,1847.47302246094,539.099487304688,303.630114346207,22.3399658203125,0.0236083026441348,NaN,0.0922895160652123,0.0171320104161963,5000,0.997958958148956,0.997958958148956,0.997958958148956,4634.51602053717,1811.75213157166,6446.26815210882,,,27.8699998855591,1308.37353515625,17426.1388607021,17448.3979152376
2018-07-19T09:03:07Z,1531990987,3AA04,41.0270938,43.8927475,1868.77,0.6,4.2,217.7,545285.5,-106733.34,212.1,Weapon+Missile,Red,Allies,R-27ER,,xu,,290.102753821767,269.004821777344,0.87072742188557,1868.76843261719,604.92041015625,289.320087932466,21.29541015625,0.0209813299550748,NaN,0.199987938897973,0.0171320104161963,5000,0.997586190700531,0.997586190700531,0.997586190700531,4207.98038874865,1832.63579497253,6040.61618372118,,,28.8699998855591,1263.84802246094,17714.2869468275,17737.4155589392
2018-07-19T09:03:08Z,1531990988,3AA04,41.0250222,43.8908073,1888.92,0.5,4.2,217.7,545140.06,-106965.18,212.1,Weapon+Missile,Red,Allies,R-27ER,,xu,,274.419309399493,253.878128051758,0.823849593773476,1888.91760253906,617.902221679688,273.678585795005,20.149169921875,0.0237836236639883,NaN,0.199987938897973,0.0171320104161963,5000,0.998018264770508,0.998018264770508,0.998018264770508,3765.29786856472,1852.39538069397,5617.69324925869,,,29.8699998855591,1271.01538085938,17986.8034926586,18010.7560365563
2018-07-19T09:03:09Z,1531990989,3AA04,41.0230416,43.8889521,1908.19,0.4,4.2,217.7,545001.12,-107186.86,212.1,Weapon+Missile,Red,Allies,R-27ER,,xu,,262.329652172762,242.225112915039,0.787733107380739,1908.18762207031,607.902099609375,261.620933329785,19.27001953125,0.0239980681402206,NaN,0.199987938897973,0.0171320104161963,5000,0.997745156288147,0.997745156288147,0.997745156288147,3440.84232045412,1871.29281439758,5312.1351348517,,,30.8699998855591,1300.28552246094,18247.3786270394,18272.1200795531
2018-07-19T09:03:10Z,1531990990,3AA04,41.0211509,43.887181,1926.59,0.4,4.2,217.7,544868.38,-107398.48,212.1,Weapon+Missile,Red,Allies,R-27ER,,xu,,250.485900969441,230.856384277344,0.752331212837389,1926.59387207031,581.485595703125,249.808719914678,18.40625,0.0272674665215531,NaN,0.0307631720217374,0.0171320104161963,5000,0.997052490711212,0.997052490711212,0.997052490711212,3137.15932922363,1889.34317955383,5026.50250877747,,,31.8699998855591,1345.10827636719,18496.1411656533,18521.6372183849
2018-07-19T09:03:11Z,1531990991,3AA04,41.0193394,43.885484,1944.23,0.3,4.2,217.7,544741.25,-107601.25,212.1,Weapon+Missile,Red,Allies,R-27ER,,xu,,239.976630314844,220.791656494141,0.720916414929732,1944.22766113281,560.867065429688,239.327876730995,17.6337890625,0.0231023645524158,NaN,0,0.0171320104161963,5000,0.996843338012695,0.996843338012695,0.996843338012695,2879.43915486336,1906.63601930481,4786.07517416817,,,32.8699998855591,1383.36059570312,18734.4848211045,18760.7044261139
2018-07-19T09:03:12Z,1531990992,3AA04,41.0176074,43.883861,1961.09,0.2,4.2,217.7,544619.69,-107795.15,212.1,Weapon+Missile,Red,Allies,R-27ER,,xu,,229.473973638071,210.775024414062,0.68950218530201,1961.08764648438,540.486694335938,228.853764380644,16.8599853515625,0.0325405089926554,NaN,0.199987938897973,0.0171320104161963,5000,0.998219668865204,0.998219668865204,0.998219668865204,2632.91522886232,1923.1700168396,4556.08524570191,,,33.8699998855591,1420.60095214844,18962.411204995,18989.3231251622
2018-07-19T09:03:13Z,1531990993,3AA04,41.0159437,43.8823023,1977.3,0.2,4.2,217.7,544502.88,-107981.4,212.1,Weapon+Missile,Red,Allies,R-27ER,,xu,,220.447069162951,202.177581787109,0.662505491915306,1977.29528808594,527.489868164062,219.850455210468,16.2076416015625,0.0246073378227468,NaN,0,0.0171320104161963,5000,0.997033476829529,0.997033476829529,0.997033476829529,2429.84551512673,1939.0642836908,4368.90979881753,,,34.8699998855591,1449.80541992188,19181.3295388041,19208.9080109106
2018-07-19T09:03:14Z,1531990994,3AA04,41.0143554,43.8808139,1992.77,0.2,4.2,217.7,544391.38,-108159.22,212.1,Weapon+Missile,Red,Allies,R-27ER,,xu,,210.456009035814,192.714828491211,0.632594916038101,1992.76843261719,527.823608398438,209.886430093986,15.47314453125,0.0299945302802463,NaN,0,0.0171320104161963,5000,0.997247278690338,0.997247278690338,0.997247278690338,2214.58658696413,1954.23825497253,4168.82484193666,,,35.8699998855591,1464.94482421875,19390.3632757512,19418.5785228596
2018-07-19T09:03:15Z,1531990995,3AA04,41.0128218,43.8793767,2007.71,0.1,4.2,217.7,544283.75,-108330.92,212.1,Weapon+Missile,Red,Allies,R-27ER,,xu,,203.195293976519,185.826049804688,0.610878059544422,2007.70910644531,555.5166015625,202.645265821251,14.940673828125,0.0235931204587327,NaN,0.0461720787892862,0.0171320104161963,5000,0.997312605381012,0.997312605381012,0.997312605381012,2064.4163747102,1968.89005087219,4033.30642558239,,,36.8699998855591,1452.19250488281,19592.1963664548,19621.0269729399
2018-07-19T09:03:16Z,1531990996,3AA04,41.0113483,43.8779958,2022.07,0.1,4.2,217.7,544180.31,-108495.91,212.1,Weapon+Missile,Red,Allies,R-27ER,,xu,,195.257134428142,178.331771850586,0.58711253911272,2022.068359375,595.674194335938,194.72842730426,14.3592529296875,0.0252878188841563,NaN,0,0.0171320104161963,5000,0.99631404876709,0.99631404876709,0.99631404876709,1906.26742725447,1982.97166764648,3889.23909490095,,,37.8699998855591,1426.39416503906,19786.1260569669,19815.5486384883
2018-07-19T09:03:17Z,1531990997,3AA04,41.0099427,43.8766784,2035.76,0.1,4.2,217.7,544081.62,-108653.3,212.1,Weapon+Missile,Red,Allies,R-27ER,,xu,,186.27531447983,169.897674560547,0.560195886506932,2035.76000976562,625.046875,185.771449620604,13.691650390625,0.0255611976056715,NaN,0,0.0171320104161963,5000,0.989297151565552,0.989297151565552,0.989297151565552,1734.92463922799,1996.39858997681,3731.32322920479,,,38.8699998855591,1410.71313476562,19971.1385538103,20001.1257543683
2018-07-19T09:03:18Z,1531990998,3AA04,41.0085856,43.8754064,2048.9,-0.1,3.8,217.7,543986.31,-108805.27,212.1,Weapon+Missile,Red,Allies,R-27ER,,xu,,179.865875252775,163.868179321289,0.541004359996183,2048.90380859375,638.7333984375,179.38498720019,13.143798828125,0.213896111518468,NaN,0.47691112860697,0.984704423937624,5000,0.404228776693344,0.404228776693344,0.404228776693344,1617.58665402234,2009.28825345459,3626.87490747693,,,39.8699998855591,1410.17041015625,20149.7700530925,20180.2972097948
2018-07-19T09:03:19Z,1531990999,3AA04,41.0072764,43.874179,2055.79,-1.3,0.6,217.7,543894.44,-108951.88,212.1,Weapon+Missile,Red,Allies,R-27ER,,xu,,173.16180852451,157.628143310547,0.520882064270218,2055.78833007812,625.649658203125,173.024897906082,6.884521484375,0.0518208479230909,NaN,1.16921910287946,2.55775045736616,3105.84668257633,0.0342340618371964,0.0342340618371964,0.0342340618371964,1499.25059657395,2016.03966271606,3515.29025929001,,,40.8699998855591,1430.138671875,20322.1214709936,20352.8414876485
2018-07-19T09:03:20Z,1531991000,3AA04,41.006015,43.8729963,2053.12,-2.4,-2.5,217.7,543805.81,-109093.17,212.1,Weapon+Missile,Red,Allies,R-27ER,,xu,,166.80556779209,151.788711547852,0.501746281421482,2053.12231445312,599.41357421875,166.784261269248,-2.666015625,0.0226461027592717,NaN,1.12304702409018,3.20001577002408,2927.01777734527,0.0437247268855572,0.0437247268855572,0.0437247268855572,1391.20487232208,2013.42519450317,3404.63006682526,,,41.8699998855591,1453.70874023438,20488.1946079355,20518.9895090984
2018-07-19T09:03:21Z,1531991001,3AA04,41.0047917,43.8718497,2041.3,-3.3,-5.9,217.7,543719.94,-109230.14,212.1,Weapon+Missile,Red,Allies,R-27ER,,xu,,162.094457935931,147.533493041992,0.487507383170021,2041.30456542969,558.814086914062,161.663088247016,-11.8177490234375,0.0875465893763868,NaN,0.969231163981489,3.31540669340957,2810.58261376363,0.0566764883697033,0.0566764883697033,0.0566764883697033,1313.73066467717,2001.8359416571,3315.56660633428,,,42.8699998855591,1482.49047851562,20649.2163503511,20680.4958798721
2018-07-19T09:03:22Z,1531991002,3AA04,41.0036119,43.8707451,2020.83,-4,-9.2,217.8,543637.06,-109362.11,212.1,Weapon+Missile,Red,Allies,R-27ER,,xu,,157.172600126808,143.142913818359,0.4725904452809,2020.82995605469,507.496215820312,155.833297473815,-20.474609375,0.0410012786509619,NaN,0.769243225083516,3.3273042426135,2705.92802799192,0.0668870210647583,0.0668870210647583,0.0668870210647583,1235.16131153107,1981.75720885437,3216.91852038544,,,43.8699998855591,1513.33374023438,20804.4053401143,20837.0786793527
2018-07-19T09:03:23Z,1531991003,3AA04,41.0024643,43.8696729,1991.92,-4.6,-12.6,217.8,543556.44,-109490.23,212.2,Weapon+Missile,Red,Allies,R-27ER,,xu,,154.117910820944,140.524765014648,0.463247541955824,1991.91760253906,451.01806640625,151.38165757449,-28.912353515625,0.083378124597424,NaN,0.569255286185543,3.32837978396436,2645.90518665277,0.0741780325770378,0.0741780325770378,0.0741780325770378,1187.61652179062,1953.40387569397,3141.02039748459,,,44.8699998855591,1540.89953613281,20955.1644946395,20990.6317595162
2018-07-19T09:03:24Z,1531991004,3AA04,41.0013489,43.8686342,1954.9,-5.2,-15.8,217.9,543478,-109614.38,212.3,Weapon+Missile,Red,Allies,R-27ER,,xu,,151.438380364588,138.30078125,0.454994884615023,1954.90075683594,393.143432617188,146.844598748611,-37.016845703125,0.0253365700159299,NaN,0.569200644672183,3.36294971923132,2607.62960617625,0.0764657035470009,0.0764657035470009,0.0764657035470009,1146.67915237248,1917.10275070251,3063.78190307499,,,45.8699998855591,1561.75732421875,21101.3967521661,21141.5203093999
2018-07-19T09:03:25Z,1531991005,3AA04,41.0002637,43.8676279,1910.05,-5.6,-19.2,218.1,543401.69,-109734.67,212.5,Weapon+Missile,Red,Allies,R-27ER,,xu,,149.352763824891,136.669662475586,0.448491805276043,1910.05310058594,330.317016601562,142.46029548971,-44.84765625,0.0628275124173991,NaN,0.399975877795947,3.29811948462027,2613.01024319752,0.0888884216547012,0.0888884216547012,0.0888884216547012,1115.31240310669,1873.12222388611,2988.4346269928,,,46.8699998855591,1579.73608398438,21243.2900864772,21290.3733673192
2018-07-19T09:03:26Z,1531991006,3AA04,40.9992046,43.8666514,1857.57,-6,-22.4,218.3,543327.12,-109851.46,212.6,Weapon+Missile,Red,Allies,R-27ER,,xu,,148.168181101698,135.915069580078,0.444660089385213,1857.56921386719,259.234130859375,138.561363755843,-52.48388671875,0.0378909538504178,NaN,0.399975877795947,3.24552660112435,2645.65513841795,0.0975541472434998,0.0975541472434998,0.0975541472434998,1097.69049454927,1821.65311311707,2919.34360766634,,,47.8699998855591,1598.33508300781,21381.2795054614,21438.0449201408
2018-07-19T09:03:27Z,1531991007,3AA04,40.998172,43.865706,1797.82,-6.3,-25.6,218.5,543254.31,-109964.58,212.9,Weapon+Missile,Red,Allies,R-27ER,,xu,,147.197599302035,135.40168762207,0.441437453368202,1797.81994628906,179.455810546875,134.525678828096,-59.749267578125,0.0336447014697821,NaN,0.384621612541758,3.16471180286476,2680.34634279068,0.0934117585420609,0.0934117585420609,0.0934117585420609,1083.35666201413,1763.05909762756,2846.41575964169,,,48.8699998855591,1618.36413574219,21515.2349153923,21584.756583812
2018-07-19T09:03:28Z,1531991008,3AA04,40.9971623,43.8647894,1730.92,-6.5,-28.6,218.7,543183.12,-110074.31,213.1,Weapon+Missile,Red,Allies,R-27ER,,xu,,146.920138699681,135.574890136719,0.440259808657924,1730.91528320312,86.420654296875,130.802496967339,-66.9046630859375,0.0472565244257957,NaN,0.199987938897973,3.06521899854612,2788.82474700426,0.116972960531712,0.116972960531712,0.116972960531712,1079.27635777667,1697.44803620239,2776.72439397906,,,49.8699998855591,1644.49462890625,21645.5298807546,21731.2571152938
2018-07-19T09:03:29Z,1531991009,3AA04,40.9961726,43.8638998,1657.01,-6.7,-31.6,219,543113.12,-110180.9,213.4,Weapon+Missile,Red,Allies,R-27ER,,xu,,147.384560581126,136.484939575195,0.44126953052454,1657.01232910156,-12.3990478515625,127.516908968003,-73.9029541015625,0.0558850748326928,NaN,0.107698422832761,2.98819324772859,2888.37682904485,0.107598140835762,0.107598140835762,0.107598140835762,1086.11043488458,1624.97399571838,2711.08443060296,,,50.8699998855591,1669.41137695312,21772.4810067103,21878.1815752178
2018-07-19T09:03:30Z,1531991010,3AA04,40.9952093,43.8630438,1576.98,-6.9,-34.5,219.4,543045,-110283.55,213.8,Weapon+Missile,Red,Allies,R-27ER,,xu,,146.911177838432,136.559768676758,0.43944102212261,1576.97998046875,-110.361572265625,123.197878821802,-80.0323486328125,0.0952088877799762,NaN,0.199987938897973,2.86440930251363,3014.55238509023,0.128134116530418,0.128134116530418,0.128134116530418,1079.14470869377,1546.48907254639,2625.63378124016,,,51.8699998855591,1687.34155273438,21895.1928105601,22024.7114348134
2018-07-19T09:03:31Z,1531991011,3AA04,40.9942597,43.8622105,1490.06,-7,-37.2,219.8,542977.62,-110383.56,214.2,Weapon+Missile,Red,Allies,R-27ER,,xu,,148.650364483277,138.757186889648,0.444192744993763,1490.06384277344,-211.528564453125,120.592354107301,-86.9161376953125,0.0446269385189446,NaN,0.0307631720217374,2.74399007923854,3178.83789855395,0.117363668978214,0.117363668978214,0.117363668978214,1104.84654305056,1461.25345837341,2566.10000142397,,,52.8699998855591,1701.59240722656,22015.2531342591,22172.9539004515
2018-07-19T09:03:32Z,1531991012,3AA04,40.9933263,43.8614029,1396.79,-7.1,-39.8,220.1,542911.38,-110480.59,214.5,Weapon+Missile,Red,Allies,R-27ER,,xu,,150.006354757644,140.647994995117,0.44775832821756,1396.79382324219,-300.519897460938,117.484509295125,-93.27001953125,0.393050522408622,NaN,0,1.76897609290758,5000,0.569302797317505,0.569302797317505,0.569302797317505,1125.09532338381,1369.7868146698,2494.88213805361,,,53.8699998855591,1697.31372070312,22132.2717908026,22322.616391019
2018-07-19T09:03:33Z,1531991013,3AA04,40.9923921,43.8606033,1301.4,-5.4,-38.5,220.3,542844.88,-110576.73,214.7,Weapon+Missile,Red,Allies,R-27ER,,xu,,150.884613729577,142.111892700195,0.449881193891575,1301.40307617188,-376.793823242188,116.90497009833,-95.3907470703125,0.094999365567575,NaN,1.89229451804192,0.473956591543264,5000,1.22174680233002,1.22174680233002,1.22174680233002,1138.30833301619,1276.24044769409,2414.54878071028,,,54.8699998855591,1678.19689941406,22248.6634866797,22473.1227131906
2018-07-19T09:03:34Z,1531991014,3AA04,40.9914305,43.8597821,1208.95,-3.8,-36.8,220.3,542776.5,-110675.5,214.7,Weapon+Missile,Red,Allies,R-27ER,,xu,,151.581912512991,143.391265869141,0.451476317981082,1208.95153808594,-434.400146484375,120.124057984405,-92.4515380859375,0.071040849491865,NaN,1.52308095849407,1.62694785864586,5000,1.18548798561096,1.18548798561096,1.18548798561096,1148.85381005481,1185.57646009705,2334.43027015185,,,55.8699998855591,1643.35168457031,22368.3035650326,22624.3400055487
2018-07-19T09:03:35Z,1531991015,3AA04,40.9904449,43.85894,1118.9,-2.7,-35.5,220.3,542706.31,-110776.77,214.7,Weapon+Missile,Red,Allies,R-27ER,,xu,,152.612060384645,144.979400634766,0.454071441010817,1118.89916992188,-489.022094726562,123.211249335808,-90.0523681640625,0.0935922764152575,NaN,1.04614549733818,1.36990585550689,5000,1.13659501075745,1.13659501075745,1.13659501075745,1164.52204874232,1097.26525447144,2261.78730321376,,,56.8699998855591,1607.92126464844,22490.9678851438,22776.5288899202
2018-07-19T09:03:36Z,1531991016,3AA04,40.9894404,43.8580799,1030.96,-1.8,-34.5,220.2,542634.88,-110880.17,214.6,Weapon+Missile,Red,Allies,R-27ER,,xu,,153.392288987073,146.321716308594,0.455929956077364,1030.96154785156,-542.441040039062,125.682810858576,-87.9376220703125,0.0249235390291773,NaN,0.569234155287798,1.08926266729947,5000,1.09480619430542,1.09480619430542,1.09480619430542,1176.45971603468,1011.02790632385,2187.48762235853,,,57.8699998855591,1573.40258789062,22616.1334319134,22929.5149041571
2018-07-19T09:03:37Z,1531991017,3AA04,40.988426,43.8572084,945.18,-1,-33.6,220.1,542562.69,-110984.94,214.5,Weapon+Missile,Red,Allies,R-27ER,,xu,,153.444930011605,146.95573425293,0.455636048266031,945.179992675781,-598.986999511719,127.227635904667,-85.7815551757812,0.0106840802378563,NaN,0.569251017317311,0.822364701188173,5000,1.04442071914673,1.04442071914673,1.04442071914673,1177.26732731331,926.904937517395,2104.17226483071,,,58.8699998855591,1544.1669921875,22742.7943390094,23082.5065104153
2018-07-19T09:03:38Z,1531991018,3AA04,40.9874036,43.8563269,861.08,-0.5,-32.8,220,542490.06,-111090.88,214.4,Weapon+Missile,Red,Allies,R-27ER,,xu,,153.526785956458,147.607635498047,0.455438606365227,861.076904296875,-653.733154296875,128.441210408692,-84.1030883789062,0.28532371802002,NaN,0.507716348980786,0.0862292573013466,5000,0.655242621898651,0.655242621898651,0.655242621898651,1178.52370030601,844.427982352295,2022.9516826583,,,59.8699998855591,1514.81005859375,22870.7210224264,23235.6182365719
2018-07-19T09:03:39Z,1531991019,3AA04,40.9863946,43.8554557,775.83,-1.5,-35.3,220.1,542418.38,-111195.55,214.5,Weapon+Missile,Red,Allies,R-27ER,,xu,,152.846593374402,147.530212402344,0.452977595466319,775.831481933594,-709.540466308594,126.867249801774,-85.2454223632812,0.0262038708478338,NaN,1.13845593085773,1.75031068000981,3115.95985291734,0.0593334473669529,0.0593334473669529,0.0593334473669529,1168.10405530799,760.830780230408,1928.9348355384,,,60.8699998855591,1485.37194824219,22997.0698277045,23388.0482203536
2018-07-19T09:03:40Z,1531991020,3AA04,40.9854147,43.8546134,684.2,-2.6,-38.1,220.2,542348.69,-111296.79,214.6,Weapon+Missile,Red,Allies,R-27ER,,xu,,153.307615269314,148.60285949707,0.453867465726313,684.196899414062,-771.23388671875,122.907803601054,-91.6345825195312,0.0218790658259164,NaN,0.969231163981489,2.79108017814096,3245.42665342484,0.0677436366677284,0.0677436366677284,0.0677436366677284,1175.1612449782,670.967952363892,1846.12919734209,,,61.8699998855591,1455.43078613281,23119.454567786,23540.9480246534
2018-07-19T09:03:41Z,1531991021,3AA04,40.9844612,43.8537995,586.3,-3.4,-40.8,220.5,542280.75,-111394.67,214.9,Weapon+Missile,Red,Allies,R-27ER,,xu,,154.20833567277,150.152404785156,0.456023748288155,586.300720214844,-839.339904785156,119.149271458789,-97.8961791992188,0.0772368655559458,NaN,0.769243225083516,2.66065131263722,3425.8823559834,0.0634760409593582,0.0634760409593582,0.0634760409593582,1189.01053954829,574.96459578949,1763.97513533778,,,62.8699998855591,1425.640625,23238.0666885194,23694.7508194162
2018-07-19T09:03:42Z,1531991022,3AA04,40.9835332,43.8530143,482.55,-4,-43.3,220.7,542214.69,-111489.16,215.1,Weapon+Missile,Red,Allies,R-27ER,,xu,,155.101909452149,151.743698120117,0.458124154779714,482.553070068359,-915.081329345703,115.295391949484,-103.747650146484,0.0628851768375113,NaN,0.661544802250755,2.51758339551778,3695.75955913122,0.0982020348310471,0.0982020348310471,0.0982020348310471,1202.83011578512,473.222906458588,1676.05302224371,,,63.8699998855591,1397.63439941406,23352.9108502658,23849.5247408136
2018-07-19T09:03:43Z,1531991023,3AA04,40.9826344,43.8522618,373.91,-4.5,-45.6,221.1,542150.5,-111579.78,215.5,Weapon+Missile,Red,Allies,R-27ER,,xu,,155.353872513089,152.745864868164,0.458301872730046,373.910003662109,-999.869903564453,111.047331470235,-108.64306640625,0.0661479493779838,NaN,0.400030519309307,2.32061482711978,3892.21706845741,0.0948022753000259,0.0948022753000259,0.0948022753000259,1206.74128524065,366.680453741302,1573.42173898195,,,64.8699998855591,1373.77990722656,23463.4664928425,24004.5328286518
2018-07-19T09:03:44Z,1531991024,3AA04,40.9817531,43.8515335,259.43,-5,-47.8,221.5,542087.5,-111667.6,215.9,Weapon+Missile,Red,Allies,R-27ER,,xu,,157.439686503256,155.607467651367,0.46385246617526,259.429229736328,-1111.88973999023,108.080559249097,-114.480773925781,0.0753004190793655,NaN,0.369212705774209,2.19606568727436,4182.10607882353,0.104335464537144,0.104335464537144,0.104335464537144,1239.36274431217,254.413165579376,1493.77590989155,,,65.8699998855591,1371.31896972656,23571.0707038585,24161.6495483172
2018-07-19T09:03:45Z,1531991025,3AA04,40.9808957,43.8508349,140.38,-5.3,-49.8,221.9,542026.12,-111751.89,216.3,Weapon+Missile,Red,Allies,R-27ER,,xu,,158.252618661677,157.256805419922,0.46562009790541,140.381530761719,-1238.29815673828,104.266661412596,-119.047698974609,0.0237886059245928,NaN,0.292332096476546,2.07623386026789,4449.96732967722,0.124064594507217,0.124064594507217,0.124064594507217,1252.19456566391,137.667253864441,1389.86181952835,,,66.8699998855591,1378.6796875,23674.9193136878,24319.62918127
