ISOTime,UnixTime,Id,Longitude,Latitude,Altitude,Roll,Pitch,Yaw,U,V,Heading,Type,Color,Coalition,Name,Group,Country,Pilot,TAS,CAS,M,ASL,AGL,GS,VS,AOA,AOS,RRT,TRT,TRD,G,LatG,LonG,Ek,Ep,Em,FFW,FFV,RelativeTime,Elev,GroundDistance,AirDistance
2018-07-19T09:02:37Z,1531990957,3AB06,41.0291096,43.9740279,1231.67,8,5.3,202.5,544563.62,-97686.95,196.8,Weapon+Missile,Red,Allies,R-27ET,,xu,,284.684868942717,270.918304443359,0.848137446072271,1231.67309570312,313.231872558594,NaN,NaN,0.528264427069822,NaN,1.72306548229746,5.29333116004739,NaN,NaN,NaN,NaN,NaN,1207.8586963977,NaN,,,0.769999980926514,918.441223144531,NaN,NaN
2018-07-19T09:02:38Z,1531990958,3AB06,41.0269115,43.9699106,1287.8,6.9,8.4,198.3,544432,-98161.67,192.7,Weapon+Missile,Red,Allies,R-27ET,,xu,,495.815482858523,469.431823730469,1.47810209177449,1287.79760742188,354.166809082031,492.628696105457,56.12451171875,0.260243841066264,NaN,0.769243225083516,4.77781764282735,3484.14947060142,9.79250431060791,9.79250431060791,9.79250431060791,12291.6496521115,1262.89804068237,13554.5476927939,,,1.76999998092651,933.630798339844,491.00850822671,494.302093553572
2018-07-19T09:02:39Z,1531990959,3AB06,41.0247259,43.9636634,1427.1,5.8,13.4,189.6,544324.56,-98872.92,183.9,Weapon+Missile,Red,Allies,R-27ET,,xu,,732.68294003445,680.286743164062,2.18777759955271,1427.09912109375,475.9287109375,719.318690780554,139.301513671875,0.257571964979011,NaN,1.3384438697557,8.57160993193097,5000,11.7862319946289,11.7862319946289,11.7862319946289,26841.2145308763,1399.5061595874,28240.7206904637,,,2.76999998092651,951.17041015625,1208.15167707311,1224.99913911547
2018-07-19T09:02:40Z,1531990960,3AB06,41.0235468,43.9560465,1638.25,4.6,12.8,185.1,544312.75,-99728.44,179.5,Weapon+Missile,Red,Allies,R-27ET,,xu,,881.266823066812,807.116760253906,2.63793491565673,1638.25,681.990173339844,855.597171439569,211.15087890625,0.113289956998449,NaN,1.13845593085773,4.75766602345488,5000,3.48462581634521,3.48462581634521,3.48462581634521,38831.5606719136,1606.57443625,40438.1351081636,,,3.76999998092651,956.259826660156,2061.30714234858,2104.09458425567
2018-07-19T09:02:41Z,1531990961,3AB06,41.0226576,43.9484814,1811.68,3.7,10.3,184.8,544323.62,-100575.94,179.2,Weapon+Missile,Red,Allies,R-27ET,,xu,,865.130562520173,786.418273925781,2.59490066288575,1811.67541503906,860.73583984375,847.569770358169,173.425415039062,0.06922834250483,NaN,0.769243225083516,2.58751044535355,5000,2.65590524673462,2.65590524673462,2.65590524673462,37422.5445103236,1776.64667088928,39199.1911812128,,,4.76999998092651,950.939575195312,2906.46408956311,2967.08534360891
2018-07-19T09:02:42Z,1531990962,3AB06,41.021729,43.9409444,1948.53,3.1,8.1,185.6,544331,-101420.62,180,Weapon+Missile,Red,Allies,R-27ET,,xu,,855.726563781013,773.242004394531,2.57082783823711,1948.5322265625,913.41162109375,844.711882892681,136.856811523438,0.0633285412873051,NaN,0.569255286185543,2.21542329715582,5000,2.56288409233093,2.56288409233093,2.56288409233093,36613.397598023,1910.85735596191,38524.2549539849,,,5.76999998092651,1035.12060546875,3748.77102861554,3820.68308256533
2018-07-19T09:02:43Z,1531990963,3AB06,41.0205886,43.9334687,2056.87,2.5,6.7,187.2,544320.62,-102260.14,181.6,Weapon+Missile,Red,Allies,R-27ET,,xu,,846.548362283811,761.396118164062,2.5465054311599,2056.869140625,1005.27648925781,839.587543223943,108.3369140625,0.0983076332528306,NaN,0.569255286185543,2.07101580918542,5000,2.94398951530457,2.94398951530457,2.94398951530457,35832.2064842701,2017.09957579102,37849.3060600611,,,6.76999998092651,1051.59265136719,4585.96670834956,4665.12000601791
2018-07-19T09:02:44Z,1531990964,3AB06,41.0191071,43.926098,2152.48,2.1,6.6,189.4,544281.69,-103090.7,183.8,Weapon+Missile,Red,Allies,R-27ET,,xu,,836.946472305753,749.724670410156,2.52046918443537,2152.48388671875,960.656982421875,831.466907239532,95.61474609375,0.0707882251349051,NaN,0.353858440520021,2.10052222639987,5000,3.41881823539734,3.41881823539734,3.41881823539734,35023.9698752522,2110.86561076904,37134.8354860213,,,7.76999998092651,1191.82690429688,5415.02675175488,5499.94719255688
2018-07-19T09:02:45Z,1531990965,3AB06,41.0172696,43.9187884,2254.18,2.1,7.4,190.6,544213.5,-103917.24,185,Weapon+Missile,Red,Allies,R-27ET,,xu,,835.566785990173,745.075622558594,2.51934826700116,2254.18237304688,934.788208007812,829.354732143319,101.698486328125,0.14479140364424,NaN,0.0922895160652123,0.977523333799002,5000,1.76882922649384,1.76882922649384,1.76882922649384,34908.5926924974,2210.59775686401,37119.1904493614,,,8.76999998092651,1319.39416503906,6241.95803926219,6333.39213206595
2018-07-19T09:02:46Z,1531990966,3AB06,41.0154948,43.9115442,2362.13,1.9,7.5,189.7,544149.62,-104736.02,184.1,Weapon+Missile,Red,Allies,R-27ET,,xu,,828.324809449053,735.191101074219,2.50071709590975,2362.126953125,944.663208007812,821.26119936386,107.944580078125,0.0228638986738656,NaN,0.199987938897973,0.581321402323752,5000,1.35464262962341,1.35464262962341,1.35464262962341,34306.0994974405,2316.45522848633,36622.5547259268,,,9.76999998092651,1417.46374511719,7060.8348972354,7159.64679009189
2018-07-19T09:02:47Z,1531990967,3AB06,41.0138998,43.9044769,2465.13,1.7,6.9,188.5,544098.12,-105533.74,182.9,Weapon+Missile,Red,Allies,R-27ET,,xu,,805.996293410973,712.647155761719,2.43629373445045,2465.13232421875,1009.8486328125,799.387214382408,103.00537109375,0.0249613601919235,NaN,0.199987938897973,1.31679377091234,5000,2.31608819961548,2.31608819961548,2.31608819961548,32481.5012496114,2417.46899072998,34898.9702403414,,,10.7699999809265,1455.28369140625,7857.89991708457,7963.63912606097
2018-07-19T09:02:48Z,1531990968,3AB06,41.0127059,43.8979956,2546.08,1.5,5.7,186.6,544072.56,-106263.2,181,Weapon+Missile,Red,Allies,R-27ET,,xu,,734.375710206196,649.146545410156,2.22195089439604,2546.0791015625,1112.81274414062,729.900885722518,80.94677734375,0.0636504561671579,NaN,0.107698422832761,2.24698239965928,5000,2.67222189903259,2.67222189903259,2.67222189903259,26965.3841870427,2496.85066213379,29462.2348491765,,,11.7699999809265,1433.26635742188,8585.72125547445,8696.23216427016
2018-07-19T09:02:49Z,1531990969,3AB06,41.0119163,43.8920022,2608.25,1.4,4.8,184.3,544074.06,-106935.27,178.7,Weapon+Missile,Red,Allies,R-27ET,,xu,,674.949599926872,597.150146484375,2.04366779787039,2608.25390625,1273.59790039062,672.079798910454,62.1748046875,0.0676885080102232,NaN,0.199987938897973,2.42456497020208,5000,2.68365025520325,2.68365025520325,2.68365025520325,22777.8481220722,2557.82331697266,25335.6714390449,,,12.7699999809265,1334.65600585938,9255.89746659674,9369.55592876868
2018-07-19T09:02:50Z,1531990970,3AB06,41.0114991,43.8864691,2654.45,1.3,3.7,181.9,544100.56,-107553.3,176.3,Weapon+Missile,Red,Allies,R-27ET,,xu,,620.321814510644,550.002807617188,1.87930028200578,2654.4521484375,1209.1943359375,618.599123808434,46.1982421875,0.140961864243438,NaN,0.199987938897973,2.23286012977663,5000,1.52973592281342,1.52973592281342,1.52973592281342,19239.9576778889,2603.12831614746,21843.0859940363,,,13.7699999809265,1445.2578125,9872.75437682881,9988.39416057014
2018-07-19T09:02:51Z,1531990971,3AB06,41.0112874,43.881352,2688.7,1.3,3.6,183.1,544139,-108123.49,177.5,Weapon+Missile,Red,Allies,R-27ET,,xu,,572.506655864308,509.075805664062,1.73515332879572,2688.69604492188,1193.8076171875,571.481606495345,34.243896484375,0.225234994688652,NaN,0,1.33172275016899,5000,3.07504367828369,3.07504367828369,3.07504367828369,16388.1935504466,2636.71010689331,19024.9036573399,,,14.7699999809265,1494.88842773438,10442.6335636997,10559.5395463783
2018-07-19T09:02:52Z,1531990972,3AB06,41.0107402,43.8766711,2716.03,1.2,2.2,185.9,544145.81,-108647.85,180.2,Weapon+Missile,Red,Allies,R-27ET,,xu,,525.115280146371,468.704528808594,1.59204115582666,2716.025390625,1312.13842773438,524.403627282116,27.329345703125,0.566932664222434,NaN,0,4.22547048993218,5000,4.29465007781982,4.29465007781982,4.29465007781982,13787.3028721601,2663.51103969727,16450.8139118573,,,15.7699999809265,1403.88696289062,10965.5581712255,11083.3990735763
2018-07-19T09:02:53Z,1531990973,3AB06,41.009748,43.8724966,2738.12,1.1,2.3,193.9,544111.25,-109119.43,188.3,Weapon+Missile,Red,Allies,R-27ET,,xu,,473.358913022937,424.565216064453,1.4355070124835,2738.11987304688,1332.75695800781,472.842991261122,22.094482421875,0.204064153946536,NaN,0.169224766876236,6.02944212426937,3478.28576663602,6.14412498474121,6.14412498474121,6.14412498474121,11203.4330269128,2685.17832530151,13888.6113522143,,,16.7699999809265,1405.36291503906,11437.0346434949,11555.5943275853
2018-07-19T09:02:54Z,1531990974,3AB06,41.0081602,43.8688272,2745.69,0.5,-0.5,200.9,544023.38,-109539.57,195.3,Weapon+Missile,Red,Allies,R-27ET,,xu,,429.298764705994,386.634368896484,1.30200857304721,2745.6875,1260.70678710938,429.232058914977,7.567626953125,0.0961274394248345,NaN,0.569255286185543,7.54831440557425,3385.77700141264,5.02732038497925,5.02732038497925,5.02732038497925,9214.87146890462,2692.5996321875,11907.4711010921,,,17.7699999809265,1484.98071289062,11864.9277915845,11983.7383088248
2018-07-19T09:02:55Z,1531990975,3AB06,41.0061698,43.8656049,2733.21,-0.3,-3,207.5,543898.31,-109913.17,201.8,Weapon+Missile,Red,Allies,R-27ET,,xu,,394.175583416376,355.901885986328,1.19530545426768,2733.21215820312,1173.90417480469,393.978116662197,-12.475341796875,0.168572477845893,NaN,0.692307974272492,6.89797068667549,3450.59723066417,4.23779582977295,4.23779582977295,4.23779582977295,7768.71952808201,2680.36550112427,10449.0850292063,,,18.7699999809265,1559.30798339844,12257.5870345247,12376.7642460301
2018-07-19T09:02:56Z,1531990976,3AB06,41.003907,43.8628092,2709.89,-0.7,-4.1,213.6,543746.69,-110241.53,208,Weapon+Missile,Red,Allies,R-27ET,,xu,,362.427993323538,327.300048828125,1.09872599338227,2709.8876953125,1092.07434082031,361.676678506357,-23.324462890625,0.13530969003075,NaN,0.353858440520021,6.21567576972623,3479.21648478851,3.78884243965149,3.78884243965149,3.78884243965149,6567.70251722634,2657.49201672363,9225.19453394997,,,19.7699999809265,1617.81335449219,12617.9223471148,12738.0070984588
2018-07-19T09:02:57Z,1531990977,3AB06,41.0014628,43.860404,2686.69,-0.3,-3.4,219.1,543576.25,-110527.89,213.5,Weapon+Missile,Red,Allies,R-27ET,,xu,,334.049051552217,300.996429443359,1.01241161179621,2686.68994140625,1018.11071777344,333.242603903884,-23.19775390625,0.202386652245683,NaN,0.553812762080673,5.24161608888837,4170.77125121779,3.1293580532074,3.1293580532074,3.1293580532074,5579.43844214678,2634.74279138916,8214.18123353594,,,20.7699999809265,1668.57922363281,12949.8480924669,13070.8825637093
2018-07-19T09:02:58Z,1531990978,3AB06,40.9989607,43.8582944,2673.58,0.5,-1.5,221.6,543397.88,-110781.86,216,Weapon+Missile,Red,Allies,R-27ET,,xu,,310.628003829405,279.179626464844,0.941280850218989,2673.57543945312,957.174072265625,310.351037700154,-13.114501953125,0.0842234311017483,NaN,0.676923133249597,3.20815500763721,5000,1.96939599514008,1.96939599514008,1.96939599514008,4824.48783815205,2621.8818583313,7446.36969648335,,,21.7699999809265,1716.4013671875,13258.8507513026,13380.2931242681
2018-07-19T09:02:59Z,1531990979,3AB06,40.9965453,43.8563362,2669.51,1.2,0.2,220.9,543224.94,-111018.35,215.3,Weapon+Missile,Red,Allies,R-27ET,,xu,,293.005896559517,262.764343261719,0.887838199371765,2669.5107421875,948.758544921875,292.977701634075,-4.064697265625,0.0505938845298696,NaN,0.969230737094666,2.06561867908064,5000,2.06725811958313,2.06725811958313,2.06725811958313,4292.62277093232,2617.8957519873,6910.51852291962,,,22.7699999809265,1720.75219726562,13550.5804550716,13672.173325462
2018-07-19T09:03:00Z,1531990980,3AB06,40.9943579,43.8544624,2674.33,1.2,0.9,221.6,543069.31,-111243.64,216,Weapon+Missile,Red,Allies,R-27ET,,xu,,273.856804716548,244.923294067383,0.829862409477106,2674.33227539062,1049.50061035156,273.814357379464,4.821533203125,0.126781621122104,NaN,0.769243225083516,1.06693339152053,4529.15839432413,1.74505531787872,1.74505531787872,1.74505531787872,3749.87747447789,2622.62406084595,6372.50153532383,,,23.7699999809265,1624.83166503906,13823.2398605747,13944.9895623804
2018-07-19T09:03:01Z,1531990981,3AB06,40.9921537,43.8527869,2675.91,0.7,0.1,224.8,542910.19,-111447.04,219.2,Weapon+Missile,Red,Allies,R-27ET,,xu,,258.252137706602,230.489395141602,0.782590679038103,2675.90600585938,1148.76684570312,258.247342682246,1.57373046875,0.588025302666616,NaN,0.353858440520021,1.80499680304293,5000,1.06557869911194,1.06557869911194,1.06557869911194,3334.70833150148,2624.16736323608,5958.87569473757,,,24.7699999809265,1527.13916015625,14080.3243487554,14202.1866916678
2018-07-19T09:03:02Z,1531990982,3AB06,40.9900953,43.8511774,2677.61,0.7,0.5,220.7,542762.12,-111641.96,215.1,Weapon+Missile,Red,Allies,R-27ET,,xu,,244.785476354056,218.086578369141,0.741797280719263,2677.60546875,1224.42919921875,244.779576884522,1.699462890625,0.0989119982318076,NaN,0.199987938897973,2.57969905682058,3432.70898807476,1.94625973701477,1.94625973701477,1.94625973701477,2995.99647169411,2625.83396701172,5621.83043870583,,,25.7699999809265,1453.17626953125,14324.0602387881,14446.0307942294
2018-07-19T09:03:03Z,1531990983,3AB06,40.9883033,43.8495582,2678.13,0.3,-0.3,216.7,542635.5,-111835.88,211.1,Weapon+Missile,Red,Allies,R-27ET,,xu,,231.602803245074,206.006622314453,0.701852946422934,2678.12915039062,1255.67883300781,231.602211190903,0.523681640625,0.0225894992678192,NaN,0.384621612541758,4.02777109129298,3329.40978340342,1.69425916671753,1.69425916671753,1.69425916671753,2681.99292354882,2626.34752326782,5308.34044681664,,,26.7699999809265,1422.45031738281,14554.6804099248,14676.7483858055
2018-07-19T09:03:04Z,1531990984,3AB06,40.9867362,43.8479272,2675.19,-0.1,-1.3,213,542527.12,-112029.34,207.4,Weapon+Missile,Red,Allies,R-27ET,,xu,,221.760926173278,197.049789428711,0.672004267273,2675.18701171875,1238.32861328125,221.741408395603,-2.942138671875,0.0663543795369828,NaN,0.399975877795947,3.85676364504337,3376.69929244402,1.53806555271149,1.53806555271149,1.53806555271149,2458.89541886151,2623.46227084717,5082.35768970868,,,27.7699999809265,1436.8583984375,14775.5712571293,14897.7515170867
2018-07-19T09:03:05Z,1531990985,3AB06,40.9853872,43.8463127,2668.88,-0.4,-2.2,209.4,542436.06,-112219.25,203.8,Weapon+Missile,Red,Allies,R-27ET,,xu,,210.711817160621,187.049606323242,0.638473817892353,2668.88305664062,1206.23718261719,210.617496997528,-6.303955078125,0.106794297928592,NaN,0.307686361730734,3.70268098067023,3357.20428330903,1.43706572055817,1.43706572055817,1.43706572055817,2219.97349455655,2617.28020274048,4837.25369729702,,,28.7699999809265,1462.64587402344,14985.401865165,15107.7646649316
2018-07-19T09:03:06Z,1531990986,3AB06,40.9842291,43.8447157,2659.61,-0.5,-3.1,206,542360.19,-112405.74,200.4,Weapon+Missile,Red,Allies,R-27ET,,xu,,201.549854226232,178.812225341797,0.61064449013867,2659.60986328125,1170.95129394531,201.336414052538,-9.273193359375,0.0505827475740345,NaN,0.169224766876236,3.50955908943541,3356.35907209927,1.36754083633423,1.36754083633423,1.36754083633423,2031.11718693078,2608.18630657471,4639.30349350548,,,29.7699999809265,1488.65856933594,15186.0242555227,15308.6849680296
2018-07-19T09:03:07Z,1531990987,3AB06,40.9832436,43.843139,2647.86,-0.6,-3.9,202.7,542297.94,-112588.62,197.1,Weapon+Missile,Red,Allies,R-27ET,,xu,,193.536254065558,171.649780273438,0.586282853431496,2647.86450195312,1135.36999511719,193.179523047863,-11.745361328125,0.0345405556851689,NaN,0.199987938897973,3.34961228077299,3345.06709699894,1.31559038162231,1.31559038162231,1.31559038162231,1872.81408188641,2596.66804180786,4469.48212369427,,,30.7699999809265,1512.49450683594,15378.5547598748,15501.6533608591
2018-07-19T09:03:08Z,1531990988,3AB06,40.9824137,43.8415841,2634.02,-0.6,-4.6,199.5,542248,-112767.86,193.9,Weapon+Missile,Red,Allies,R-27ET,,xu,,186.582809555713,165.471267700195,0.56512498582323,2634.021484375,1093.47033691406,186.068577911573,-13.843017578125,0.057759815439551,NaN,0.0769183887815102,3.24893849405818,3539.53399363697,1.18443477153778,1.18443477153778,1.18443477153778,1740.65724108517,2583.09267897461,4323.74992005978,,,31.7699999809265,1540.55114746094,15564.0268258125,15687.7178916981
2018-07-19T09:03:09Z,1531990989,3AB06,40.9817182,43.8400536,2617.88,-0.7,-6.2,197.6,542208.56,-112943.33,192,Weapon+Missile,Red,Allies,R-27ET,,xu,,180.568830771295,160.163238525391,0.546804110942961,2617.88134765625,1050.49536132812,179.846041471066,-16.14013671875,0.0697888215717271,NaN,0.400030519309307,2.48415154052127,3788.21020414046,0.26085165143013,0.26085165143013,0.26085165143013,1630.25513230562,2567.26461179932,4197.51974410494,,,32.7699999809265,1567.38598632812,15743.3175289982,15867.8071328045
2018-07-19T09:03:10Z,1531990990,3AB06,40.9810742,43.8385829,2594.34,-1,-9.4,197.6,542172.69,-113111.77,192,Weapon+Missile,Red,Allies,R-27ET,,xu,,173.816940993144,154.245971679688,0.526209624217404,2594.34155273438,1004.099609375,172.215583009349,-23.539794921875,0.0684018973239537,NaN,0.215396845665522,3.06534706459306,3113.33298132564,0.0150876417756081,0.0150876417756081,0.0150876417756081,1510.6164488107,2544.17995881226,4054.79640762295,,,33.7699999809265,1590.24194335938,15915.0080887874,16041.1734050854
2018-07-19T09:03:11Z,1531990991,3AB06,40.9804528,43.8371655,2562.13,-1.3,-12.6,197.7,542138,-113274.1,192.1,Weapon+Missile,Red,Allies,R-27ET,,xu,,169.097206693908,150.222045898438,0.511724095092996,2562.12841796875,964.082763671875,166.000539939646,-32.213134765625,0.0369362273204889,NaN,0.292277454963186,3.24271597828089,2991.66011924885,0.0167230796068907,0.0167230796068907,0.0167230796068907,1429.69326558411,2512.58966500732,3942.28293059144,,,34.7699999809265,1598.04565429688,16080.493430591,16209.8305391858
2018-07-19T09:03:12Z,1531990992,3AB06,40.9798543,43.8358028,2521.68,-1.6,-15.9,197.7,542104.56,-113430.17,192.1,Weapon+Missile,Red,Allies,R-27ET,,xu,,164.657489645428,146.502502441406,0.498047880020819,2521.67993164062,928.264892578125,159.612057345608,-40.448486328125,0,NaN,0.200042580411333,3.22697068469671,2882.67698188054,0.0150502203032374,0.0150502203032374,0.0150502203032374,1355.60444481671,2472.92325016235,3828.52769497906,,,35.7699999809265,1593.4150390625,16239.6148099136,16374.0738917944
2018-07-19T09:03:13Z,1531990993,3AB06,40.979272,43.8344806,2472.86,-1.8,-19.1,197.8,542072,-113581.62,192.2,Weapon+Missile,Red,Allies,R-27ET,,xu,,162.417504706768,144.81982421875,0.490986388189497,2472.859375,893.265869140625,154.906420410752,-48.820556640625,0.0306129216774417,NaN,0.199987938897973,3.2619342096146,2839.28052621952,0.0174199230968952,0.0174199230968952,0.0174199230968952,1318.97229175866,2425.04663898438,3744.01893074303,,,36.7699999809265,1579.59350585938,16394.0493154672,16536.0990231405
2018-07-19T09:03:14Z,1531990994,3AB06,40.9787107,43.8332106,2416.4,-2,-22.4,197.8,542040.56,-113727.12,192.2,Weapon+Missile,Red,Allies,R-27ET,,xu,,159.203894687349,142.300689697266,0.480947993389773,2416.40307617188,854.131225585938,148.857537283975,-56.456298828125,0.0425858070581313,NaN,0.199987938897973,3.27831983343346,2822.71997791812,0.0282908510416746,0.0282908510416746,0.0282908510416746,1267.29400418103,2369.68192269409,3636.97592687512,,,37.7699999809265,1562.27185058594,16542.4442236109,16694.9236001446
2018-07-19T09:03:15Z,1531990995,3AB06,40.9781667,43.8319857,2352.46,-2.1,-25.6,197.9,542010,-113867.45,192.3,Weapon+Missile,Red,Allies,R-27ET,,xu,,157.217884850856,140.934295654297,0.474587062954302,2352.4560546875,805.878662109375,143.625352080522,-63.947021484375,0.0270679074792841,NaN,0.0461720787892862,3.22821612700318,2826.40351946105,0.0249063763767481,0.0249063763767481,0.0249063763767481,1235.87316584885,2306.97131687012,3542.84448271897,,,38.7699999809265,1546.57739257812,16685.6234872421,16851.7829441229
2018-07-19T09:03:16Z,1531990996,3AB06,40.9776371,43.8307997,2280.99,-2.3,-28.8,198,541980.19,-114003.36,192.4,Weapon+Missile,Red,Allies,R-27ET,,xu,,156.417990102319,140.689697265625,0.471771719374006,2280.99072265625,744.513061523438,139.137679818633,-71.46533203125,0.038688920680102,NaN,0.199987938897973,3.12821212571385,2863.82048536423,0.0268563535064459,0.0268563535064459,0.0268563535064459,1223.32938138247,2236.88776703369,3460.21714841616,,,39.7699999809265,1536.47766113281,16824.3243472802,17007.8572864622
2018-07-19T09:03:17Z,1531990997,3AB06,40.977125,43.829661,2202.84,-2.4,-31.8,198.1,541951.31,-114133.87,192.6,Weapon+Missile,Red,Allies,R-27ET,,xu,,154.834891359,139.771240234375,0.466564299045329,2202.83837890625,651.934936523438,133.663962041139,-78.15234375,0.0311935783355382,NaN,0.199987938897973,3.07812741574721,2931.13954729787,0.0398462638258934,0.0398462638258934,0.0398462638258934,1198.69217910767,2160.2464988501,3358.93867795776,,,40.7699999809265,1550.90344238281,16957.5844016454,17162.3840387001
2018-07-19T09:03:18Z,1531990998,3AB06,40.9766245,43.8285567,2117.49,-2.5,-34.8,198.3,541922.94,-114260.47,192.7,Weapon+Missile,Red,Allies,R-27ET,,xu,,155.298053353557,140.767440795898,0.467487427804655,2117.48974609375,538.369506835938,129.742422716864,-85.3486328125,0.0257554991586431,NaN,0.200042580411333,3.02183769236302,3038.88091461627,0.036888875067234,0.036888875067234,0.036888875067234,1205.87426877022,2076.54808185303,3282.42235062325,,,41.7699999809265,1579.12023925781,17086.9250682444,17317.3831700698
2018-07-19T09:03:19Z,1531990999,3AB06,40.9761379,43.8274928,2025.71,-2.6,-37.7,198.5,541895.25,-114382.48,192.9,Weapon+Missile,Red,Allies,R-27ET,,xu,,155.164535028506,141.261810302734,0.466579409065831,2025.7099609375,417.439697265625,125.109967497738,-91.77978515625,0.387091536112864,NaN,0.199987938897973,2.19450434871878,5000,0.435479253530502,0.435479253530502,0.435479253530502,1203.80164653063,1986.54285884277,3190.3445053734,,,42.7699999809265,1608.27026367188,17211.6376086985,17472.2600619138
2018-07-19T09:03:20Z,1531991000,3AB06,40.9756395,43.826454,1930.87,-2.4,-37.7,199.9,541866.38,-114501.78,194.3,Weapon+Missile,Red,Allies,R-27ET,,xu,,155.117868974428,141.857406616211,0.465918009811309,1930.87231445312,296.927490234375,122.749232520911,-94.837646484375,0.0224846700350391,NaN,0.200042580411333,1.17300964442541,5000,0.832637846469879,0.832637846469879,0.832637846469879,1203.0776637584,1893.53889825317,3096.61656201157,,,43.7699999809265,1633.94482421875,17334.0065905106,17627.1072037728
2018-07-19T09:03:21Z,1531991001,3AB06,40.9751056,43.8254267,1835.92,-2.3,-37.8,201.4,541834.5,-114620.09,195.8,Weapon+Missile,Red,Allies,R-27ET,,xu,,155.008613327541,142.396469116211,0.465070260838699,1835.92150878906,188.568481445312,122.523527167123,-94.9508056640625,0.0331035312716916,NaN,0.199987938897973,1.17426042281717,5000,0.820289790630341,0.820289790630341,0.820289790630341,1201.38351028636,1800.42396641663,3001.80747670299,,,44.7699999809265,1647.35302734375,17456.1387866053,17781.8351565067
2018-07-19T09:03:22Z,1531991002,3AB06,40.9745328,43.8244049,1740.09,-2.3,-38,202.9,541799.44,-114738.09,197.3,Weapon+Missile,Red,Allies,R-27ET,,xu,,156.006258264548,143.973037719727,0.467537448177459,1740.08532714844,98.4688720703125,123.099061354057,-95.836181640625,0.0216608048472715,NaN,0,1.14672728994261,5000,0.810105919837952,0.810105919837952,0.810105919837952,1216.89763088524,1706.44077734802,2923.33840823327,,,45.7699999809265,1641.61645507812,17578.837224317,17937.5526002649
2018-07-19T09:03:23Z,1531991003,3AB06,40.9739233,43.8233929,1643.59,-2.3,-38.2,204.4,541761.31,-114855.27,198.8,Weapon+Missile,Red,Allies,R-27ET,,xu,,156.513249155275,145.104080200195,0.468527264785657,1643.58764648438,20.9520263671875,123.225787835167,-96.4976806640625,0.0160595698716835,NaN,0,1.16152372084068,5000,0.795491635799408,0.795491635799408,0.795491635799408,1224.81985805705,1611.8088793396,2836.62873739665,,,46.7699999809265,1622.63562011719,17701.6689944676,18093.7814431712
