ISOTime,UnixTime,Id,Longitude,Latitude,Altitude,Roll,Pitch,Yaw,U,V,Heading,Type,Color,Coalition,Name,Group,Country,Pilot,TAS,CAS,M,ASL,AGL,GS,VS,AOA,AOS,RRT,TRT,TRD,G,LatG,LonG,Ek,Ep,Em,FFW,FFV,RelativeTime,Elev,GroundDistance,AirDistance
2018-07-19T09:03:12Z,1531990992,3E304,41.0809592,43.9718458,3079.62,-4.8,8.9,196.8,548747.62,-97520.59,191.1,Weapon+Missile,Red,Allies,R-27ET,,xu,,306.549847688665,270.677459716797,0.933475807589247,3079.61767578125,2041.56042480469,NaN,NaN,NaN,NaN,NaN,NaN,NaN,NaN,NaN,NaN,NaN,3020.07326802002,NaN,,,0.399999856948853,1038.05725097656,NaN,NaN
2018-07-19T09:03:13Z,1531990993,3E304,41.0794299,43.9678393,3151.77,-4.1,7.9,194.7,548668.81,-97977.82,189,Weapon+Missile,Red,Allies,R-27ET,,xu,,469.552952483456,414.563934326172,1.43108690265487,3151.76538085938,2148.82043457031,463.977029429142,72.147705078125,0.892648202985932,NaN,0.384596853106017,7.18025384465007,5000,5.57860088348389,5.57860088348389,5.57860088348389,11023.9987592965,3090.82599722046,14114.824756517,,,1.39999985694885,1002.94494628906,462.519002123419,468.335532912668
2018-07-19T09:03:14Z,1531990994,3E304,41.0777023,43.9616279,3218.83,-3.9,2.2,189.3,548598.19,-98681.59,183.6,Weapon+Missile,Red,Allies,R-27ET,,xu,,710.480829115529,610.508972167969,2.16714086106944,3218.8330078125,2252.7314453125,707.308236878072,67.067626953125,0.441137390040208,NaN,0.292315021003621,6.61440556488548,5000,8.90844917297363,8.90844917297363,8.90844917297363,25239.1504270345,3156.59687160645,28395.7472986409,,,2.39999985694885,966.1015625,1167.69259388268,1177.04186642407
2018-07-19T09:03:15Z,1531990995,3E304,41.0758305,43.9534093,3200.91,-3.3,-2.3,190.6,548537.88,-99609.52,184.9,Weapon+Missile,Red,Allies,R-27ET,,xu,,930.052615379592,791.30712890625,2.83627154123476,3200.9091796875,2183.44464111328,929.879886737941,-17.923828125,0.187178612562251,NaN,0.769238956215285,3.8355746906907,5000,3.65055918693542,3.65055918693542,3.65055918693542,43249.893368721,3139.01960069824,46388.9129694193,,,3.39999985694885,1017.46453857422,2094.80153172977,2104.79054021924
2018-07-19T09:03:16Z,1531990996,3E304,41.0734581,43.9449927,3168.46,-2.6,-1.4,192.4,548439.56,-100563.37,186.7,Weapon+Missile,Red,Allies,R-27ET,,xu,,959.453543814096,816.839294433594,2.92478053853683,3168.4599609375,2157.90161132812,958.904662070188,-32.44921875,0.0480946690406049,NaN,0.769238956215285,1.94226845087797,5000,3.65999174118042,3.65999174118042,3.65999174118042,46027.5551368713,3107.19778759277,49134.7529244641,,,4.39999985694885,1010.55834960938,3050.82746017427,3061.84408347618
2018-07-19T09:03:17Z,1531990997,3E304,41.0708809,43.9367731,3155.79,-2,-0.1,193.2,548322.5,-101496.97,187.5,Weapon+Missile,Red,Allies,R-27ET,,xu,,940.997403696414,802.0478515625,2.8680784579336,3155.78686523438,2075.62072753906,940.912060932737,-12.673095703125,0.0211130325754425,NaN,0.60001845820728,1.57264475981479,5000,3.22439050674438,3.22439050674438,3.22439050674438,44273.8056881696,3094.76972619507,47368.5754143647,,,5.39999985694885,1080.16613769531,3988.85886382136,4000.42610242454
2018-07-19T09:03:18Z,1531990998,3E304,41.0681872,43.9286476,3162.77,-1.5,0.9,193.9,548195.06,-102421.03,188.2,Weapon+Missile,Red,Allies,R-27ET,,xu,,932.834709359702,795.030944824219,2.84344001520814,3162.77075195312,1998.2041015625,932.808565737097,6.98388671875,0.0745412129418257,NaN,0.52310006942577,1.48486348876691,5000,3.35737013816833,3.35737013816833,3.35737013816833,43509.02974931,3101.61857946411,46610.6483287741,,,6.39999985694885,1164.56665039062,4918.80766692968,4930.86174755344
2018-07-19T09:03:19Z,1531990999,3E304,41.0653658,43.9206782,3189.38,-1.1,2.2,194.8,548055.56,-103328.73,189.1,Weapon+Missile,Red,Allies,R-27ET,,xu,,918.737762465201,782.395935058594,2.80137403996705,3189.3798828125,1868.05688476562,918.352345417854,26.609130859375,0.0554043560469567,NaN,0.384646798864322,1.1921259565301,5000,2.41434144973755,2.41434144973755,2.41434144973755,42203.9538089782,3127.71322277832,45331.6670317565,,,7.39999985694885,1321.32299804688,5834.33802954168,5847.23442247608
2018-07-19T09:03:20Z,1531991000,3E304,41.0624938,43.9127838,3228.78,-0.8,2.6,194.8,547911.06,-104228.51,189.1,Weapon+Missile,Red,Allies,R-27ET,,xu,,912.161832123695,775.532897949219,2.78265360430198,3228.78369140625,1880.08581542969,911.310346617201,39.40380859375,0.0429355104853134,NaN,0.246139100232926,0.51368155872544,5000,1.40197992324829,1.40197992324829,1.40197992324829,41601.9603991628,3166.35515873291,44768.3155578957,,,8.39999985694885,1348.69787597656,6742.82270700195,6757.02989519041
2018-07-19T09:03:21Z,1531991001,3E304,41.0596497,43.9049313,3271.88,-0.7,2.8,194.7,547768.31,-105123.39,189,Weapon+Missile,Red,Allies,R-27ET,,xu,,907.221012799751,769.906921386719,2.76903059872362,3271.87841796875,2097.93469238281,906.196893951811,43.0947265625,0.0426238284182219,NaN,0.169237360037518,0.206534154949115,5000,1.25955903530121,1.25955903530121,1.25955903530121,41152.4983032703,3208.61664875732,44361.1149520277,,,9.39999985694885,1173.94372558594,7646.21931993707,7661.91365071182
2018-07-19T09:03:22Z,1531991002,3E304,41.0568704,43.8972023,3316.72,-0.5,3,194.5,547629.38,-106004.03,188.8,Weapon+Missile,Red,Allies,R-27ET,,xu,,892.660240045601,756.365112304688,2.72607449427902,3316.71997070312,2103.49658203125,891.533251935474,44.841552734375,0.0424341727433969,NaN,0.199987938897973,0.423826391449529,5000,1.65025770664215,1.65025770664215,1.65025770664215,39842.1152079135,3252.59119006958,43094.7063979831,,,10.3999998569489,1213.22338867188,8535.02376330498,8552.30702134773
2018-07-19T09:03:23Z,1531991003,3E304,41.0543756,43.8900276,3363.05,-0.4,3.5,194.1,547507.12,-106820.86,188.4,Weapon+Missile,Red,Allies,R-27ET,,xu,,827.224367551913,701.384521484375,2.52766712697319,3363.0546875,2118.68762207031,825.925691748971,46.334716796875,0.230414065628219,NaN,0.0307673875291158,0.643700025909598,5000,2.56217551231384,2.56217551231384,2.56217551231384,34215.0077135831,3298.03002511719,37513.0377387003,,,11.3999998569489,1244.36706542969,9358.40197826075,9377.41840195472
2018-07-19T09:03:24Z,1531991004,3E304,41.0518932,43.8834815,3414.82,-0.2,4.1,197.4,547379,-107567.72,191.8,Weapon+Missile,Red,Allies,R-27ET,,xu,,759.535776843926,644.86962890625,2.32230296531446,3414.82006835938,2229.49194335938,757.769715448163,51.765380859375,0.137304626630171,NaN,0.0923273489099118,2.76554530248546,5000,5.38148832321167,5.38148832321167,5.38148832321167,28844.7298152953,3348.79452233765,32193.524337633,,,12.3999998569489,1185.328125,10113.8372492644,10135.02563089
2018-07-19T09:03:25Z,1531991005,3E304,41.0490429,43.8776384,3461.47,-0.2,3.6,201.6,547213.56,-108239.37,195.9,Weapon+Missile,Red,Allies,R-27ET,,xu,,693.294403598092,590.145751953125,2.1209753052865,3461.46704101562,2179.54931640625,691.723347880091,46.64697265625,0.238309566832316,NaN,0,3.74478440114831,5000,4.01498603820801,4.01498603820801,4.01498603820801,24032.8565030217,3394.53957577759,27427.3960787993,,,13.3999998569489,1281.91772460938,10803.3153005839,10826.4506592986
2018-07-19T09:03:26Z,1531991006,3E304,41.0459964,43.8723549,3506.47,0.1,4.8,203.5,547026.25,-108850.39,197.9,Weapon+Missile,Red,Allies,R-27ET,,xu,,640.672430485522,546.776550292969,1.96106865658944,3506.47314453125,2241.50170898438,639.089675891081,45.006103515625,0.113995867107306,NaN,0.3999879373487,2.39861089168627,5000,2.77881336212158,2.77881336212158,2.77881336212158,20523.0581592113,3438.67548628174,23961.733645493,,,14.3999998569489,1264.97143554688,11440.2598586832,11465.3303466121
2018-07-19T09:03:27Z,1531991007,3E304,41.043009,43.8675195,3560.13,0.3,5.5,204.8,546838.75,-109411.15,199.2,Weapon+Missile,Red,Allies,R-27ET,,xu,,593.703887014731,507.977966308594,1.81849343227537,3560.126953125,2338.10681152344,591.274533765649,53.65380859375,0.0623613020266572,NaN,0.0769230845365645,1.60166207145165,5000,2.09622168540955,2.09622168540955,2.09622168540955,17624.21527282,3491.29189848633,21115.5071713063,,,15.3999998569489,1222.02014160156,12029.512318042,12057.3455459007
2018-07-19T09:03:28Z,1531991008,3E304,41.040091,43.8630436,3617.17,0.4,6.1,205.5,546652.94,-109931.4,199.9,Weapon+Missile,Red,Allies,R-27ET,,xu,,555.374146782211,476.175903320312,1.70228006585522,3617.17163085938,2357.3505859375,552.436736338425,57.044677734375,0.0671129130075662,NaN,0,0.755968859153302,5000,0.917967796325684,0.917967796325684,0.917967796325684,15422.0221457034,3547.23361737671,18969.2557630801,,,16.3999998569489,1259.82104492188,12580.0560984885,12611.1448969127
2018-07-19T09:03:29Z,1531991009,3E304,41.0373598,43.8588673,3669.51,-0.1,4.7,204.7,546478.69,-110416.9,199,Weapon+Missile,Red,Allies,R-27ET,,xu,,518.471326289209,445.664642333984,1.59018969803431,3669.50903320312,2366.75146484375,515.822946852891,52.33740234375,0.409803033762422,NaN,0.738425411548419,2.71083100492201,5000,3.61443281173706,3.61443281173706,3.61443281173706,13440.6258092046,3598.55907604614,17039.1848852507,,,17.3999998569489,1302.75756835938,13094.051936443,13128.0905770782
2018-07-19T09:03:30Z,1531991010,3E304,41.035022,43.8549142,3678.81,-1.7,-2.6,201.6,546333.75,-110874.49,196,Weapon+Missile,Red,Allies,R-27ET,,xu,,480.088884699641,414.584014892578,1.47263598350157,3678.80517578125,2255.87512207031,479.998873900046,9.296142578125,0.360061978755464,NaN,1.43078802733427,5.97346061317148,4200.42392478661,4.53869485855103,4.53869485855103,4.53869485855103,11524.2668606073,3607.67547770752,15131.9423383148,,,18.3999998569489,1422.93005371094,13572.4494856367,13606.8539695748
2018-07-19T09:03:31Z,1531991011,3E304,41.033087,43.8511876,3640.59,-2.2,-7.2,199.8,546218.69,-111303.76,194.1,Weapon+Missile,Red,Allies,R-27ET,,xu,,446.059277760564,387.352203369141,1.36761118653656,3640.58837890625,2114.85083007812,444.419121677826,-38.216796875,0.167772310669277,NaN,0.523083207396256,5.43253012147398,5000,2.45012903213501,2.45012903213501,2.45012903213501,9948.44396381378,3570.1976026001,13518.6415664139,,,19.3999998569489,1525.73754882812,14015.4214962905,14051.7247063828
2018-07-19T09:03:32Z,1531991012,3E304,41.0314394,43.8476821,3576.45,-2.2,-10,197.5,546124.25,-111706.2,191.9,Weapon+Missile,Red,Allies,R-27ET,,xu,,418.315215667001,365.089599609375,1.28154048759153,3576.45385742188,1977.86352539062,413.369547514691,-64.134521484375,0.3664807234214,NaN,0.199987938897973,2.8843374466342,5000,1.77081775665283,1.77081775665283,1.77081775665283,8749.38098292649,3507.30312208862,12256.6841050151,,,20.3999998569489,1598.59033203125,14427.4616712105,14468.9566616858
2018-07-19T09:03:33Z,1531991013,3E304,41.0300565,43.8443328,3515.15,-1.4,-7.5,197.1,546049.44,-112089.18,191.4,Weapon+Missile,Red,Allies,R-27ET,,xu,,395.009614453901,345.92529296875,1.20923437868311,3515.14599609375,1887.04016113281,390.222938395977,-61.307861328125,0.551886617562849,NaN,0.692320567433775,0.593068527283381,5000,2.50524878501892,2.50524878501892,2.50524878501892,7801.62977555096,3447.18064825928,11248.8104238102,,,21.3999998569489,1628.10583496094,14816.4816439159,14862.9915648887
2018-07-19T09:03:34Z,1531991014,3E304,41.0285307,43.8412431,3462.23,-1.6,-9,202.7,545960.25,-112444.46,197.1,Weapon+Missile,Red,Allies,R-27ET,,xu,,370.10701689414,324.551086425781,1.13226813967267,3462.23071289062,1813.96667480469,366.304759398254,-52.915283203125,0.200191874596962,NaN,0.307741003244094,4.49872971003829,3686.10498673671,3.59320449829102,3.59320449829102,3.59320449829102,6848.96019771397,3395.28848205689,10244.2486797709,,,22.3999998569489,1648.26403808594,15181.5969449842,15232.1190279971
2018-07-19T09:03:35Z,1531991015,3E304,41.0267356,43.8385038,3406.4,-1.6,-9.7,208.2,545845.62,-112762.91,202.6,Weapon+Missile,Red,Allies,R-27ET,,xu,,343.020971785318,300.515625,1.04868899072736,3406.39990234375,1704.87951660156,338.446905257269,-55.830810546875,0.0702099233026919,NaN,0,5.55305905466261,3662.07465200661,3.2311429977417,3.2311429977417,3.2311429977417,5883.16935422719,3340.53716023193,9223.70651445912,,,23.3999998569489,1701.52038574219,15518.8769516661,15574.16788611
2018-07-19T09:03:36Z,1531991016,3E304,41.024736,43.8360757,3351.52,-1.7,-10,213.4,545711.19,-113048.39,207.8,Weapon+Missile,Red,Allies,R-27ET,,xu,,320.291803340396,280.198364257812,0.978546230203581,3351.517578125,1607.666015625,315.554701716502,-54.88232421875,0.17330446165236,NaN,0,4.84864200876533,4620.86860974208,2.50121521949768,2.50121521949768,2.50121521949768,5129.34196435213,3286.71598575195,8416.05795010408,,,24.3999998569489,1743.8515625,15833.2617603493,15893.47123435
2018-07-19T09:03:37Z,1531991017,3E304,41.0226375,43.8338906,3301.78,-1.1,-9,214.8,545566.12,-113307.65,209.2,Weapon+Missile,Red,Allies,R-27ET,,xu,,301.216849292893,263.222717285156,0.91971197232986,3301.77978515625,1515.27429199219,297.082046324808,-49.73779296875,0.271033781810183,NaN,0.769238956215285,1.01692146575722,5000,1.5995409488678,1.5995409488678,1.5995409488678,4536.57951489687,3237.93987301025,7774.51938790712,,,25.3999998569489,1786.50549316406,16129.173061163,16193.6856758891
2018-07-19T09:03:38Z,1531991018,3E304,41.020731,43.8317651,3257.53,-0.4,-8,211.7,545435.88,-113558.78,206.1,Weapon+Missile,Red,Allies,R-27ET,,xu,,286.340118167126,250.095489501953,0.873818271313479,3257.53149414062,1423.37329101562,282.900604478252,-44.248291015625,0.362616497847469,NaN,0.96922710855667,1.88545835245639,5000,2.0061981678009,2.0061981678009,2.0061981678009,4099.53316359818,3194.54712270142,7294.0802862996,,,26.3999998569489,1834.158203125,16410.9969471804,16479.1052193497
2018-07-19T09:03:39Z,1531991019,3E304,41.0189345,43.8297454,3225.36,0.3,-6,214.6,545313.25,-113797.27,209,Weapon+Missile,Red,Allies,R-27ET,,xu,,270.086441473,235.628234863281,0.823895210982971,3225.36010742188,1337.39208984375,268.16354663552,-32.17138671875,0.100685307648675,NaN,0.369230821783766,2.62151475557987,4197.65233607285,2.3796112537384,2.3796112537384,2.3796112537384,3647.3342933774,3162.99776974487,6810.33206312227,,,27.3999998569489,1887.96801757812,16678.1307977541,16748.3041108702
2018-07-19T09:03:40Z,1531991020,3E304,41.0170671,43.827886,3202.69,1,-3.8,216.8,545183.19,-114018.51,211.2,Weapon+Missile,Red,Allies,R-27ET,,xu,,257.639792453527,224.56950378418,0.785710612506851,3202.69067382812,1266.97351074219,256.640525708695,-22.66943359375,0.547904355855337,NaN,0.969230843816372,1.89276580109465,5000,1.65762996673584,1.65762996673584,1.65762996673584,3318.91313277483,3140.76664964966,6459.67978242449,,,28.3999998569489,1935.71716308594,16933.7277291621,17005.0326683013
2018-07-19T09:03:41Z,1531991021,3E304,41.0153372,43.826097,3186.8,0.9,-3.9,213,545063.44,-114230.84,207.4,Weapon+Missile,Red,Allies,R-27ET,,xu,,244.292921953025,212.667175292969,0.744863750046919,3186.80297851562,1268.478515625,243.775742956521,-15.8876953125,0.0580504989326991,NaN,0.169224766876236,2.62489484544538,3570.63076931795,1.89281213283539,1.89281213283539,1.89281213283539,2983.95158581734,3125.18614292603,6109.13772874336,,,29.3999998569489,1918.32446289062,17176.5567844155,17248.5022858597
2018-07-19T09:03:42Z,1531991022,3E304,41.0138505,43.8243102,3170.71,0.7,-4,209.2,544963.19,-114441.03,203.6,Weapon+Missile,Red,Allies,R-27ET,,xu,,233.426239522895,203.039672851562,0.711591677455931,3170.71069335938,1270.67163085938,232.870881941582,-16.09228515625,0.0551224686224203,NaN,0.199987938897973,3.78868928401997,3695.5975332185,1.79474592208862,1.79474592208862,1.79474592208862,2724.39046489,3109.40500210327,5833.79546699328,,,30.3999998569489,1900.0390625,17408.5482168866,17481.1665197893
2018-07-19T09:03:43Z,1531991023,3E304,41.0125827,43.822543,3155.66,0.7,-3.6,206.1,544880.38,-114647.32,200.5,Weapon+Missile,Red,Allies,R-27ET,,xu,,222.79965658797,193.644348144531,0.679072960937335,3155.65747070312,1227.39001464844,222.290547399971,-15.05322265625,0.171970686095921,NaN,0,2.66769366455833,5000,1.37698650360107,1.37698650360107,1.37698650360107,2481.98434878588,3094.64283350708,5576.62718229296,,,31.3999998569489,1928.26745605469,17630.0597510156,17703.2985535722
2018-07-19T09:03:44Z,1531991024,3E304,41.0114317,43.820818,3143.27,0.8,-3,205.8,544806.44,-114848,200.2,Weapon+Missile,Red,Allies,R-27ET,,xu,,214.225314553789,186.083999633789,0.652841141332478,3143.27221679688,1194.49719238281,213.866993435985,-12.38525390625,0.0310069296394566,NaN,0,0.978323853314069,5000,1.19038486480713,1.19038486480713,1.19038486480713,2294.6242697835,3082.49704848511,5377.1213182686,,,32.3999998569489,1948.77502441406,17843.1767152802,17916.8801558931
2018-07-19T09:03:45Z,1531991025,3E304,41.0103296,43.8191677,3133.25,0.7,-2.6,205.9,544735.62,-115040.01,200.3,Weapon+Missile,Red,Allies,R-27ET,,xu,,204.894598102208,177.845153808594,0.624330437804851,3133.2529296875,1172.90991210938,204.649481351127,-10.019287109375,0.0448061982911012,NaN,0,0.412359811173973,5000,1.10072326660156,1.10072326660156,1.10072326660156,2099.08981657326,3072.67148429199,5171.76130086525,,,33.3999998569489,1960.34301757812,18047.107672756,18121.1573129309
2018-07-19T09:03:46Z,1531991026,3E304,41.0092604,43.817575,3124.54,0.6,-2.4,206,544666.88,-115225.34,200.4,Weapon+Missile,Red,Allies,R-27ET,,xu,,197.860878086986,171.657012939453,0.602834515550301,3124.54370117188,1187.55541992188,197.669108400922,-8.709228515625,0.0261573503625145,NaN,0.199987938897973,0.273934688462426,5000,1.07404589653015,1.07404589653015,1.07404589653015,1957.44635386765,3064.13064870972,5021.57700257737,,,34.3999998569489,1936.98828125,18244.1077972244,18318.4464050151
2018-07-19T09:03:47Z,1531991027,3E304,41.0082264,43.816041,3116.86,0.6,-2.2,206.1,544600.31,-115403.88,200.5,Weapon+Missile,Red,Allies,R-27ET,,xu,,190.69804559731,165.356521606445,0.580957043886149,3116.86376953125,1233.36877441406,190.543336920053,-7.679931640625,0.00590601738420567,NaN,0,0.1297215940791,5000,0.919209420681,0.919209420681,0.919209420681,1818.28722973168,3056.59920854736,4874.88643827904,,,35.3999998569489,1883.49499511719,18434.0001582551,18508.5868395942
2018-07-19T09:03:48Z,1531991028,3E304,41.0072282,43.8145648,3108.66,0,-3.9,206.1,544535.94,-115575.71,200.5,Weapon+Missile,Red,Allies,R-27ET,,xu,,183.681880756111,159.200836181641,0.559526874852194,3108.65991210938,1289.61743164062,183.498583213887,-8.203857421875,0.115839047583648,NaN,0.969231163981489,1.51955978253352,3773.83954902808,0.102927707135677,0.102927707135677,0.102927707135677,1686.95166590512,3048.55397270874,4735.50563861386,,,36.3999998569489,1819.04248046875,18616.8441271841,18691.7039064821
2018-07-19T09:03:49Z,1531991029,3E304,41.0062682,43.8131457,3092.15,-0.8,-7,206.2,544474.06,-115740.9,200.5,Weapon+Missile,Red,Allies,R-27ET,,xu,,177.167038114499,153.559783935547,0.539573646203245,3092.14526367188,1337.904296875,176.395651253794,-16.5146484375,0.102207638703108,NaN,0.769243225083516,3.12733465984892,3240.66366296834,0.0204517897218466,0.0204517897218466,0.0204517897218466,1569.40796971321,3032.35863499878,4601.76660471199,,,37.3999998569489,1754.24096679688,18792.6328495281,18868.3517435234
2018-07-19T09:03:50Z,1531991030,3E304,41.0053443,43.8117809,3066.84,-1.4,-10.1,206.2,544414.5,-115899.79,200.6,Weapon+Missile,Red,Allies,R-27ET,,xu,,171.563765919641,148.79084777832,0.522348572674033,3066.84301757812,1366.36010742188,169.687719411691,-25.30224609375,0.0529221251003432,NaN,0.569200644672183,3.17735640400915,3084.50098013538,0.0235951766371727,0.0235951766371727,0.0235951766371727,1471.70628882647,3007.54560783325,4479.25189665972,,,38.3999998569489,1700.48291015625,18961.7258615632,19039.4080707089
2018-07-19T09:03:51Z,1531991031,3E304,41.0044478,43.8104582,3032.88,-2,-13.3,206.2,544356.69,-116053.76,200.6,Weapon+Missile,Red,Allies,R-27ET,,xu,,167.934776989838,145.825561523438,0.51108971344003,3032.880859375,1383.61328125,164.464771707538,-33.962158203125,0.0558063838000953,NaN,0.569200644672183,3.22307939786051,2988.27518526431,0.0288868136703968,0.0288868136703968,0.0288868136703968,1410.10446613133,2974.24010795898,4384.34457409031,,,39.3999998569489,1649.267578125,19125.6383350684,19206.878748183
2018-07-19T09:03:52Z,1531991032,3E304,41.0035834,43.8091858,2990.8,-2.5,-16.5,206.3,544300.88,-116201.9,200.7,Weapon+Missile,Red,Allies,R-27ET,,xu,,163.80378514122,142.466735839844,0.498264154864998,2990.79760742188,1395.15478515625,158.305653504986,-42.083251953125,0.0350008542003009,NaN,0.415439426076856,3.22730472363581,2920.27943338999,0.0353446826338768,0.0353446826338768,0.0353446826338768,1341.58400132954,2932.97053568237,4274.55453701191,,,40.3999998569489,1595.64282226562,19283.3793022997,19370.2088366384
2018-07-19T09:03:53Z,1531991033,3E304,41.0027448,43.8079551,2940.72,-2.9,-19.7,206.4,544246.69,-116345.2,200.7,Weapon+Missile,Red,Allies,R-27ET,,xu,,161.183564935688,140.491851806641,0.489997699122444,2940.72143554688,1389.49072265625,153.207436554897,-50.076171875,0.0305082590513725,NaN,0.399975877795947,3.18219687369658,2891.30967084936,0.0378394722938538,0.0378394722938538,0.0378394722938538,1299.00708026886,2883.86258659058,4182.86966685944,,,41.3999998569489,1551.23071289062,19436.0463248908,19530.9462715677
2018-07-19T09:03:54Z,1531991034,3E304,41.0019304,43.8067653,2882.94,-3.2,-22.9,206.5,544194.06,-116483.79,200.9,Weapon+Missile,Red,Allies,R-27ET,,xu,,159.102538400903,139.038955688477,0.483334729110877,2882.94458007812,1365.7236328125,148.241197707499,-57.77685546875,0,NaN,0.369212705774209,3.17828189464169,2880.0223708816,0.0486238375306129,0.0486238375306129,0.0486238375306129,1265.68088628054,2827.20284662231,4092.88373290285,,,42.3999998569489,1517.22094726562,19583.7768400584,19689.6359112399
2018-07-19T09:03:55Z,1531991035,3E304,41.0011356,43.8056102,2817.42,-3.5,-26,206.6,544142.56,-116618.34,201,Weapon+Missile,Red,Allies,R-27ET,,xu,,158.273405228249,138.744247436523,0.480436966363254,2817.42163085938,1303.01330566406,144.073640643327,-65.52294921875,0.0191516226711989,NaN,0.199987938897973,3.12991967300636,2920.01011875352,0.0448652319610119,0.0448652319610119,0.0448652319610119,1252.52354012728,2762.94678362671,4015.47032375399,,,43.3999998569489,1514.40832519531,19727.3386986812,19847.5019561367
2018-07-19T09:03:56Z,1531991036,3E304,41.0003682,43.8045023,2745.22,-3.7,-29.1,206.8,544092.81,-116747.44,201.2,Weapon+Missile,Red,Allies,R-27ET,,xu,,156.054884550999,137.251220703125,0.473291976595562,2745.22143554688,1211.63952636719,138.348324128131,-72.2001953125,0.0556438529011326,NaN,0.199987938897973,3.06283568941261,2973.04414942414,0.0643181949853897,0.0643181949853897,0.0643181949853897,1217.65634961128,2692.14257909058,3909.79892870186,,,44.3999998569489,1533.58190917969,19865.2229160279,20003.1988104109
2018-07-19T09:03:57Z,1531991037,3E304,40.9996203,43.8034312,2666.11,-3.9,-32.1,207,544044.19,-116872.29,201.4,Weapon+Missile,Red,Allies,R-27ET,,xu,,155.601022222858,137.372375488281,0.471467969025515,2666.10522460938,1098.86010742188,133.986205572407,-79.1162109375,0.0329738010870465,NaN,0.200042580411333,2.97807368214298,3048.53276366107,0.0569874905049801,0.0569874905049801,0.0569874905049801,1210.58390583992,2614.55608009155,3825.13998593147,,,45.3999998569489,1567.2451171875,19998.7433334053,20158.4476598151
2018-07-19T09:03:58Z,1531991038,3E304,40.9988883,43.8023925,2580.01,-4.1,-35,207.2,543996.56,-116993.44,201.6,Weapon+Missile,Red,Allies,R-27ET,,xu,,156.070955615731,138.368392944336,0.472404828683574,2580.00610351562,980.956420898438,130.17328655946,-86.09912109375,0.0585648588838134,NaN,0.199987938897973,2.85103536523192,3162.73866819523,0.074943982064724,0.074943982064724,0.074943982064724,1217.90715934038,2530.12168550415,3748.02884484453,,,46.3999998569489,1599.04968261719,20128.4681225217,20314.1891896514
2018-07-19T09:03:59Z,1531991039,3E304,40.998175,43.8013908,2487.57,-4.2,-37.7,207.5,543949.94,-117110.32,201.9,Weapon+Missile,Red,Allies,R-27ET,,xu,,156.139784397721,139.049118041992,0.472091738914089,2487.57153320312,863.007202148438,125.839113485872,-92.4345703125,0.0155001213241285,NaN,0.0461720787892862,2.7650846916033,3824.34966294847,0.152818277478218,0.152818277478218,0.152818277478218,1218.98161358833,2439.47433760864,3658.45595119698,,,47.3999998569489,1624.56433105469,20253.8440000896,20469.9959678814
2018-07-19T09:04:00Z,1531991040,3E304,40.9974752,43.8004192,2389.81,-3.8,-38.7,207.7,543904.12,-117223.75,202.1,Weapon+Missile,Red,Allies,R-27ET,,xu,,156.596248615339,140.118453979492,0.472920660416216,2389.81005859375,738.87548828125,122.331840346648,-97.761474609375,0.0340731866640383,NaN,0.923037740851047,0.895556154560383,5000,0.937804341316223,0.937804341316223,0.937804341316223,1226.11925401986,2343.60308111084,3569.7223351307,,,48.3999998569489,1650.9345703125,20375.7401558292,20626.288460814
2018-07-19T09:04:01Z,1531991041,3E304,40.996763,43.7994369,2292.8,-2.9,-37.5,207.8,543857.44,-117338.46,202.2,Weapon+Missile,Red,Allies,R-27ET,,xu,,157.318987516147,141.430282592773,0.474555744611202,2292.80004882812,617.311279296875,123.847978741596,-97.010009765625,0.0239749103479642,NaN,0.769238956215285,1.00700990077618,5000,1.08549308776855,1.08549308776855,1.08549308776855,1237.46319165528,2248.46875988403,3485.93195153931,,,49.3999998569489,1675.48876953125,20499.1561512683,20783.3032194485
2018-07-19T09:04:02Z,1531991042,3E304,40.9960385,43.7984414,2198.04,-2.1,-36.6,207.9,543809.88,-117454.73,202.3,Weapon+Missile,Red,Allies,R-27ET,,xu,,157.351029274269,142.101928710938,0.474119227740233,2198.0400390625,496.0166015625,125.618020056402,-94.760009765625,0.0222794451183401,NaN,0.769238956215285,0.954734300911549,5000,1.04165077209473,1.04165077209473,1.04165077209473,1237.9673206836,2155.54093490723,3393.50825559083,,,50.3999998569489,1702.0234375,20624.3286030755,20940.3339043708
2018-07-19T09:04:03Z,1531991043,3E304,40.9953043,43.7974347,2105.11,-1.6,-35.9,207.9,543761.69,-117572.32,202.3,Weapon+Missile,Red,Allies,R-27ET,,xu,,157.437654405059,142.812957763672,0.473858810839481,2105.1083984375,375.794067382812,127.083929728792,-92.931640625,0.0624965709227691,NaN,0.569217720145108,0.777975621937377,5000,1.00899767875671,1.00899767875671,1.00899767875671,1239.33075122833,2064.40612755371,3303.73687878204,,,51.3999998569489,1729.31433105469,20750.9775067934,21097.4550619641
2018-07-19T09:04:04Z,1531991044,3E304,40.9945611,43.7964163,2013.48,-1.1,-35.2,207.9,543712.88,-117691.3,202.3,Weapon+Missile,Red,Allies,R-27ET,,xu,,157.902787543016,143.865585327148,0.474744842731958,2013.48303222656,251.649169921875,128.600476595409,-91.6253662109375,0,NaN,0.400030519309307,0.665448895691652,5000,0.975748598575592,0.975748598575592,0.975748598575592,1246.66451569274,1974.55233779846,3221.2168534912,,,52.3999998569489,1761.83386230469,20879.11269201,21255.0127886191
2018-07-19T09:04:05Z,1531991045,3E304,40.9938138,43.7953923,1923.29,-0.8,-34.6,207.9,543663.81,-117810.9,202.3,Weapon+Missile,Red,Allies,R-27ET,,xu,,157.630255561627,144.23095703125,0.473422026349593,1923.28527832031,122.65234375,129.273596138931,-90.19775390625,0.0285912540518658,NaN,0.215371659342958,0.51945840465939,5000,0.952407598495483,0.952407598495483,0.952407598495483,1242.36487342119,1886.09855746399,3128.46343088518,,,53.3999998569489,1800.63293457031,21007.9492279411,21412.3173806272
2018-07-19T09:04:06Z,1531991046,3E304,40.993072,43.7943754,1835.23,-0.5,-34.2,207.9,543615.06,-117929.7,202.3,Weapon+Missile,Red,Allies,R-27ET,,xu,,155.703487253796,143.045715332031,0.467151268962408,1835.22668457031,-5.390625,128.410513626282,-88.05859375,0.226465463608622,NaN,0.276927351855522,0.48497582110861,5000,0.949996888637543,0.949996888637543,0.949996888637543,1212.17879714966,1799.74257662415,3011.9213737738,,,54.3999998569489,1840.61730957031,21135.8839998292,21567.6598028636
