ISOTime,UnixTime,Id,Longitude,Latitude,Altitude,Roll,Pitch,Yaw,U,V,Heading,Type,Color,Coalition,Name,Group,Country,Pilot,TAS,CAS,M,ASL,AGL,GS,VS,AOA,AOS,RRT,TRT,TRD,G,LatG,LonG,Ek,Ep,Em,FFW,FFV,RelativeTime,Elev,GroundDistance,AirDistance
2018-07-19T09:06:09Z,1531991169,4820D,40.748757,43.772447,4107.28,-4.1,7.3,136.5,524181.94,-122247.31,131.1,Weapon+Missile,Red,Allies,R-27ER,,xu,,336.002925221396,285.488128662109,1.03612871999611,4107.283203125,1314.41943359375,NaN,NaN,3.32699804695459,NaN,0.892307866001513,3.79777367151313,NaN,NaN,NaN,NaN,NaN,4027.86888239258,NaN,,,0.940000057220459,2792.86376953125,NaN,NaN
2018-07-19T09:06:10Z,1531991170,4820D,40.7535981,43.768716,4155.59,-3.5,7.2,133.9,524610.69,-122625.14,128.5,Weapon+Missile,Red,Allies,R-27ER,,xu,,573.510611887625,479.708221435547,1.76958980576973,4155.59228515625,1395.25537109375,571.472356760164,48.30908203125,1.16777341398345,NaN,0.384592584237785,1.78152176303072,5000,5.06280994415283,5.06280994415283,5.06280994415283,16445.7210973859,4075.24390832275,20520.9650057086,,,1.94000005722046,2760.3369140625,569.155481661184,571.569354675486
2018-07-19T09:06:11Z,1531991171,4820D,40.7610084,43.7636376,4261.04,-2.9,7.3,134.9,525260.56,-123133.15,129.4,Weapon+Missile,Red,Allies,R-27ER,,xu,,831.582035634434,676.124206542969,2.56924748330154,4261.0400390625,1597.32373046875,824.869355223017,105.44775390625,0.0910103540012326,NaN,0.969260619172285,0.395897160963965,5000,5.84589815139771,5.84589815139771,5.84589815139771,34576.4340994954,4178.65282990723,38755.0869294026,,,2.94000005722046,2663.71630859375,1390.43273464647,1400.1258817376
2018-07-19T09:06:12Z,1531991172,4820D,40.7691741,43.7572899,4375.22,-1.3,5.8,139,525984.62,-123776.38,133.6,Weapon+Missile,Red,Allies,R-27ER,,xu,,975.220129323855,783.190551757812,3.01732479994653,4375.22119140625,1697.1865234375,968.512759383112,114.18115234375,0.0661636708708765,NaN,1.93845400366993,4.09779205622984,5000,6.75682020187378,6.75682020187378,6.75682020187378,47552.7150319219,4290.62628967041,51843.3413215923,,,3.94000005722046,2678.03466796875,2354.9625168481,2372.03902151989
2018-07-19T09:06:13Z,1531991173,4820D,40.7768726,43.7505166,4451.49,0.4,3.1,142.2,526675.69,-124470.4,136.7,Weapon+Missile,Red,Allies,R-27ER,,xu,,982.365491598983,785.79833984375,3.04233241256273,4451.48974609375,1839.6630859375,979.400360756719,76.2685546875,0.0658384767449121,NaN,1.70768410973,4.2365409459163,5000,7.01821565628052,7.01821565628052,7.01821565628052,48252.0979542255,4365.42019185303,52617.5181460786,,,4.94000005722046,2611.82666015625,3330.51511143944,3351.24138852393
2018-07-19T09:06:14Z,1531991174,4820D,40.784062,43.7434006,4477.99,1.9,0.1,145.3,527329.44,-125206.3,139.9,Weapon+Missile,Red,Allies,R-27ER,,xu,,984.707615690169,786.587158203125,3.05059761863286,4477.9853515625,1926.01953125,984.351091475528,26.49560546875,0.0653398447059036,NaN,1.20000020414777,4.0835370245452,5000,5.93444871902466,5.93444871902466,5.93444871902466,48482.4544199109,4391.40350479004,52873.8579247009,,,5.94000005722046,2551.9658203125,4311.20542821642,4332.97579927333
2018-07-19T09:06:15Z,1531991175,4820D,40.790838,43.7359718,4460.7,2.3,-1.6,147.8,527953.31,-125980.08,142.3,Weapon+Missile,Red,Allies,R-27ER,,xu,,994.104634110778,794.482360839844,3.07904296663675,4460.703125,1983.09643554688,993.954399459838,-17.2822265625,0.0505237723405013,NaN,0,3.22070590712393,5000,4.47181224822998,4.47181224822998,4.47181224822998,49412.2011780262,4374.45543007812,53786.6566081043,,,6.94000005722046,2477.60668945312,5301.59752932871,5324.21256602512
2018-07-19T09:06:16Z,1531991176,4820D,40.797211,43.7282984,4420.84,2.8,-3.1,149.9,528547.44,-126784.05,144.4,Weapon+Missile,Red,Allies,R-27ER,,xu,,1000.46956365178,800.939453125,3.0972118644361,4420.83984375,2020.50146484375,999.675080514445,-39.86328125,0.0498023865397527,NaN,0.753846271147015,2.33735220568089,5000,3.09164214134216,3.09164214134216,3.09164214134216,50046.967389679,4335.36290537109,54382.3302950501,,,7.94000005722046,2400.33837890625,6297.81623459974,6321.92157071007
2018-07-19T09:06:17Z,1531991177,4820D,40.8034145,43.7203794,4353.91,3.2,-4.3,150.9,529130.56,-127616.55,145.5,Weapon+Missile,Red,Allies,R-27ER,,xu,,1018.61235099389,817.620910644531,3.15074124349628,4353.90625,2449.94738769531,1016.41084981665,-66.93359375,0.0733080635733096,NaN,0.353846487688973,1.5482434821181,5000,1.29687559604645,1.29687559604645,1.29687559604645,51878.5560798645,4269.72347265625,56148.2795525208,,,8.94000005722046,1903.95886230469,7310.81162168491,7337.82116652594
2018-07-19T09:06:18Z,1531991178,4820D,40.809536,43.7123495,4271.49,3.2,-4.8,151.2,529708.44,-128461.98,145.8,Weapon+Missile,Red,Allies,R-27ER,,xu,,1027.3733492577,827.745483398438,3.17457573282838,4271.4931640625,2461.14404296875,1024.06253814464,-82.4130859375,0.02630974839121,NaN,0,0.886054561012102,5000,0.677115976810455,0.677115976810455,0.677115976810455,52774.7999382496,4188.90384373535,56963.7037819849,,,9.94000005722046,1810.34912109375,8331.40853943338,8362.42796014222
2018-07-19T09:06:19Z,1531991179,4820D,40.8154203,43.7045083,4180.69,3.3,-5.6,151.8,530265.31,-129288.22,146.3,Weapon+Missile,Red,Allies,R-27ER,,xu,,1000.50912006269,810.384582519531,3.0880736551936,4180.6884765625,2531.95178222656,996.379951653304,-90.8046875,0.0311931590185149,NaN,0.16923074329176,0.790700317721964,5000,0.714411020278931,0.714411020278931,0.714411020278931,50050.9249664307,4099.85486486816,54150.7798312988,,,10.9400000572205,1648.73669433594,9324.44791416946,9360.26558234936
2018-07-19T09:06:20Z,1531991180,4820D,40.8209218,43.6970845,4080.8,3.6,-6.6,151.4,530787,-130070.98,145.9,Weapon+Missile,Red,Allies,R-27ER,,xu,,945.962832303535,771.430969238281,2.91609753143236,4080.79833984375,2841.54638671875,940.674035299176,-99.89013671875,0.0756065697577707,NaN,0.369230635020781,1.01098624481189,5000,2.23311042785645,2.23311042785645,2.23311042785645,44742.2840049863,4001.89610394287,48744.1801089292,,,11.9400000572205,1239.251953125,10261.9875020369,10303.7153237534
2018-07-19T09:06:21Z,1531991181,4820D,40.8262958,43.6902276,3973.36,3.7,-7.3,149.2,531292.56,-130791.7,143.7,Weapon+Missile,Red,Allies,R-27ER,,xu,,886.895373156555,728.798583984375,2.73037637005869,3973.35913085938,2807.02038574219,880.363685813605,-107.439208984375,0.116536075924749,NaN,0,2.03512615330476,5000,3.53856658935547,3.53856658935547,3.53856658935547,39329.1701463252,3896.53423206421,43225.7043783894,,,12.9400000572205,1166.33874511719,11139.3381645507,11188.1697826291
2018-07-19T09:06:22Z,1531991182,4820D,40.8316885,43.6839452,3857.59,4.4,-9,146.5,531793.69,-131448.42,141,Weapon+Missile,Red,Allies,R-27ER,,xu,,834.151793456796,691.000427246094,2.56433207087905,3857.5859375,2690.12231445312,826.078556934244,-115.773193359375,0.0478768080508402,NaN,1.01538445975056,3.6169719249835,5000,6.21181011199951,6.21181011199951,6.21181011199951,34790.4607263595,3782.99951339844,38573.4602397579,,,13.9400000572205,1167.46362304688,11962.4659289862,12019.8998307614
2018-07-19T09:06:23Z,1531991183,4820D,40.8372746,43.6783965,3723.9,5.4,-10.6,141.2,532302.69,-132022.11,135.7,Weapon+Missile,Red,Allies,R-27ER,,xu,,778.504627519403,650.988647460938,2.38932686482374,3723.90307617188,2551.38342285156,766.940902323152,-133.682861328125,0,NaN,0.769230418478822,5.18398039135086,5000,7.03605842590332,7.03605842590332,7.03605842590332,30303.4727534562,3651.90141019409,33955.3741636503,,,14.9400000572205,1172.51965332031,12726.5140343498,12796.0020979592
2018-07-19T09:06:24Z,1531991184,4820D,40.8431161,43.6735979,3584.24,5.8,-11.4,136.9,532824.44,-132510.47,131.4,Weapon+Missile,Red,Allies,R-27ER,,xu,,728.164202275152,614.832885742188,2.23099924843498,3584.2421875,2406.08703613281,714.645325773835,-139.660888671875,0.189468189917762,NaN,0.246154041271736,4.49238147609158,5000,4.82619524002075,4.82619524002075,4.82619524002075,26511.1552737504,3514.94086480469,30026.0961385551,,,15.9400000572205,1178.15515136719,13438.2312908691,13521.6929305279
2018-07-19T09:06:25Z,1531991185,4820D,40.8490265,43.6693519,3452.61,5.2,-10.6,132.4,533346,-132936.86,126.9,Weapon+Missile,Red,Allies,R-27ER,,xu,,686.412597565464,584.837158203125,2.09969499894264,3452.61450195312,2247.76000976562,673.673813127793,-131.627685546875,0.0289396415264673,NaN,0.661544802250755,4.05527754374109,5000,5.92831563949585,5.92831563949585,5.92831563949585,23558.1127048284,3385.85820055786,26943.9709053862,,,16.9400000572205,1204.8544921875,14108.9654974398,14205.5837900557
2018-07-19T09:06:26Z,1531991186,4820D,40.8549998,43.6657063,3343.25,3.8,-8.8,127.7,533866.31,-133296.05,122.2,Weapon+Missile,Red,Allies,R-27ER,,xu,,641.639581151253,551.415893554688,1.96012126596875,3343.25,2106.49877929688,632.250549871252,-109.364501953125,0.10366327053292,NaN,1.70765657552991,5.00810003201527,5000,6.25476741790771,6.25476741790771,6.25476741790771,20585.0676049978,3278.60826125,23863.6758662478,,,17.9400000572205,1236.75122070312,14738.2889687557,14844.669641001
2018-07-19T09:06:27Z,1531991187,4820D,40.8610151,43.662648,3259.17,2.7,-7.3,122.3,534383.88,-133589.61,116.8,Weapon+Missile,Red,Allies,R-27ER,,xu,,600.932368779853,520.326843261719,1.83388946212374,3259.16772460938,1945.98034667969,595.020909559067,-84.082275390625,0.0301686277269067,NaN,1.16921910287946,5.56957573273617,5000,6.15085077285767,6.15085077285767,6.15085077285767,18055.9855923682,3196.15171665405,21252.1373090223,,,18.9400000572205,1313.18737792969,15330.3617832022,15442.986461336
2018-07-19T09:06:28Z,1531991188,4820D,40.8669959,43.660188,3195,2,-6.1,117.2,534892.38,-133816.92,111.7,Weapon+Missile,Red,Allies,R-27ER,,xu,,560.678718646107,488.870849609375,1.70971303552171,3195.00073242188,1854.80590820312,556.994813850407,-64.1669921875,0.279869861646497,NaN,0.569255286185543,4.38350612628746,5000,2.98627424240112,2.98627424240112,2.98627424240112,15718.031277132,3133.2253932605,18851.2566703925,,,19.9400000572205,1340.19482421875,15884.417990552,16001.0244528962
2018-07-19T09:06:29Z,1531991189,4820D,40.8728345,43.6580604,3133.27,3.5,-8.2,117.5,535385.94,-134008.38,112,Weapon+Missile,Red,Allies,R-27ER,,xu,,532.980994541971,467.372131347656,1.62403662932918,3133.271484375,1645.41333007812,529.394220291944,-61.729248046875,0.138182092354033,NaN,2.58461572580593,1.37425711289501,5000,1.96160280704498,1.96160280704498,1.96160280704498,14203.4370271474,3072.68968022461,17276.126707372,,,20.9400000572205,1487.85815429688,16410.9099861531,16531.3822721153
2018-07-19T09:06:30Z,1531991190,4820D,40.8782163,43.6559529,3054.49,3.9,-9.1,118.4,535842.38,-134201.08,112.9,Weapon+Missile,Red,Allies,R-27ER,,xu,,501.673409311322,442.9453125,1.52718284978444,3054.48999023438,1503.40795898438,495.448973952935,-78.781494140625,0.0244707082194816,NaN,0.399975877795947,1.62679738104071,5000,0.95669287443161,0.95669287443161,0.95669287443161,12583.8104805022,2995.43142627319,15579.2419067754,,,21.9400000572205,1551.08203125,16903.7692566206,17030.7343536101
2018-07-19T09:06:31Z,1531991191,4820D,40.8833371,43.6539532,2979.26,3.6,-9,118.2,536276.75,-134383.8,112.7,Weapon+Missile,Red,Allies,R-27ER,,xu,,477.207734627448,423.811676025391,1.45138522660292,2979.2607421875,1378.03869628906,471.24068396793,-75.229248046875,0.0390148220238412,NaN,0.276923189708997,0.252177174222203,5000,1.05956840515137,1.05956840515137,1.05956840515137,11386.361099413,2921.6567357373,14308.0178351503,,,22.9400000572205,1601.22204589844,17372.4429590574,17505.6262603236
2018-07-19T09:06:32Z,1531991192,4820D,40.8882735,43.6520488,2907.37,3.3,-9,117.9,536695.19,-134557.31,112.3,Weapon+Missile,Red,Allies,R-27ER,,xu,,458.657210941949,409.330413818359,1.39375643214802,2907.3662109375,1280.1337890625,452.987431972887,-71.89453125,0.0305390474057553,NaN,0.338449533752472,0.349287950067798,5000,1.03840708732605,1.03840708732605,1.03840708732605,10518.3218574524,2851.15228524902,13369.4741427014,,,23.9400000572205,1627.232421875,17823.0234111973,17962.1117345387
2018-07-19T09:06:33Z,1531991193,4820D,40.8929841,43.6502612,2839.01,3.2,-9,117.4,537094.25,-134719.56,111.9,Weapon+Missile,Red,Allies,R-27ER,,xu,,436.174634045513,391.181030273438,1.32434654885484,2839.01147460938,1189.96630859375,430.785261361447,-68.354736328125,0.0493990652181247,NaN,0,0.398360804861503,5000,0.992974817752838,0.992974817752838,0.992974817752838,9512.41556923687,2784.1191877478,12296.5347569847,,,24.9400000572205,1649.04516601562,18251.457388411,18396.1548826202
2018-07-19T09:06:34Z,1531991194,4820D,40.897496,43.6485816,2773.27,3.1,-9.1,116.9,537476.12,-134871.33,111.4,Weapon+Missile,Red,Allies,R-27ER,,xu,,416.153429382315,374.774353027344,1.26255846697203,2773.26684570312,1201.09204101562,410.92739085712,-65.74462890625,0.0473707248730645,NaN,0,0.455535891516857,5000,0.98926442861557,0.98926442861557,0.98926442861557,8659.18383933306,2719.64573124145,11378.8295705745,,,25.9400000572205,1572.1748046875,18660.1608189447,18810.2899619532
2018-07-19T09:06:35Z,1531991195,4820D,40.9018245,43.6470029,2709.87,2.8,-9.2,116.5,537842.19,-135013.28,111,Weapon+Missile,Red,Allies,R-27ER,,xu,,397.708308123301,359.377471923828,1.20568046358404,2709.86767578125,1159.21948242188,392.622520499672,-63.399169921875,0.0442368115727633,NaN,0.399975877795947,0.493772731233616,5000,1.06802344322205,1.06802344322205,1.06802344322205,7908.59491751492,2657.47238427002,10566.0673017849,,,26.9400000572205,1550.64819335938,19050.6115567799,19206.0200730115
2018-07-19T09:06:36Z,1531991196,4820D,40.9059487,43.6455284,2650.06,2.4,-9.1,116,538190.62,-135145.22,110.5,Weapon+Missile,Red,Allies,R-27ER,,xu,,377.350048069255,341.8203125,1.14314334955994,2650.06079101562,1000.439453125,372.580454818151,-59.806884765625,0.0259049302063876,NaN,0.384621612541758,0.455643253552873,5000,1.08146905899048,1.08146905899048,1.08146905899048,7119.65293889344,2598.82186562134,9718.47480451478,,,27.9400000572205,1649.62133789062,19421.1650200898,19581.5225983536
2018-07-19T09:06:37Z,1531991197,4820D,40.9099032,43.644142,2593.47,2,-9,115.6,538524.44,-135268.67,110,Weapon+Missile,Red,Allies,R-27ER,,xu,,360.380212103806,326.895385742188,1.09099584806998,2593.470703125,828.058349609375,355.909341305501,-56.590087890625,0.0330683160600293,NaN,0.399975877795947,0.424403115547572,5000,1.07522618770599,1.07522618770599,1.07522618770599,6493.69486379921,2543.32594708008,9037.02081087929,,,28.9400000572205,1765.41235351562,19775.1296506902,19940.126031002
2018-07-19T09:06:38Z,1531991198,4820D,40.9136874,43.6428406,2540.01,1.7,-8.9,115.2,538843.69,-135383.98,109.7,Weapon+Missile,Red,Allies,R-27ER,,xu,,343.620705642593,311.837097167969,1.03959459463776,2540.013671875,660.024169921875,339.437085711403,-53.45703125,0.0128826716862145,NaN,0.307686361730734,0.447627813118451,5000,1.06636273860931,1.06636273860931,1.06636273860931,5903.75946731567,2490.9025075293,8394.66197484497,,,29.9400000572205,1879.98950195312,20112.6421059791,20281.9798229256
2018-07-19T09:06:39Z,1531991199,4820D,40.9173048,43.6416197,2489.58,1.4,-8.8,114.8,539148.56,-135491.62,109.2,Weapon+Missile,Red,Allies,R-27ER,,xu,,327.229035661215,296.986389160156,0.9894071917351,2489.57983398438,492.982788085938,323.319145389491,-50.433837890625,0.0515303295064888,NaN,0.369212705774209,0.421279424580202,5000,1.06441378593445,1.06441378593445,1.06441378593445,5353.94208898842,2441.44380789429,7795.38589688271,,,30.9400000572205,1996.59704589844,20434.188185999,20607.5823431266
2018-07-19T09:06:40Z,1531991200,4820D,40.9207383,43.6404832,2442.33,1.2,-8.7,114.3,539437.75,-135591.3,108.8,Weapon+Missile,Red,Allies,R-27ER,,xu,,309.510583672049,280.825592041016,0.935306708566043,2442.326171875,370.4541015625,305.882155122305,-47.253662109375,0.0477302414095509,NaN,0.199987938897973,0.433977493299196,5000,1.05895340442657,1.05895340442657,1.05895340442657,4789.84007025063,2395.1037953418,7184.94386559243,,,31.9400000572205,2071.8720703125,20738.3482891572,20915.507377662
2018-07-19T09:06:41Z,1531991201,4820D,40.9240515,43.6394085,2397.31,1,-8.7,113.9,539716.56,-135685.03,108.4,Weapon+Missile,Red,Allies,R-27ER,,xu,,297.571607830523,270.108184814453,0.898746478057089,2397.3115234375,327.883544921875,294.147145512056,-45.0146484375,0.0435062634539557,NaN,0.199987938897973,0.426587548782359,5000,1.04464030265808,1.04464030265808,1.04464030265808,4427.44308934212,2350.95950513184,6778.40259447395,,,32.9400000572205,2069.42797851562,21030.8429968343,21211.555349107
2018-07-19T09:06:42Z,1531991202,4820D,40.9272276,43.6383981,2354.64,0.9,-8.6,113.5,539983.62,-135772.69,108,Weapon+Missile,Red,Allies,R-27ER,,xu,,284.300623134761,258.123962402344,0.858228706586662,2354.64013671875,264.795654296875,281.080054557972,-42.67138671875,0.023850955137682,NaN,0.153870501622047,0.368904760292177,5000,1.02314162254333,1.02314162254333,1.02314162254333,4041.34221574068,2309.11316967529,6350.45538541597,,,33.9400000572205,2089.84448242188,21310.3500283555,21494.4037965203
2018-07-19T09:06:43Z,1531991203,4820D,40.9303003,43.6374363,2313.65,0.8,-8.6,113.2,540241.88,-135855.7,107.6,Weapon+Missile,Red,Allies,R-27ER,,xu,,274.344520362779,249.238739013672,0.827770460907808,2313.64916992188,202.071044921875,271.264919394566,-40.990966796875,0.0446069278078969,NaN,0,0.335427815374976,5000,1.0168788433075,1.0168788433075,1.0168788433075,3763.24579265416,2268.91476322144,6032.16055587559,,,34.9400000572205,2111.578125,21580.0634406238,21767.3119086267
2018-07-19T09:06:44Z,1531991204,4820D,40.933254,43.6365265,2274.51,0.7,-8.5,112.9,540489.94,-135933.88,107.3,Weapon+Missile,Red,Allies,R-27ER,,xu,,263.016940367238,239.053344726562,0.793223373785147,2274.50756835938,223.1796875,260.088150339968,-39.1416015625,0.0497390480605736,NaN,0,0.319901141205097,5000,1.01472234725952,1.01472234725952,1.01472234725952,3458.89554600716,2230.52996452515,5689.4255105323,,,35.9400000572205,2051.32788085938,21838.6808137257,22028.9665130239
2018-07-19T09:06:45Z,1531991205,4820D,40.9361091,43.6356607,2236.9,0.6,-8.5,112.6,540729.56,-136007.92,107,Weapon+Missile,Red,Allies,R-27ER,,xu,,253.608207814291,230.64924621582,0.764506779786352,2236.90380859375,237.184448242188,250.804865029101,-37.603759765625,0.0321738852678963,NaN,0,0.301154646491366,5000,1.01182889938354,1.01182889938354,1.01182889938354,3215.85615353882,2193.65327345459,5409.50942699341,,,36.9400000572205,1999.71936035156,22088.0805766297,22281.272454309
2018-07-19T09:06:46Z,1531991206,4820D,40.9388864,43.6348311,2200.53,0.5,-8.5,112.2,540962.56,-136078.52,106.7,Weapon+Missile,Red,Allies,R-27ER,,xu,,246.161808421519,224.0634765625,0.741739587605508,2200.52856445312,196.038696289062,243.459396078817,-36.375244140625,0.0259772825305744,NaN,0,0.315745371301541,5000,1.00975728034973,1.00975728034973,1.00975728034973,3029.78179626763,2157.98134465942,5187.76314092705,,,37.9400000572205,2004.48986816406,22330.1493008405,22526.1422162825
2018-07-19T09:06:47Z,1531991207,4820D,40.9415629,43.6340435,2165.67,0.4,-8.5,111.9,541187,-136145.25,106.4,Weapon+Missile,Red,Allies,R-27ER,,xu,,236.729043407677,215.607803344727,0.71302219076962,2165.67211914062,74.652587890625,234.148816381571,-34.8564453125,0.0538315551518983,NaN,0.199987938897973,0.319748182320286,5000,1.00651836395264,1.00651836395264,1.00651836395264,2802.0319996357,2123.79884871704,4925.83084835274,,,38.9400000572205,2091.01953125,22562.9321628626,22761.5990778908
2018-07-19T09:06:48Z,1531991208,4820D,40.9441708,43.6332869,2131.9,0.4,-8.4,111.7,541405.5,-136209.05,106.1,Weapon+Missile,Red,Allies,R-27ER,,xu,,230.11522938846,209.766616821289,0.692824582130451,2131.8974609375,-72.913330078125,227.623134280691,-33.774658203125,0.0460194544476279,NaN,0,0.267428666473724,5000,1.00880134105682,1.00880134105682,1.00880134105682,2647.65093982518,2090.67722353027,4738.32816335545,,,39.9400000572205,2204.81079101562,22789.3024341289,22990.550515497
2018-07-19T09:06:49Z,1531991209,4820D,40.9466861,43.6325675,2099.49,0.3,-8.4,111.4,541616.25,-136269.44,105.9,Weapon+Missile,Red,Allies,R-27ER,,xu,,221.614049134797,202.151306152344,0.666973838470112,2099.49072265625,-211.40771484375,219.231818146661,-32.40673828125,0.0479389509857739,NaN,0.199987938897973,0.278011617705836,5000,1.00468862056732,1.00468862056732,1.00468862056732,2455.639338696,2058.89706953369,4514.53640822969,,,40.9400000572205,2310.8984375,23007.2080149482,23210.9241644741
2018-07-19T09:06:50Z,1531991210,4820D,40.9491411,43.6318747,2068.03,0.3,-8.4,111.1,541821.75,-136327.31,105.6,Weapon+Missile,Red,Allies,R-27ER,,xu,,215.799094070163,197.024032592773,0.649231697866095,2068.03466796875,-290.1767578125,213.494181712289,-31.4560546875,0.035674457325182,NaN,0,0.271242793516647,5000,1.00630509853363,1.00630509853363,1.00630509853363,2328.46245007515,2028.04921766357,4356.51166773872,,,41.9400000572205,2358.21142578125,23219.5144577903,23425.616888119
2018-07-19T09:06:51Z,1531991211,4820D,40.951528,43.6312104,2037.62,0.3,-8.3,110.9,542021.5,-136382.56,105.3,Weapon+Missile,Red,Allies,R-27ER,,xu,,209.469991465765,191.404342651367,0.629964329220166,2037.61999511719,-343.657104492188,207.250150784022,-30.4146728515625,0.0492825647616445,NaN,0,0.252951920445323,5000,1.00474691390991,1.00474691390991,1.00474691390991,2193.88386623338,1998.2226125116,4192.10647874498,,,42.9400000572205,2381.27709960938,23425.5632991085,23633.9639808691
2018-07-19T09:06:52Z,1531991212,4820D,40.9538349,43.630577,2008.38,0.2,-8.3,110.6,542214.44,-136435,105.1,Weapon+Missile,Red,Allies,R-27ER,,xu,,202.06322609868,184.767578125,0.607479463585818,2008.38000488281,-371.937377929688,199.936415673834,-29.239990234375,0.028880363857914,NaN,0,0.268159336632357,5000,1.00547540187836,1.00547540187836,1.00547540187836,2041.47736707032,1969.5479774884,4011.02534455872,,,43.9400000572205,2380.3173828125,23624.3589118964,23834.9608618531
2018-07-19T09:06:53Z,1531991213,4820D,40.9560838,43.6299678,1980.03,0.2,-8.3,110.4,542402.5,-136485.17,104.8,Weapon+Missile,Red,Allies,R-27ER,,xu,,196.694129288509,180.013671875,0.591140258160984,1980.02758789062,-385.681396484375,194.639977772465,-28.3524169921875,0.0362448383156928,NaN,0,0.247872794343346,5000,1.00408887863159,1.00408887863159,1.00408887863159,1934.42902482823,1941.74375447876,3876.17277930699,,,44.9400000572205,2365.708984375,23817.8385258436,24030.566671732
2018-07-19T09:06:54Z,1531991214,4820D,40.9582757,43.6293822,1952.56,0.2,-8.2,110.1,542585.62,-136533.19,104.6,Weapon+Missile,Red,Allies,R-27ER,,xu,,191.297300742276,175.221801757812,0.574734718324445,1952.56140136719,-407.196655273438,189.315255246746,-27.4661865234375,0.0345437401429084,NaN,0,0.260572704011765,5000,1.00791335105896,1.00791335105896,1.00791335105896,1829.73286356404,1914.80862667175,3744.5414902358,,,45.9400000572205,2359.75805664062,24006.0934880118,24220.8721547489
2018-07-19T09:06:55Z,1531991215,4820D,40.960412,43.6288192,1925.96,0.1,-8.2,109.9,542764.12,-136579.11,104.3,Weapon+Missile,Red,Allies,R-27ER,,xu,,186.222524516189,170.717361450195,0.559312791304342,1925.95764160156,-447.304565429688,184.31242118619,-26.603759765625,0,NaN,0.153870501622047,0.252951920445323,5000,1.0050402879715,1.0050402879715,1.0050402879715,1733.94143185914,1888.7192506012,3622.66068246033,,,46.9400000572205,2373.26220703125,24189.2850619622,24406.0405189098
2018-07-19T09:06:56Z,1531991216,4820D,40.962485,43.6282804,1900.31,0.1,-8.2,109.6,542937.19,-136622.81,104,Weapon+Missile,Red,Allies,R-27ER,,xu,,180.328580144108,165.439147949219,0.541447092569077,1900.30993652344,-504.802856445312,178.49535579677,-25.647705078125,0.0523739784188737,NaN,0,0.248267184407061,5000,0.899557590484619,0.899557590484619,0.899557590484619,1625.91984083951,1863.56744390076,3489.48728474026,,,47.9400000572205,2405.11279296875,24366.759134713,24585.4109437315
2018-07-19T09:06:57Z,1531991217,4820D,40.9644944,43.6277648,1874.56,1.2,-9.6,109.5,543104.88,-136664.45,103.9,Weapon+Missile,Red,Allies,R-27ER,,xu,,174.688009462654,160.392562866211,0.52435215437201,1874.56384277344,-565.965942382812,172.780320947267,-25.74609375,0.0641600973136986,NaN,2.15384636702381,1.41934714030938,4035.91344322643,0.225846350193024,0.225846350193024,0.225846350193024,1525.79503250122,1838.31915087341,3364.11418337463,,,48.9400000572205,2440.52978515625,24538.5434789537,24759.1641887137
2018-07-19T09:06:58Z,1531991218,4820D,40.9664411,43.6272664,1842.17,3.2,-12.4,109.5,543267.31,-136704.67,103.9,Weapon+Missile,Red,Allies,R-27ER,,xu,,170.448540942996,156.691558837891,0.511432021461792,1842.17224121094,-638.755249023438,167.342431133925,-32.3916015625,0.0715866388523135,NaN,1.90769232575207,2.7885335847976,3474.26103988358,0.133015811443329,0.133015811443329,0.133015811443329,1452.63525547981,1806.55384092712,3259.18909640694,,,49.9400000572205,2480.92749023438,24704.9273052195,24928.7192768549
2018-07-19T09:06:59Z,1531991219,4820D,40.968325,43.6267848,1802.49,5,-15.2,109.4,543424.56,-136743.5,103.9,Weapon+Missile,Red,Allies,R-27ER,,xu,,166.762731765289,153.551254272461,0.50013961946254,1802.49072265625,-717.3134765625,161.972793366712,-39.6815185546875,0.0434704942418225,NaN,1.53846169073129,2.74281144471989,3499.86807672998,0.161244258284569,0.161244258284569,0.161244258284569,1390.49043529108,1767.63956453369,3158.12999982477,,,50.9400000572205,2519.80419921875,24865.9116317676,25094.5667597853
2018-07-19T09:07:00Z,1531991220,4820D,40.9701585,43.626317,1755.83,6.4,-17.9,109.4,543577.56,-136781.17,103.8,Weapon+Missile,Red,Allies,R-27ER,,xu,,164.333189909589,151.622650146484,0.492583456894226,1755.82995605469,-793.813598632812,157.569572462502,-46.6607666015625,0.0574659306119422,NaN,1.36923094743953,2.67742711101242,3585.54028974953,0.192306220531464,0.192306220531464,0.192306220531464,1350.26986529306,1721.88098385437,3072.15084914743,,,51.9400000572205,2549.6435546875,25022.5634321853,25258.0620386421
2018-07-19T09:07:01Z,1531991221,4820D,40.9719267,43.6258671,1703.15,7.5,-20.5,109.3,543725.12,-136817.38,103.8,Weapon+Missile,Red,Allies,R-27ER,,xu,,160.810864612258,148.708251953125,0.48172797526698,1703.15380859375,-851.2041015625,151.938664157665,-52.6761474609375,0.0712325953898081,NaN,1.16922934816322,2.60815768032767,3629.44204567019,0.21468086540699,0.21468086540699,0.21468086540699,1293.0067088671,1670.22332970459,2963.23003857169,,,52.9400000572205,2554.35791015625,25173.5943058155,25418.0541429669
2018-07-19T09:07:02Z,1531991222,4820D,40.9736503,43.6254302,1644.37,8.4,-23,109.2,543868.94,-136852.47,103.7,Weapon+Missile,Red,Allies,R-27ER,,xu,,159.277794611683,147.684768676758,0.476807366538879,1644.36767578125,-902.727294921875,148.032450649554,-58.7861328125,0.0620756799286644,NaN,0.769229564705176,2.49025623553538,3703.90272529456,0.227753639221191,0.227753639221191,0.227753639221191,1268.47079281807,1612.57382677002,2881.04461958809,,,53.9400000572205,2547.09497070312,25320.7462595703,25576.5497996598
2018-07-19T09:07:03Z,1531991223,4820D,40.9753223,43.6250084,1580.09,9.1,-25.3,109.2,544008.44,-136886.3,103.6,Weapon+Missile,Red,Allies,R-27ER,,xu,,157.276265622452,146.253768920898,0.470462194300318,1580.09301757812,-960.32177734375,143.542997185567,-64.274658203125,0.03357289387096,NaN,0.569229672976155,2.40946897147588,3799.00925741785,0.243831023573875,0.243831023573875,0.243831023573875,1236.79118640721,1549.54191908325,2786.33310549046,,,54.9400000572205,2540.41479492188,25463.4252145686,25733.0707528613
2018-07-19T09:07:04Z,1531991224,4820D,40.9769517,43.6245996,1510.44,9.6,-27.7,109.1,544144.31,-136919,103.5,Weapon+Missile,Red,Allies,R-27ER,,xu,,156.151471652947,145.674728393555,0.466718150726003,1510.43835449219,-1028.37512207031,139.755178829858,-69.6546630859375,0.0673330883491388,NaN,0.369229781247134,2.31715128088035,3923.98173071334,0.253375917673111,0.253375917673111,0.253375917673111,1219.16410496905,1481.23402890808,2700.39813387714,,,55.9400000572205,2538.8134765625,25602.3930271655,25888.5480304012
2018-07-19T09:07:05Z,1531991225,4820D,40.9785509,43.6242008,1435.15,10.1,-29.9,108.9,544277.69,-136950.83,103.4,Weapon+Missile,Red,Allies,R-27ER,,xu,,156.429705657104,146.45231628418,0.467139944271962,1435.15002441406,-1101.68127441406,137.120093954225,-75.288330078125,0.0400313227747611,NaN,0.369229781247134,2.21714663926078,4045.65638124689,0.256149739027023,0.256149739027023,0.256149739027023,1223.51264059842,1407.40139869202,2630.91403929043,,,56.9400000572205,2536.83129882812,25738.6886920343,26044.2831292358
2018-07-19T09:07:06Z,1531991226,4820D,40.9800985,43.6238178,1355.56,10.4,-32,108.8,544406.69,-136981.31,103.2,Weapon+Missile,Red,Allies,R-27ER,,xu,,154.61240505586,145.278549194336,0.46128596488048,1355.55920410156,-1169.89099121094,132.552997397798,-79.5908203125,0.0245785062340464,NaN,0.230769893939928,2.17581588393256,4204.21571458442,0.269292324781418,0.269292324781418,0.269292324781418,1195.24978985786,1329.34946689026,2524.59925674812,,,57.9400000572205,2525.4501953125,25870.4826867726,26198.2700005261
2018-07-19T09:07:07Z,1531991227,4820D,40.9816213,43.6234438,1270.63,10.5,-34.1,108.7,544533.62,-137010.97,103.1,Weapon+Missile,Red,Allies,R-27ER,,xu,,155.583193377968,146.778335571289,0.463725056699691,1270.62683105469,-1234.54455566406,130.355751964816,-84.932373046875,0.302410559247661,NaN,0.0461635410528237,1.37022730128471,5000,0.661214232444763,0.661214232444763,0.661214232444763,1210.3065030843,1246.05926127625,2456.36576436055,,,58.9400000572205,2505.17138671875,26000.0686118387,26353.2310761647
2018-07-19T09:07:08Z,1531991228,4820D,40.9831342,43.6230795,1184.43,8.7,-33.3,108.1,544659.62,-137039.64,102.5,Weapon+Missile,Red,Allies,R-27ER,,xu,,155.331437964633,147.129180908203,0.462512753921804,1184.4306640625,-1300.31665039062,129.221037048987,-86.1961669921875,0.264849010825628,NaN,1.8769359839195,0.598651459877926,5000,0.718058824539185,0.718058824539185,0.718058824539185,1206.39278100803,1161.52969717285,2367.92247818089,,,59.9400000572205,2484.74731445312,26128.5463132362,26507.9652133873
2018-07-19T09:07:09Z,1531991229,4820D,40.9846482,43.6227225,1096.87,9.1,-35.2,108,544785.69,-137067.47,102.4,Weapon+Missile,Red,Allies,R-27ER,,xu,,155.98876489933,148.358108520508,0.464000207887654,1096.873046875,-1367.04223632812,129.097476533299,-87.5576171875,0.0286335619676127,NaN,0.553846379417994,1.31983758068294,4244.61672185891,0.235104471445084,0.235104471445084,0.235104471445084,1216.62473874092,1075.66500651367,2292.28974525459,,,60.9400000572205,2463.91528320312,26256.8574014677,26663.322739411
2018-07-19T09:07:10Z,1531991230,4820D,40.9861232,43.6223774,1004.75,9.5,-37.3,107.8,544908.44,-137094.28,102.3,Weapon+Missile,Red,Allies,R-27ER,,xu,,155.798827382531,148.810791015625,0.462943066415599,1004.74920654297,-1435.35626220703,125.644230493286,-92.1238403320312,0.0354145876629592,NaN,0.399999783458042,2.04589906917316,4507.77890832804,0.249167919158936,0.249167919158936,0.249167919158936,1213.66373068858,985.32238063446,2198.98611132304,,,61.9400000572205,2440.10546875,26381.7733443572,26818.5513989678
2018-07-19T09:07:11Z,1531991231,4820D,40.9875617,43.6220438,908.25,9.8,-39.2,107.7,545028.19,-137120.12,102.1,Weapon+Missile,Red,Allies,R-27ER,,xu,,155.946027659225,149.618225097656,0.462866143629149,908.254638671875,-1508.99731445312,122.506987205067,-96.4945678710938,0.0387164931465985,NaN,0.338461486583519,1.96128113620635,4663.14779977254,0.245249435305595,0.245249435305595,0.245249435305595,1215.95817713458,890.693535233154,2106.65171236773,,,62.9400000572205,2417.251953125,26503.502417355,26973.901370156
2018-07-19T09:07:12Z,1531991232,4820D,40.9889685,43.6217205,807.38,9.9,-41.1,107.5,545145.19,-137145.05,101.9,Weapon+Missile,Red,Allies,R-27ER,,xu,,156.477397457278,150.830307006836,0.463905667072739,807.383056640625,-1592.83178710938,119.624829586151,-100.87158203125,0.0272174075811442,NaN,0,1.84201493424052,4979.89307785548,0.254496395587921,0.254496395587921,0.254496395587921,1224.25879575014,791.772305240479,2016.03110099062,,,63.9400000572205,2400.21484375,26622.4450560438,27129.8700627588
2018-07-19T09:07:13Z,1531991233,4820D,40.9903482,43.6214067,702.05,10,-42.8,107.3,545259.94,-137169.14,101.8,Weapon+Missile,Red,Allies,R-27ER,,xu,,157.616535890041,152.669921875,0.466719344953123,702.050720214844,-1686.55059814453,117.252169656098,-105.332336425781,0.0175862676350636,NaN,0,1.74201338755042,5000,0.264244765043259,0.264244765043259,0.264244765043259,1242.14861929882,688.47656953949,1930.62518883831,,,64.9400000572205,2388.60131835938,26738.9891324519,27286.9707866179
