ISOTime,UnixTime,Id,Longitude,Latitude,Altitude,Roll,Pitch,Yaw,U,V,Heading,Type,Color,Coalition,Name,Group,Country,Pilot,TAS,CAS,M,ASL,AGL,GS,VS,AOA,AOS,RRT,TRT,TRD,G,LatG,LonG,Ek,Ep,Em,FFW,FFV,RelativeTime,Elev,GroundDistance,AirDistance
2018-07-19T09:19:21Z,1531991961,49E0C,41.483156,43.1317859,7867.22,-6.9,-6.9,137.3,590612.56,-187603.19,131.4,Weapon+Missile,Red,Allies,AIM-7M,,xu,,281.456126920963,197.228713989258,0.911491169981678,7867.22216796875,6156.24450683594,NaN,NaN,NaN,NaN,NaN,NaN,NaN,NaN,NaN,NaN,NaN,7715.10942735107,NaN,,,0.0299999713897705,1710.97766113281,NaN,NaN
2018-07-19T09:19:22Z,1531991962,49E0C,41.4854673,43.1299275,7814.56,-5.5,-7.3,137.3,590821.75,-187790.52,131.5,Weapon+Missile,Red,Allies,AIM-7M,,xu,,285.699537587351,201.068572998047,0.924567308395659,7814.56298828125,5992.01867675781,280.80462348805,-52.6591796875,3.41687167255143,NaN,1.33848143579613,5.23622587225559,5000,1.41314542293549,1.41314542293549,1.41314542293549,4081.2112888813,7663.46841290283,11744.6797017841,,,1.02999997138977,1822.54431152344,279.392343537461,284.649105755291
2018-07-19T09:19:23Z,1531991963,49E0C,41.4884321,43.1275948,7756.01,-6.4,-4.2,135.3,591089.5,-188025.12,129.4,Weapon+Missile,Red,Allies,AIM-7M,,xu,,360.776841940866,261.504943847656,1.16659581819937,7756.01123046875,5825.90539550781,355.993850140548,-58.5517578125,1.68807307981045,NaN,2.79999506911171,2.3732815620361,3236.21393176634,5.19769239425659,5.19769239425659,5.19769239425659,6507.99648404121,7606.04875332764,14114.0452373688,,,2.02999997138977,1930.10583496094,633.578146439226,644.068534971838
2018-07-19T09:19:24Z,1531991964,49E0C,41.4924688,43.1246965,7727.65,-5.8,-3.3,134,591450.94,-188313.66,128.1,Weapon+Missile,Red,Allies,AIM-7M,,xu,,463.34843148542,338.23291015625,1.49768838095056,7727.64892578125,5766.61804199219,462.479565638107,-28.3623046875,0.129558287234861,NaN,1.23074971579117,2.48954803029582,5000,0.958159744739532,0.958159744739532,0.958159744739532,10734.588448,7578.23483380127,18312.8232818012,,,3.02999997138977,1961.03088378906,1093.63620619506,1105.55739019028
2018-07-19T09:19:25Z,1531991965,49E0C,41.4974959,43.121136,7692.02,-4.6,-3.8,134.2,591900.56,-188667.55,128.4,Weapon+Missile,Red,Allies,AIM-7M,,xu,,573.298032482636,411.381896972656,1.85218071030372,7692.02001953125,5628.19677734375,572.18984182515,-35.62890625,0.0488419453395176,NaN,1.33848143579613,0.392920399105029,5000,0.523378551006317,0.523378551006317,0.523378551006317,16433.5317024231,7543.29481245361,23976.8265148767,,,4.02999997138977,2063.8232421875,1662.79111936603,1676.51303862843
2018-07-19T09:19:26Z,1531991966,49E0C,41.503343,43.1169571,7644.6,-3.6,-4.3,134.3,592424,-189083.31,128.4,Weapon+Missile,Red,Allies,AIM-7M,,xu,,670.146710016926,473.513366699219,2.16367719620636,7644.59912109375,5341.87841796875,668.466806459297,-47.4208984375,0.0380649779768273,NaN,1.10768037911812,0.570018933351262,5000,0.497242212295532,0.497242212295532,0.497242212295532,22454.8306473255,7496.7907970874,29951.6214444129,,,5.02999997138977,2302.720703125,2327.72131913822,2343.92946411885
2018-07-19T09:19:27Z,1531991967,49E0C,41.5093625,43.1127021,7589.21,-2.6,-4.9,133.8,592962.38,-189506.05,127.9,Weapon+Missile,Red,Allies,AIM-7M,,xu,,686.745993564842,485.186828613281,2.2156019190699,7589.208984375,5227.93627929688,684.508577325106,-55.39013671875,0,NaN,0.938459454223289,0.762156263489393,5000,0.694279491901398,0.694279491901398,0.694279491901398,23581.0029838681,7442.47162866211,31023.4746125302,,,6.02999997138977,2361.27270507812,3008.62442224846,3027.89226659814
2018-07-19T09:19:28Z,1531991968,49E0C,41.5154507,43.1084782,7525.91,-1.8,-5.6,133.3,593506.12,-189924.73,127.4,Weapon+Missile,Red,Allies,AIM-7M,,xu,,689.180378495425,488.159484863281,2.22154675456874,7525.91357421875,5240.99536132812,686.267648338642,-63.29541015625,0.0454846145121907,NaN,0.769238956215285,0.806748487507144,5000,0.609149038791656,0.609149038791656,0.609149038791656,23748.4797051549,7380.40003526123,31128.8797404161,,,7.02999997138977,2284.91821289062,3691.18642224319,3714.18807068494
2018-07-19T09:19:29Z,1531991969,49E0C,41.5216092,43.104271,7455.27,-1.1,-6.1,132.8,594055.38,-190340.94,126.9,Weapon+Missile,Red,Allies,AIM-7M,,xu,,692.741439254327,492.029937744141,2.23088992060307,7455.27294921875,5357.53173828125,689.130324220147,-70.640625,0.0241259395449562,NaN,0.569238424156029,0.651330894677236,5000,0.657251000404358,0.657251000404358,0.657251000404358,23994.5350830078,7311.12524674561,31305.6603297534,,,8.02999997138977,2097.7412109375,4376.65514391787,4404.08788580839
2018-07-19T09:19:30Z,1531991970,49E0C,41.5278096,43.100091,7379.24,-0.8,-6.4,132.5,594607.88,-190753.75,126.6,Weapon+Missile,Red,Allies,AIM-7M,,xu,,693.866925016823,494.495330810547,2.2322187314764,7379.24072265625,5439.51049804688,689.688632758472,-76.0322265625,0.0361876104093139,NaN,0.276906327679484,0.406866097925462,5000,0.944208443164825,0.944208443164825,0.944208443164825,24072.5654816151,7236.56310328369,31309.1285848988,,,9.02999997138977,1939.73022460938,5062.58253355174,5095.00916785663
2018-07-19T09:19:31Z,1531991971,49E0C,41.5340805,43.0959084,7301.42,-0.7,-6.3,132.1,595166.19,-191166.2,126.2,Weapon+Missile,Red,Allies,AIM-7M,,xu,,698.488729338384,499.252380371094,2.24472942766287,7301.419921875,5505.42687988281,694.140063660437,-77.82080078125,0.0431601220177818,NaN,0,0.367576315179036,5000,1.22219383716583,1.22219383716583,1.22219383716583,24394.3252506375,7160.24696768555,31554.5722183231,,,10.0299999713898,1795.99304199219,5752.94271416739,5790.53118665905
2018-07-19T09:19:32Z,1531991972,49E0C,41.5403771,43.0917754,7224.68,-0.5,-6.3,131.7,595726.12,-191572.91,125.8,Weapon+Missile,Red,Allies,AIM-7M,,xu,,696.294352201381,499.630004882812,2.23536680576793,7224.68408203125,5670.81225585938,692.053058508533,-76.73583984375,0.0421625962031934,NaN,0.16922060472971,0.466675556527177,5000,1.07184088230133,1.07184088230133,1.07184088230133,24241.2912453771,7084.99481530518,31326.2860606822,,,11.0299999713898,1553.87182617188,6441.17655199417,6483.80860955091
2018-07-19T09:19:33Z,1531991973,49E0C,41.5467704,43.0876407,7146.67,-0.4,-6.4,131.2,596294,-191978.94,125.3,Weapon+Missile,Red,Allies,AIM-7M,,xu,,702.445280595922,505.424163818359,2.25275122460807,7146.67138671875,5834.150390625,698.099843576521,-78.0126953125,0.023712929548577,NaN,0.199987938897973,0.417078111188703,5000,1.15206396579742,1.15206396579742,1.15206396579742,24671.4686115742,7008.49049545654,31679.9591070307,,,12.0299999713898,1312.52099609375,7135.43093968832,7183.20962151751
2018-07-19T09:19:34Z,1531991974,49E0C,41.5531665,43.0835654,7069.4,-0.3,-6.4,130.9,596861.5,-192378.31,125,Weapon+Missile,Red,Allies,AIM-7M,,xu,,698.231171133184,504.509704589844,2.23691803416102,7069.40478515625,5801.03271484375,693.942822302385,-77.2666015625,0.050427119325967,NaN,0.199987938897973,0.367176829153869,5000,1.02288711071014,1.02288711071014,1.02288711071014,24376.3384171009,6932.71784363525,31309.0562607362,,,13.0299999713898,1268.3720703125,7825.51741120013,7878.37254569045
2018-07-19T09:19:35Z,1531991975,49E0C,41.5596459,43.0794889,6990.81,-0.2,-6.5,130.5,597435.81,-192777.08,124.5,Weapon+Missile,Red,Allies,AIM-7M,,xu,,703.580461016626,509.847045898438,2.25168664079514,6990.8134765625,5594.3876953125,699.177281766142,-78.59130859375,0.0537022903257039,NaN,0.184654697819824,0.438909316766768,5000,0.951400578022003,0.951400578022003,0.951400578022003,24751.2732562184,6855.64609799316,31606.9193542116,,,14.0299999713898,1396.42578125,8520.81939750634,8578.86362934171
2018-07-19T09:19:36Z,1531991976,49E0C,41.5661522,43.0754547,6910.42,0,-6.7,130.1,598011.94,-193170.89,124.1,Weapon+Missile,Red,Allies,AIM-7M,,xu,,702.474877393591,511.031677246094,2.24573681094917,6910.4228515625,5489.72131347656,697.859800233005,-80.390625,0.0303603939024323,NaN,0.199987938897973,0.472302245021093,5000,0.848605334758759,0.848605334758759,0.848605334758759,24673.547668457,6776.80982572754,31450.3574941846,,,15.0299999713898,1420.70153808594,9214.76628365335,9278.20265784717
2018-07-19T09:19:37Z,1531991977,49E0C,41.5726225,43.071502,6827.73,0.2,-7,129.6,598584.31,-193555.91,123.7,Weapon+Missile,Red,Allies,AIM-7M,,xu,,694.75759912383,507.910034179688,2.21862010607221,6827.73095703125,5616.26098632812,689.818941548535,-82.69189453125,0.0302733430152436,NaN,0.20000001179094,0.581657895862081,5000,0.950326323509216,0.950326323509216,0.950326323509216,24134.4060770154,6695.71677897705,30830.1228559925,,,16.0299999713898,1211.46997070312,9900.65252829386,9969.7890495659
2018-07-19T09:19:38Z,1531991978,49E0C,41.5789309,43.0677289,6744.19,1.2,-8.4,129.2,599141.44,-193922.28,123.3,Weapon+Missile,Red,Allies,AIM-7M,,xu,,672.010422197198,494.799652099609,2.14359818545558,6744.18994140625,5820.48272705078,666.797500182777,-83.541015625,0.611186610249836,NaN,1.80000009277825,2.69342597536953,5000,4.21651029586792,4.21651029586792,4.21651029586792,22579.9003770828,6613.79102888916,29193.691405972,,,17.0299999713898,923.707214355469,10563.6704887438,10638.7492997002
2018-07-19T09:19:39Z,1531991979,49E0C,41.584706,43.0641753,6617.22,3.5,-12.7,130.3,599652.69,-194268.69,124.4,Weapon+Missile,Red,Allies,AIM-7M,,xu,,630.472863786552,469.905120849609,2.00771851441429,6617.216796875,6004.61511230469,617.55473647205,-126.97314453125,0.0851790081812553,NaN,0.0769352508110236,2.89486810423048,5000,0.42288076877594,0.42288076877594,0.42288076877594,19874.8015985608,6489.27291010742,26364.0745086682,,,18.0299999713898,612.601684570312,11177.7357671098,11266.4344811691
2018-07-19T09:19:40Z,1531991980,49E0C,41.5902483,43.0607303,6482.59,3.1,-12.8,130.3,600143.75,-194604.95,124.4,Weapon+Missile,Red,Allies,AIM-7M,,xu,,610.198132074869,459.052185058594,1.93970176410756,6482.58837890625,6042.21862792969,595.161280211415,-134.62841796875,0.0264646449413849,NaN,0.569255286185543,0.293920542345397,5000,0.942624568939209,0.942624568939209,0.942624568939209,18617.088019383,6357.2475326001,24974.3355519831,,,19.0299999713898,440.369750976562,11769.5574806674,11873.9684239739
2018-07-19T09:19:41Z,1531991981,49E0C,41.5955866,43.057411,6352.58,2.6,-12.8,130.4,600616.81,-194928.94,124.4,Weapon+Missile,Red,Allies,AIM-7M,,xu,,587.924547629611,446.503753662109,1.86570280676322,6352.58349609375,5829.89593505859,573.370738833428,-130.0048828125,0.00818248895168616,NaN,0.415384784563495,0,5000,0.966510951519012,0.966510951519012,0.966510951519012,17282.7636852741,6229.75629419678,23512.5199794709,,,20.0299999713898,522.687561035156,12339.6931739756,12459.2977652463
2018-07-19T09:19:42Z,1531991982,49E0C,41.6007385,43.0542068,6227.02,2.2,-12.8,130.4,601073.44,-195241.69,124.4,Weapon+Missile,Red,Allies,AIM-7M,,xu,,567.526533301421,434.893890380859,1.79800790183929,6227.01513671875,5592.38629150391,553.460886716487,-125.568359375,0,NaN,0.399975877795947,0,5000,0.967385232448578,0.967385232448578,0.967385232448578,16104.3183000565,6106.61579905029,22210.9340991068,,,21.0299999713898,634.628845214844,12890.003794955,13024.2816426417
2018-07-19T09:19:43Z,1531991983,49E0C,41.605729,43.0511023,6105.29,1.9,-12.8,130.4,601515.81,-195544.69,124.4,Weapon+Missile,Red,Allies,AIM-7M,,xu,,549.837506368993,424.854187011719,1.73919584616658,6105.29150390625,5462.56164550781,536.194592125844,-121.7236328125,0,NaN,0.292277454963186,0,5000,0.967634856700897,0.967634856700897,0.967634856700897,15116.0641705036,5987.24569267822,21103.3098631818,,,22.0299999713898,642.729858398438,13423.128732844,13571.6285704568
2018-07-19T09:19:44Z,1531991984,49E0C,41.6105637,43.0480942,5987.29,1.6,-12.8,130.4,601944.38,-195838.25,124.4,Weapon+Missile,Red,Allies,AIM-7M,,xu,,532.699176000415,414.918304443359,1.68239553096199,5987.29296875,5381.58288574219,519.465838927354,-117.99853515625,0,NaN,0.230751110919711,0,5000,0.97129625082016,0.97129625082016,0.97129625082016,14188.420605576,5871.52865919922,20059.9492647753,,,23.0299999713898,605.710083007812,13939.672657543,14101.9561967576
2018-07-19T09:19:45Z,1531991985,49E0C,41.615214,43.0452003,5873.73,1.3,-12.8,130.4,602356.69,-196120.66,124.4,Weapon+Missile,Red,Allies,AIM-7M,,xu,,512.494441732876,402.485504150391,1.61619687343241,5873.73388671875,5168.85675048828,499.7548275858,-113.55908203125,0,NaN,0.169224766876236,0,5000,0.970337688922882,0.970337688922882,0.970337688922882,13132.5276403546,5760.16524201904,18892.6928823737,,,24.0299999713898,704.877136230469,14436.5553904307,14612.1007443184
2018-07-19T09:19:46Z,1531991986,49E0C,41.6197211,43.042395,5763.63,1.1,-12.8,130.4,602756.25,-196394.41,124.4,Weapon+Missile,Red,Allies,AIM-7M,,xu,,496.701805116112,392.912567138672,1.5641599161683,5763.62744140625,4932.978515625,484.344148211011,-110.1064453125,0,NaN,0.199987938897973,0,5000,0.973804831504822,0.973804831504822,0.973804831504822,12335.6341602802,5652.18770482666,17987.8218651069,,,25.0299999713898,830.64892578125,14918.1944085601,15106.5934368701
2018-07-19T09:19:47Z,1531991987,49E0C,41.6240812,43.0396808,5657.06,1,-12.8,130.4,603142.94,-196659.27,124.4,Weapon+Missile,Red,Allies,AIM-7M,,xu,,480.659861009968,382.876251220703,1.51155930224909,5657.06201171875,4829.81024169922,468.697889030493,-106.5654296875,0,NaN,0.0461720787892862,0,5000,0.971325039863586,0.971325039863586,0.971325039863586,11551.6950993061,5547.68271772217,17099.3778170283,,,26.0299999713898,827.251770019531,15384.1622745051,15584.9982892092
2018-07-19T09:19:48Z,1531991988,49E0C,41.6283002,43.0370541,5553.91,0.8,-12.8,130.4,603517.06,-196915.56,124.4,Weapon+Missile,Red,Allies,AIM-7M,,xu,,465.077957027949,372.887878417969,1.46061495630504,5553.912109375,4589.037109375,453.494877324723,-103.14990234375,0,NaN,0.199987938897973,0,5000,0.973517894744873,0.973517894744873,0.973517894744873,10814.8753056645,5446.52721874023,16261.4025244048,,,27.0299999713898,964.875,15835.0912594605,16047.9609422783
2018-07-19T09:19:49Z,1531991989,49E0C,41.6323855,43.0345102,5454,0.7,-12.8,130.4,603879.38,-197163.78,124.4,Weapon+Missile,Red,Allies,AIM-7M,,xu,,450.406383767674,363.292846679688,1.41272211594327,5453.9970703125,4443.3037109375,439.184352530703,-99.9150390625,0.00798314432153945,NaN,0.0461720787892862,0,5000,0.973258197307587,0.973258197307587,0.973258197307587,10143.2955269337,5348.54403695801,15491.8395638917,,,28.0299999713898,1010.693359375,16271.768847081,16496.2907051472
2018-07-19T09:19:50Z,1531991990,49E0C,41.6363345,43.0320508,5357.39,0.6,-12.8,130.4,604229.62,-197403.72,124.4,Weapon+Missile,Red,Allies,AIM-7M,,xu,,435.406169099006,353.140960693359,1.36398255100599,5357.38720703125,4273.78088378906,424.552784004828,-96.60986328125,0.0139000293462143,NaN,0,0,5000,0.975204408168793,0.975204408168793,0.975204408168793,9478.92660447359,5253.8021253833,14732.7287298569,,,29.0299999713898,1083.60632324219,16693.9180384103,16929.7023012349
2018-07-19T09:19:51Z,1531991991,49E0C,41.6401516,43.0296731,5263.98,0.5,-12.8,130.4,604568.25,-197635.69,124.4,Weapon+Missile,Red,Allies,AIM-7M,,xu,,420.952849587291,343.090209960938,1.31713053463007,5263.97998046875,4005.65673828125,410.458757491618,-93.4072265625,0.0140045384976047,NaN,0,0,5000,0.974430680274963,0.974430680274963,0.974430680274963,8860.06507878304,5162.20092754639,14022.2660063294,,,30.0299999713898,1258.3232421875,17102.0040188123,17348.6730858979
2018-07-19T09:19:52Z,1531991992,49E0C,41.6438765,43.0273527,5172.82,0.4,-12.8,130.4,604898.69,-197862.06,124.4,Weapon+Missile,Red,Allies,AIM-7M,,xu,,410.785860506043,336.201721191406,1.28382445875784,5172.818359375,3681.42712402344,400.542859168966,-91.16162109375,0.0198042001806701,NaN,0.0307631720217374,0,5000,0.973274827003479,0.973274827003479,0.973274827003479,8437.25115958452,5072.80191639648,13510.053075981,,,31.0299999713898,1491.39123535156,17500.2529630361,17757.5401743234
2018-07-19T09:19:53Z,1531991993,49E0C,41.6474678,43.0251152,5084.9,0.4,-12.8,130.4,605217.25,-198080.34,124.4,Weapon+Missile,Red,Allies,AIM-7M,,xu,,396.052913707174,325.315795898438,1.23639507502272,5084.90283203125,3348.72131347656,386.171944226678,-87.91552734375,0.0193806768879647,NaN,0.0769352508110236,0,5000,0.976435959339142,0.976435959339142,0.976435959339142,7842.89552279711,4986.58623577393,12829.481758571,,,32.0299999713898,1736.18151855469,17884.2485620721,18151.7723368206
2018-07-19T09:19:54Z,1531991994,49E0C,41.6509472,43.0229472,4999.71,0.3,-12.8,130.4,605526,-198291.83,124.4,Weapon+Missile,Red,Allies,AIM-7M,,xu,,383.809452558817,316.193084716797,1.19687753631184,4999.7119140625,3127.81799316406,374.23549186193,-85.19091796875,0.0216100436130657,NaN,0,0,5000,0.974295020103455,0.974295020103455,0.974295020103455,7365.48479367495,4903.0424842041,12268.527277879,,,33.0299999713898,1871.89392089844,18256.306098388,18533.745188031
2018-07-19T09:19:55Z,1531991995,49E0C,41.6543389,43.0208335,4916.66,0.2,-12.8,130.4,605826.94,-198498.02,124.4,Weapon+Missile,Red,Allies,AIM-7M,,xu,,374.132097375452,309.035369873047,1.1654718120279,4916.65673828125,2933.60083007812,364.796743492181,-83.05517578125,0.0185490157020416,NaN,0.153815860108687,0,5000,0.975052714347839,0.975052714347839,0.975052714347839,6998.74131432772,4821.59318024658,11820.3344945743,,,34.0299999713898,1983.05590820312,18619.0159390139,18906.1175955096
2018-07-19T09:19:56Z,1531991996,49E0C,41.6576113,43.0187939,4836.51,0.2,-12.8,130.4,606117.31,-198696.95,124.4,Weapon+Missile,Red,Allies,AIM-7M,,xu,,360.994559451764,298.685913085938,1.12340705754315,4836.51123046875,2830.12121582031,351.985467784183,-80.1455078125,0.0236876720019885,NaN,0,0,5000,0.976711452007294,0.976711452007294,0.976711452007294,6515.85359768868,4742.99728582764,11258.8508835163,,,35.0299999713898,2006.39001464844,18968.9917105515,19265.4137273948
2018-07-19T09:19:57Z,1531991997,49E0C,41.6607984,43.0168073,4758.45,0.2,-12.8,130.4,606400.19,-198890.73,124.4,Weapon+Missile,Red,Allies,AIM-7M,,xu,,351.657668976721,291.471801757812,1.09327287491174,4758.44921875,2766.88024902344,342.884001488204,-78.06201171875,0.0241235217684706,NaN,0,0,5000,0.972828447818756,0.972828447818756,0.972828447818756,6183.15580750704,4666.44460310547,10849.6004106125,,,36.0299999713898,1991.56896972656,19309.8687628594,19615.3647376634
2018-07-19T09:19:58Z,1531991998,49E0C,41.6638814,43.0148855,4682.92,0.2,-12.8,130.4,606673.75,-199078.17,124.4,Weapon+Missile,Red,Allies,AIM-7M,,xu,,340.10783942973,282.160461425781,1.05635969114168,4682.923828125,2657.22216796875,331.616130205544,-75.525390625,0.0256991957775836,NaN,0,0,5000,0.977257311344147,0.977257311344147,0.977257311344147,5783.66712207794,4592.3794959082,10376.0466179861,,,37.0299999713898,2025.70166015625,19639.614547482,19953.8870854349
2018-07-19T09:19:59Z,1531991999,49E0C,41.6668794,43.0130164,4609.47,0.1,-12.8,130.4,606939.88,-199260.47,124.4,Weapon+Missile,Red,Allies,AIM-7M,,xu,,330.831675404895,274.767852783203,1.02659955226737,4609.4736328125,2456.52685546875,322.575055234849,-73.4501953125,0.024582545359902,NaN,0,0,5000,0.974956095218658,0.974956095218658,0.974956095218658,5472.4798725605,4520.34946012207,9992.82933268257,,,38.0299999713898,2152.94677734375,19960.305388348,20283.1095543354
2018-07-19T09:20:00Z,1531992000,49E0C,41.6697918,43.0112004,4538.12,0.1,-12.8,130.4,607198.38,-199437.58,124.4,Weapon+Missile,Red,Allies,AIM-7M,,xu,,321.374847623135,267.188354492188,0.996361229450972,4538.11669921875,2243.88110351562,313.35280549708,-71.35693359375,0.0289029948184299,NaN,0,0,5000,0.975211024284363,0.975211024284363,0.975211024284363,5164.08963423967,4450.37221283936,9614.46184707903,,,39.0299999713898,2294.23559570312,20271.8537074893,20602.9429873594
2018-07-19T09:20:01Z,1531992001,49E0C,41.6726291,43.0094312,4468.59,0.1,-12.8,130.4,607450.25,-199610.14,124.4,Weapon+Missile,Red,Allies,AIM-7M,,xu,,313.134729559721,260.642364501953,0.969968765572987,4468.5859375,2139.3330078125,305.317592076267,-69.53076171875,0.0261502709384927,NaN,0,0,5000,0.975977003574371,0.975977003574371,0.975977003574371,4902.66794282198,4382.18582839844,9284.85377122042,,,40.0299999713898,2329.2529296875,20575.3845828452,20914.5447607427
2018-07-19T09:20:02Z,1531992002,49E0C,41.6753888,43.0077102,4400.96,0.1,-12.8,130.4,607695.25,-199777.97,124.4,Weapon+Missile,Red,Allies,AIM-7M,,xu,,304.57273720254,253.789474487305,0.942649220168401,4400.9599609375,2055.92016601562,296.970166079045,-67.6259765625,0.0264670954712652,NaN,0,0,5000,0.974299132823944,0.974299132823944,0.974299132823944,4638.22761235237,4315.86740009277,8954.09501244514,,,41.0299999713898,2345.03979492188,20870.6284892131,21217.6346776633
2018-07-19T09:20:03Z,1531992003,49E0C,41.6781105,43.0060127,4334.25,0.1,-12.8,130.4,607936.88,-199943.5,124.4,Weapon+Missile,Red,Allies,AIM-7M,,xu,,300.388187799972,250.818649291992,0.928923847386364,4334.2529296875,1925.951171875,292.887752136484,-66.70703125,0.0268484392959077,NaN,0,0,5000,0.975666880607605,0.975666880607605,0.975666880607605,4511.65316848755,4250.45014929199,8762.10331777954,,,42.0299999713898,2408.3017578125,21161.827698732,21516.5710949442
2018-07-19T09:20:04Z,1531992004,49E0C,41.6807775,43.0043492,4268.89,0.1,-12.8,130.4,608173.62,-200105.72,124.4,Weapon+Missile,Red,Allies,AIM-7M,,xu,,294.342963320407,246.171661376953,0.909487992173445,4268.89013671875,1807.00610351562,286.99387685378,-65.36279296875,0.0284024002162009,NaN,0,0,5000,0.975314974784851,0.975314974784851,0.975314974784851,4331.88900281191,4186.35114592529,8518.2401487372,,,43.0299999713898,2461.88403320312,21447.1848363838,21809.5060070937
2018-07-19T09:20:05Z,1531992005,49E0C,41.6834135,43.0027049,4204.27,0,-12.8,130.4,608407.69,-200266.06,124.4,Weapon+Missile,Red,Allies,AIM-7M,,xu,,290.982284492096,243.896041870117,0.898380915421162,4204.2734375,1703.837890625,283.717063410561,-64.61669921875,0.0215983270093203,NaN,0.199987938897973,0,5000,0.973484575748444,0.973484575748444,0.973484575748444,4233.53449441195,4122.98381058594,8356.51830499788,,,44.0299999713898,2500.435546875,21729.2378696431,22099.0486662526
2018-07-19T09:20:06Z,1531992006,49E0C,41.6860335,43.0010704,4140.05,0,-12.8,130.4,608640.25,-200425.44,124.4,Weapon+Missile,Red,Allies,AIM-7M,,xu,,289.155574955282,242.974533081055,0.892028750927362,4140.04541015625,1600.7734375,281.932096490006,-64.22802734375,0.0307575940412154,NaN,0,0,5000,0.977917373180389,0.977917373180389,0.977917373180389,4180.54732638597,4059.99763215088,8240.54495853685,,,45.0299999713898,2539.27197265625,22009.6001459049,22386.8526150687
2018-07-19T09:20:07Z,1531992007,49E0C,41.688615,42.9994598,4076.76,0,-12.8,130.4,608869.5,-200582.5,124.4,Weapon+Missile,Red,Allies,AIM-7M,,xu,,285.006776243201,239.97004699707,0.878539770981136,4076.76293945312,1534.349609375,277.892409767251,-63.282470703125,0.0242721932417504,NaN,0,0,5000,0.974502623081207,0.974502623081207,0.974502623081207,4061.44312522709,3997.9387280188,8059.38185324589,,,46.0299999713898,2542.41333007812,22285.8519688624,22670.43344554
2018-07-19T09:20:08Z,1531992008,49E0C,41.6911886,42.997854,4013.67,0,-12.8,130.4,609098.06,-200739.06,124.4,Weapon+Missile,Red,Allies,AIM-7M,,xu,,284.136818053991,239.87727355957,0.87517368241788,4013.6669921875,1456.25366210938,277.042655222079,-63.095947265625,0.0290796797249142,NaN,0,0,5000,0.974016964435577,0.974016964435577,0.974016964435577,4036.68656869233,3936.06274089355,7972.74930958588,,,47.0299999713898,2557.41333007812,22561.2784673966,22953.1649620929
2018-07-19T09:20:09Z,1531992009,49E0C,41.6937388,42.9962627,3951.14,0,-12.8,130.4,609324.5,-200894.22,124.4,Weapon+Missile,Red,Allies,AIM-7M,,xu,,281.526596777074,238.22265625,0.866463432800001,3951.13842773438,1352.42919921875,274.494814742123,-62.528564453125,0.0296215562227106,NaN,0,0,5000,0.975557446479797,0.975557446479797,0.975557446479797,3962.86123464406,3874.74316623413,7837.60440087819,,,48.0299999713898,2598.70922851562,22834.2079708399,23233.3316723537
2018-07-19T09:20:10Z,1531992010,49E0C,41.6962704,42.9946828,3889.06,0,-12.8,130.4,609549.31,-201048.25,124.4,Weapon+Missile,Red,Allies,AIM-7M,,xu,,279.498920062513,237.077590942383,0.859563493323994,3889.06298828125,1303.74243164062,272.518414300415,-62.075439453125,0.0276571221533244,NaN,0,0,5000,0.976960420608521,0.976960420608521,0.976960420608521,3905.98231580555,3813.86795540283,7719.85027120839,,,49.0299999713898,2585.32055664062,23105.168724932,23511.4743838457
2018-07-19T09:20:11Z,1531992011,49E0C,41.6987997,42.9931042,3827.04,0,-12.8,130.4,609774,-201202.17,124.4,Weapon+Missile,Red,Allies,AIM-7M,,xu,,279.325739593166,237.585678100586,0.858374114844419,3827.04321289062,1321.20141601562,272.353476680151,-62.019775390625,0.0345104345340063,NaN,0,0,5000,0.972963035106659,0.972963035106659,0.972963035106659,3901.14343996346,3753.04733236939,7654.19077233284,,,50.0299999713898,2505.841796875,23375.8896727786,23789.3682036955
2018-07-19T09:20:12Z,1531992012,49E0C,41.7013087,42.9915383,3765.52,0,-12.8,130.4,609996.81,-201354.83,124.4,Weapon+Missile,Red,Allies,AIM-7M,,xu,,277.010857070221,236.168960571289,0.850615729751401,3765.51538085938,1288.90234375,270.091356433916,-61.52783203125,0.0217026978771492,NaN,0,0,5000,0.976844191551208,0.976844191551208,0.976844191551208,3836.75074673891,3692.70914097046,7529.45988770937,,,51.0299999713898,2476.61303710938,23644.4434656454,24065.0359250662
2018-07-19T09:20:13Z,1531992013,49E0C,41.7037998,42.9899833,3704.42,0,-12.8,130.4,610218.12,-201506.42,124.4,Weapon+Missile,Red,Allies,AIM-7M,,xu,,275.122289759932,235.124282836914,0.844182171073408,3704.42211914062,1209.23828125,268.253402020016,-61.09326171875,0.0295396447442225,NaN,0,0,5000,0.974632203578949,0.974632203578949,0.974632203578949,3784.61371613741,3632.79711746704,7417.41083360445,,,52.0299999713898,2495.18383789062,23911.1086485703,24338.7620905658
2018-07-19T09:20:14Z,1531992014,49E0C,41.7062873,42.9884304,3643.42,0,-12.8,130.4,610439.06,-201657.81,124.4,Weapon+Missile,Red,Allies,AIM-7M,,xu,,274.688493234381,235.380569458008,0.842220134922458,3643.419921875,1197.59057617188,267.829237097335,-61.002197265625,0.0295546838790692,NaN,0,0,5000,0.975153744220734,0.975153744220734,0.975153744220734,3772.68841576874,3572.97439768555,7345.66281345429,,,53.0299999713898,2445.82934570312,24177.3996145053,24612.1004559767
2018-07-19T09:20:15Z,1531992015,49E0C,41.7087689,42.9868812,3582.56,0,-12.8,130.4,610659.5,-201808.84,124.4,Weapon+Missile,Red,Allies,AIM-7M,,xu,,274.057202085051,235.456497192383,0.839657859256039,3582.5576171875,1238.10229492188,267.213640899585,-60.8623046875,0.0240390377792919,NaN,0,0,5000,0.974624574184418,0.974624574184418,0.974624574184418,3755.36750073433,3513.28886565918,7268.65636639351,,,54.0299999713898,2344.45532226562,24443.056864614,24884.7870387048
2018-07-19T09:20:16Z,1531992016,49E0C,41.7112363,42.9853407,3522.03,0,-12.8,130.4,610878.69,-201959.02,124.4,Weapon+Missile,Red,Allies,AIM-7M,,xu,,272.502806553256,234.695159912109,0.834277224496898,3522.03466796875,1227.40771484375,265.696729745147,-60.52294921875,0.0280184694483648,NaN,0,0,5000,0.975271105766296,0.975271105766296,0.975271105766296,3712.88897897005,3453.93612766357,7166.82510663363,,,55.0299999713898,2294.626953125,24707.2205878914,25155.9387531742
2018-07-19T09:20:17Z,1531992017,49E0C,41.7136901,42.9838085,3461.84,0,-12.8,130.4,611096.69,-202108.38,124.4,Weapon+Missile,Red,Allies,AIM-7M,,xu,,271.027009287113,233.997268676758,0.829148783074859,3461.83984375,1155.45483398438,264.25787197431,-60.19482421875,0.0290325624180125,NaN,0,0,5000,0.976520419120789,0.976520419120789,0.976520419120789,3672.78198815584,3394.90517037109,7067.68715852694,,,56.0299999713898,2306.38500976562,24969.9377318527,25425.6039353899
2018-07-19T09:20:18Z,1531992018,49E0C,41.7161358,42.9822813,3401.85,0,-12.8,130.4,611314,-202257.25,124.4,Weapon+Missile,Red,Allies,AIM-7M,,xu,,270.161594623607,233.844848632812,0.825896350373287,3401.84985351562,1032.87915039062,263.416947596866,-59.989990234375,0.0279410146376876,NaN,0,0,5000,0.974302530288696,0.974302530288696,0.974302530288696,3649.36436047852,3336.0750865979,6985.43944707642,,,57.0299999713898,2368.970703125,25231.795664238,25694.382999214
2018-07-19T09:20:19Z,1531992019,49E0C,41.7185791,42.9807554,3341.9,0,-12.8,130.4,611531.12,-202405.98,124.4,Weapon+Missile,Red,Allies,AIM-7M,,xu,,269.9233602754,234.257705688477,0.824565481182921,3341.90454101562,982.427734375,263.182788061151,-59.9453125,0.034654936448828,NaN,0,0,5000,0.975066900253296,0.975066900253296,0.975066900253296,3642.93102111816,3277.28881671509,6920.21983783325,,,58.0299999713898,2359.47680664062,25493.4204634574,25962.9223191966
2018-07-19T09:20:20Z,1531992020,49E0C,41.7210131,42.9792353,3282.19,0,-12.8,130.4,611747.38,-202554.16,124.4,Weapon+Missile,Red,Allies,AIM-7M,,xu,,268.85729760632,233.916717529297,0.820712324375907,3282.19458007812,1035.01293945312,262.143027832166,-59.7099609375,0.025474230873506,NaN,0,0,5000,0.975419342517853,0.975419342517853,0.975419342517853,3614.21232380867,3218.73334787231,6832.94567168098,,,59.0299999713898,2247.181640625,25754.0455800367,26230.4317471125
2018-07-19T09:20:21Z,1531992021,49E0C,41.7234458,42.9777159,3222.51,0,-12.8,130.4,611963.56,-202702.25,124.4,Weapon+Missile,Red,Allies,AIM-7M,,xu,,268.758550470641,234.451217651367,0.819816114648178,3222.50903320312,1027.087890625,262.047312417648,-59.685546875,0.028519396579683,NaN,0,0,5000,0.973670661449432,0.973670661449432,0.973670661449432,3611.55792255402,3160.20182104614,6771.75974360016,,,60.0299999713898,2195.42114257812,26014.5537188391,26497.8192631155
2018-07-19T09:20:22Z,1531992022,49E0C,41.7258596,42.9762081,3163.28,0,-12.8,130.4,612178,-202849.2,124.4,Weapon+Missile,Red,Allies,AIM-7M,,xu,,266.620310968389,233.125152587891,0.812709434623621,3163.28295898438,913.98291015625,259.958962825896,-59.22607421875,0.029694347044777,NaN,0,0,5000,0.977201521396637,0.977201521396637,0.977201521396637,3554.31951104403,3102.12088297241,6656.44039401644,,,61.0299999713898,2249.30004882812,26273.0507909185,26763.1405434888
2018-07-19T09:20:23Z,1531992023,49E0C,41.7282711,42.9747016,3104.12,0,-12.8,130.4,612392.31,-202996.03,124.4,Weapon+Missile,Red,Allies,AIM-7M,,xu,,266.437541184052,233.574462890625,0.811570330798421,3104.11694335938,760.509033203125,259.78519193223,-59.166015625,0.0252347936960197,NaN,0,0,5000,0.975403666496277,0.975403666496277,0.975403666496277,3549.44816761017,3044.09884225952,6593.54700986969,,,62.0299999713898,2343.60791015625,26531.3111945433,27028.2152688088
2018-07-19T09:20:24Z,1531992024,49E0C,41.7306744,42.9732001,3045.14,0,-12.8,130.4,612605.94,-203142.38,124.4,Weapon+Missile,Red,Allies,AIM-7M,,xu,,265.574620735982,233.400802612305,0.808364905574698,3045.14453125,685.4658203125,258.944267727754,-58.972412109375,0.0277774595793408,NaN,0,0,5000,0.973731219768524,0.973731219768524,0.973731219768524,3526.49395895302,2986.26666173828,6512.7606206913,,,63.0299999713898,2359.6787109375,26788.7097423171,27292.4039319048
2018-07-19T09:20:25Z,1531992025,49E0C,41.7330698,42.9717035,2986.36,0,-12.8,130.4,612818.81,-203288.23,124.4,Weapon+Missile,Red,Allies,AIM-7M,,xu,,264.662566258944,233.177703857422,0.805016841021375,2986.36059570312,698.214599609375,258.051783369909,-58.783935546875,0.0268535193553448,NaN,0,0,5000,0.975553035736084,0.975553035736084,0.975553035736084,3502.31369893849,2928.6193135852,6430.93301252369,,,64.0299999713898,2288.14599609375,27045.2693208453,27555.7300200152
2018-07-19T09:20:26Z,1531992026,49E0C,41.7354609,42.9702094,2927.68,0,-12.8,130.5,613031.31,-203433.84,124.4,Weapon+Missile,Red,Allies,AIM-7M,,xu,,264.19952298991,233.362350463867,0.803039737784468,2927.68310546875,633.4326171875,257.601125944532,-58.677490234375,0.031305379390849,NaN,0,0,5000,0.974994838237762,0.974994838237762,0.974994838237762,3490.06939740479,2871.07635262451,6361.1457500293,,,65.0299999713898,2294.25048828125,27301.3876457007,27818.5997251296
2018-07-19T09:20:27Z,1531992027,49E0C,41.7378465,42.9687187,2869.13,0,-12.8,130.5,613243.38,-203579.11,124.4,Weapon+Missile,Red,Allies,AIM-7M,,xu,,263.630531247695,233.447357177734,0.800745226721957,2869.13012695312,488.22412109375,257.045921408784,-58.552978515625,0.0289837176699947,NaN,0,0,5000,0.976491153240204,0.976491153240204,0.976491153240204,3475.05285029709,2813.65549594849,6288.70834624558,,,66.0299999713898,2380.90600585938,27556.9172476929,28080.8652135531
2018-07-19T09:20:28Z,1531992028,49E0C,41.7402235,42.9672332,2810.8,0,-12.8,130.5,613454.69,-203723.88,124.4,Weapon+Missile,Red,Allies,AIM-7M,,xu,,262.703250877606,233.199478149414,0.797368946845611,2810.79541015625,326.4775390625,256.144605326543,-58.334716796875,0.0265661570128826,NaN,0,0,5000,0.975609719753265,0.975609719753265,0.975609719753265,3450.64990108311,2756.44868090088,6207.09858198399,,,67.0299999713898,2484.31787109375,27811.5446443997,28342.1998665069
2018-07-19T09:20:29Z,1531992029,49E0C,41.742593,42.9657523,2752.64,0,-12.8,130.5,613665.38,-203868.19,124.4,Weapon+Missile,Red,Allies,AIM-7M,,xu,,261.910861456851,233.071273803711,0.794408647439112,2752.640625,195.193115234375,255.372904421162,-58.15478515625,0.0265854876926916,NaN,0,0,5000,0.972615838050842,0.972615838050842,0.972615838050842,3429.86496745348,2699.41831851563,6129.28328596911,,,68.0299999713898,2557.44750976562,28065.3731472559,28602.7130126997
2018-07-19T09:20:30Z,1531992030,49E0C,41.744952,42.9642778,2694.73,0,-12.8,130.5,613875.06,-204011.86,124.4,Weapon+Missile,Red,Allies,AIM-7M,,xu,,260.699248315545,232.552001953125,0.790184506798479,2694.72998046875,141.548583984375,254.185867668259,-57.91064453125,0.0274642665310049,NaN,0,0,5000,0.977156817913055,0.977156817913055,0.977156817913055,3398.20490361452,2642.62737629639,6040.83227991091,,,69.0299999713898,2553.18139648438,28318.101214216,28862.0962829552
2018-07-19T09:20:31Z,1531992031,49E0C,41.7473127,42.9628022,2636.79,0,-12.8,130.5,614084.94,-204155.66,124.4,Weapon+Missile,Red,Allies,AIM-7M,,xu,,260.925835698106,233.357757568359,0.79032250519266,2636.78833007812,124.147216796875,254.411196461095,-57.941650390625,0.0266329737113711,NaN,0,0,5000,0.973625898361206,0.973625898361206,0.973625898361206,3404.11458673775,2585.80602771606,5989.92061445382,,,70.0299999713898,2512.64111328125,28571.0131669303,29121.6635576137
2018-07-19T09:20:32Z,1531992032,49E0C,41.7496709,42.961328,2578.9,0,-12.8,130.5,614294.56,-204299.31,124.4,Weapon+Missile,Red,Allies,AIM-7M,,xu,,260.636246242804,233.686584472656,0.788898786696467,2578.89624023438,96.56396484375,254.125478433514,-57.89208984375,0.034657612807817,NaN,0,0,5000,0.976390063762665,0.976390063762665,0.976390063762665,3396.56264277697,2529.03328142944,5925.59592420641,,,71.0299999713898,2482.33227539062,28823.6762025906,29380.9747952789
2018-07-19T09:20:33Z,1531992033,49E0C,41.7520092,42.9598662,2521.49,0,-12.8,130.5,614502.5,-204441.75,124.4,Weapon+Missile,Red,Allies,AIM-7M,,xu,,258.499529870531,232.298233032227,0.781894890028225,2521.4892578125,111.991943359375,252.044530415758,-57.406982421875,0.0314189291565971,NaN,0,0,5000,0.974847555160522,0.974847555160522,0.974847555160522,3341.10034716427,2472.7362630127,5813.83661017697,,,72.0299999713898,2409.49731445312,29074.2067441898,29638.0960030326
2018-07-19T09:20:34Z,1531992034,49E0C,41.7543565,42.9583986,2463.87,0,-12.8,130.5,614711.19,-204584.73,124.4,Weapon+Missile,Red,Allies,AIM-7M,,xu,,259.451664978463,233.772521972656,0.784235542709133,2463.86840820312,145.792236328125,252.972338706015,-57.620849609375,0.0225742785215706,NaN,0,0,5000,0.976399302482605,0.976399302482605,0.976399302482605,3365.75832300484,2416.22951253052,5781.98783553536,,,73.0299999713898,2318.076171875,29325.7175979608,29896.2186982797
2018-07-19T09:20:35Z,1531992035,49E0C,41.756683,42.9569439,2406.75,0,-12.8,130.5,614918.12,-204726.47,124.4,Weapon+Missile,Red,Allies,AIM-7M,,xu,,257.243934544202,232.30744934082,0.77703332512002,2406.74853515625,118.70654296875,250.822171992212,-57.119873046875,0.0381541929167292,NaN,0,0,5000,0.972759604454041,0.972759604454041,0.972759604454041,3308.72209298909,2360.214052229,5668.93614521809,,,74.0299999713898,2288.0419921875,29575.0188980387,30152.0727356371
2018-07-19T09:20:36Z,1531992036,49E0C,41.7590211,42.9554819,2349.33,0,-12.8,130.5,615126.06,-204868.91,124.4,Weapon+Missile,Red,Allies,AIM-7M,,xu,,258.502783356486,234.066986083984,0.780302522778122,2349.32690429688,-13.743408203125,252.044530415758,-57.421630859375,0.235409433852231,NaN,0.0615383569054819,0.550014429850205,5000,0.517565965652466,0.517565965652466,0.517565965652466,3341.18445015252,2303.90266860229,5645.08711875481,,,75.0299999713898,2363.0703125,29825.5657174336,30409.20649554
2018-07-19T09:20:37Z,1531992037,49E0C,41.7613309,42.9540382,2288.02,1.3,-14.9,130.4,615331.44,-205009.56,124.4,Weapon+Missile,Red,Allies,AIM-7M,,xu,,256.363188433956,232.700500488281,0.773280552562022,2288.01611328125,-150.569091796875,248.923826278367,-61.310791015625,0.0282848367558436,NaN,1.1692308422671,1.50382580145016,5000,0.0834215730428696,0.0834215730428696,0.0834215730428696,3286.10421920121,2243.77732173096,5529.88154093216,,,76.0299999713898,2438.58520507812,30073.0370536936,30664.2469053517
2018-07-19T09:20:38Z,1531992038,49E0C,41.763619,42.9526096,2218.38,2.4,-16.8,130.4,615534.88,-205148.7,124.3,Weapon+Missile,Red,Allies,AIM-7M,,xu,,256.117224176503,233.181854248047,0.771900725402103,2218.38061523438,-213.158447265625,246.468922851626,-69.635498046875,0.0668549468640436,NaN,1.03076946085601,1.88911549187011,5000,0.113433346152306,0.113433346152306,0.113433346152306,3279.80162599385,2175.48822603882,5455.28985203267,,,77.0299999713898,2431.5390625,30318.079408074,30919.0748671882
2018-07-19T09:20:39Z,1531992039,49E0C,41.7658966,42.95119,2140.44,3.1,-18.5,130.3,615737.44,-205286.94,124.3,Weapon+Missile,Red,Allies,AIM-7M,,xu,,257.322644367534,235.108139038086,0.774818220495825,2140.44067382812,-229.564208984375,245.235211252158,-77.93994140625,0.00897460526285924,NaN,0.769230845365645,1.8083835096542,5000,0.131853342056274,0.131853342056274,0.131853342056274,3310.74716521502,2099.05525339966,5409.80241861467,,,78.0299999713898,2370.0048828125,30561.8237959294,31175.0564480405
2018-07-19T09:20:40Z,1531992040,49E0C,41.7681437,42.9497924,2055.23,3.8,-20.3,130.3,615937.19,-205422.98,124.2,Weapon+Missile,Red,Allies,AIM-7M,,xu,,256.260711269277,234.984527587891,0.770843932424423,2055.23071289062,-280.759765625,241.679156522166,-85.2099609375,0.0178316944797623,NaN,0.569230099862978,1.73914492154243,5000,0.154745921492577,0.154745921492577,0.154745921492577,3283.4776070118,2015.49282705688,5298.97043406868,,,79.0299999713898,2335.99047851562,30802.0907047435,31430.0601851913
2018-07-19T09:20:41Z,1531992041,49E0C,41.7703799,42.9484057,1962.32,4.3,-22,130.2,616135.94,-205557.91,124.1,Weapon+Missile,Red,Allies,AIM-7M,,xu,,257.560319791313,237.161270141602,0.773904705611982,1962.32299804688,-416.108154296875,240.219638775675,-92.90771484375,0.0365119913031117,NaN,0.446153933000757,1.68694210588114,5000,0.169290497899055,0.169290497899055,0.169290497899055,3316.86591655016,1924.38148287964,5241.2473994298,,,80.0299999713898,2378.43115234375,31040.8955712904,31686.3715873863
2018-07-19T09:20:42Z,1531992042,49E0C,41.7726025,42.947032,1862.07,4.7,-23.7,130.1,616333.44,-205691.48,124,Weapon+Missile,Red,Allies,AIM-7M,,xu,,258.651603069943,239.225494384766,0.776267374145897,1862.06689453125,-617.651611328125,238.431049736639,-100.256103515625,0.0457901604133176,NaN,0.369231488794427,1.64150331193228,5000,0.184275716543198,0.184275716543198,0.184275716543198,3345.03258853257,1826.06383112549,5171.09641965806,,,81.0299999713898,2479.71850585938,31277.9241561087,31943.796389874
2018-07-19T09:20:43Z,1531992043,49E0C,41.7748068,42.945675,1754.94,5.1,-25.2,130,616529.25,-205823.38,123.9,Weapon+Missile,Red,Allies,AIM-7M,,xu,,259.256352294378,240.907043457031,0.777104477315397,1754.93994140625,-813.764404296875,236.088271879695,-107.126953125,0,NaN,0.399999783458042,1.59431140052254,5000,0.198688060045242,0.198688060045242,0.198688060045242,3360.69281024933,1721.00817763916,5081.70098788849,,,82.0299999713898,2568.70434570312,31512.6213502332,32201.8471573242
2018-07-19T09:20:44Z,1531992044,49E0C,41.7769887,42.9443378,1641.38,5.3,-26.7,129.8,616723.06,-205953.27,123.8,Weapon+Missile,Red,Allies,AIM-7M,,xu,,259.481634807452,242.298919677734,0.776746268347585,1641.38000488281,-866.318725585938,233.312793517931,-113.559936523438,NaN,NaN,0.199999891729021,1.52194127739803,5000,0.198688060045242,0.198688060045242,0.198688060045242,3366.53594011739,1609.6439224884,4976.17986260579,,,83.0299999713898,2507.69873046875,31744.5041514532,32460.0992212105
