ISOTime,UnixTime,Id,Longitude,Latitude,Altitude,Roll,Pitch,Yaw,U,V,Heading,Type,Color,Coalition,Name,Group,Country,Pilot,TAS,CAS,M,ASL,AGL,GS,VS,AOA,AOS,RRT,TRT,TRD,G,LatG,LonG,Ek,Ep,Em,FFW,FFV,RelativeTime,Elev,GroundDistance,AirDistance
2018-07-19T09:06:45Z,1531991205,4A306,40.7738882,43.6510466,3353.16,39.4,26.3,210.1,527477.75,-135544.77,204.6,Weapon+Missile,Red,Allies,R-73,,xu,,137.730065657555,117.35279083252,0.420797336915565,3353.1630859375,473.14306640625,NaN,NaN,12.0067152205532,NaN,3.0769182588207,5.89487129519237,NaN,NaN,NaN,NaN,NaN,3288.3296776709,NaN,,,0.629999876022339,2880.02001953125,NaN,NaN
2018-07-19T09:06:46Z,1531991206,4A306,40.7727874,43.6490709,3444.64,36.4,26.3,210.1,527409.62,-135772.66,204.6,Weapon+Missile,Red,Allies,R-73,,xu,,254.83921350994,219.608032226562,0.779461979854453,3444.63916015625,528.095458984375,237.855318603328,91.47607421875,6.17327353527428,NaN,2.76923189708997,0,2152.57535044214,3.10512709617615,3.10512709617615,3.10512709617615,3247.15123711824,3378.03706199463,6625.18829911287,,,1.62999987602234,2916.54370117188,237.143074629479,254.292475401191
2018-07-19T09:06:47Z,1531991207,4A306,40.7707358,43.6462734,3609.25,33.7,26.3,210.1,527273.38,-136099.05,204.6,Weapon+Missile,Red,Allies,R-73,,xu,,390.117767234013,340.370269775391,1.19563581391734,3609.25073242188,658.787353515625,353.687577655606,164.611572265625,0.0460710790598899,NaN,2.63077030223547,0,5000,2.1682345867157,2.1682345867157,2.1682345867157,7609.59361558259,3539.4658695105,11149.0594850931,,,2.62999987602234,2950.46337890625,589.684595266423,643.548155958244
2018-07-19T09:06:48Z,1531991208,4A306,40.7678686,43.6426672,3838.48,31.2,26.3,210,527079.75,-136521.52,204.6,Weapon+Missile,Red,Allies,R-73,,xu,,518.186889839078,442.388458251953,1.59262418168836,3838.482421875,906.6572265625,464.726247754054,229.231689453125,0.0481668466328841,NaN,2.50771761414852,0,5000,0.887288272380829,0.887288272380829,0.887288272380829,13425.8826400548,3764.26536424805,17190.1480043029,,,3.62999987602234,2931.8251953125,1052.83302073365,1160.5628396254
2018-07-19T09:06:49Z,1531991209,4A306,40.7643077,43.6381877,4123.22,28.9,26.3,210,526839.25,-137046.27,204.6,Weapon+Missile,Red,Allies,R-73,,xu,,643.644424492827,534.6689453125,1.98519222097066,4123.2197265625,1187.7880859375,577.237223765065,284.7373046875,0.0466365376370911,NaN,2.30767503373719,0,5000,0.889223456382751,0.889223456382751,0.889223456382751,20713.9072590351,4043.49727314941,24757.4045321845,,,4.62999987602234,2935.431640625,1628.11297005961,1802.77432826844
2018-07-19T09:06:50Z,1531991210,4A306,40.7601482,43.632954,4455.88,26.8,26.3,210,526558.31,-137659.33,204.6,Weapon+Missile,Red,Allies,R-73,,xu,,751.954727155767,609.254943847656,2.32889086335985,4455.88232421875,1733.1962890625,674.367487214872,332.66259765625,0.050840619562445,NaN,2.00004331351981,0,5000,0.898414671421051,0.898414671421051,0.898414671421051,28271.7955845952,4369.72783947998,32641.5234240752,,,5.62999987602234,2722.68603515625,2300.23088649743,2553.11740387764
2018-07-19T09:06:51Z,1531991211,4A306,40.756148,43.6279196,4775.87,24.8,26.3,210,526288.06,-138249.03,204.6,Weapon+Missile,Red,Allies,R-73,,xu,,723.309771663412,579.001525878906,2.24920094537001,4775.8701171875,1770.32592773438,648.679302995529,319.98779296875,0.0464677278078633,NaN,1.93846232796298,0,5000,0.902528941631317,0.902528941631317,0.902528941631317,26158.8512891889,4683.52866847168,30842.3799576605,,,6.62999987602234,3005.54418945312,2946.72955321992,3274.89153118601
2018-07-19T09:06:52Z,1531991212,4A306,40.7526353,43.6234979,5056.9,23,26.3,210,526050.69,-138766.95,204.6,Weapon+Missile,Red,Allies,R-73,,xu,,635.271512767524,507.096405029297,1.98248016036133,5056.90380859375,2199.83984375,569.727969498177,281.03369140625,0.0497785034774212,NaN,1.76918291957338,0,5000,0.90283864736557,0.90283864736557,0.90283864736557,20178.4947466969,4959.12857345459,25137.6233201515,,,7.62999987602234,2857.06396484375,3514.53366011402,3908.83053227271
2018-07-19T09:06:53Z,1531991213,4A306,40.7495085,43.6195614,5307.08,21.2,26.3,210,525839.44,-139228.02,204.6,Weapon+Missile,Red,Allies,R-73,,xu,,565.502963348402,451.000183105469,1.77039231909807,5307.08056640625,2489.65991210938,507.154011525345,250.1767578125,0.0498824272978205,NaN,1.73847438906501,0,5000,0.900399684906006,0.900399684906006,0.900399684906006,15989.6800777912,5204.46816365479,21194.148241446,,,8.62999987602234,2817.42065429688,4020.01660390916,4473.20343581801
2018-07-19T09:06:54Z,1531991214,4A306,40.7466995,43.6160243,5531.89,19.7,26.3,210,525649.56,-139642.31,204.6,Weapon+Missile,Red,Allies,R-73,,xu,,508.165762255648,405.159454345703,1.59548347394268,5531.88720703125,2697.09204101562,455.735028563491,224.806640625,0.0518818066064128,NaN,1.53848645016703,0,5000,0.899302065372467,0.899302065372467,0.899302065372467,12911.6220964432,5424.9281678833,18336.5502643265,,,9.62999987602234,2834.79516601562,4474.21277896681,4980.33548474803
2018-07-19T09:06:55Z,1531991215,4A306,40.7441787,43.6128497,5733.63,18.2,26.3,210,525479.12,-140014.12,204.6,Weapon+Missile,Red,Allies,R-73,,xu,,456.065079722376,363.346771240234,1.43563400290206,5733.63427734375,2939.03051757812,409.015252237004,201.7470703125,0.0443151371323117,NaN,1.3384438697557,0,5000,0.902427971363068,0.902427971363068,0.902427971363068,10399.7678471088,5622.77445859131,16022.5423057001,,,10.6299998760223,2794.60375976562,4881.84167782415,5435.48031347286
2018-07-19T09:06:56Z,1531991216,4A306,40.7418802,43.6099546,5917.62,16.9,26.3,210,525323.81,-140353.19,204.6,Weapon+Missile,Red,Allies,R-73,,xu,,415.854401349187,329.737854003906,1.31218139289182,5917.61669921875,3032.56762695312,372.941485440411,183.982421875,0.0469021518280579,NaN,1.3692616832908,0,5000,0.897236526012421,0.897236526012421,0.897236526012421,8646.74415607452,5803.19958033936,14449.9437364139,,,11.6299998760223,2885.04907226562,5253.5689492877,5850.5504682256
2018-07-19T09:06:57Z,1531991217,4A306,40.7397855,43.6073159,6085.31,15.7,26.3,210,525182.12,-140662.22,204.6,Weapon+Missile,Red,Allies,R-73,,xu,,379.07264325313,297.79931640625,1.19873529142408,6085.30810546875,3109.34936523438,339.964205664085,167.69140625,0.0519808415606109,NaN,1.13845593085773,0,5000,0.900196492671967,0.900196492671967,0.900196492671967,7184.80344314575,5967.64867324951,13152.4521163953,,,12.6299998760223,2975.95874023438,5592.37852087694,6228.87369038851
2018-07-19T09:06:58Z,1531991218,4A306,40.7378536,43.6048821,6239.97,14.4,26.3,210,525051.56,-140947.25,204.6,Weapon+Missile,Red,Allies,R-73,,xu,,349.5829481122,271.240661621094,1.10771833126124,6239.96533203125,3411.00854492188,313.511371217716,154.6572265625,0.0463407577592364,NaN,1.13845593085773,0,5000,0.898614287376404,0.898614287376404,0.898614287376404,6110.41188054085,6119.31560233643,12229.7274828773,,,13.6299998760223,2828.95678710938,5904.87240741033,6577.81506659186
2018-07-19T09:06:59Z,1531991219,4A306,40.7360944,43.6026655,6380.83,13.4,26.3,210,524932.56,-141206.83,204.6,Weapon+Missile,Red,Allies,R-73,,xu,,318.40896184472,243.208786010742,1.01080506706258,6380.82861328125,3671.99536132812,285.555253810039,140.86328125,0.0513860104767265,NaN,1.07692958681425,0,5000,0.89734822511673,0.89734822511673,0.89734822511673,5069.21334915161,6257.45529204346,11326.6686411951,,,14.6299998760223,2708.83325195312,6189.4699266902,6895.61777630151
2018-07-19T09:07:00Z,1531991220,4A306,40.7344586,43.6006043,6511.81,12.4,26.3,210,524821.94,-141448.22,204.6,Weapon+Missile,Red,Allies,R-73,,xu,,296.078003889527,223.137405395508,0.941537472213194,6511.80517578125,3836.38720703125,265.532153350382,130.9765625,0.0460758605533491,NaN,0.969231163981489,0,5000,0.898949861526489,0.898949861526489,0.898949861526489,4383.10921936035,6385.89942270752,10769.0086420679,,,15.6299998760223,2675.41796875,6454.10903232252,7191.13487000289
2018-07-19T09:07:01Z,1531991221,4A306,40.7329367,43.5986863,6633.69,11.5,26.3,210,524719,-141672.83,204.6,Weapon+Missile,Red,Allies,R-73,,xu,,275.500352315799,205.029312133789,0.877512382494097,6633.68603515625,4023.677734375,247.073876085961,121.880859375,0.0539421834681849,NaN,0.769243225083516,0,5000,0.896897077560425,0.896897077560425,0.896897077560425,3795.02220630646,6505.4237156665,10300.445921973,,,16.6299998760223,2610.00830078125,6700.36122593333,7466.12601876876
2018-07-19T09:07:02Z,1531991222,4A306,40.7314824,43.5968536,6750.15,10.6,26.3,210,524620.62,-141887.45,204.6,Weapon+Missile,Red,Allies,R-73,,xu,,263.257390687449,194.024475097656,0.839812418436896,6750.14599609375,4198.0673828125,236.096444805931,116.4599609375,0.0470428532268725,NaN,0.769243225083516,0,5000,0.897672116756439,0.897672116756439,0.897672116756439,3465.2226875782,6619.63192325928,10084.8546108375,,,17.6299998760223,2552.07861328125,6935.67036053868,7728.89885043655
2018-07-19T09:07:03Z,1531991223,4A306,40.7301018,43.5951135,6860.72,9.9,26.3,210,524527.25,-142091.23,204.6,Weapon+Missile,Red,Allies,R-73,,xu,,249.943390473734,182.416702270508,0.798513043556212,6860.71728515625,4345.72680664062,224.155500660953,110.5712890625,0.0495832694441707,NaN,0.769243225083516,0,5000,0.898693561553955,0.898693561553955,0.898693561553955,3123.58492207527,6728.06531644775,9851.65023852303,,,18.6299998760223,2514.99047851562,7159.07149168763,7978.37958186866
2018-07-19T09:07:04Z,1531991224,4A306,40.728781,43.5934486,6966.51,9.1,26.3,210,524437.94,-142286.19,204.6,Weapon+Missile,Red,Allies,R-73,,xu,,239.113973927177,172.98503112793,0.764994151632401,6966.509765625,4445.22265625,214.437505123324,105.79248046875,0.0513114794569441,NaN,0.769243225083516,0,5000,0.894859731197357,0.894859731197357,0.894859731197357,2858.77462636232,6831.81229930664,9690.58692566896,,,19.6299998760223,2521.287109375,7372.82348343518,8217.08665801456
2018-07-19T09:07:05Z,1531991225,4A306,40.7275186,43.5918573,7067.62,8.4,26.3,210,524352.5,-142472.53,204.6,Weapon+Missile,Red,Allies,R-73,,xu,,228.574862583156,163.964614868164,0.73226607317224,7067.6181640625,4488.16528320312,204.996486726755,101.1083984375,0.0406398672092393,NaN,0.738480053061779,0,5000,0.898800909519196,0.898800909519196,0.898800909519196,2612.32339024544,6930.96576686035,9543.28915710579,,,20.6299998760223,2579.45288085938,7577.11880550694,8445.23435669464
2018-07-19T09:07:06Z,1531991226,4A306,40.7263073,43.5903303,7164.65,7.8,26.3,210,524270.56,-142651.36,204.6,Weapon+Missile,Red,Allies,R-73,,xu,,219.338239412262,156.104598999023,0.703590441699876,7164.654296875,4583.76440429688,196.706004476899,97.0361328125,0.0563140980867515,NaN,0.692307974272492,0,5000,0.896480202674866,0.896480202674866,0.896480202674866,2405.46316342354,7026.12570604492,9431.58886946846,,,21.6299998760223,2580.88989257812,7773.16905139068,8664.1807515752
2018-07-19T09:07:07Z,1531991227,4A306,40.7251419,43.5888611,7258,7.2,26.3,210,524191.72,-142823.39,204.6,Weapon+Missile,Red,Allies,R-73,,xu,,211.008097059925,149.066375732422,0.677719101510223,7257.99951171875,4701.478515625,189.238177677299,93.34521484375,0.0648792368743515,NaN,0.60001845820728,0.138476522553095,5000,0.727715611457825,0.727715611457825,0.727715611457825,2226.22085124254,7117.66609115967,9343.88694240221,,,22.6299998760223,2556.52099609375,7961.7835495108,8874.82084500298
2018-07-19T09:07:08Z,1531991228,4A306,40.7240259,43.5874539,7345.56,6.1,24.7,210,524116.19,-142988.17,204.6,Weapon+Missile,Red,Allies,R-73,,xu,,201.307000453125,141.150604248047,0.647324397778563,7345.55908203125,4754.37060546875,181.267289046107,87.5595703125,0.0401840376755848,NaN,1.3384438697557,1.44229721625086,4820.23673077249,0.0716552585363388,0.0716552585363388,0.0716552585363388,2026.22542157173,7203.53269718018,9229.75811875191,,,23.6299998760223,2591.1884765625,8142.44519839486,9075.7688054738
2018-07-19T09:07:09Z,1531991229,4A306,40.7229381,43.5860824,7421.97,4.7,22,210,524042.59,-143148.77,204.6,Weapon+Missile,Red,Allies,R-73,,xu,,192.469172162465,134.062789916992,0.619544464963919,7421.9658203125,4742.8720703125,176.653311823257,76.40673828125,0.0310214064989855,NaN,1.44614229258846,2.70768463559216,4016.01103255651,0.00563650019466877,0.00563650019466877,0.00563650019466877,1852.21911164522,7278.46211117676,9130.68122282198,,,24.6299998760223,2679.09375,8318.52159135548,9267.89561114465
2018-07-19T09:07:10Z,1531991230,4A306,40.7218739,43.5847404,7487.09,3.3,19.2,210,523970.59,-143305.91,204.6,Weapon+Missile,Red,Allies,R-73,,xu,,184.710230582952,127.929580688477,0.595093196174056,7487.08642578125,4749.53979492188,172.850154831839,65.12060546875,0.0566998862015285,NaN,1.3384438697557,2.85769586688974,3614.27843457995,0.00201286864466965,0.00201286864466965,0.00201286864466965,1705.89346410036,7342.32360973877,9048.21707383913,,,25.6299998760223,2737.54663085938,8490.79618098082,9452.25569991569
2018-07-19T09:07:11Z,1531991231,4A306,40.7208326,43.5834274,7541.11,1.9,16.2,210,523900.12,-143459.66,204.6,Weapon+Missile,Red,Allies,R-73,,xu,,177.549453219107,122.371086120605,0.572441903167529,7541.11328125,4812.55908203125,169.129853150065,54.02685546875,0.0200133261178915,NaN,1.3384438697557,2.99235582114089,3281.35435881356,0.0030730243306607,0.0030730243306607,0.0030730243306607,1576.19041692019,7395.30585595703,8971.49627287722,,,26.6299998760223,2728.55419921875,8659.36961116829,9629.4643289493
2018-07-19T09:07:12Z,1531991232,4A306,40.7198139,43.5821428,7584.25,0.6,13,210,523831.22,-143610.06,204.6,Weapon+Missile,Red,Allies,R-73,,xu,,170.971538518172,117.355743408203,0.551556737371251,7584.25439453125,4890.7158203125,165.439146903401,43.14111328125,0.0219336711439509,NaN,1.3384438697557,3.19618382045629,2997.42915595889,0.00347422249615192,0.00347422249615192,0.00347422249615192,1461.56334916353,7437.61283581299,8899.17618497652,,,27.6299998760223,2693.53857421875,8824.27632721666,9800.10989247951
2018-07-19T09:07:13Z,1531991233,4A306,40.7188265,43.5808975,7616.45,-0.7,9.7,210,523764.38,-143755.89,204.6,Weapon+Missile,Red,Allies,R-73,,xu,,163.616253673725,111.89811706543,0.528059392320794,7616.44677734375,4958.63159179688,160.417982019093,32.1923828125,0.0244687810343905,NaN,1.29232643247977,3.37698981340052,2738.39535793667,0.00703465798869729,0.00703465798869729,0.00703465798869729,1338.51392331123,7469.18277890381,8807.69670221504,,,28.6299998760223,2657.81518554688,8984.14522266887,9963.37458803871
2018-07-19T09:07:14Z,1531991234,4A306,40.717864,43.5796834,7638.21,-2,6.1,210,523699.22,-143898.03,204.6,Weapon+Missile,Red,Allies,R-73,,xu,,157.870046566585,107.68505859375,0.509664725179562,7638.21044921875,5013.73046875,156.362700761573,21.763671875,0.0195385509691724,NaN,1.3384438697557,3.49620329484369,2509.3699964459,0.00273193116299808,0.00273193116299808,0.00273193116299808,1246.14758014679,7490.52565018311,8736.6732303299,,,29.6299998760223,2624.47998046875,9139.99916901148,10120.9253432619
2018-07-19T09:07:15Z,1531991235,4A306,40.7169258,43.5785002,7649.72,-3.2,2.5,210,523635.72,-144036.59,204.6,Weapon+Missile,Red,Allies,R-73,,xu,,152.854006545397,104.07152557373,0.493548316727437,7649.72265625,5047.8642578125,152.41986880407,11.51220703125,0,NaN,1.16921910287946,3.65004455471835,2345.55833500569,0.00162304192781448,0.00162304192781448,0.00162304192781448,1168.21736584902,7501.81526869141,8670.03263454042,,,30.6299998760223,2601.8583984375,9291.8965892066,10273.4399137411
2018-07-19T09:07:16Z,1531991236,4A306,40.7160128,43.5773486,7651.24,-4.4,-1.4,210,523573.94,-144171.42,204.6,Weapon+Missile,Red,Allies,R-73,,xu,,148.316699200457,100.867233276367,0.478907739028865,7651.23828125,5071.64282226562,148.308955031644,1.515625,0.0356962222660515,NaN,1.13845593085773,3.79615340012233,2203.84637946216,0.00105949025601149,0.00105949025601149,0.00105949025601149,1099.89216308594,7503.30158908203,8603.19375216797,,,31.6299998760223,2579.59545898438,9439.73679881034,10421.465214892
2018-07-19T09:07:17Z,1531991237,4A306,40.7151319,43.5762374,7643.06,-5.5,-5.3,210,523514.31,-144301.53,204.6,Weapon+Missile,Red,Allies,R-73,,xu,,143.354363078721,97.4274826049805,0.462833090511046,7643.06005859375,5119.97485351562,143.120893261224,-8.17822265625,0.0561656091894504,NaN,1.16921910287946,3.89619261957456,2074.43311325634,0.000474540895083919,0.000474540895083919,0.000474540895083919,1027.52367068529,7495.28149236084,8522.80516304613,,,32.6299998760223,2523.08520507812,9582.37908870738,10564.5124994174
2018-07-19T09:07:18Z,1531991238,4A306,40.714281,43.5751641,7625.52,-6.6,-9.2,210,523456.72,-144427.2,204.6,Weapon+Missile,Red,Allies,R-73,,xu,,139.348521378265,94.7149429321289,0.449792569345227,7625.52294921875,5162.80517578125,138.240588124755,-17.537109375,0.0206603858073376,NaN,1.00004897751659,3.97309286566609,1992.32186531828,0.00120732421055436,0.00120732421055436,0.00120732421055436,970.900520515442,7478.08346299561,8448.98398351105,,,33.6299998760223,2462.7177734375,9720.16310687788,10703.5716946948
2018-07-19T09:07:19Z,1531991239,4A306,40.713453,43.5741194,7598.79,-7.6,-13.3,210,523400.66,-144549.52,204.6,Weapon+Missile,Red,Allies,R-73,,xu,,137.178620571148,93.3367004394531,0.442627666729042,7598.79052734375,5191.818359375,134.548695878109,-26.732421875,0.0193432305607897,NaN,1.12310166560354,4.03849235385579,1946.8116394094,0.000857012346386909,0.000857012346386909,0.000857012346386909,940.898697090149,7451.86791249756,8392.76660958771,,,34.6299998760223,2406.97216796875,9854.26340855846,10840.4675062476
2018-07-19T09:07:20Z,1531991240,4A306,40.7126599,43.5731189,7563.6,-8.5,-17.3,210,523346.97,-144666.66,204.6,Weapon+Missile,Red,Allies,R-73,,xu,,133.576216662308,90.9967880249023,0.430798052352927,7563.6005859375,5198.45263671875,128.857571301188,-35.18994140625,0.0212742577277963,NaN,0.769243225083516,4.04617759733252,1905.79646609092,0.00274247559718788,0.00274247559718788,0.00274247559718788,892.130282890797,7417.3583686084,8309.4886514992,,,35.6299998760223,2365.14794921875,9982.70593695834,10973.7906360363
2018-07-19T09:07:21Z,1531991241,4A306,40.7118882,43.5721453,7519.71,-9.4,-21.3,210,523294.72,-144780.66,204.6,Weapon+Missile,Red,Allies,R-73,,xu,,132.863004823961,90.7210235595703,0.428242817127516,7519.70849609375,5196.47875976562,125.403598433219,-43.89208984375,0.0390078520823125,NaN,0.769243225083516,3.96541530615217,1923.36566601854,0.00381208001635969,0.00381208001635969,0.00381208001635969,882.628902542591,7374.31493232178,8256.94383486437,,,36.6299998760223,2323.22973632812,10107.6841691113,11106.3916682515
2018-07-19T09:07:22Z,1531991242,4A306,40.7111431,43.5712053,7467.7,-10.1,-25.2,210,523244.31,-144890.72,204.6,Weapon+Missile,Red,Allies,R-73,,xu,,131.753947067673,90.2063903808594,0.4243690256812,7467.703125,5188.55493164062,121.055953778872,-52.00537109375,0.0405163798447909,NaN,0.769243225083516,3.91157719379319,1958.24095359575,0.00477253179997206,0.00477253179997206,0.00477253179997206,867.955128395557,7323.31508507812,8191.27021347368,,,37.6299998760223,2279.14819335938,10228.353261242,11237.9204642434
2018-07-19T09:07:23Z,1531991243,4A306,40.7104233,43.570297,7407.83,-10.8,-29,210,523195.56,-144997.06,204.6,Weapon+Missile,Red,Allies,R-73,,xu,,131.416433282237,90.2717819213867,0.422939250460777,7407.83056640625,5188.40649414062,116.985279689637,-59.87255859375,0.0120434403546117,NaN,0.569255286185543,3.78849505051545,2021.91139205132,0.00191646337043494,0.00191646337043494,0.00191646337043494,863.513946831226,7264.60016240478,8128.11410923601,,,38.6299998760223,2219.42407226562,10344.9481248043,11369.1104397865
2018-07-19T09:07:24Z,1531991244,4A306,40.7097231,43.5694134,7339.92,-11.4,-32.6,210,523148.16,-145100.52,204.6,Weapon+Missile,Red,Allies,R-73,,xu,,132.52053023297,91.3971633911133,0.426101657011327,7339.92041015625,5179.15063476562,113.797634471583,-67.91015625,0,NaN,0.569200644672183,3.62312293721792,2135.78324705661,0.00192752294242382,0.00192752294242382,0.00192752294242382,878.084546661377,7198.00304902588,8076.08759568726,,,39.6299998760223,2160.76977539062,10458.3663319635,11501.4178095842
2018-07-19T09:07:25Z,1531991245,4A306,40.7090425,43.5685547,7264.24,-11.8,-36.1,210,523102.06,-145201.06,204.6,Weapon+Missile,Red,Allies,R-73,,xu,,134.024385675397,92.8536605834961,0.430497753618836,7264.2353515625,5147.69946289062,110.608805532508,-75.68505859375,0.040824800058686,NaN,0.399975877795947,3.47696243850835,2280.18556600337,0.00245177000761032,0.00245177000761032,0.00245177000761032,898.126797783375,7123.78136104004,8021.90815882341,,,40.6299998760223,2116.53588867188,10568.5972088325,11635.2345211192
2018-07-19T09:07:26Z,1531991246,4A306,40.7083793,43.5677177,7180.78,-12.1,-39.4,210,523057.16,-145299.05,204.6,Weapon+Missile,Red,Allies,R-73,,xu,,136.317059084295,94.9256896972656,0.437370857588714,7180.77978515625,5106.67309570312,107.78454913949,-83.45556640625,0.0498995850821429,NaN,0.199987938897973,3.27694376375911,2464.68218145039,0.00232753250747919,0.00232753250747919,0.00232753250747919,929.117029869557,7041.93940801025,7971.05643787981,,,41.6299998760223,2074.10668945312,10676.0333543327,11771.3723663096
2018-07-19T09:07:27Z,1531991247,4A306,40.7077352,43.566905,7090.04,-12.4,-42.4,210,523013.53,-145394.2,204.6,Weapon+Missile,Red,Allies,R-73,,xu,,138.531665660253,96.9979095458984,0.443935598539594,7090.04296875,5033.84301757812,104.679761840876,-90.73681640625,0,NaN,0.169224766876236,3.07694899467197,2688.27547602092,0.00394255574792624,0.00394255574792624,0.00394255574792624,959.551119530201,6952.95698794922,7912.50810747942,,,42.6299998760223,2056.19995117188,10780.3640663637,11909.7285568589
2018-07-19T09:07:28Z,1531991248,4A306,40.707103,43.5661072,6991.28,-12.5,-45.3,210,522970.75,-145487.61,204.6,Weapon+Missile,Red,Allies,R-73,,xu,,142.513148092739,100.412872314453,0.456091308046187,6991.275390625,4948.52807617188,102.73734905391,-98.767578125,0.0110131869055487,NaN,0.0923441575785724,2.8269418729347,2981.091028249,0.00508452067151666,0.00508452067151666,0.00508452067151666,1015.49986896515,6856.09908094727,7871.59894991242,,,43.6299998760223,2042.74731445312,10882.7636139019,12052.0797574543
2018-07-19T09:07:29Z,1531991249,4A306,40.7064878,43.5653306,6885.48,-12.6,-47.9,210,522929.06,-145578.52,204.6,Weapon+Missile,Red,Allies,R-73,,xu,,145.582826733959,103.239166259766,0.465257937034785,6885.48046875,4848.13037109375,100.008969324319,-105.794921875,0.0131063384761436,NaN,0.199987938897973,2.63078545671769,3274.6076490949,0.00476461555808783,0.00476461555808783,0.00476461555808783,1059.71797199249,6752.34970388672,7812.06767587921,,,44.6299998760223,2037.35009765625,10982.4469699397,12197.5134808926
2018-07-19T09:07:30Z,1531991250,4A306,40.7058819,43.5645661,6771.59,-12.5,-50.3,210,522888.06,-145668.03,204.6,Weapon+Missile,Red,Allies,R-73,,xu,,150.552354241964,107.541389465332,0.48041101583149,6771.5859375,4720.35815429688,98.458352206101,-113.89453125,0.0252221468553468,NaN,0.199987938897973,2.44618379958564,3672.84285201497,0.00227158959023654,0.00227158959023654,0.00227158959023654,1133.30056838989,6640.65732339844,7773.95789178833,,,45.6299998760223,2051.22778320312,11080.5888322728,12347.9276570714
2018-07-19T09:07:31Z,1531991251,4A306,40.7052885,43.5638172,6650.29,-12.5,-52.6,210,522847.88,-145755.72,204.6,Weapon+Missile,Red,Allies,R-73,,xu,,154.969814105341,111.532669067383,0.493712043397959,6650.294921875,4578.96923828125,96.4579328645395,-121.291015625,0.0141019516086056,NaN,0.0923270821056474,2.2577224452423,4097.85617176537,0.000924753316212445,0.000924753316212445,0.000924753316212445,1200.7821641922,6521.71146956055,7722.49363375275,,,46.6299998760223,2071.32568359375,11176.7216490164,12502.7581663912
2018-07-19T09:07:32Z,1531991252,4A306,40.7047071,43.5630834,6521.78,-12.3,-54.7,210,522808.5,-145841.62,204.6,Weapon+Missile,Red,Allies,R-73,,xu,,159.52247120599,115.721054077148,0.507353293340551,6521.77587890625,4418.03833007812,94.5001291748456,-128.51904296875,0.0372314157004268,NaN,0.199987938897973,2.10773575993705,4564.0466695777,0.000837375351693481,0.000837375351693481,0.000837375351693481,1272.3709409833,6395.6773422876,7668.04828327089,,,47.6299998760223,2103.73754882812,11270.9125752115,12662.1551760004
2018-07-19T09:07:33Z,1531991253,4A306,40.7041355,43.562362,6385.71,-12.1,-56.7,210,522769.78,-145926.08,204.6,Weapon+Missile,Red,Allies,R-73,,xu,,164.761855375416,120.532859802246,0.523078247167054,6385.7060546875,4241.94848632812,92.9057152376974,-136.06982421875,0.0256784072943806,NaN,0.199987938897973,1.92311916176619,5000,0.00354513549245894,0.00354513549245894,0.00354513549245894,1357.32344933748,6262.23842812012,7619.5618774576,,,48.6299998760223,2143.75756835938,11363.509081396,12826.7956032733
2018-07-19T09:07:34Z,1531991254,4A306,40.7035742,43.5616534,6242.32,-11.9,-58.4,210,522731.78,-146009.03,204.6,Weapon+Missile,Red,Allies,R-73,,xu,,169.953322748292,125.424522399902,0.538545218030615,6242.322265625,4056.44775390625,91.242648729997,-143.3837890625,0.00846003001492504,NaN,0.200042580411333,1.78848716860195,5000,0.000675967719871551,0.000675967719871551,0.000675967719871551,1444.20659565926,6121.62696461914,7565.8335602784,,,49.6299998760223,2185.87451171875,11454.4563312841,12996.6387598142
2018-07-19T09:07:35Z,1531991255,4A306,40.703024,43.560959,6092.08,-11.6,-60,210,522694.53,-146090.34,204.6,Weapon+Missile,Red,Allies,R-73,,xu,,174.850603863489,130.206146240234,0.552976088683473,6092.07763671875,3862.3671875,89.4387229126736,-150.24462890625,0,NaN,0.323057702457848,1.63848906407419,5000,0.00400926172733307,0.00400926172733307,0.00400926172733307,1528.63668357134,5974.28731561279,7502.92399918413,,,50.6299998760223,2229.71044921875,11543.6000256737,13171.3826345896
2018-07-19T09:07:36Z,1531991256,4A306,40.7024867,43.5602807,5935.71,-11.3,-61.6,210,522658.12,-146169.73,204.6,Weapon+Missile,Red,Allies,R-73,,xu,,179.105215725014,134.597686767578,0.565279102125647,5935.71142578125,3660.28784179688,87.3400616953819,-156.3662109375,0.0212979302460098,NaN,0.384592584237785,1.52694951360694,5000,0.00673133507370949,0.00673133507370949,0.00673133507370949,1603.93391499519,5820.94444536377,7424.87836035896,,,51.6299998760223,2275.42358398438,11630.6564664823,13350.3896583938
2018-07-19T09:07:37Z,1531991257,4A306,40.7019878,43.5596509,5781.15,-11,-63.1,210,522624.34,-146243.48,204.6,Weapon+Missile,Red,Allies,R-73,,xu,,174.555148531584,132.117721557617,0.549814990550793,5781.14990234375,3462.69580078125,81.1186498381383,-154.5615234375,0.00959685087556563,NaN,0.400030519309307,1.51158372240853,5000,0.00356752704828978,0.00356752704828978,0.00356752704828978,1523.47499394417,5669.37136898193,7192.8463629261,,,52.6299998760223,2318.4541015625,11711.4980308002,13524.8506404049
2018-07-19T09:07:38Z,1531991258,4A306,40.7015598,43.5591107,5639.56,-10.8,-64.7,210,522595.34,-146306.72,204.6,Weapon+Missile,Red,Allies,R-73,,xu,,157.761379215414,119.904174804688,0.496009427871204,5639.55517578125,3283.87890625,69.5671343497821,-141.5947265625,0.0270923838327635,NaN,0.199987938897973,1.55001271455655,5000,0.00406128168106079,0.00406128168106079,0.00406128168106079,1244.43263859749,5530.51437645752,6774.94701505501,,,53.6299998760223,2355.67626953125,11780.8427145314,13682.5413695153
2018-07-19T09:07:39Z,1531991259,4A306,40.7011964,43.5586519,5510.3,-10.6,-66.3,210,522570.75,-146360.42,204.6,Weapon+Missile,Red,Allies,R-73,,xu,,142.112030210011,108.452140808105,0.446064012913953,5510.2998046875,3125.78833007812,59.0667264526156,-129.25537109375,0.0361409155428341,NaN,0.200042580411333,1.61547580888289,4940.47028900785,0.00101112225092947,0.00101112225092947,0.00101112225092947,1009.79145652056,5403.75815796387,6413.54961448442,,,54.6299998760223,2384.51147460938,11839.7296653923,13824.6001198742
2018-07-19T09:07:40Z,1531991260,4A306,40.7008804,43.5582529,5388.71,-10.4,-67.9,210,522549.34,-146407.14,204.6,Weapon+Missile,Red,Allies,R-73,,xu,,132.003183688618,101.225517272949,0.413687996029124,5388.71044921875,2979.4873046875,51.389387431891,-121.58935546875,0.0162905336617566,NaN,0.199987938897973,1.66539179183269,4533.58071703946,0.00386720290407538,0.00386720290407538,0.00386720290407538,871.242025196552,5284.51973268311,6155.76175787966,,,55.6299998760223,2409.22314453125,11890.9419991774,13956.5514673655
2018-07-19T09:07:41Z,1531991261,4A306,40.7006052,43.5579055,5273.67,-10.3,-69.6,210,522530.72,-146447.8,204.6,Weapon+Missile,Red,Allies,R-73,,xu,,123.423944855055,95.106201171875,0.3862322847125,5273.6728515625,2851.79125976562,44.7193614563368,-115.03759765625,0.00762596485569898,NaN,0.0923014688962598,1.65006815570806,4363.9522809622,0.0033649830147624,0.0033649830147624,0.0033649830147624,761.673508179188,5171.70638697754,5933.37989515673,,,56.6299998760223,2421.88159179688,11935.53393052,14079.9427745807
2018-07-19T09:07:42Z,1531991262,4A306,40.7003647,43.5576019,5163.93,-10.1,-71.2,210,522514.41,-146483.36,204.6,Weapon+Missile,Red,Allies,R-73,,xu,,116.506257785494,90.2148056030273,0.364074474157779,5163.9326171875,2732.57177734375,39.1252995196203,-109.740234375,0.0234110847367678,NaN,0.200042580411333,1.61159316650485,4183.30327138763,0.00337898661382496,0.00337898661382496,0.00337898661382496,678.685405158997,5064.08798003418,5742.77338519318,,,57.6299998760223,2431.36083984375,11974.5082755232,14196.4091019777
2018-07-19T09:07:43Z,1531991263,4A306,40.7001519,43.5573333,5057.63,-9.9,-72.8,210,522500,-146514.81,204.6,Weapon+Missile,Red,Allies,R-73,,xu,,111.791868590107,87.0011596679688,0.348870046869122,5057.62841796875,2618.07666015625,34.5953625696874,-106.30419921875,0.0236271774892039,NaN,0.153836350676197,1.57696464102142,4198.74118525229,0.00235865917056799,0.00235865917056799,0.00235865917056799,624.871094143391,4959.83917250732,5584.71026665072,,,58.6299998760223,2439.5517578125,12008.9855910844,14308.1730219265
2018-07-19T09:07:44Z,1531991264,4A306,40.6999643,43.5570964,4954.68,-9.8,-74.2,210,522487.28,-146542.53,204.6,Weapon+Missile,Red,Allies,R-73,,xu,,107.371024062604,83.9725646972656,0.334636345866686,4954.6796875,2507.49780273438,30.4974704381363,-102.94873046875,0.0123090952010525,NaN,0.169245257443746,1.48851742652945,4253.37912503562,0.00219204626046121,0.00219204626046121,0.00219204626046121,576.426840412617,4858.88095574219,5435.3077961548,,,59.6299998760223,2447.18188476562,12039.3865289357,14415.5234272335
2018-07-19T09:07:45Z,1531991265,4A306,40.6997976,43.556886,4853.98,-9.6,-75.6,210,522476,-146567.16,204.6,Weapon+Missile,Red,Allies,R-73,,xu,,104.278896344093,81.9605178833008,0.324585274637949,4853.97998046875,2400.1845703125,27.0861076303425,-100.69970703125,0.0555224814268585,NaN,0.169219644234358,1.37311711163386,4458.68263870387,0.0173240564763546,0.0173240564763546,0.0173240564763546,543.704411137104,4760.12827754639,5303.83268868349,,,60.6299998760223,2453.79541015625,12066.3909996029,14519.7865287212
