ISOTime,UnixTime,Id,Longitude,Latitude,Altitude,Roll,Pitch,Yaw,U,V,Heading,Type,Color,Coalition,Name,Group,Country,Pilot,TAS,CAS,M,ASL,AGL,GS,VS,AOA,AOS,RRT,TRT,TRD,G,LatG,LonG,Ek,Ep,Em,FFW,FFV,RelativeTime,Elev,GroundDistance,AirDistance
2018-07-19T08:34:16Z,1531989256,AE0E,40.6808866,43.5795432,4203.12,-0.7,2.7,141.1,520713.94,-144191.98,135.7,Weapon+Missile,Red,Allies,R-27ET,,xu,,388.634600373168,331.037719726562,1.19985613161567,4203.115234375,1988.92309570312,NaN,NaN,0.777407432614744,NaN,0.153836991006432,2.92886033047246,NaN,NaN,NaN,NaN,NaN,4121.84800131836,NaN,,,0.789999961853027,2214.19213867188,NaN,NaN
2018-07-19T08:34:17Z,1531989257,AE0E,40.6854544,43.5752455,4232.83,-1.6,4.8,143.7,521127.31,-144635.19,138.4,Weapon+Missile,Red,Allies,R-27ET,,xu,,606.787361101476,503.777557373047,1.87406571823023,4232.83056640625,2115.07153320312,606.059321052622,29.71533203125,0.860793808986,NaN,1.03081214953832,1.5362799789,5000,2.62698698043823,2.62698698043823,2.62698698043823,18409.5450796247,4150.98878740478,22560.5338670294,,,1.78999996185303,2117.75903320312,603.810727908289,604.940304086848
2018-07-19T08:34:18Z,1531989258,AE0E,40.691716,43.5690645,4295.59,-0.7,3.6,143.7,521697.06,-145274.84,138.3,Weapon+Missile,Red,Allies,R-27ET,,xu,,858.902520566341,696.120239257812,2.65479925091924,4295.5869140625,1984.4306640625,856.606782989758,62.75634765625,0.0891294339305375,NaN,1.06155429738402,1.10451842841922,5000,2.72816777229309,2.72816777229309,2.72816777229309,36885.6769917607,4212.5317410791,41098.2087328398,,,2.78999996185303,2311.15625,1457.30871494267,1461.31145315415
2018-07-19T08:34:19Z,1531989259,AE0E,40.6991622,43.5617074,4331.86,1.2,0,143.6,522374.75,-146036.27,138.2,Weapon+Missile,Red,Allies,R-27ET,,xu,,1019.97026732635,819.556396484375,3.15407346268702,4331.85986328125,2139.31494140625,1019.32508032755,36.27294921875,0.162973782677675,NaN,2.13846157936177,3.11933117224554,5000,5.78120708465576,5.78120708465576,5.78120708465576,52016.9673114896,4248.10335282471,56265.0706643143,,,3.78999996185303,2192.544921875,2472.93085707724,2478.26759115526
2018-07-19T08:34:20Z,1531989260,AE0E,40.7065721,43.5544097,4301.65,2.9,-3.6,143.6,523049.06,-146791.28,138.2,Weapon+Missile,Red,Allies,R-27ET,,xu,,1012.7479044127,815.148864746094,3.13055988434836,4301.654296875,1848.36279296875,1012.29735831444,-30.20556640625,0.0773326054820232,NaN,1.53846169073129,3.76189359813236,5000,5.49470996856689,5.49470996856689,5.49470996856689,51282.9158946157,4218.48181104492,55501.3977056606,,,4.78999996185303,2453.29150390625,3481.53173772919,3488.00298913682
2018-07-19T08:34:21Z,1531989261,AE0E,40.7137938,43.5473035,4209.31,4.2,-7.1,143.6,523706.31,-147526.39,138.2,Weapon+Missile,Red,Allies,R-27ET,,xu,,990.39913839864,801.360046386719,3.05795748082889,4209.31201171875,1920.42700195312,986.084862328233,-92.34228515625,0.0781036199320104,NaN,1.23076977947186,3.35772633206356,5000,4.40452098846436,4.40452098846436,4.40452098846436,49044.5226670384,4127.92496397217,53172.4476310106,,,5.78999996185303,2288.88500976562,4464.00172743389,4475.45568720395
2018-07-19T08:34:22Z,1531989262,AE0E,40.7209041,43.5403139,4065.6,4.7,-9.7,143.5,524353.5,-148249.34,138.2,Weapon+Missile,Red,Allies,R-27ET,,xu,,980.900854598861,799.478210449219,3.02323036710383,4065.59838867188,1650.13793945312,970.315866665858,-143.713623046875,0.0421107629825105,NaN,0.369231488794427,2.64274981370944,5000,4.18157577514648,4.18157577514648,4.18157577514648,48108.3243276388,3986.9900438269,52095.3143714657,,,6.78999996185303,2415.46044921875,5430.73316055078,5453.43122916244
2018-07-19T08:34:23Z,1531989263,AE0E,40.7278736,43.5334518,3873.59,7.2,-14.8,143.8,524988.06,-148959.12,138.4,Weapon+Missile,Red,Allies,R-27ET,,xu,,971.249511868368,799.232177734375,2.98638455095737,3873.59155273438,1471.2578125,952.081398441232,-192.0068359375,0.760322391049216,NaN,4.32307773515307,3.73205591674316,5000,6.57668781280518,6.57668781280518,6.57668781280518,47166.2807152271,3798.69566006226,50964.9763752894,,,7.78999996185303,2402.33374023438,6379.33866444523,6421.85234998288
2018-07-19T08:34:24Z,1531989264,AE0E,40.7345008,43.5268701,3616.19,6.6,-16.1,143.8,525592.19,-149640.31,138.5,Weapon+Missile,Red,Allies,R-27ET,,xu,,946.170512245525,788.916625976562,2.90007707719455,3616.19067382812,1068.00732421875,910.485269392784,-257.40087890625,0.0467567237085543,NaN,0.969231163981489,2.69138801767592,5000,0.401277035474777,0.401277035474777,0.401277035474777,44761.931912148,3546.27162714966,48308.2035392977,,,8.78999996185303,2548.18334960938,7286.46818325202,7365.30651636977
2018-07-19T08:34:25Z,1531989265,AE0E,40.741063,43.5203449,3355.41,5.5,-16.1,143.9,526190.56,-150315.67,138.5,Weapon+Missile,Red,Allies,R-27ET,,xu,,939.238126552793,793.075378417969,2.86966922831757,3355.41235351562,971.042724609375,902.309772763983,-260.7783203125,0.0472920294567415,NaN,1.03075750802496,0.121141689202587,5000,0.910093307495117,0.910093307495117,0.910093307495117,44108.41291852,3290.5354556604,47398.9483741804,,,9.78999996185303,2384.36962890625,8185.46609534646,8301.83532899014
2018-07-19T08:34:26Z,1531989266,AE0E,40.7474202,43.51402,3102.14,4.6,-16.2,143.9,526770.44,-150970.28,138.5,Weapon+Missile,Red,Allies,R-27ET,,xu,,910.447905666342,778.733581542969,2.77316334113713,3102.13989257812,831.417236328125,874.510405577253,-253.2724609375,0.0404046097005836,NaN,0.969231163981489,0.0484566469995765,5000,0.915433585643768,0.915433585643768,0.915433585643768,41445.7694466114,3042.16001775513,44487.9294643665,,,10.789999961853,2270.72265625,9056.72723087171,9209.58620206776
2018-07-19T08:34:27Z,1531989267,AE0E,40.7532124,43.5082543,2870.91,3.8,-16.2,143.9,527298.81,-151567.02,138.5,Weapon+Missile,Red,Allies,R-27ET,,xu,,829.902134188276,719.656982421875,2.52077951642037,2870.91381835938,793.3154296875,797.039556691913,-231.22607421875,0.0213434528755775,NaN,0.769243225083516,0,5000,0.928321778774261,0.928321778774261,0.928321778774261,34436.8776165128,2815.4046996814,37252.2823161942,,,11.789999961853,2077.59838867188,9850.84525937445,10037.0399170434
2018-07-19T08:34:28Z,1531989268,AE0E,40.7585623,43.5029261,2656.96,3.2,-16.2,143.9,527787,-152118.44,138.5,Weapon+Missile,Red,Allies,R-27ET,,xu,,766.922829321785,673.446105957031,2.3235061173931,2656.95703125,464.46044921875,736.473434269537,-213.956787109375,0.00390360894253859,NaN,0.692307974272492,0,5000,0.935984075069427,0.935984075069427,0.935984075069427,29408.5313067466,2605.58476705078,32014.1160737974,,,12.789999961853,2192.49658203125,10584.5950734401,10801.6529000623
2018-07-19T08:34:29Z,1531989269,AE0E,40.7634765,43.4980299,2460.11,2.7,-16.2,143.9,528235.5,-152625.19,138.5,Weapon+Missile,Red,Allies,R-27ET,,xu,,704.766590597745,626.375427246094,2.13017810225834,2460.11157226562,214.1845703125,676.718414482715,-196.845458984375,0.0263472759003183,NaN,0.569255286185543,0,5000,0.939254403114319,0.939254403114319,0.939254403114319,24834.7973611385,2412.54531501587,27247.3426761543,,,13.789999961853,2245.92700195312,11258.7897113517,11504.2561208213
2018-07-19T08:34:30Z,1531989270,AE0E,40.7680011,43.4935198,2278.58,2.2,-16.2,143.9,528648.56,-153091.94,138.5,Weapon+Missile,Red,Allies,R-27ET,,xu,,649.177192360279,583.5576171875,1.95792481929589,2278.57690429688,232.468994140625,623.278582502439,-181.53466796875,0.0451806980040201,NaN,0.553846379417994,0.0484566469995765,5000,0.940571904182434,0.940571904182434,0.940571904182434,21071.5513540387,2234.5206198523,23306.071973891,,,14.789999961853,2046.10791015625,11879.7274422861,12151.4075807943
2018-07-19T08:34:31Z,1531989271,AE0E,40.772219,43.4893138,2109.08,1.9,-16.3,143.9,529033.62,-153527.22,138.5,Weapon+Missile,Red,Allies,R-27ET,,xu,,605.370049818566,549.805236816406,1.82213965217574,2109.07763671875,366.383056640625,581.156515499751,-169.499267578125,0.0166636974010371,NaN,0.276923189708997,0.0484566469995765,5000,0.929993987083435,0.929993987083435,0.929993987083435,18323.6448608667,2068.29862061279,20391.9434814795,,,15.789999961853,1742.69458007812,12458.7412627589,12754.9120761835
2018-07-19T08:34:32Z,1531989272,AE0E,40.776132,43.4854099,1951.5,1.6,-16.3,143.9,529390.94,-153931.22,138.5,Weapon+Missile,Red,Allies,R-27ET,,xu,,561.888309719138,515.4052734375,1.68811941633984,1951.50146484375,104.068603515625,539.340544235504,-157.576171875,0.023947244490244,NaN,0.199987938897973,0.0692382079156944,5000,0.868827223777771,0.868827223777771,0.868827223777771,15785.9236299515,1913.769184021,17699.6928139725,,,16.789999961853,1847.43286132812,12996.0845532125,13315.0476964407
2018-07-19T08:34:33Z,1531989273,AE0E,40.7797651,43.4817804,1804.13,1.4,-16.4,144,529722.81,-154306.86,138.5,Weapon+Missile,Red,Allies,R-27ET,,xu,,522.460343218727,483.704864501953,1.56694572468017,1804.13146972656,-204.7685546875,501.245343893976,-147.369995117188,0.0401901217135675,NaN,0.199987938897973,0.0504352774299245,5000,0.973778605461121,0.973778605461121,0.973778605461121,13648.2405118115,1769.2485877594,15417.4890995709,,,17.789999961853,2008.90002441406,13495.4344272332,13835.8308167957
2018-07-19T08:34:34Z,1531989274,AE0E,40.7831697,43.4783799,1666.22,1.1,-16.3,143.9,530033.75,-154658.78,138.5,Weapon+Missile,Red,Allies,R-27ET,,xu,,489.438945002122,456.912902832031,1.46553858979675,1666.22082519531,-164.105224609375,469.607426484895,-137.91064453125,0.0348118312196365,NaN,0.261568924454808,0.0692382079156944,5000,1.00949203968048,1.00949203968048,1.00949203968048,11977.5240442395,1634.00444554016,13611.5284897797,,,18.789999961853,1830.32604980469,13963.3213318199,14323.7412913472
2018-07-19T08:34:35Z,1531989275,AE0E,40.7863476,43.4752075,1537.99,0.9,-16.3,143.9,530324.06,-154987.08,138.5,Weapon+Missile,Red,Allies,R-27ET,,xu,,456.622748715449,429.58544921875,1.36522950591771,1537.98608398438,-45.8023681640625,438.246717946656,-128.234741210938,0,NaN,0.199987938897973,0.0504352774299245,5000,0.994152963161469,0.994152963161469,0.994152963161469,10425.2167322226,1508.24912305054,11933.4658552731,,,19.789999961853,1583.78845214844,14399.9197135119,14778.8874978124
2018-07-19T08:34:36Z,1531989276,AE0E,40.7893211,43.4722404,1418.38,0.7,-16.2,143.9,530595.69,-155294.12,138.5,Weapon+Missile,Red,Allies,R-27ET,,xu,,427.04132991862,404.478729248047,1.27500806546095,1418.37683105469,-97.6041259765625,409.948684681712,-119.609252929688,0.0292008649428924,NaN,0.199987938897973,0.0484566469995765,5000,0.988642930984497,0.988642930984497,0.988642930984497,9118.21487293318,1390.95251502625,10509.1673879594,,,20.789999961853,1515.98095703125,14808.3271570774,15204.5403317681
2018-07-19T08:34:37Z,1531989277,AE0E,40.7921091,43.4694592,1306.52,0.6,-16.2,143.9,530850.38,-155581.89,138.5,Weapon+Missile,Red,Allies,R-27ET,,xu,,400.234223812435,381.248718261719,1.19341879043759,1306.51684570312,-171.117065429688,384.28476106644,-111.859985351562,0.0102418307039894,NaN,0.199987938897973,0.0484566469995765,5000,0.981872737407684,0.981872737407684,0.981872737407684,8009.37169553712,1281.25534249145,9290.62703802858,,,21.789999961853,1477.63391113281,15191.191965293,15603.4898889914
2018-07-19T08:34:38Z,1531989278,AE0E,40.7947153,43.46686,1202.16,0.5,-16.2,143.9,531088.5,-155850.83,138.5,Weapon+Missile,Red,Allies,R-27ET,,xu,,374.059861583874,357.930755615234,1.1140240611045,1202.16223144531,-134.17236328125,359.208706090554,-104.354614257812,0.0270320578563244,NaN,0,0,5000,0.973795890808105,0.973795890808105,0.973795890808105,6996.03900240734,1178.91842470032,8174.95742710766,,,22.789999961853,1336.33459472656,15549.0323223922,15976.3034841733
2018-07-19T08:34:39Z,1531989279,AE0E,40.7971497,43.4644327,1104.85,0.4,-16.2,143.9,531310.88,-156101.97,138.5,Weapon+Missile,Red,Allies,R-27ET,,xu,,349.273430553816,335.266815185547,1.03903555465436,1104.84997558594,-87.9561767578125,335.443369513232,-97.312255859375,0.0410476019221187,NaN,0,0,5000,0.971810638904572,0.971810638904572,0.971810638904572,6099.59646454156,1083.48770130798,7183.08416584954,,,23.789999961853,1192.80615234375,15883.2450597345,16324.4532141937
2018-07-19T08:34:40Z,1531989280,AE0E,40.7994337,43.4621556,1013.67,0.3,-16.1,143.9,531519.56,-156337.56,138.5,Weapon+Missile,Red,Allies,R-27ET,,xu,,327.670752815187,315.309478759766,0.973746109768688,1013.67303466797,-133.103210449219,314.729864638411,-91.1769409179688,0.0548857414435543,NaN,0.0307631720217374,0.0484566469995765,5000,0.970570802688599,0.970570802688599,0.970570802688599,5368.40611252356,994.073666542664,6362.47977906623,,,24.789999961853,1146.77624511719,16196.7904221181,16651.036413108
2018-07-19T08:34:41Z,1531989281,AE0E,40.8015844,43.4600117,927.91,0.3,-16.1,143.9,531716.06,-156559.38,138.5,Weapon+Missile,Red,Allies,R-27ET,,xu,,308.494728395321,297.571868896484,0.915855549841069,927.906127929688,-282.413208007812,296.332642745024,-85.7669067382812,0.0418540843650752,NaN,0,0.0484566469995765,5000,0.969350755214691,0.969350755214691,0.969350755214691,4758.44987238515,909.965062946167,5668.41493533132,,,25.789999961853,1210.3193359375,16492.0122006433,16958.5073777417
2018-07-19T08:34:42Z,1531989282,AE0E,40.8036128,43.4579898,847.09,0.2,-16.1,143.9,531901.44,-156768.55,138.5,Weapon+Missile,Red,Allies,R-27ET,,xu,,290.944168606497,281.329010009766,0.86294989505768,847.0869140625,-335.726318359375,279.493763644228,-80.8192138671875,0.0373417694844667,NaN,0,0,5000,0.967058658599854,0.967058658599854,0.967058658599854,4232.42546230629,830.708488579102,5063.13395088539,,,26.789999961853,1182.81323242188,16770.4384942863,17248.4634458857
2018-07-19T08:34:43Z,1531989283,AE0E,40.805548,43.456061,770.04,0.2,-16.1,143.9,532078.31,-156968.08,138.5,Weapon+Missile,Red,Allies,R-27ET,,xu,,277.549059767291,269.072021484375,0.822492414040992,770.04150390625,-408.726318359375,266.641117143554,-77.04541015625,0.0435172447171152,NaN,0,0.0312786278555019,5000,0.964092254638672,0.964092254638672,0.964092254638672,3851.67402888536,755.152751428223,4606.82678031359,,,27.789999961853,1178.76782226562,17036.0622606442,17525.0676225508
2018-07-19T08:34:44Z,1531989284,AE0E,40.807386,43.4542291,696.9,0.1,-16.1,143.9,532246.25,-157157.61,138.4,Weapon+Missile,Red,Allies,R-27ET,,xu,,263.580476353648,256.171905517578,0.780443868982315,696.900756835938,-464.026489257812,253.229339992056,-73.1407470703125,0.0382976119815811,NaN,0.199987938897973,0.0463937064216612,5000,0.963551640510559,0.963551640510559,0.963551640510559,3473.7333757408,683.426180702515,4157.15955644331,,,28.789999961853,1160.92724609375,17288.3411755308,17787.7629947888
2018-07-19T08:34:45Z,1531989285,AE0E,40.8091413,43.4524796,627.08,0.1,-16.1,143.9,532406.62,-157338.59,138.4,Weapon+Missile,Red,Allies,R-27ET,,xu,,251.694467500718,245.240112304688,0.744655645088889,627.082275390625,-505.684692382812,241.817047825708,-69.8184814453125,0.0334656324322614,NaN,0,0.0197823405926261,5000,0.964964389801025,0.964964389801025,0.964964389801025,3167.5052485235,614.957639595947,3782.46288811945,,,29.789999961853,1132.76696777344,17529.275445929,18038.6334665287
2018-07-19T08:34:46Z,1531989286,AE0E,40.8108293,43.4507971,559.97,0.1,-16.1,143.9,532560.94,-157512.64,138.4,Weapon+Missile,Red,Allies,R-27ET,,xu,,242.09365594009,236.488906860352,0.715702510646818,559.965393066406,-573.225891113281,232.604089288034,-67.1168823242188,0.0369969675544104,NaN,0,0,5000,0.961518704891205,0.961518704891205,0.961518704891205,2930.46691232193,549.138462191467,3479.6053745134,,,30.789999961853,1133.19128417969,17760.9868963957,18279.8903110376
2018-07-19T08:34:47Z,1531989287,AE0E,40.8124479,43.4491839,495.62,0.1,-16.1,143.9,532708.88,-157679.53,138.4,Weapon+Missile,Red,Allies,R-27ET,,xu,,232.116385428895,227.307037353516,0.685703668378727,495.622314453125,-649.418701171875,223.020143976145,-64.3430786132812,0.0378698691781339,NaN,0,0,5000,0.961114704608917,0.961114704608917,0.961114704608917,2693.90081922878,486.039457003174,3179.94027623195,,,31.789999961853,1145.041015625,17983.1539088862,18511.2047774384
2018-07-19T08:34:48Z,1531989288,AE0E,40.8140068,43.44763,433.67,0.1,-16.1,143.9,532851.31,-157840.27,138.4,Weapon+Missile,Red,Allies,R-27ET,,xu,,223.523249550335,219.433227539062,0.659852959802477,433.665374755859,-660.414825439453,214.764942932711,-61.9569396972656,0.0205169075185984,NaN,0,0,5000,0.964396595954895,0.964396595954895,0.964396595954895,2498.13215447706,425.280454734955,2923.41260921202,,,32.789999961853,1094.08020019531,18197.1508352049,18734.0051798815
2018-07-19T08:34:49Z,1531989289,AE0E,40.8155003,43.4461415,374.33,0,-16.1,143.9,532987.88,-157994.25,138.4,Weapon+Missile,Red,Allies,R-27ET,,xu,,214.199589314216,210.783203125,0.63190274565593,374.327697753906,-638.065490722656,205.816676074585,-59.3376770019531,0.0352615418670609,NaN,0.199987938897973,0,5000,0.959695100784302,0.959695100784302,0.959695100784302,2294.07320311894,367.090071717834,2661.16327483677,,,33.789999961853,1012.39318847656,18402.152385204,18947.4341363504
2018-07-19T08:34:50Z,1531989290,AE0E,40.8169527,43.4446937,316.62,0,-16.1,143.9,533120.62,-158144.02,138.4,Weapon+Missile,Red,Allies,R-27ET,,xu,,208.284622272621,205.457244873047,0.614050911847483,316.619995117188,-616.263061523438,200.13071961006,-57.7077026367188,0.029471699219353,NaN,0,0,5000,0.96218878030777,0.96218878030777,0.96218878030777,2169.12419376243,310.498147511597,2479.62234127403,,,34.789999961853,932.883056640625,18601.5390269874,19155.0142863399
2018-07-19T08:34:51Z,1531989291,AE0E,40.8183521,43.4432988,261.03,0,-16.1,143.9,533248.56,-158288.31,138.4,Weapon+Missile,Red,Allies,R-27ET,,xu,,200.698591320535,198.435562133789,0.591313574377489,261.029235839844,-617.635559082031,192.846031955588,-55.5907592773438,0.0384715251100896,NaN,0,0,5000,0.960733115673065,0.960733115673065,0.960733115673065,2013.99622790236,255.98223556488,2269.97846346724,,,35.789999961853,878.664794921875,18793.647988309,19355.0131065049
2018-07-19T08:34:52Z,1531989292,AE0E,40.8197042,43.441951,207.32,0,-16.1,143.9,533372.19,-158427.72,138.4,Weapon+Missile,Red,Allies,R-27ET,,xu,,193.912160605987,192.164276123047,0.570971604036706,207.31999206543,-664.895462036133,186.325637430984,-53.7092437744141,0.0419128404328255,NaN,0,0,5000,0.961356639862061,0.961356639862061,0.961356639862061,1880.0963015441,203.311460018845,2083.40776156294,,,36.789999961853,872.215454101562,18979.2607866796,19548.2469639532
2018-07-19T08:34:53Z,1531989293,AE0E,40.8210112,43.440648,155.41,0,-16.1,143.9,533491.69,-158562.5,138.4,Weapon+Missile,Red,Allies,R-27ET,,xu,,187.460295187036,186.18635559082,0.551650262915062,155.405380249023,-722.744644165039,180.128385746285,-51.9146118164062,0.0320913542325392,NaN,0,0,5000,0.959462940692902,0.959462940692902,0.959462940692902,1757.06811358053,152.400617221909,1909.46873080244,,,37.789999961853,878.150024414062,19158.6980783511,19735.0481943481
2018-07-19T08:34:54Z,1531989294,AE0E,40.8222798,43.4393834,105.02,0,-16.1,143.9,533607.62,-158693.3,138.4,Weapon+Missile,Red,Allies,R-27ET,,xu,,181.901108564888,181.061996459961,0.534986400419895,105.019996643066,-790.803550720215,174.783656032295,-50.385383605957,0.0356131870339838,NaN,0,0,5000,0.962493300437927,0.962493300437927,0.962493300437927,1654.40066485675,102.989435007973,1757.39009986473,,,38.789999961853,895.823547363281,19332.857746937,19916.3532288152
2018-07-19T08:34:55Z,1531989295,AE0E,40.8235107,43.4381562,56.13,0,-16.1,143.9,533720.19,-158820.25,138.4,Weapon+Missile,Red,Allies,R-27ET,,xu,,176.572348748684,176.13606262207,0.519027715948614,56.1284637451172,-852.926040649414,169.668536722386,-48.8915328979492,0.0359933753487513,NaN,0,0,5000,0.959817588329315,0.959817588329315,0.959817588329315,1558.88971713134,55.0432198986053,1613.93293702995,,,39.789999961853,909.054504394531,19501.862962221,20092.2903381646
2018-07-19T08:34:56Z,1531989296,AE0E,40.824709,43.4369616,8.53,0,-16.1,143.9,533829.75,-158943.81,138.4,Weapon+Missile,Red,Allies,R-27ET,,xu,,171.862970008612,171.800109863281,0.504913793723328,8.53384590148926,-916.728544235229,165.141251092814,-47.5946178436279,0.0318782499312164,NaN,0,0,5000,0.960773289203644,0.960773289203644,0.960773289203644,1476.84402300905,8.36884399098396,1485.21286700003,,,40.789999961853,925.262390136719,19666.3808426222,20263.5552061886
2018-07-19T08:34:57Z,1531989297,AE0E,40.8258695,43.4358046,-37.55,0,-16.1,143.9,533935.81,-159063.5,138.4,Weapon+Missile,Red,Allies,R-27ET,,xu,,166.428443376156,166.710296630859,0.488694165190697,-37.5538444519043,-982.457042694092,159.919828546994,-46.0876903533936,0.0423327246841691,NaN,0,0,5000,0.960839033126831,0.960839033126831,0.960839033126831,1384.92133823051,-36.8277408694267,1348.09359736109,,,41.789999961853,944.903198242188,19825.7197245627,20429.4251521777
2018-07-19T08:34:58Z,1531989298,AE0E,40.8269981,43.4346791,-82.39,0,-16.1,143.9,534039.06,-159179.89,138.4,Weapon+Missile,Red,Allies,R-27ET,,xu,,161.918773749733,162.520034790039,0.475212469260107,-82.3907623291016,-1048.97132873535,155.587082008407,-44.8369178771973,0.0332642142585537,NaN,0,0,5000,0.960772156715393,0.960772156715393,0.960772156715393,1310.88446463086,-80.7977369394684,1230.08672769139,,,42.789999961853,966.58056640625,19980.7038833834,20590.763266026
2018-07-19T08:34:59Z,1531989299,AE0E,40.8280975,43.433583,-126.06,0,-16.1,143.9,534139.56,-159293.3,138.4,Weapon+Missile,Red,Allies,R-27ET,,xu,,157.695786624647,158.593765258789,0.462591512688237,-126.056922912598,-1107.59806060791,151.529625945102,-43.6661605834961,0.0941907482202288,NaN,0,0.472923311987888,5000,0.693314969539642,0.693314969539642,0.693314969539642,1243.39805595831,-123.619612308083,1119.77844365023,,,43.789999961853,981.541137695312,20131.6525144934,20747.8984885378
2018-07-19T08:35:00Z,1531989300,AE0E,40.8291615,43.4325226,-171.04,1.4,-18.7,143.8,534236.88,-159402.97,138.4,Weapon+Missile,Red,Allies,R-27ET,,xu,,153.365066179542,154.553985595703,0.449660536012591,-171.036926269531,-1158.35083007812,146.620744856468,-44.9800033569336,0.0270670247511261,NaN,1.70769243402305,2.12688312805812,2713.6923216063,0.0735694989562035,0.0735694989562035,0.0735694989562035,1176.04217621277,-167.72992730011,1008.31224891266,,,44.789999961853,987.313903808594,20277.7108860946,20900.7227501389
2018-07-19T08:35:01Z,1531989301,AE0E,40.8301869,43.4315029,-223.21,2.8,-22,143.8,534330.62,-159508.42,138.3,Weapon+Missile,Red,Allies,R-27ET,,xu,,150.437802474919,151.963226318359,0.440819987444115,-223.210754394531,-1233.68695068359,141.100758581468,-52.173828125,0.0632378482492443,NaN,1.53846126384447,3.2926745431913,2639.90427328419,0.0691357627511024,0.0691357627511024,0.0691357627511024,1131.57662067413,-218.894974458313,912.68164621582,,,45.789999961853,1010.47619628906,20418.2696367238,21050.6482300488
2018-07-19T08:35:02Z,1531989302,AE0E,40.8311702,43.430529,-282.05,4,-25.2,143.6,534420.5,-159609.09,138.2,Weapon+Missile,Red,Allies,R-27ET,,xu,,147.220735440799,149.11198425293,0.431109080883495,-282.046142578125,-1318.23510742188,134.953110527381,-58.8353881835938,0.0150168272925936,NaN,1.15384605460506,3.22982527688296,2652.24063387368,0.084214486181736,0.084214486181736,0.084214486181736,1083.69724718649,-276.592780411377,807.104466775113,,,46.789999961853,1036.18896484375,20552.7023180497,21197.3871721124
2018-07-19T08:35:03Z,1531989303,AE0E,40.8321222,43.4295916,-347.61,5,-28.3,143.4,534507.44,-159705.97,138,Weapon+Missile,Red,Allies,R-27ET,,xu,,145.743308079117,148.054458618164,0.426469955222512,-347.60693359375,-1407.47033691406,130.164874414144,-65.560791015625,0.0638627617421572,NaN,0.815384568021537,3.10881716323537,2713.66070099399,0.0989185646176338,0.0989185646176338,0.0989185646176338,1062.05559249222,-340.885953532715,721.169638959508,,,47.789999961853,1059.86340332031,20682.3643102648,21342.6758154116
2018-07-19T08:35:04Z,1531989304,AE0E,40.8330404,43.4286942,-419.16,5.8,-31.3,143.2,534591.19,-159798.64,137.8,Weapon+Missile,Red,Allies,R-27ET,,xu,,143.950540203058,146.707992553711,0.420887653904665,-419.158447265625,-1494.34814453125,124.908522191305,-71.551513671875,0.0266589418715465,NaN,0.769230418478822,2.98479650927698,2808.84950315472,0.124217607080936,0.124217607080936,0.124217607080936,1036.08790123761,-411.054018687744,625.033882549863,,,48.789999961853,1075.18969726562,20806.820167349,21486.2272606937
2018-07-19T08:35:05Z,1531989305,AE0E,40.8339293,43.4278338,-496.44,6.4,-34.2,142.9,534672.25,-159887.44,137.5,Weapon+Missile,Red,Allies,R-27ET,,xu,,142.928138189801,146.175399780273,0.417538505609689,-496.440002441406,-1583.29534912109,120.23316479248,-77.2815551757812,0.130756964781035,NaN,0.569230526749801,2.5352067776803,3935.3910496934,0.305604308843613,0.305604308843613,0.305604308843613,1021.42263432015,-486.841334994202,534.581299325946,,,49.789999961853,1086.85534667969,20926.5630306883,21628.7359757101
2018-07-19T08:35:06Z,1531989306,AE0E,40.834806,43.4269939,-578.3,5.9,-35,142.7,534752.06,-159974.05,137.2,Weapon+Missile,Red,Allies,R-27ET,,xu,,143.429064278012,147.226257324219,0.418620430334141,-578.297668457031,-1679.22637939453,117.776139324316,-81.857666015625,0,NaN,0.907704819938015,1.18739626397328,5000,0.744449019432068,0.744449019432068,0.744449019432068,1028.59482398331,-567.116283037415,461.478540945897,,,50.789999961853,1100.9287109375,21043.8918022984,21771.7898068573
2018-07-19T08:35:07Z,1531989307,AE0E,40.8356794,43.4261644,-660.31,5.1,-35.2,142.4,534831.5,-160059.52,137,Weapon+Missile,Red,Allies,R-27ET,,xu,,142.620528193562,146.937423706055,0.415881638491444,-660.30615234375,-1771.3876953125,116.684290428543,-82.0084838867188,0.0239633778281163,NaN,0.646135895483206,0.26906991290651,5000,0.770362138748169,0.770362138748169,0.770362138748169,1017.03075311054,-647.539132888184,369.491620222352,,,51.789999961853,1111.08154296875,21160.130259882,21914.0365879526
2018-07-19T08:35:08Z,1531989308,AE0E,40.8365559,43.4253381,-742.82,4.4,-35.3,142.2,534911.19,-160144.61,136.8,Weapon+Missile,Red,Allies,R-27ET,,xu,,142.826217478014,147.692260742188,0.416100643437939,-742.818481445312,-1858.89794921875,116.580632805421,-82.5123291015625,0.0654533391905955,NaN,0.753834318315967,0.254878487358516,5000,0.777729630470276,0.777729630470276,0.777729630470276,1019.96641995385,-728.456086106567,291.510333847285,,,52.789999961853,1116.07946777344,21276.2419735771,22056.4699014282
2018-07-19T08:35:09Z,1531989309,AE0E,40.8374326,43.4245169,-825.48,3.8,-35.5,142.1,534990.81,-160229.14,136.6,Weapon+Missile,Red,Allies,R-27ET,,xu,,142.543313671193,147.945327758789,0.414896775060237,-825.47998046875,-1928.0556640625,116.127829789256,-82.6614990234375,0,NaN,0.569255286185543,0.178041353815746,5000,0.786591589450836,0.786591589450836,0.786591589450836,1015.92981361821,-809.519325046387,206.410488571826,,,53.789999961853,1102.57568359375,21391.9173835461,22198.6333071783
2018-07-19T08:35:10Z,1531989310,AE0E,40.8383092,43.4237005,-908.17,3.3,-35.6,141.9,535070.38,-160313.12,136.5,Weapon+Missile,Red,Allies,R-27ET,,xu,,142.199928226919,148.134857177734,0.413519450152369,-908.167663574219,-1984.70135498047,115.687365992967,-82.6876831054688,0.0438640146944792,NaN,0.47691112860697,0.139882407603993,5000,0.791156053543091,0.791156053543091,0.791156053543091,1011.04097938705,-890.608241799011,120.432737588041,,,54.789999961853,1076.53369140625,21507.1703653183,22340.4673385547
