ISOTime,UnixTime,Id,Longitude,Latitude,Altitude,Roll,Pitch,Yaw,U,V,Heading,Type,Color,Coalition,Name,Group,Country,Pilot,TAS,CAS,M,ASL,AGL,GS,VS,AOA,AOS,RRT,TRT,TRD,G,LatG,LonG,Ek,Ep,Em,FFW,FFV,RelativeTime,Elev,GroundDistance,AirDistance
2018-07-19T08:24:16Z,1531988656,B0E,40.9941924,43.7564046,11137.23,-0.2,-11.1,152.3,544115.12,-122139.73,146.7,Weapon+Missile,Red,Allies,R-27ER,,xu,,346.469202794655,209.509307861328,1.17368866145619,11137.23046875,9231.53125,NaN,NaN,7.11732239512716,NaN,0.769230578561381,3.77361844397043,NaN,NaN,NaN,NaN,NaN,10921.8921176367,NaN,,,0.990000009536743,1905.69921875,NaN,NaN
2018-07-19T08:24:17Z,1531988657,B0E,40.9970172,43.7524907,10986.99,0.1,-12.1,152.9,544384.88,-122552.49,147.3,Weapon+Missile,Red,Allies,R-27ER,,xu,,515.472661578279,319.839233398438,1.74554132305208,10986.9921875,9320.84582519531,493.09281446969,-150.23828125,2.42746945094479,NaN,0.661514386564607,1.53111048619365,5000,4.01488733291626,4.01488733291626,4.01488733291626,13285.6032417297,10774.5586935547,24060.1619352844,,,1.99000000953674,1666.14636230469,491.341487927603,514.612612246338
2018-07-19T08:24:18Z,1531988658,B0E,41.0011107,43.7464668,10808.82,0.9,-14.3,155,544779.62,-123189.75,149.4,Weapon+Missile,Red,Allies,R-27ER,,xu,,770.500257706769,458.839324951172,2.60221088147907,10808.8193359375,9192.35437011719,749.616623409784,-178.1728515625,0.185523981310712,NaN,0.769230845365645,3.1138424749172,5000,5.8376202583313,5.8376202583313,5.8376202583313,29683.5323563099,10599.8308140771,40283.363170387,,,2.99000000953674,1616.46496582031,1238.35923504321,1283.82627969501
2018-07-19T08:24:19Z,1531988659,B0E,41.0059766,43.738162,10528.62,1.1,-16.4,159.4,545261.31,-124074.37,153.8,Weapon+Missile,Red,Allies,R-27ER,,xu,,1045.5043194402,609.044677734375,3.51634786052243,10528.625,8607.48364257812,1007.25886249596,-280.1943359375,0.00339051746670408,NaN,0.0615468346109849,4.35685216682513,5000,8.58167266845703,8.58167266845703,8.58167266845703,54653.9640984058,10325.054035625,64979.0181340308,,,3.99000000953674,1921.14135742188,2242.25782536697,2327.71114130813
2018-07-19T08:24:20Z,1531988660,B0E,41.0102805,43.7288459,10194.12,0.9,-17.2,162.9,545708.69,-125075.73,157.3,Weapon+Missile,Red,Allies,R-27ER,,xu,,1146.62776807706,674.756225585938,3.83755497217347,10194.125,8350.26354980469,1096.75201778952,-334.5,0.0802765508723534,NaN,0.292332096476546,3.36373689853317,5000,4.16313219070435,4.16313219070435,4.16313219070435,65737.7619262695,9997.021593125,75734.7835193945,,,4.99000000953674,1843.86145019531,3335.57967140909,3472.75690365417
2018-07-19T08:24:21Z,1531988661,B0E,41.0141886,43.7192357,9850.73,0.5,-16.9,164.3,546127.5,-126112.84,158.7,Weapon+Missile,Red,Allies,R-27ER,,xu,,1170.01672139445,700.621643066406,3.89632525570588,9850.7255859375,8010.248046875,1118.48825240329,-343.3994140625,0.0704519921494742,NaN,0.399975877795947,1.49442383261422,5000,3.30204129219055,3.30204129219055,3.30204129219055,68446.9564171314,9660.2618067334,78107.2182238648,,,5.99000000953674,1840.4775390625,4450.61825422226,4641.1509621449
2018-07-19T08:24:22Z,1531988662,B0E,41.0179082,43.7093055,9510.71,0.1,-16,165.5,546534.69,-127187,159.9,Weapon+Missile,Red,Allies,R-27ER,,xu,,1198.0077656811,729.755004882812,3.97005268985956,9510.7119140625,7732.4990234375,1148.74423157216,-340.013671875,0.0353222468571785,NaN,0.369212705774209,1.35799432575951,5000,3.72879910469055,3.72879910469055,3.72879910469055,71761.1303316116,9326.8222992041,81087.9526308157,,,6.99000000953674,1778.212890625,5595.84261364668,5837.45044429855
2018-07-19T08:24:23Z,1531988663,B0E,41.0214573,43.6990856,9183.67,-0.2,-15.1,166.3,546931.25,-128294.66,160.6,Weapon+Missile,Red,Allies,R-27ER,,xu,,1221.12133617478,756.427734375,4.02781536927331,9183.6708984375,7307.50366210938,1176.51242737179,-327.041015625,0.0332644252284043,NaN,0.399975877795947,1.29506053586019,5000,3.51416373252869,3.51416373252869,3.51416373252869,74556.8658830643,9006.10462161621,83562.9705046805,,,7.99000000953674,1876.16723632812,6768.8190559322,7056.82127127681
2018-07-19T08:24:24Z,1531988664,B0E,41.024908,43.6885777,8870.94,-0.4,-14,167,547323.19,-129435.08,161.4,Weapon+Missile,Red,Allies,R-27ER,,xu,,1245.77571847707,784.157897949219,4.09101325944154,8870.9443359375,6853.06469726562,1205.88525069925,-312.7265625,0.0546248398389553,NaN,0.230751110919711,1.22588053796489,5000,3.76967430114746,3.76967430114746,3.76967430114746,77597.8570373535,8699.42462720215,86297.2816645557,,,8.99000000953674,2017.87963867188,7971.072916542,8300.72909841766
2018-07-19T08:24:25Z,1531988665,B0E,41.02829,43.6778113,8577.78,-0.7,-12.7,167.4,547712.38,-130604.77,161.8,Weapon+Missile,Red,Allies,R-27ER,,xu,,1267.11542407983,809.775329589844,4.14402967357818,8577.779296875,6342.40112304688,1232.73507202987,-293.1650390625,0.0449490099632297,NaN,0.169279408389596,1.24087717878301,5000,3.72947216033936,3.72947216033936,3.72947216033936,80279.0748970509,8411.92793416992,88691.0028312208,,,9.99000000953674,2235.37817382812,9200.12374780053,9565.89587776226
2018-07-19T08:24:26Z,1531988666,B0E,41.0316135,43.666911,8308.37,-0.8,-11.6,167.8,548098.38,-131789.78,162.2,Weapon+Missile,Red,Allies,R-27ER,,xu,,1275.08363851876,826.696044921875,4.15449687010639,8308.3720703125,5852.19555664062,1246.29772987603,-269.4072265625,0.0716805151005378,NaN,0.0615263440434749,1.17434366574768,5000,3.19439959526062,3.19439959526062,3.19439959526062,81291.9142609119,8147.72969633301,89439.6439572449,,,10.9900000095367,2456.17651367188,10442.7009714377,10838.950809251
2018-07-19T08:24:27Z,1531988667,B0E,41.0346625,43.6562713,8063.81,-0.7,-11.5,168.8,548459.5,-132947.97,163.2,Weapon+Missile,Red,Allies,R-27ER,,xu,,1237.58573705349,814.30029296875,4.01872863439649,8063.8134765625,5483.7685546875,1213.1815819494,-244.55859375,0.0573165828327108,NaN,0.199987938897973,0.760356775447359,5000,1.75847995281219,1.75847995281219,1.75847995281219,76580.9228279114,7907.89964299316,84488.8224709045,,,11.9900000095367,2580.044921875,11652.2853221823,12074.5321570786
2018-07-19T08:24:28Z,1531988668,B0E,41.0373667,43.6461033,7818.58,-0.4,-12.5,169.4,548787.81,-134056.47,163.7,Weapon+Missile,Red,Allies,R-27ER,,xu,,1181.8206500609,789.757263183594,3.82476205216287,7818.58154296875,5196.36987304688,1156.09746460074,-245.23193359375,0.0206529150273564,NaN,0.384592264072668,1.00223709265022,5000,1.31562316417694,1.31562316417694,1.31562316417694,69835.002445519,7667.40926883545,77502.4117143544,,,12.9900000095367,2622.21166992188,12804.9507735727,13254.3994736319
2018-07-19T08:24:29Z,1531988669,B0E,41.0398579,43.6364588,7565.33,-0.1,-13.6,169.4,549093.25,-135108.47,163.8,Weapon+Missile,Red,Allies,R-27ER,,xu,,1124.33542371844,763.517395019531,3.62619126523357,7565.33447265625,5096.8505859375,1095.44331957717,-253.2470703125,0.0340006243563477,NaN,0.400030519309307,1.1432658781373,5000,1.59612536430359,1.59612536430359,1.59612536430359,63206.5072514057,7419.05873062744,70625.5659820332,,,13.9900000095367,2468.48388671875,13897.1622104795,14376.8694932821
2018-07-19T08:24:30Z,1531988670,B0E,41.0422891,43.6272546,7298.73,0.2,-15.1,168.9,549389.12,-136112.02,163.3,Weapon+Missile,Red,Allies,R-27ER,,xu,,1079.68853963976,745.164794921875,3.46966331011421,7298.72802734375,4803.49975585938,1046.25443652453,-266.6064453125,0.0289066169451146,NaN,0.369230795103339,1.50934811611582,5000,2.32444357872009,2.32444357872009,2.32444357872009,58286.3671314716,7157.60712093506,65443.9742524067,,,14.9900000095367,2495.22827148438,14940.333409924,15454.7482702478
2018-07-19T08:24:31Z,1531988671,B0E,41.0447364,43.6185969,7019.11,0.6,-16.6,168,549680.5,-137054.7,162.3,Weapon+Missile,Red,Allies,R-27ER,,xu,,1025.54640604652,720.208618164062,3.2833244758929,7019.10986328125,4425.95556640625,986.69099179087,-279.6181640625,0.0851583539244238,NaN,0.369230848464192,1.72257328179039,5000,2.42299270629883,2.42299270629883,2.42299270629883,52587.2715477467,6883.39537407471,59470.6669218214,,,15.9900000095367,2593.154296875,15924.0716792196,16478.5162779288
2018-07-19T08:24:32Z,1531988672,B0E,41.0472844,43.6104495,6732.25,0.8,-17.6,166.4,549974.44,-137939.92,160.8,Weapon+Missile,Red,Allies,R-27ER,,xu,,975.859637134014,697.448913574219,3.11233164288576,6732.24658203125,4003.76879882812,932.744064177206,-286.86328125,0.0642541231037241,NaN,0.199999998450727,1.76504243755418,5000,3.05116653442383,3.05116653442383,3.05116653442383,47615.1015693665,6602.07859436767,54217.1801637341,,,16.9900000095367,2728.47778320312,16853.9973541927,17452.6403699113
2018-07-19T08:24:33Z,1531988673,B0E,41.0500697,43.60272,6446.4,0.9,-18,164.4,550283.12,-138776.8,158.8,Weapon+Missile,Red,Allies,R-27ER,,xu,,936.671527412143,680.811096191406,2.97607788056054,6446.404296875,4051.39721679688,891.990884640224,-285.84228515625,0.0429018514790701,NaN,0,1.9157227072253,5000,3.15850591659546,3.15850591659546,3.15850591659546,43867.6775132298,6321.76306979492,50189.4405830248,,,17.9900000095367,2395.00708007812,17743.2433285734,18387.5729564765
2018-07-19T08:24:34Z,1531988674,B0E,41.0530709,43.5954518,6169.71,1,-18.1,162.2,550604.19,-139560.73,156.6,Weapon+Missile,Red,Allies,R-27ER,,xu,,891.177006260762,658.72265625,2.82126381717799,6169.71435546875,4046.23876953125,847.13584082631,-276.68994140625,0.0743540996921672,NaN,0,2.1481403843025,5000,3.73148798942566,3.73148798942566,3.73148798942566,39709.8228243947,6050.42292840576,45760.2457528005,,,18.9900000095367,2123.4755859375,18587.7335672909,19277.0292175884
2018-07-19T08:24:35Z,1531988675,B0E,41.0563538,43.5886075,5899.98,1.3,-19,159.3,550943.5,-140295.33,153.7,Weapon+Missile,Red,Allies,R-27ER,,xu,,852.945640820994,640.609313964844,2.69075680389562,5899.982421875,3770.57958984375,809.173003872047,-269.73193359375,0.0453906364701492,NaN,0.399999996901453,2.82815487184261,5000,4.49239301681519,4.49239301681519,4.49239301681519,36375.8133097768,5785.90626174805,42161.7195715248,,,19.9900000095367,2129.40283203125,19394.3067730761,20128.2326746121
2018-07-19T08:24:36Z,1531988676,B0E,41.059905,43.5823196,5625.26,2.1,-21,156.1,551298.56,-140966,150.5,Weapon+Missile,Red,Allies,R-27ER,,xu,,807.0582066762,616.440795898438,2.53696235601668,5625.25927734375,3512.76708984375,758.861082690545,-274.72314453125,0.0383730758623902,NaN,0.969230523651255,3.53009618760917,5000,4.70129299163818,4.70129299163818,4.70129299163818,32567.1474481702,5516.49488921631,38083.6423373865,,,20.9900000095367,2112.4921875,20150.584472232,20933.5045235992
2018-07-19T08:24:37Z,1531988677,B0E,41.0636916,43.576544,5334.62,3,-23.3,153,551667.06,-141577.86,147.3,Weapon+Missile,Red,Allies,R-27ER,,xu,,771.126341041002,598.967224121094,2.41497803607769,5334.619140625,3204.15673828125,714.25775793854,-290.64013671875,0.0950658208215654,NaN,0.799999566916084,3.73189796861861,5000,4.44157743453979,4.44157743453979,4.44157743453979,29731.7916923642,5231.47427954102,34963.2659719052,,,21.9900000095367,2130.46240234375,20862.3408471289,21702.8807070753
2018-07-19T08:24:38Z,1531988678,B0E,41.067633,43.5713092,5033.26,3.5,-24.5,149.3,552042.31,-142128.41,143.6,Weapon+Missile,Red,Allies,R-27ER,,xu,,731.253446266498,578.093627929688,2.28132385882192,5033.26025390625,2888.22583007812,666.269032803015,-301.35888671875,0.423442503822192,NaN,0.0307793937210162,2.64837895680259,5000,3.39374136924744,3.39374136924744,3.39374136924744,26736.5801338315,4935.94216689697,31672.5223007285,,,22.9900000095367,2145.03442382812,21526.1429304104,22432.378438067
2018-07-19T08:24:39Z,1531988679,B0E,41.0716862,43.5663893,4756.81,1.8,-22.4,150.3,552423.19,-142643.06,144.6,Weapon+Missile,Red,Allies,R-27ER,,xu,,697.395670955051,560.156066894531,2.16809724117946,4756.8115234375,2616.93920898438,640.263087557812,-276.44873046875,0.0870384628093504,NaN,1.73847438906501,1.41489236286665,5000,4.18381881713867,4.18381881713867,4.18381881713867,24318.0360933423,4664.83857263184,28982.8746659741,,,23.9900000095367,2139.87231445312,22163.9782711971,23127.9950915029
2018-07-19T08:24:40Z,1531988680,B0E,41.075265,43.5615172,4509.77,0.6,-21.1,153.9,552765.25,-143156.12,148.2,Weapon+Missile,Red,Allies,R-27ER,,xu,,664.282558473252,541.338562011719,2.05874902682653,4509.76611328125,2359.55590820312,616.635940253648,-247.04541015625,0,NaN,1.3384438697557,3.67175046901383,5000,5.20833587646484,5.20833587646484,5.20833587646484,22063.5658745885,4422.56978548096,26486.1356600694,,,24.9900000095367,2150.21020507812,22778.3671332479,23790.6063849216
2018-07-19T08:24:41Z,1531988681,B0E,41.0782142,43.5567003,4293.1,-0.8,-19.2,158.6,553055.88,-143668.03,153,Weapon+Missile,Red,Allies,R-27ER,,xu,,627.260638089394,518.170654296875,1.93875249649798,4293.09814453125,2217.12524414062,588.651764130596,-216.66796875,0.0673599687081571,NaN,1.33849851126906,4.82126575679827,5000,6.26717615127563,6.26717615127563,6.26717615127563,19672.7954048157,4210.09109190674,23882.8864967224,,,25.9900000095367,2075.97290039062,23364.992684212,24416.3456789729
2018-07-19T08:24:42Z,1531988682,B0E,41.0804113,43.5519262,4105.03,-1.6,-17.7,164.7,553285.38,-144181.12,159.1,Weapon+Missile,Red,Allies,R-27ER,,xu,,592.709698559932,495.627593994141,1.82768163965676,4105.03076171875,2135.20812988281,562.081352020384,-188.0673828125,0.136686464168023,NaN,0.769243225083516,5.85151228129596,5000,6.67498397827148,6.67498397827148,6.67498397827148,17565.2393383503,4025.65999194092,21590.8993302912,,,26.9900000095367,1969.82263183594,23925.2223160986,25007.6493018981
2018-07-19T08:24:43Z,1531988683,B0E,41.0818164,43.5472887,3948.92,-2.3,-14.8,170.7,553449.31,-144685.31,165,Weapon+Missile,Red,Allies,R-27ER,,xu,,552.675095630882,467.554260253906,1.70093930977697,3948.92431640625,1937.28991699219,530.170292512227,-156.1064453125,0.0946188656325253,NaN,0.769243225083516,6.38321774874571,4765.33186892984,6.81352853775024,6.81352853775024,6.81352853775024,15272.4880665302,3872.57186474854,19145.0599312788,,,27.9900000095367,2011.63439941406,24453.774619266,25559.0925360516
2018-07-19T08:24:44Z,1531988684,B0E,41.0824985,43.5428365,3830.87,-2.7,-11.8,177,553552.81,-145174.59,171.4,Weapon+Missile,Red,Allies,R-27ER,,xu,,513.853328488251,439.079071044922,1.57915700009262,3830.86987304688,1738.43701171875,500.108379855369,-118.054443359375,0.08393165213757,NaN,0.199987938897973,6.82567099987679,4247.69878155062,6.58043050765991,6.58043050765991,6.58043050765991,13202.2621599227,3756.80000405151,16959.0621639742,,,28.9900000095367,2092.43286132812,24952.4349593402,26071.8326133509
2018-07-19T08:24:45Z,1531988685,B0E,41.0824851,43.5386221,3743.7,-2.5,-9,183.4,553597.56,-145642.98,177.7,Weapon+Missile,Red,Allies,R-27ER,,xu,,478.529973322032,412.251739501953,1.46902511187861,3743.69995117188,1698.02490234375,470.523474534364,-87.169921875,0.0775534972271292,NaN,0.169220498008005,6.80371450301614,4156.58561389498,5.94949436187744,5.94949436187744,5.94949436187744,11449.5467683792,3671.31551261597,15120.8622809952,,,29.9900000095367,2045.67504882812,25421.5827813652,26549.2839077424
2018-07-19T08:24:46Z,1531988686,B0E,41.0819083,43.5346796,3685.54,-2.2,-5.9,189,553593.81,-146085.59,183.4,Weapon+Missile,Red,Allies,R-27ER,,xu,,446.429373543756,386.971160888672,1.36950132913929,3685.54443359375,1659.29138183594,442.625260618834,-58.155517578125,0.301567768291875,NaN,0.476894480020868,6.04777221756757,4673.28754291462,4.77515745162964,4.77515745162964,4.77515745162964,9964.95927813351,3614.28443197021,13579.2437101037,,,30.9900000095367,2026.25305175781,25862.9209199565,26994.6919920425
2018-07-19T08:24:47Z,1531988687,B0E,41.0809303,43.5310121,3649.06,-1.7,-4.2,193.1,553554.62,-146500.83,187.4,Weapon+Missile,Red,Allies,R-27ER,,xu,,418.672219303514,364.349243164062,1.28377626858386,3649.05908203125,1601.734375,417.079424495971,-36.4853515625,0.141901104868544,NaN,0.553812655358967,4.56069446684911,5000,3.22690916061401,3.22690916061401,3.22690916061401,8764.32136082649,3578.50452468018,12342.8258855067,,,31.9900000095367,2047.32470703125,26278.7417078941,27412.3485516733
2018-07-19T08:24:48Z,1531988688,B0E,41.0797127,43.5275847,3623.7,-1.3,-3.1,195.9,553493.38,-146891.27,190.3,Weapon+Missile,Red,Allies,R-27ER,,xu,,396.025067616099,345.320648193359,1.21395564044988,3623.70458984375,1553.60205078125,395.212605955643,-25.3544921875,0.0731829882165566,NaN,0.399975877795947,3.11025150296107,5000,2.45825099945068,2.45825099945068,2.45825099945068,7841.7927090168,3553.64026159912,11395.4329706159,,,32.9900000095367,2070.1025390625,26672.7271188158,27807.3731100884
2018-07-19T08:24:49Z,1531988689,B0E,41.0783735,43.5243706,3607.71,-0.8,-1,197.5,553420,-147258.98,191.8,Weapon+Missile,Red,Allies,R-27ER,,xu,,375.30899901524,327.304779052734,1.15022804852989,3607.70849609375,1522.46069335938,374.96795826652,-15.99609375,0.441940816602391,NaN,0.692265925920415,2.03216483941274,5000,2.86363768577576,2.86363768577576,2.86363768577576,7042.84223709106,3537.95345232178,10580.7956894128,,,33.9900000095367,2085.24780273438,27046.4900861379,28181.6899057323
2018-07-19T08:24:50Z,1531988690,B0E,41.0772148,43.5213217,3609.07,-0.4,0.9,193,553359.44,-147606.92,187.4,Weapon+Missile,Red,Allies,R-27ER,,xu,,353.171593126535,307.297637939453,1.08240050976626,3609.07006835938,1501.82202148438,353.168968501622,1.361572265625,0.0657312596676313,NaN,0.169220498008005,3.77689995062571,4023.52360908274,3.41806960105896,3.41806960105896,3.41806960105896,6236.50870957673,3539.28869858765,9775.79740816437,,,34.9900000095367,2107.248046875,27398.5481019228,28533.9497274553
2018-07-19T08:24:51Z,1531988691,B0E,41.0764687,43.5184022,3616.38,-0.3,1.5,188.1,553330.81,-147937.2,182.5,Weapon+Missile,Red,Allies,R-27ER,,xu,,331.599855076563,287.41748046875,1.01637844861401,3616.37548828125,1488.9765625,331.519373078803,7.305419921875,0.0548788468325755,NaN,0,4.74117282415659,4512.82241538942,2.65649390220642,2.65649390220642,2.65649390220642,5497.92319433987,3546.45286821533,9044.3760625552,,,35.9900000095367,2127.39892578125,27729.081127403,28864.7506508268
2018-07-19T08:24:52Z,1531988692,B0E,41.0760446,43.5156194,3624.06,-0.2,1.1,185.5,553326.75,-148249.77,179.9,Weapon+Missile,Red,Allies,R-27ER,,xu,,312.683222947119,270.015930175781,0.958487795220345,3624.05517578125,1476.00390625,312.588899854905,7.6796875,0.0748710261971796,NaN,0.200042580411333,2.81732347247944,5000,1.23076236248016,1.23076236248016,1.23076236248016,4888.53989562988,3553.98406895752,8442.5239645874,,,36.9900000095367,2148.05126953125,28040.747065551,29176.6880385018
2018-07-19T08:24:53Z,1531988693,B0E,41.0757524,43.5129662,3629.43,-0.2,0.8,182.8,553331.88,-148546.86,177.1,Weapon+Missile,Red,Allies,R-27ER,,xu,,297.18657067291,255.847274780273,0.911044971438559,3629.4306640625,1454.82788085938,297.137950982473,5.37548828125,0.141723939456697,NaN,0,2.76423390616481,4219.53355560979,2.16443991661072,2.16443991661072,2.16443991661072,4415.99288941622,3559.25562217285,7975.24851158907,,,37.9900000095367,2174.60278320312,28337.033991005,29473.1921705491
2018-07-19T08:24:54Z,1531988694,B0E,41.0757147,43.5104362,3631.46,-0.1,0.1,178.5,553356.38,-148828.28,172.8,Weapon+Missile,Red,Allies,R-27ER,,xu,,282.493643507822,242.534103393555,0.866024438516802,3631.46459960938,1438.45849609375,282.486321312229,2.033935546875,0.092327019112707,NaN,0.184604271813842,4.27937818484333,3870.88254168894,2.13064932823181,2.13064932823181,2.13064932823181,3990.13293111622,3561.25023157593,7551.38316269215,,,38.9900000095367,2193.00610351562,28618.6878675254,29755.0137046472
2018-07-19T08:24:55Z,1531988695,B0E,41.0759175,43.5080412,3630.22,0,-0.6,174.5,553398.75,-149092.8,168.8,Weapon+Missile,Red,Allies,R-27ER,,xu,,267.891234469895,229.419036865234,0.821246109566557,3630.216796875,1378.3037109375,267.888328402229,-1.247802734375,0.11550297454873,NaN,0.199987938897973,4.10100096447927,3836.80966486989,1.97053825855255,1.97053825855255,1.97053825855255,3588.28567529023,3560.02655510742,7148.31223039765,,,39.9900000095367,2251.9130859375,28885.8095869129,30022.2903994332
2018-07-19T08:24:56Z,1531988696,B0E,41.0763274,43.5057646,3626.1,0.1,-1.2,170.6,553456.62,-149342.52,164.9,Weapon+Missile,Red,Allies,R-27ER,,xu,,256.370592651352,219.158920288086,0.785888851661755,3626.1044921875,1321.9296875,256.337608880481,-4.1123046875,0.0981236258630934,NaN,0.107692313015105,3.8951595534626,3852.95665836155,1.82524406909943,1.82524406909943,1.82524406909943,3286.29403882027,3555.99376183105,6842.28780065132,,,40.9900000095367,2304.1748046875,29141.3826566766,30278.0419138534
2018-07-19T08:24:57Z,1531988697,B0E,41.076915,43.5036129,3619.45,0.2,-1.9,166.9,553527.44,-149576.94,161.3,Weapon+Missile,Red,Allies,R-27ER,,xu,,244.974097714216,209.079925537109,0.750892301820725,3619.44995117188,1271.98291015625,244.883698180923,-6.654541015625,0.049244974547975,NaN,0,3.74625118427257,3769.35127798751,1.73033952713013,1.73033952713013,1.73033952713013,3000.61542754471,3549.46788636597,6550.08331391068,,,41.9900000095367,2347.46704101562,29385.5668875656,30522.4554481521
2018-07-19T08:24:58Z,1531988698,B0E,41.0776617,43.5015703,3610.4,0.4,-2.6,163.3,553610,-149798.02,157.7,Weapon+Missile,Red,Allies,R-27ER,,xu,,236.165361266894,201.355712890625,0.723811503986854,3610.39599609375,1226.60107421875,235.99174510937,-9.053955078125,0.292287398959275,NaN,0.199999998450727,2.9165046494172,5000,1.16339361667633,1.16339361667633,1.16339361667633,2788.70389311612,3540.58898950928,6329.29288262539,,,42.9900000095367,2383.794921875,29620.810939138,30758.0068974724
2018-07-19T08:24:59Z,1531988699,B0E,41.0784716,43.4996271,3599.95,0.3,-2.6,163.7,553696.62,-150007.53,158.1,Weapon+Missile,Red,Allies,R-27ER,,xu,,226.957901875293,193.315444946289,0.695502936270516,3599.94604492188,1190.0634765625,226.7171977247,-10.449951171875,0.0184605678330406,NaN,0.199987938897973,0.35263319529637,5000,1.15860784053802,1.15860784053802,1.15860784053802,2575.49446118176,3530.34108814331,6105.83554932507,,,43.9900000095367,2409.88256835938,29846.7940615865,30984.3591033064
2018-07-19T08:25:00Z,1531988700,B0E,41.0791981,43.4977325,3590.25,0.2,-2.4,165.2,553776,-150212.3,159.6,Weapon+Missile,Red,Allies,R-27ER,,xu,,219.825803836376,187.117874145508,0.673566885807356,3590.2490234375,1141.3505859375,219.611820735225,-9.697021484375,0.0493875867604634,NaN,0.199987938897973,1.49462030727457,5000,1.22272884845734,1.22272884845734,1.22272884845734,2416.16920161545,3520.83155856934,5937.00076018479,,,44.9900000095367,2448.8984375,30065.7028583059,31203.6058388677
2018-07-19T08:25:01Z,1531988701,B0E,41.0798286,43.4958954,3581.51,0.1,-2.3,166.8,553846.94,-150411.44,161.2,Weapon+Missile,Red,Allies,R-27ER,,xu,,211.578592001705,179.946578979492,0.648227249659261,3581.50927734375,1079.61206054688,211.398007160996,-8.73974609375,0.0282416169084792,NaN,0.199987938897973,1.54460395178584,5000,1.19065308570862,1.19065308570862,1.19065308570862,2238.27502967119,3512.26079546631,5750.5358251375,,,45.9900000095367,2501.89721679688,30276.4560735642,31414.6585777417
2018-07-19T08:25:02Z,1531988702,B0E,41.0803746,43.494104,3573.5,0.1,-2.2,168.3,553910.5,-150606.17,162.7,Weapon+Missile,Red,Allies,R-27ER,,xu,,205.001839453307,174.249862670898,0.628016041896018,3573.50390625,1017.7451171875,204.845473986834,-8.00537109375,0.0542580914949536,NaN,0,1.52515349402034,5000,1.15324664115906,1.15324664115906,1.15324664115906,2101.28770896196,3504.41020822266,5605.69791718462,,,46.9900000095367,2555.7587890625,30480.6871361977,31619.16094155
2018-07-19T08:25:03Z,1531988703,B0E,41.0808412,43.4923618,3566.04,0,-2.1,169.7,553967.19,-150796.08,164.1,Weapon+Missile,Red,Allies,R-27ER,,xu,,198.327091001416,168.473846435547,0.607512618529301,3566.03540039062,967.710205078125,198.186418417894,-7.468505859375,0.0444104994473875,NaN,0,1.43835587693465,5000,1.00303590297699,1.00303590297699,1.00303590297699,1966.6817512542,3497.08610592407,5463.76785717827,,,47.9900000095367,2598.3251953125,30678.2557206942,31816.9811362037
2018-07-19T08:25:04Z,1531988704,B0E,41.0812402,43.4906732,3557.82,0.3,-3.5,170.5,554017.75,-150980.52,164.9,Weapon+Missile,Red,Allies,R-27ER,,xu,,191.4190520934,162.511749267578,0.586293041274914,3557.81982421875,947.05859375,191.242667343091,-8.215576171875,0.0588089916697475,NaN,0.569230846914919,1.5612129441349,4304.14587208027,0.154984965920448,0.154984965920448,0.154984965920448,1832.06267521679,3489.02937791748,5321.09205313427,,,48.9900000095367,2610.76123046875,30868.9662304191,32007.9749277632
2018-07-19T08:25:05Z,1531988705,B0E,41.0816196,43.4890347,3541.58,0.8,-6.5,170.5,554066.31,-151159.58,164.8,Weapon+Missile,Red,Allies,R-27ER,,xu,,186.24044664703,158.127182006836,0.570318221800102,3541.57763671875,926.193359375,185.530847334075,-16.2421875,0.0574496578145896,NaN,0.461538400497681,2.97690507946468,3552.72982477436,0.0144176986068487,0.0144176986068487,0.0144176986068487,1734.27519836426,3473.10123311279,5207.37643147705,,,49.9900000095367,2615.38427734375,31053.9212242323,32193.7442624989
2018-07-19T08:25:06Z,1531988706,B0E,41.0819871,43.4874502,3516.34,1.2,-9.6,170.5,554113.19,-151332.75,164.8,Weapon+Missile,Red,Allies,R-27ER,,xu,,181.169947616011,153.906402587891,0.554619756158342,3516.34301757812,899.406982421875,179.403912766739,-25.234619140625,0.0678358815996395,NaN,0.369230635020781,3.05767889658925,3406.76397348026,0.0213514845818281,0.0213514845818281,0.0213514845818281,1641.1274959594,3448.35452533325,5089.48202129265,,,50.9900000095367,2616.93603515625,31232.7934936901,32374.4857628094
2018-07-19T08:25:07Z,1531988707,B0E,41.0823441,43.4859149,3482.39,1.6,-12.7,170.4,554158.75,-151500.5,164.8,Weapon+Missile,Red,Allies,R-27ER,,xu,,177.113007868396,150.629959106445,0.541975137824085,3482.38696289062,859.69287109375,173.827511937121,-33.9560546875,0.0716967749158297,NaN,0.384615422682823,3.06536285940551,3290.4177749659,0.0146000888198614,0.0146000888198614,0.0146000888198614,1568.45087780952,3415.05501096313,4983.50588877266,,,51.9900000095367,2622.69409179688,31406.1132550002,32551.193784586
2018-07-19T08:25:08Z,1531988708,B0E,41.0826927,43.4844211,3439.78,1.9,-15.7,170.4,554203.19,-151663.73,164.7,Weapon+Missile,Red,Allies,R-27ER,,xu,,174.458516107395,148.63117980957,0.533574512998224,3439.77685546875,812.926025390625,169.174917135758,-42.610107421875,0.0770343386071527,NaN,0.246153614384913,3.05423071827545,3249.04826054004,0.0223899278789759,0.0223899278789759,0.0223899278789759,1521.78869211972,3373.26876996826,4895.05746208798,,,52.9900000095367,2626.85083007812,31574.7695251141,32725.2381417
2018-07-19T08:25:09Z,1531988709,B0E,41.0830313,43.4829785,3389.15,2.1,-18.8,170.3,554246.25,-151821.36,164.7,Weapon+Missile,Red,Allies,R-27ER,,xu,,171.063258041699,146.038391113281,0.522867258035289,3389.15454101562,758.740478515625,163.401406148325,-50.622314453125,0,NaN,0.16923074329176,3.0889517714778,3203.00121668282,0.031799104064703,0.031799104064703,0.031799104064703,1463.13191259205,3323.62523796509,4786.75715055714,,,53.9900000095367,2630.4140625,31737.6719996043,32895.9081605546
2018-07-19T08:25:10Z,1531988710,B0E,41.0833631,43.4815753,3330.44,2.4,-21.9,170.2,554288.38,-151974.64,164.6,Weapon+Missile,Red,Allies,R-27ER,,xu,,169.461091209315,145.058639526367,0.517599744978714,3330.43994140625,693.704345703125,158.964326899347,-58.714599609375,0.0976176430334475,NaN,0.200000318615844,3.05421471001958,3187.19197945133,0.0216876715421677,0.0216876715421677,0.0216876715421677,1435.85307169259,3266.04588513916,4701.89895683175,,,54.9900000095367,2636.73559570312,31896.1552751599,33064.9963665517
2018-07-19T08:25:11Z,1531988711,B0E,41.0836872,43.480217,3264.1,2.5,-24.8,170.1,554329.31,-152123,164.5,Weapon+Missile,Red,Allies,R-27ER,,xu,,167.592350554541,143.893188476562,0.511478979961044,3264.10131835938,617.42431640625,153.90381105301,-66.338623046875,0.00762422242504159,NaN,0.0307691484372612,2.97892916333653,3232.21644934582,0.0444340370595455,0.0444340370595455,0.0444340370595455,1404.3597982198,3200.9899193689,4605.3497175887,,,55.9900000095367,2646.67700195312,32049.6070790514,33232.246543584
2018-07-19T08:25:12Z,1531988712,B0E,41.0840061,43.4788958,3190.12,2.7,-27.8,170,554369.5,-152267.28,164.4,Weapon+Missile,Red,Allies,R-27ER,,xu,,167.047270386427,143.935150146484,0.509357652795006,3190.12377929688,509.19677734375,149.77354325051,-73.9775390625,0,NaN,0.200000318615844,2.98001473652774,3271.01949200521,0.0294664315879345,0.0294664315879345,0.0294664315879345,1395.23952717781,3128.44273602417,4523.68226320198,,,56.9900000095367,2680.92700195312,32198.9244153744,33398.9526039505
2018-07-19T08:25:13Z,1531988713,B0E,41.0843207,43.4776092,3108.56,2.8,-30.6,169.9,554408.88,-152407.73,164.3,Weapon+Missile,Red,Allies,R-27ER,,xu,,167.120898252959,144.573196411133,0.509078660631113,3108.564453125,368.03125,145.867991510357,-81.559326171875,0.0535637219126883,NaN,0.153846169073129,2.88279104911742,3371.02963722022,0.0438526794314384,0.0438526794314384,0.0438526794314384,1396.4697316438,3048.46035942383,4444.93009106762,,,57.9900000095367,2740.533203125,32344.3844584454,33565.7802036952
2018-07-19T08:25:14Z,1531988714,B0E,41.0846287,43.4763682,3020.42,2.9,-33.4,169.7,554447.25,-152543.2,164.1,Weapon+Missile,Red,Allies,R-27ER,,xu,,166.114838226216,144.304153442383,0.505474812088036,3020.41845703125,194.760009765625,140.799228874176,-88.14599609375,0.0147235692834173,NaN,0,2.74912744871145,3479.4761393332,0.0549012646079063,0.0549012646079063,0.0549012646079063,1379.70697394609,2962.01866616455,4341.72564011065,,,58.9900000095367,2825.65844726562,32484.7528989248,33731.5871814476
2018-07-19T08:25:15Z,1531988715,B0E,41.0849329,43.4751627,2925.38,3,-36,169.5,554485,-152674.75,163.9,Weapon+Missile,Red,Allies,R-27ER,,xu,,166.621335694193,145.421005249023,0.506434800141542,2925.37622070312,26.36669921875,136.856285285936,-95.042236328125,0.0447365179916467,NaN,0,2.61123596120923,3893.68402508949,0.0884353145956993,0.0884353145956993,0.0884353145956993,1388.13347542584,2868.81407147583,4256.94754690167,,,59.9900000095367,2899.00952148438,32621.1832152855,33897.9110026039
2018-07-19T08:25:16Z,1531988716,B0E,41.0852329,43.4739917,2824.33,3,-38.5,169.4,554522,-152802.48,163.7,Weapon+Missile,Red,Allies,R-27ER,,xu,,167.01736864141,146.486480712891,0.5070212951529,2824.3330078125,-131.320068359375,132.985226836069,-101.043212890625,0.0562919624125848,NaN,0,2.5127343880939,3752.77686156849,0.0503700822591782,0.0503700822591782,0.0503700822591782,1394.74007139504,2769.72452910645,4164.46460050148,,,60.9900000095367,2955.65307617188,32753.7683727399,34064.6575324897
2018-07-19T08:25:17Z,1531988717,B0E,41.0855302,43.4728542,2716.74,3.1,-41.1,169.2,554558.38,-152926.52,163.5,Weapon+Missile,Red,Allies,R-27ER,,xu,,168.17391616928,148.284576416016,0.509872995719682,2716.7431640625,-264.97119140625,129.255141489855,-107.58984375,0.0548606006058214,NaN,0,2.46427675725359,3953.47926755585,0.0640205889940262,0.0640205889940262,0.0640205889940262,1414.1233039856,2664.21493498535,4078.33823897095,,,61.9900000095367,2981.71435546875,32882.6563742138,34232.592420149
2018-07-19T08:25:18Z,1531988718,B0E,41.0858241,43.4717544,2603.29,3.2,-43.4,168.9,554594.12,-153046.41,163.3,Weapon+Missile,Red,Allies,R-27ER,,xu,,168.887843420123,149.737655639648,0.511342117747159,2603.29150390625,-401.09716796875,125.107251839734,-113.45166015625,0.0195932334783927,NaN,0.199999891729021,2.38246731269612,4146.3526165101,0.0585513077676296,0.0585513077676296,0.0585513077676296,1426.15518275499,2552.95686267822,3979.11204543322,,,62.9900000095367,3004.388671875,33007.3623441951,34401.2216954596
2018-07-19T08:25:19Z,1531988719,B0E,41.0861158,43.4706879,2483.85,3.2,-45.7,168.7,554629.31,-153162.61,163,Weapon+Missile,Red,Allies,R-27ER,,xu,,170.313537751457,151.886688232422,0.514923527246107,2483.85375976562,-523.20068359375,121.41386418369,-119.437744140625,0.0315447439125941,NaN,0,2.31478312622906,4387.2211234128,0.0707404091954231,0.0707404091954231,0.0707404091954231,1450.33505707085,2435.82844732056,3886.16350439141,,,63.9900000095367,3007.05444335938,33128.404850612,34571.3050607559
2018-07-19T08:25:20Z,1531988720,B0E,41.0864047,43.4696578,2359.1,3.3,-47.9,168.4,554663.94,-153274.77,162.7,Weapon+Missile,Red,Allies,R-27ER,,xu,,171.290623033085,153.681106567383,0.517108727518737,2359.10375976562,-643.192138671875,117.379363770053,-124.75,0.0633122735646213,NaN,0,2.15857712679769,4610.63223467081,0.0514222383499146,0.0514222383499146,0.0514222383499146,1467.02387695313,2313.49048857056,3780.51436552368,,,64.9900000095367,3002.2958984375,33245.4202181091,34742.3768514562
2018-07-19T08:25:21Z,1531988721,B0E,41.086692,43.46866,2228.81,3.3,-49.9,168,554697.94,-153383.36,162.4,Weapon+Missile,Red,Allies,R-27ER,,xu,,172.985092843838,156.185272216797,0.521416848396955,2228.81469726562,-763.8134765625,113.791926510902,-130.2890625,0,NaN,0,2.04544443470653,4962.01919785292,0.0855162516236305,0.0855162516236305,0.0855162516236305,1496.19211730957,2185.72056509399,3681.91268240356,,,65.9900000095367,2992.62817382812,33358.8993693738,34915.1831658463
2018-07-19T08:25:22Z,1531988722,B0E,41.0869781,43.4676945,2093.34,3.4,-51.9,167.7,554731.62,-153488.39,162.1,Weapon+Missile,Red,Allies,R-27ER,,xu,,174.69741147351,158.764083862305,0.525734432027139,2093.34228515625,-875.904541015625,110.301455714839,-135.472412109375,0.0468576200812357,NaN,0,1.95863337068591,5000,0.0659945085644722,0.0659945085644722,0.0659945085644722,1525.95927877724,2052.86751207275,3578.82679085,,,66.9900000095367,2969.24682617188,33468.8306041426,35089.6705337164
2018-07-19T08:25:23Z,1531988723,B0E,41.087261,43.4667673,1953.92,3.4,-53.7,167.3,554764.56,-153589.17,161.7,Weapon+Missile,Red,Allies,R-27ER,,xu,,175.158027622891,160.233261108398,0.526254213783215,1953.919921875,-988.24267578125,106.02706851466,-139.42236328125,0.0470467526171662,NaN,0,1.85253513310963,5000,0.0859319791197777,0.0859319791197777,0.0859319791197777,1534.01673203707,1916.14088018555,3450.15761222261,,,67.9900000095367,2942.16259765625,33574.5498631304,35264.6626773748
2018-07-19T08:25:24Z,1531988724,B0E,41.0875435,43.4658695,1809.52,3.5,-55.4,166.9,554797.25,-153686.69,161.3,Weapon+Missile,Red,Allies,R-27ER,,xu,,177.280161009856,163.296646118164,0.53172642719882,1809.52294921875,-1107.1640625,102.848285233107,-144.39697265625,0.035882624087951,NaN,0,1.74625109304359,5000,0.0700757205486298,0.0700757205486298,0.0700757205486298,1571.41277438402,1774.53582299561,3345.94859737963,,,68.9900000095367,2916.68701171875,33677.0694734639,35441.7698730278
2018-07-19T08:25:25Z,1531988725,B0E,41.0878257,43.465001,1660.49,3.6,-57.1,166.5,554829.5,-153780.95,160.9,Weapon+Missile,Red,Allies,R-27ER,,xu,,179.2715149481,166.29948425293,0.536760912251275,1660.4853515625,-1227.20361328125,99.6296670507366,-149.03759765625,0.0350489177401324,NaN,0.199999891729021,1.65433403573156,5000,0.0814018025994301,0.0814018025994301,0.0814018025994301,1606.91380358934,1628.37986729004,3235.29367087938,,,69.9900000095367,2887.68896484375,33776.3952197671,35620.887648465
2018-07-19T08:25:26Z,1531988726,B0E,41.0881054,43.4641693,1508.43,3.6,-58.6,166.1,554861.12,-153871.16,160.4,Weapon+Missile,Red,Allies,R-27ER,,xu,,179.604615336999,167.786209106445,0.536804231191452,1508.42919921875,-1343.93408203125,95.5863190250866,-152.05615234375,0,NaN,0,1.60642207297292,5000,0.0905815958976746,0.0905815958976746,0.0905815958976746,1612.89089251757,1479.26372065186,3092.15461316942,,,70.9900000095367,2852.36328125,33871.6954263127,35800.3527307489
2018-07-19T08:25:27Z,1531988727,B0E,41.0883856,43.4633645,1351.91,3.7,-60.1,165.6,554892.56,-153958.36,159.9,Weapon+Missile,Red,Allies,R-27ER,,xu,,181.907921461506,171.186508178711,0.54269911873815,1351.91149902344,-1458.44201660156,92.6968252747397,-156.517700195312,0.0313608055515064,NaN,0,1.51187507266531,5000,0.0868997648358345,0.0868997648358345,0.0868997648358345,1654.52459452227,1325.77229018982,2980.29688471209,,,71.9900000095367,2810.353515625,33964.1103039231,35982.1276756252
2018-07-19T08:25:28Z,1531988728,B0E,41.0886666,43.4625865,1191.24,3.8,-61.5,165.1,554923.75,-154042.59,159.4,Weapon+Missile,Red,Allies,R-27ER,,xu,,184.071096572875,174.516052246094,0.548130774749678,1191.24389648438,-1580.93505859375,89.8225477699816,-160.667602539062,0.0121071117763014,NaN,0.199999891729021,1.41104792685929,5000,0.0960401371121407,0.0960401371121407,0.0960401371121407,1694.10842967704,1168.21119574585,2862.31962542289,,,72.9900000095367,2772.17895507812,34053.6427379271,36166.0660669545
2018-07-19T08:25:29Z,1531988729,B0E,41.0889491,43.4618335,1026.44,3.9,-62.8,164.5,554954.81,-154124.03,158.9,Weapon+Missile,Red,Allies,R-27ER,,xu,,186.431665403126,178.098983764648,0.554104464068157,1026.44152832031,-1713.03063964844,87.1604572756477,-164.802368164062,0.0550436320647453,NaN,0.199999891729021,1.3111702840696,5000,0.0934165120124817,0.0934165120124817,0.0934165120124817,1737.83829324916,1006.59528137024,2744.4335746194,,,73.9900000095367,2739.47216796875,34140.5158844058,36352.3706252447
2018-07-19T08:25:30Z,1531988730,B0E,41.0892341,43.4611028,857.2,4,-64,163.9,554985.81,-154202.95,158.2,Weapon+Missile,Red,Allies,R-27ER,,xu,,189.290263084067,182.233093261719,0.561506317877168,857.20458984375,-1869.66064453125,84.7918766953275,-169.236938476562,0.0213534443735915,NaN,0.169231597065406,1.23534408522506,5000,0.102379515767097,0.102379515767097,0.102379515767097,1791.54018492177,840.630539099121,2632.17072402089,,,74.9900000095367,2726.865234375,34225.0520465189,36541.5520586072
2018-07-19T08:25:31Z,1531988731,B0E,41.0895213,43.4603956,684.14,4.1,-65.2,163.2,555016.75,-154279.27,157.6,Weapon+Missile,Red,Allies,R-27ER,,xu,,191.657567108029,185.959701538086,0.567402186417057,684.138427734375,-2035.36645507812,82.3451672079182,-173.066162109375,0.0478071857389531,NaN,0.199999891729021,1.17421869463021,5000,0.104850322008133,0.104850322008133,0.104850322008133,1836.63115148842,670.910611234131,2507.54176272255,,,75.9900000095367,2719.5048828125,34307.1335270761,36733.1007317165
2018-07-19T08:25:32Z,1531988732,B0E,41.0898123,43.4597088,506.84,4.2,-66.2,162.6,555047.75,-154353.27,156.9,Weapon+Missile,Red,Allies,R-27ER,,xu,,194.607307961887,190.327407836914,0.57497015454652,506.839233398438,-2212.10070800781,80.2309167341368,-177.299194335938,0.0489736696892519,NaN,0.199999891729021,1.10420829514222,5000,0.110833324491978,0.110833324491978,0.110833324491978,1893.60021560863,497.039496820679,2390.63971242931,,,76.9900000095367,2718.93994140625,34387.1141523365,36927.6080561688
2018-07-19T08:25:33Z,1531988733,B0E,41.0901061,43.4590445,326.11,4.3,-67.2,161.8,555078.75,-154424.75,156.2,Weapon+Missile,Red,Allies,R-27ER,,xu,,196.805488497874,194.023406982422,0.580271381206158,326.114624023438,-2399.27404785156,77.9167239374232,-180.724609375,0.0286550881221347,NaN,0,1.0397127398005,5000,0.112224161624908,0.112224161624908,0.112224161624908,1936.62001514435,319.809197767944,2256.42921291229,,,77.9900000095367,2725.388671875,34464.7801524304,37124.3164184202
2018-07-19T08:25:34Z,1531988734,B0E,41.0904027,43.4584035,142.53,4.5,-68.1,161,555109.69,-154493.64,155.4,Weapon+Missile,Red,Allies,R-27ER,,xu,,198.508931509831,197.284515380859,0.584078759030892,142.531539916992,-2576.32124328613,75.5185216959431,-183.583084106445,0.0394802988379204,NaN,0.199999891729021,0.970641918210214,5000,0.125735834240913,0.125735834240913,0.125735834240913,1970.28979445874,139.775692592697,2110.06548705144,,,78.9900000095367,2718.85278320312,34540.0516289526,37322.7325474525
2018-07-19T08:25:35Z,1531988735,B0E,41.0907042,43.4577812,-44.87,4.6,-69,160.2,555140.88,-154560.39,154.6,Weapon+Missile,Red,Allies,R-27ER,,xu,,201.362097772984,201.756362915039,0.591223371999157,-44.8676910400391,-2758.74098205566,73.676472881443,-187.399230957031,0.0585412778973573,NaN,0.0615382968745224,0.925485936781673,5000,0.126081913709641,0.126081913709641,0.126081913709641,2027.33472097684,-44.0001742337799,1983.33454674306,,,79.9900000095367,2713.87329101562,34613.4854675696,37524.0061994491
2018-07-19T08:25:36Z,1531988736,B0E,41.0910077,43.4571844,-233.7,4.8,-69.8,159.3,555171.94,-154624.31,153.6,Weapon+Missile,Red,Allies,R-27ER,,xu,,201.763536756211,203.811233520508,0.591147617642572,-233.699996948242,-2936.95121765137,71.0695786519494,-188.832305908203,0.0294600558176864,NaN,0.16923074329176,0.880904384934501,5000,0.13426174223423,0.13426174223423,0.13426174223423,2035.42623821874,-229.181407507248,1806.24483071149,,,80.9900000095367,2703.25122070312,34684.3069122206,37725.6819236126
2018-07-19T08:25:37Z,1531988737,B0E,41.0913161,43.4566074,-425.33,5.1,-70.6,158.3,555203.19,-154685.98,152.6,Weapon+Missile,Red,Allies,R-27ER,,xu,,203.720483970854,207.478622436523,0.595604114131323,-425.329986572266,-3112.59902954102,69.1374187109674,-191.629989624023,0.0343044041532512,NaN,0.16923074329176,0.811947061878317,5000,0.132877066731453,0.132877066731453,0.132877066731453,2075.10177946595,-417.106231281891,1657.99554818406,,,81.9900000095367,2687.26904296875,34753.2015104815,37929.3189245949
2018-07-19T08:25:38Z,1531988738,B0E,41.0916307,43.456048,-620.17,5.3,-71.2,157.2,555234.69,-154745.64,151.6,Weapon+Missile,Red,Allies,R-27ER,,xu,,206.187166755982,211.725326538086,0.60150998589162,-620.16845703125,-3289.86767578125,67.4619756904769,-194.838470458984,0.0203395872101124,NaN,0.199999891729021,0.794404041160256,5000,0.158050328493118,0.158050328493118,0.158050328493118,2125.65738674295,-608.177499914551,1517.4798868284,,,82.9900000095367,2669.69921875,34820.4595660783,38135.4376625374
2018-07-19T08:25:39Z,1531988739,B0E,41.0919501,43.4555097,-816.65,5.5,-71.9,156.1,555266.44,-154802.92,150.5,Weapon+Missile,Red,Allies,R-27ER,,xu,,207.112012388137,214.439346313477,0.602893889146903,-816.653015136719,-3467.98553466797,65.4920155558103,-196.484558105469,0.00666427363758081,NaN,0.215384892834475,0.744031556113971,5000,0.153186395764351,0.153186395764351,0.153186395764351,2144.76928377319,-800.86302908905,1343.90625468414,,,83.9900000095367,2651.33251953125,34885.7114591192,38342.4715534901
