ISOTime,UnixTime,Id,Longitude,Latitude,Altitude,Roll,Pitch,Yaw,U,V,Heading,Type,Color,Coalition,Name,Group,Country,Pilot,TAS,CAS,M,ASL,AGL,GS,VS,AOA,AOS,RRT,TRT,TRD,G,LatG,LonG,Ek,Ep,Em,FFW,FFV,RelativeTime,Elev,GroundDistance,AirDistance
2018-07-19T08:00:01Z,1531987201,102,41.1703369,44.9232449,8994.93,0.4,2.3,236.9,545292.5,8885.58,231.1,Air+FixedWing,Red,Allies,E-2C,Red AWACS,xu,,153.213421972008,96.6239624023438,0.504019020123458,8994.9326171875,8775.72021484375,NaN,NaN,4.1622574924638,-0.00931618310707381,0.733343750805929,0.117314339513156,NaN,NaN,NaN,NaN,NaN,8821.01559503418,NaN,,,0.980000019073486,219.21240234375,NaN,NaN
2018-07-19T08:00:02Z,1531987202,102,41.1687311,44.9225002,8989.57,0.2,4,236.9,545174.12,8790,231.1,Air+FixedWing,Red,Allies,E-2C,Red AWACS,xu,,152.237485386943,96.0130615234375,0.500770573416977,8989.5654296875,8768.56567382812,152.142844903333,-5.3671875,5.92979286524322,0.00150711355189903,0.20000001179094,1.60004171579277,5000,1.08031765087599,0.00403717755052309,0.108324817135623,1158.81259784698,8815.75218210449,9974.56477995148,,,1.98000001907349,220.999755859375,151.30204511537,151.61039125901
2018-07-19T08:00:03Z,1531987203,102,41.1671214,44.9217538,8985.03,0,5.1,236.9,545055.5,8694.22,231.1,Air+FixedWing,Red,Allies,E-2C,Red AWACS,xu,,152.533506821042,96.232780456543,0.501712209365074,8985.0341796875,8762.2431640625,152.466187978065,-4.53125,6.47047869424946,-0.0105738629281821,0.0666626462993244,1.11193590713615,5000,1.18874464803546,-0.00227524948855754,0.0962265525312571,1163.32353515625,8811.30854382324,9974.63207897949,,,2.98000001907349,222.791015625,302.965727347173,303.555359331286
2018-07-19T08:00:04Z,1531987204,102,41.1655133,44.9210082,8982.39,-0.1,5.8,236.9,544936.94,8598.52,231.1,Air+FixedWing,Red,Allies,E-2C,Red AWACS,xu,,152.390783320219,96.1538543701172,0.501224065238065,8982.3916015625,8757.81079101562,152.367869387884,-2.642578125,6.42117559018787,-0.0368796759802686,0.199987938897973,0.709705319862161,5000,1.17733260551713,0.00223551280036505,0.130903810292379,1161.1475420475,8808.71705994629,9969.86460199379,,,3.98000001907349,224.580810546875,454.481916191808,455.307971576198
2018-07-19T08:00:05Z,1531987205,102,41.1639036,44.9202615,8981.56,-0.1,6.2,236.9,544818.31,8502.71,231.1,Air+FixedWing,Red,Allies,E-2C,Red AWACS,xu,,152.484415317971,96.2202301025391,0.50152612993731,8981.55859375,8755.18603515625,152.482139979894,-0.8330078125,6.18576661306308,-0.031385024891171,0,0.404816961133178,5000,1.14362864839321,0.00237618628917073,0.0445523903091918,1162.57484574318,8807.90015833984,9970.47500408302,,,4.98000001907349,226.37255859375,606.162814093653,607.204757378193
2018-07-19T08:00:06Z,1531987206,102,41.1623018,44.9195184,8982.12,-0.1,6.3,236.9,544700.31,8407.35,231.1,Air+FixedWing,Red,Allies,E-2C,Red AWACS,xu,,151.714695542569,95.7113571166992,0.498998424813124,8982.1162109375,8754.63841247559,151.713670796823,0.5576171875,5.93001630498709,-0.0475387136948726,0,0.190774333872743,5000,1.09175223317206,-0.00595287003026666,0.0437327143543347,1150.86744217873,8808.44699399902,9959.31443617775,,,5.98000001907349,227.477798461914,757.109751096262,758.36528978943
2018-07-19T08:00:07Z,1531987207,102,41.1607088,44.9187791,8983.56,-0.1,6.4,236.9,544582.88,8312.5,231.1,Air+FixedWing,Red,Allies,E-2C,Red AWACS,xu,,150.965700071745,95.2117462158203,0.496545025276612,8983.5556640625,8755.17036437988,150.95883734599,1.439453125,5.74684348896484,-0.0445162222772682,0,0.0532655904281015,5000,1.0398185205049,0.00289078601682511,0.136935412901682,1139.53212990761,8809.85861529785,9949.39074520546,,,6.98000001907349,228.385299682617,907.24610940344,908.719987646751
2018-07-19T08:00:08Z,1531987208,102,41.1591135,44.9180386,8985.47,-0.1,6.3,236.9,544465.31,8217.49,231.1,Air+FixedWing,Red,Allies,E-2C,Red AWACS,xu,,151.168861848832,95.3345489501953,0.497226699214818,8985.4716796875,8756.76391601562,151.156718927066,1.916015625,5.54980499203128,-0.0490482192826879,0,0.0513960362511687,5000,1.00912491329323,-0.00346612618682834,0.110279504910991,1142.60123963356,8811.73758476074,9954.3388243943,,,7.98000001907349,228.707763671875,1057.60733242737,1059.30520584141
2018-07-19T08:00:09Z,1531987209,102,41.1575189,44.9172981,8987.54,-0.1,6.3,236.9,544347.75,8122.5,231.1,Air+FixedWing,Red,Allies,E-2C,Red AWACS,xu,,151.15731384332,95.3153610229492,0.497203206932702,8987.5361328125,8758.0343170166,151.143215400568,2.064453125,5.51637677214942,-0.065237153278803,0,0.100870594880489,5000,0.994721052044361,0.00389286761422541,0.0484748744254902,1142.4266764164,8813.76212168457,9956.18879810097,,,8.98000001907349,229.501815795898,1207.92018229519,1209.84399602911
2018-07-19T08:00:10Z,1531987210,102,41.1559301,44.9165603,8989.54,0,6.2,236.9,544230.69,8027.84,231.1,Air+FixedWing,Red,Allies,E-2C,Red AWACS,xu,,150.558693660731,94.911506652832,0.495248185526936,8989.5419921875,8759.28637695312,150.545331262692,2.005859375,5.46672925596182,0.0028108446252704,0,0.111905886062555,5000,0.981729664419768,-0.00208678931625507,0.0637448371380874,1133.3960118413,8815.72919776855,9949.12520960985,,,9.98000001907349,230.255615234375,1357.69347922063,1359.84177685444
2018-07-19T08:00:11Z,1531987211,102,41.1543461,44.9158246,8991.38,0,6.1,236.9,544113.94,7933.46,231,Air+FixedWing,Red,Allies,E-2C,Red AWACS,xu,,150.138278335842,94.6256332397461,0.493878086566866,8991.3798828125,8760.36697387695,150.127028811274,1.837890625,5.43941981586725,0.0301935417187785,0,0.0917269792839317,5000,0.972116883713544,-0.000903428942471967,0.0949058624883679,1127.07513108253,8817.53155277832,9944.60668386085,,,10.9800000190735,231.012908935547,1507.02758849887,1509.3976770579
2018-07-19T08:00:12Z,1531987212,102,41.1527633,44.9150893,8992.99,0,6,236.9,543997.25,7839.14,231,Air+FixedWing,Red,Allies,E-2C,Red AWACS,xu,,150.048070803319,94.5577697753906,0.493592566877734,8992.9892578125,8761.09631347656,150.039439694726,1.609375,5.43195975950301,0.0511161014244333,0,0.0541761800424684,5000,0.976927282113203,0.000652844689456907,0.0289968060724512,1125.72117758989,8819.10981051269,9944.83098810259,,,11.9800000190735,231.892944335938,1656.24764198664,1658.83677397545
2018-07-19T08:00:13Z,1531987213,102,41.1511881,44.9143574,8994.35,0,5.9,236.9,543881.12,7745.27,231,Air+FixedWing,Red,Allies,E-2C,Red AWACS,xu,,149.32701280225,94.0776977539062,0.491230037551883,8994.349609375,8760.57836914062,149.320816352141,1.3603515625,5.45578007002689,0.0435288428984444,0,0.0753289290564541,5000,0.970730549709597,0.00101951315178965,0.109961030497272,1114.92783762217,8820.44385967773,9935.3716972999,,,12.9800000190735,233.771240234375,1804.76431881584,1807.5690921018
2018-07-19T08:00:14Z,1531987214,102,41.149612,44.913625,8995.48,0,5.9,236.9,543764.94,7651.34,231,Air+FixedWing,Red,Allies,E-2C,Red AWACS,xu,,149.41362856494,94.1279449462891,0.491522840733907,8995.4833984375,8760.83325195312,149.409326761429,1.1337890625,5.50468611034511,0.0576469433396547,0,0.0523391626455858,5000,0.976301577137828,0.00154613418089911,0.0774162028258339,1116.22162004709,8821.55572692871,9937.7773469758,,,13.9800000190735,234.650146484375,1953.37379068987,1956.39246281668
2018-07-19T08:00:15Z,1531987215,102,41.148038,44.9128936,8996.41,0,5.9,236.9,543648.94,7557.53,231,Air+FixedWing,Red,Allies,E-2C,Red AWACS,xu,,149.183217128202,93.9723587036133,0.490771297711734,8996.412109375,8760.22509765625,149.180326346053,0.9287109375,5.56134605633063,0.0266591767025046,0,0.0523391626455858,5000,0.981594665838768,6.06289151687449e-05,0.0434481010457353,1112.78161363602,8822.46648124023,9935.24809487625,,,14.9800000190735,236.18701171875,2101.78586774947,2105.01676711891
2018-07-19T08:00:16Z,1531987216,102,41.1464703,44.9121651,8997.15,0,5.8,236.9,543533.38,7464.09,231,Air+FixedWing,Red,Allies,E-2C,Red AWACS,xu,,148.619698451576,93.5992279052734,0.488922595839533,8997.1533203125,8759.46057128906,148.61785011964,0.7412109375,5.54187103308228,0.0527946436300003,0,0.0523391626455858,5000,0.979361659330754,-0.00252695259624953,0.113909238340406,1104.39073839188,8823.19336086426,9927.58409925613,,,15.9800000190735,237.692749023438,2249.61035397029,2253.05162515698
2018-07-19T08:00:17Z,1531987217,102,41.1449013,44.9114359,8997.76,0,5.8,236.9,543417.69,7370.57,231,Air+FixedWing,Red,Allies,E-2C,Red AWACS,xu,,148.759867329658,93.6876754760742,0.489387881709397,8997.755859375,8759.00003051758,148.758647058299,0.6025390625,5.59331457382491,0.0397320824129643,0,0.0139882274201861,5000,0.984634157282285,-0.000582076323258396,0.0748127861081131,1106.47490639687,8823.78424983399,9930.25915623085,,,16.9800000190735,238.755828857422,2397.56111042186,2401.21231669571
2018-07-19T08:00:18Z,1531987218,102,41.143335,44.9107079,8998.23,0,5.8,236.9,543302.19,7277.21,231,Air+FixedWing,Red,Allies,E-2C,Red AWACS,xu,,148.51352689446,93.5236129760742,0.488580763158879,8998.232421875,8758.38500976562,148.51276227589,0.4765625,5.63839236731057,0.0454006559580737,0,0.0139882274201861,5000,0.980179963527784,0.00188590263449237,0.142313236657786,1102.81338353157,8824.25159799805,9927.06498152962,,,17.9800000190735,239.847412109375,2545.26132922517,2549.12167218989
2018-07-19T08:00:19Z,1531987219,102,41.1417641,44.9099778,8998.61,0,5.8,236.9,543186.38,7183.57,231,Air+FixedWing,Red,Allies,E-2C,Red AWACS,xu,,148.930305256753,93.7944412231445,0.489954471424858,8998.6064453125,8757.7233581543,148.929835594947,0.3740234375,5.66891683364821,0.0518349018949158,0,0.0139882274201861,5000,1.00233281780615,0.000866597273712571,-0.0540984517177372,1109.01179119349,8824.61838969238,9933.63018088587,,,18.9800000190735,240.883087158203,2693.3963891365,2697.46619589883
2018-07-19T08:00:20Z,1531987220,102,41.1402092,44.909255,8998.9,0,5.8,236.9,543071.75,7090.89,231,Air+FixedWing,Red,Allies,E-2C,Red AWACS,xu,,147.40897540415,92.7975234985352,0.484951570739144,8998.8994140625,8756.04461669922,147.408684272714,0.29296875,5.69904963186028,0.041578424999428,0,0.0139882274201861,5000,0.981255744180951,-0.00257413150704853,0.180007308504894,1086.47030148506,8824.9056938916,9911.37599537666,,,19.9800000190735,242.854797363281,2840.02871942163,2844.30569830798
2018-07-19T08:00:21Z,1531987221,102,41.1386462,44.9085286,8999.14,0,5.8,236.9,542956.5,6997.73,231,Air+FixedWing,Red,Allies,E-2C,Red AWACS,xu,,148.192678926568,93.3086013793945,0.487531468649462,8999.1376953125,8754.27905273438,148.192487358431,0.23828125,5.71975626415411,0.0395838819169839,0,0.0139882274201861,5000,0.98965165766659,0.00501686573272982,0.096365730981824,1098.05350437164,8825.13936797363,9923.19287234528,,,20.9800000190735,244.858642578125,2987.41644628777,2991.90156928841
2018-07-19T08:00:22Z,1531987222,102,41.1370833,44.907802,8999.32,0,5.8,236.9,542841.31,6904.56,231,Air+FixedWing,Red,Allies,E-2C,Red AWACS,xu,,148.151982170129,93.2812271118164,0.487398839569713,8999.3203125,8752.82023620605,148.151869619998,0.1826171875,5.73743662496141,0.0494356056985508,0,0.0139882274201861,5000,0.997222396459805,-0.00373145525587553,0.040555975059177,1097.45049104691,8825.31845425781,9922.76894530472,,,21.9800000190735,246.500076293945,3134.81568943145,3139.50889828101
2018-07-19T08:00:23Z,1531987223,102,41.135527,44.9070785,8999.47,0,5.8,236.9,542726.56,6811.79,231,Air+FixedWing,Red,Allies,E-2C,Red AWACS,xu,,147.559376526428,92.8926849365234,0.485450249363735,8999.4658203125,8751.78578186035,147.559304784025,0.1455078125,5.75082680438761,0.0337481046720277,0,0.0139882274201861,5000,0.99178716483041,0.000270863155074592,0.100962643141493,1088.68848004341,8825.46114867676,9914.14962872017,,,22.9800000190735,247.680038452148,3281.59044901008,3286.49082542891
2018-07-19T08:00:24Z,1531987224,102,41.1339706,44.9063549,8999.58,0,5.8,236.9,542611.81,6719.02,231,Air+FixedWing,Red,Allies,E-2C,Red AWACS,xu,,147.561498656343,92.893424987793,0.485458020971211,8999.5810546875,8751.43380737305,147.561453661669,0.115234375,5.75896195784243,0.0493064428493312,0,0.0139882274201861,5000,0.993576682656361,-0.00134252104767321,0.0833451806238331,1088.7197942853,8825.57415499512,9914.29394928042,,,23.9800000190735,248.147247314453,3428.37362656997,3433.48115858038
2018-07-19T08:00:25Z,1531987225,102,41.1324163,44.9056322,8999.67,0,5.8,236.9,542497.19,6626.36,231,Air+FixedWing,Red,Allies,E-2C,Red AWACS,xu,,147.389982887955,92.7807846069336,0.484894338386144,8999.666015625,8750.98370361328,147.389958400669,0.0849609375,5.77077298404788,0.0538984497665602,0,0.0139882274201861,5000,0.995005762400642,-0.000646015791767113,0.0840572627574488,1086.19035278559,8825.65747321289,9911.84782599848,,,24.9800000190735,248.682312011719,3574.96855131871,3580.28295501323
2018-07-19T08:00:26Z,1531987226,102,41.1308637,44.9049105,8999.74,0,5.8,236.9,542382.69,6533.82,231,Air+FixedWing,Red,Allies,E-2C,Red AWACS,xu,,147.224005340368,92.6717376708984,0.48434876762773,8999.7353515625,8751.7353515625,147.223989013301,0.0693359375,5.77451630361334,0.0469374668282886,0,0.0139882274201861,5000,0.994173220851826,0.00424297100394527,0.0961951026545105,1083.74538742304,8825.72546854004,9909.47085596308,,,25.9800000190735,248,3721.39525278365,3726.91628437624
2018-07-19T08:00:27Z,1531987227,102,41.1293112,44.9041886,8999.79,0,5.8,236.9,542268.25,6441.27,231,Air+FixedWing,Red,Allies,E-2C,Red AWACS,xu,,147.177239863454,92.6408233642578,0.484195309012898,8999.79296875,8751.79296875,147.177228585418,0.0576171875,5.78173410703455,0.0488006476356983,0,0.0139882274201861,5000,0.998215480422735,-0.00343369209206147,0.057385232958563,1083.05699669123,8825.78197169922,9908.83896839044,,,26.9800000190735,248,3867.81728572544,3873.54493501303
2018-07-19T08:00:28Z,1531987228,102,41.1277636,44.9034691,8999.84,0,5.8,236.9,542154.12,6349.02,231,Air+FixedWing,Red,Allies,E-2C,Red AWACS,xu,,146.747881339537,92.3598785400391,0.482783091050604,8999.83984375,8752.83984375,146.747873853004,0.046875,5.78516736883918,0.05229128984882,0,0.0139882274201861,5000,0.984704728856737,0.00249487896649025,0.184483571405148,1076.74703388214,8825.82794037109,9902.57497425323,,,27.9800000190735,247,4013.78037011766,4019.71398690025
2018-07-19T08:00:29Z,1531987229,102,41.1262071,44.9027453,8999.87,0,5.8,236.9,542039.38,6256.23,231,Air+FixedWing,Red,Allies,E-2C,Red AWACS,xu,,147.57189485355,92.8986282348633,0.485494205174665,8999.8701171875,8753.4216003418,147.571891748348,0.0302734375,5.78933225865359,0.0314572515609527,0,0.0139882274201861,5000,1.00399480557152,-0.00602954998682968,0.00640131658592931,1088.87320753336,8825.85762847168,9914.73083600504,,,28.9800000190735,246.448516845703,4160.59533597525,4166.73611878161
2018-07-19T08:00:30Z,1531987230,102,41.1246611,44.9020264,8999.9,0,5.8,236.9,541925.31,6164.07,231,Air+FixedWing,Red,Allies,E-2C,Red AWACS,xu,,146.639418171147,92.2888565063477,0.482426639389534,8999.8955078125,8753.8955078125,146.639415972953,0.025390625,5.7889094148963,0.0649133574776038,0,0.0139882274201861,5000,0.996596547071695,0.00820162884844622,0.0831773906534404,1075.15594807863,8825.88252816895,9901.03847624758,,,29.9800000190735,246,4306.41277877541,4312.75931977944
2018-07-19T08:00:31Z,1531987231,102,41.1231161,44.9013079,8999.92,0,5.8,236.9,541811.44,6071.96,231,Air+FixedWing,Red,Allies,E-2C,Red AWACS,xu,,146.463214780257,92.1736068725586,0.48184711686521,8999.919921875,8754.919921875,146.463212745458,0.0244140625,5.792380561571,0.0424810097699766,0,0.0139882274201861,5000,0.995066004289136,-0.00831936833443388,0.0943036663915126,1072.57366418839,8825.90647018555,9898.48013437393,,,30.9800000190735,245,4452.14633415613,4458.69851539299
2018-07-19T08:00:32Z,1531987232,102,41.1215727,44.9005902,8999.94,0,5.9,236.9,541697.56,5979.96,231,Air+FixedWing,Red,Allies,E-2C,Red AWACS,xu,,146.397216245399,92.1301651000977,0.481630122141891,8999.939453125,8754.939453125,146.397214942541,0.01953125,5.8961801760209,0.049432025320569,0,0.0523391626455858,5000,0.994110972517986,0.00652596045385969,0.0997996545866223,1071.60724622011,8825.92562379883,9897.53287001894,,,31.9800000190735,245,4597.73197317909,4604.4895856976
2018-07-19T08:00:33Z,1531987233,102,41.1200289,44.8998722,8999.95,0,5.9,236.9,541583.75,5887.92,231,Air+FixedWing,Red,Allies,E-2C,Red AWACS,xu,,146.368559662267,92.1114349365234,0.481535918314359,8999.9501953125,8755.92088317871,146.368559268075,0.0107421875,5.89196958957595,0.0563160288813364,0,0.0523391626455858,5000,1.00074104025303,-0.00284147631777331,0.0433918994879215,1071.18776288033,8825.93615828613,9897.12392116646,,,32.9800000190735,244.029312133789,4743.36057627363,4750.32368013138
2018-07-19T08:00:34Z,1531987234,102,41.1184917,44.8991572,8999.96,0,5.9,236.8,541470.38,5796.28,231,Air+FixedWing,Red,Allies,E-2C,Red AWACS,xu,,145.783059116108,91.7288513183594,0.479609754243326,8999.9599609375,8755.9599609375,145.783058789021,0.009765625,5.89999926828606,0.0452691725442109,0,0.0139882274201861,5000,0.988958254624904,-0.00187928152781243,0.158380365727909,1062.63501626253,8825.94573509277,9888.5807513553,,,33.9800000190735,244,4888.36285763293,4895.53056921762
2018-07-19T08:00:35Z,1531987235,102,41.1169489,44.8984396,8999.97,0,5.9,236.8,541356.56,5704.3,231,Air+FixedWing,Red,Allies,E-2C,Red AWACS,xu,,146.331109679944,92.0870742797852,0.481412844930081,8999.9697265625,8755.9697265625,146.331109354082,0.009765625,5.89616578008061,0.043393673912589,0,0.0139882274201861,5000,1.00148141006303,0.000188507852186179,0.0294461413760068,1070.63968300819,8825.95531189941,9896.59499490761,,,34.9800000190735,244,5033.90312850886,5041.27620717944
2018-07-19T08:00:36Z,1531987236,102,41.1154138,44.8977257,8999.97,0,5.9,236.8,541243.31,5612.78,231.1,Air+FixedWing,Red,Allies,E-2C,Red AWACS,xu,,145.608802480725,91.6151504516602,0.479036548934139,8999.9716796875,8755.9716796875,145.608802467626,0.001953125,5.89616487704094,-0.0403763207865989,0,0.0513960362511687,5000,0.995861502333678,0.00334341026095807,0.0973915747494921,1060.09616799355,8825.95722726074,9886.05339525429,,,35.9800000190735,244,5178.71036801816,5186.28777923859
2018-07-19T08:00:37Z,1531987237,102,41.1138788,44.8970116,8999.98,0,5.9,236.8,541130.12,5521.27,231.1,Air+FixedWing,Red,Allies,E-2C,Red AWACS,xu,,145.554978363466,91.5797348022461,0.478859526492746,8999.9794921875,8755.9794921875,145.554978153802,0.0078125,5.89999926828606,-0.0470271890198865,0,0.0513960362511687,5000,0.988919599261129,-0.000724522151898158,0.151004316064101,1059.31258631945,8825.96488870605,9885.2774750255,,,36.9800000190735,244,5323.52111613531,5331.30286516487
2018-07-19T08:00:38Z,1531987238,102,41.1123389,44.8962953,8999.98,0,5.9,236.8,541016.56,5429.46,231.1,Air+FixedWing,Red,Allies,E-2C,Red AWACS,xu,,146.031092510796,91.8908615112305,0.480425888548585,8999.9794921875,8755.9794921875,146.031092510796,0,5.89578408295106,-0.0458549978643772,0,0.00989117029631303,5000,1.00107221661922,-0.0027629218305598,0.0518123351475106,1066.25399899483,8825.96488870605,9892.21888770088,,,37.9800000190735,244,5468.79695591507,5476.78369890708
2018-07-19T08:00:39Z,1531987239,102,41.1108047,44.8955815,8999.99,0,5.9,236.8,540903.38,5337.99,231.1,Air+FixedWing,Red,Allies,E-2C,Red AWACS,xu,,145.527353013811,91.5616455078125,0.478768714834435,8999.990234375,8755.990234375,145.527352617341,0.0107421875,5.89999926828606,-0.0585850653306046,0,0.00989117029631303,5000,0.990830117043049,0.00310580821771745,0.12961032073936,1058.91052376032,8825.97542319336,9884.88594695368,,,38.9800000190735,244,5613.53725544207,5621.72823723356
2018-07-19T08:00:40Z,1531987240,102,41.1092674,44.8948663,8999.99,0,5.9,236.8,540790,5246.33,231.1,Air+FixedWing,Red,Allies,E-2C,Red AWACS,xu,,145.792881790862,91.7352447509766,0.47964227481273,8999.990234375,8755.990234375,145.792881790862,0,5.89999926828606,-0.0578295558683564,0,0.00989117029631303,5000,1.00478044661285,0.00028656297631033,0.00527212422758491,1062.77821904421,8825.97542319336,9888.75364223757,,,39.9800000190735,244,5758.5679973961,5766.96362754468
2018-07-19T08:00:41Z,1531987241,102,41.1077401,44.8941558,8999.99,0,5.9,236.8,540677.38,5155.27,231.1,Air+FixedWing,Red,Allies,E-2C,Red AWACS,xu,,144.83144356587,91.1074676513672,0.476479250585058,8999.990234375,8755.990234375,144.83144356587,0,5.89999926828606,-0.0321921761250492,0,0.00989117029631303,5000,0.989827735958738,-0.00211949974488134,0.149966564008156,1048.8073522687,8825.97542319336,9874.78277546206,,,40.9800000190735,244,5902.66172415852,5911.26068047225
2018-07-19T08:00:42Z,1531987242,102,41.1062082,44.893443,8999.99,0,5.9,236.8,540564.38,5063.94,231.1,Air+FixedWing,Red,Allies,E-2C,Red AWACS,xu,,145.296507492282,91.4111251831055,0.478009258887638,8999.990234375,8755.990234375,145.296507492282,0,5.89961448423548,-0.0661045111916272,0,0.0513960362511687,5000,0.998286597538546,-0.000819594940328341,0.0777994595391547,1055.55375447273,8825.97542319336,9881.52917766609,,,41.9800000190735,244,6047.19678568337,6055.99969091535
2018-07-19T08:00:43Z,1531987243,102,41.1046791,44.8927315,9000,0,6,236.8,540451.56,4972.76,231.1,Air+FixedWing,Red,Allies,E-2C,Red AWACS,xu,,145.049088759224,91.249397277832,0.477195344746557,9000,8756,145.049088430482,0.009765625,5.99651381255737,-0.0477107002960185,0,0.0513960362511687,5000,0.995143554985116,0.00118440890514913,0.0890859447739347,1051.96190749407,8825.985,9877.94690749407,,,42.9800000190735,244,6191.46914644399,6200.4756303467
2018-07-19T08:00:44Z,1531987244,102,41.1031515,44.8920207,9000,0,6,236.8,540338.88,4881.67,231.1,Air+FixedWing,Red,Allies,E-2C,Red AWACS,xu,,144.897852026806,91.150634765625,0.476697792743424,9000,8756,144.897852026806,0,5.99999314935044,-0.0362344395540305,0,0.0171320104161963,5000,0.995144833688451,0.00276216959721508,0.0986005392146122,1049.76937609911,8825.985,9875.75437609911,,,43.9800000190735,244,6335.59557657686,6344.80543301133
2018-07-19T08:00:45Z,1531987245,102,41.1016242,44.89131,9000,0,6,236.8,540226.25,4790.6,231.1,Air+FixedWing,Red,Allies,E-2C,Red AWACS,xu,,144.839425756765,91.1123809814453,0.476505576823195,9000,8756,144.839425756765,0,5.99999314935044,-0.0607866454935926,0,0.0171320104161963,5000,0.996993469951138,-0.00900667739914469,0.0810119159902052,1048.92296267748,8825.985,9874.90796267748,,,44.9800000190735,244,6479.70780231232,6489.12101123516
2018-07-19T08:00:46Z,1531987246,102,41.1001005,44.8906008,9000,0,6,236.8,540113.75,4699.75,231.1,Air+FixedWing,Red,Allies,E-2C,Red AWACS,xu,,144.607472523973,90.9611206054688,0.475742476524985,9000,8756,144.607472523973,0,5.99999314935044,-0.0362585659350508,0,0.0171320104161963,5000,0.992888866297496,0.0092113880758906,0.120064664552281,1045.56605548859,8825.985,9871.55105548859,,,45.9800000190735,244,6623.48612548083,6633.10221573226
2018-07-19T08:00:47Z,1531987247,102,41.0985741,44.8898905,9000,0,6,236.8,540001.19,4608.72,231.1,Air+FixedWing,Red,Allies,E-2C,Red AWACS,xu,,144.7607387066,91.0612411499023,0.476246705193239,9000,8756,144.7607387066,0,5.99999314935044,-0.059574770574736,0,0.0171320104161963,5000,0.993256114119016,-0.00529184292893295,0.116570530150028,1047.78357354403,8825.985,9873.76857354402,,,46.9800000190735,244,6767.51738683519,6777.33671532894
2018-07-19T08:00:48Z,1531987248,102,41.097047,44.8891798,9000,0,6,236.8,539888.5,4517.66,231.1,Air+FixedWing,Red,Allies,E-2C,Red AWACS,xu,,144.879436870137,91.1385192871094,0.476637208929279,9000,8756,144.879436870137,0,5.99999314935044,-0.0524611038358369,0,0.0171320104161963,5000,1.00180574721557,0.0049810956749253,0.0352260935631639,1049.5025613904,8825.985,9875.4875613904,,,47.9800000190735,244,6911.61146988686,6921.63412526788
2018-07-19T08:00:49Z,1531987249,102,41.0955266,44.8884721,9000,0,6,236.8,539776.38,4427,231.1,Air+FixedWing,Red,Allies,E-2C,Red AWACS,xu,,144.196113322545,90.69287109375,0.474389150574305,9000,8756,144.196113322545,0,5.99999314935044,-0.0336886370960954,0,0.0171320104161963,5000,0.990560132943683,-0.00377475919211302,0.142221112728195,1039.62595486641,8825.985,9865.61095486641,,,48.9800000190735,244,7055.08555687344,7065.31066428527
2018-07-19T08:00:50Z,1531987250,102,41.0940028,44.8877627,9000,0,6,236.8,539663.94,4336.12,231.1,Air+FixedWing,Red,Allies,E-2C,Red AWACS,xu,,144.567755143089,90.9353256225586,0.475611810766064,9000,8756,144.567755143089,0,5.99999314935044,-0.0540591232885186,0,0.0171320104161963,5000,0.999541177100883,0.00138326157080689,0.0567720684618039,1044.99179135561,8825.985,9870.97679135561,,,49.9800000190735,244,7198.88357141053,7209.31158793607
2018-07-19T08:00:51Z,1531987251,102,41.0924838,44.8870556,9000,0,6,236.8,539551.88,4245.54,231.1,Air+FixedWing,Red,Allies,E-2C,Red AWACS,xu,,144.096857849406,90.6277770996094,0.474062611123918,9000,8756,144.096857849406,0,5.99999314935044,-0.0535625063030136,0,0.0171320104161963,5000,0.999832052740255,-0.00206543303406821,0.0540045678293958,1038.1952221036,8825.985,9864.18022210359,,,50.9800000190735,244,7342.23364498631,7352.86393855088
2018-07-19T08:00:52Z,1531987252,102,41.0909704,44.8863511,9000,0,6,236.8,539440.19,4155.28,231.1,Air+FixedWing,Red,Allies,E-2C,Red AWACS,xu,,143.598643355483,90.3031311035156,0.472423540935894,9000,8756,143.598643355483,0,5.99999314935044,-0.0466939485044558,0,0.0171320104161963,5000,0.989803529454754,0.00519572171832052,0.149419723923728,1031.02851867676,8825.985,9857.01351867676,,,51.9800000190735,244,7485.05934295574,7495.89117362786
2018-07-19T08:00:53Z,1531987253,102,41.0894516,44.8856441,9000,0,6,236.8,539328.19,4064.7,231.1,Air+FixedWing,Red,Allies,E-2C,Red AWACS,xu,,144.041349036055,90.5915832519531,0.473879993311218,9000,8756,144.041349036055,0,5.99999314935044,-0.05539445149527,0,0.0171320104161963,5000,0.989961608277175,-0.00682754912119959,0.147915702335792,1037.39551160634,8825.985,9863.38051160633,,,52.9800000190735,244,7628.38819639249,7639.42227415954
2018-07-19T08:00:54Z,1531987254,102,41.0879294,44.8849353,9000,0,6.1,236.8,539215.81,3973.91,231.1,Air+FixedWing,Red,Allies,E-2C,Red AWACS,xu,,144.469119435176,90.8707809448242,0.475287310274233,9000,8756,144.469119435176,0,6.09998740397696,-0.0454062139496158,0,0.0523391626455858,5000,1.00865545814991,0.00555317320536371,-0.0277096196560042,1043.56632351875,8825.985,9869.55132351875,,,53.9800000190735,244,7772.05597381768,7783.29277692568
2018-07-19T08:00:55Z,1531987255,102,41.0864202,44.8842326,9000,0,6.1,236.8,539104.5,3883.91,231.1,Air+FixedWing,Red,Allies,E-2C,Red AWACS,xu,,143.147852371961,90.0091400146484,0.470940488814502,9000,8756,143.147852371961,0,6.09998740397696,-0.0517151507105908,0,0.0523391626455858,5000,0.983379428944582,-0.00413371514584566,0.208804682765356,1024.56538193524,8825.985,9850.55038193524,,,54.9800000190735,244,7914.48771679205,7925.92550110886
2018-07-19T08:00:56Z,1531987256,102,41.084901,44.8835252,9000,0,6.1,236.8,538992.38,3793.3,231.1,Air+FixedWing,Red,Allies,E-2C,Red AWACS,xu,,144.159124754857,90.6685028076172,0.474267462306832,9000,8756,144.159124754857,0,6.09998740397696,-0.0355543726953052,0,0.0139882274201861,5000,0.999420639942039,0.00161575783630408,0.0587029481045232,1039.09266250432,8825.985,9865.07766250431,,,55.9800000190735,244,8057.87260227944,8069.5127127566
2018-07-19T08:00:57Z,1531987257,102,41.0833868,44.8828201,9000,0,6.1,236.8,538880.62,3702.97,231.1,Air+FixedWing,Red,Allies,E-2C,Red AWACS,xu,,143.690068275701,90.3627243041992,0.472724318739429,9000,8756,143.690068275701,0,6.09998740397696,-0.0570796594400541,0,0.0139882274201861,5000,0.994289680430913,0.000561865974951561,0.106714655151865,1032.34178605378,8825.985,9858.32678605378,,,56.9800000190735,244,8200.79681760955,8212.63860420914
2018-07-19T08:00:58Z,1531987258,102,41.0818723,44.8821148,9000,0,6.1,236.8,538768.88,3612.64,231.1,Air+FixedWing,Red,Allies,E-2C,Red AWACS,xu,,143.694519034141,90.3654022216797,0.472738961238921,9000,8756,143.694519034141,0,6.09998740397696,-0.0410575741037293,0,0.0139882274201861,5000,1.00156122733491,-0.00305098927355959,0.038672921636217,1032.40574002266,8825.985,9858.39074002266,,,57.9800000190735,244,8343.73996119571,8355.78345062697
2018-07-19T08:00:59Z,1531987259,102,41.0803652,44.881413,9000,0,6.1,236.8,538657.62,3522.75,231.1,Air+FixedWing,Red,Allies,E-2C,Red AWACS,xu,,143.027881012558,89.9308929443359,0.470545796405886,9000,8756,143.027881012558,0,6.09998740397696,-0.045360169003974,0,0.0139882274201861,5000,0.993109743264654,0.00417396899011798,0.117755630516778,1022.84873734713,8825.985,9848.83373734712,,,58.9800000190735,244,8485.99588450479,8498.24010705146
2018-07-19T08:01:00Z,1531987260,102,41.0788563,44.8807102,9000,0,6.1,236.8,538546.31,3432.76,231.1,Air+FixedWing,Red,Allies,E-2C,Red AWACS,xu,,143.141251926488,90.0045394897461,0.47091877408413,9000,8756,143.141251926488,0,6.09998740397696,-0.0633543318879805,0,0.0139882274201861,5000,0.991070053784841,-0.00248506594304686,0.136841529277035,1024.47090015411,8825.985,9850.45590015411,,,59.9800000190735,244,8628.41614860246,8640.86133616047
2018-07-19T08:01:01Z,1531987261,102,41.0773449,44.8800063,9000,0,6.1,236.8,538434.75,3342.59,231.1,Air+FixedWing,Red,Allies,E-2C,Red AWACS,xu,,143.442802621235,90.2014083862305,0.47191084227959,9000,8756,143.442802621235,0,6.09998740397696,-0.0360223824376226,0,0.0139882274201861,5000,0.995897001856908,0.00211439396713792,0.0916745354104343,1028.79188119173,8825.985,9854.77688119173,,,60.9800000190735,244,8771.08475508781,8783.73125808629
2018-07-19T08:01:02Z,1531987262,102,41.0758345,44.8793028,9000,0,6.1,236.8,538323.31,3252.5,231.1,Air+FixedWing,Red,Allies,E-2C,Red AWACS,xu,,143.29893346341,90.1076202392578,0.471437528776183,9000,8756,143.29893346341,0,6.09998740397696,-0.0553879525439644,0,0.0139882274201861,5000,1.00310375943782,-0.000742848418507334,0.0242390522447802,1026.72921658754,8825.985,9852.71421658754,,,61.9800000190735,244,8913.6569687209,8926.50465114241
2018-07-19T08:01:03Z,1531987263,102,41.0743329,44.8786032,9000,0,6.1,236.8,538212.5,3162.92,231.1,Air+FixedWing,Red,Allies,E-2C,Red AWACS,xu,,142.489958246181,89.5802154541016,0.46877609042466,9000,8756,142.489958246181,0,6.09998740397696,-0.046562583638677,0,0.0139882274201861,5000,0.986733618030893,-0.00265613301995332,0.177418673297891,1015.16941004992,8825.985,9841.15441004991,,,62.9800000190735,244,9055.41477543241,9068.46248809145
2018-07-19T08:01:04Z,1531987264,102,41.0728242,44.8779005,9000,0,6.1,236.8,538101.12,3072.93,231.1,Air+FixedWing,Red,Allies,E-2C,Red AWACS,xu,,143.191701190513,90.0375061035156,0.47108474654314,9000,8756,143.191701190513,0,6.09998740397696,-0.0476680909266997,0,0.0139882274201861,5000,0.99744950154799,0.00430628668944158,0.077147396734383,1025.19316449165,8825.985,9851.17816449165,,,63.9800000190735,244,9197.8289086417,9211.07757766101
2018-07-19T08:01:05Z,1531987265,102,41.0713181,44.8771988,9000,0,6.1,236.8,537990,2983.08,231.1,Air+FixedWing,Red,Allies,E-2C,Red AWACS,xu,,142.904576308249,89.8506469726562,0.470140137663834,9000,8756,142.904576308249,0,6.09998740397696,-0.0440412085024008,0,0.0139882274201861,5000,0.995617470154966,-0.00477458434265241,0.0942901853985045,1021.085896492,8825.985,9847.070896492,,,64.9800000190735,244,9340.01135829892,9353.46065675785
2018-07-19T08:01:06Z,1531987266,102,41.0698139,44.876498,9000,0,6.1,236.8,537878.94,2893.34,231.1,Air+FixedWing,Red,Allies,E-2C,Red AWACS,xu,,142.786447119644,89.7734069824219,0.469751505791942,9000,8756,142.786447119644,0,6.09998740397696,-0.0489159549147625,0,0.0139882274201861,5000,0.99839852292174,0.00338726541628436,0.0682671597963729,1019.39847405255,8825.985,9845.38347405255,,,65.9800000190735,244,9482.02064088901,9495.6703244355
2018-07-19T08:01:07Z,1531987267,102,41.0683131,44.8757988,9000,0,6.2,236.8,537768.19,2803.81,231.1,Air+FixedWing,Red,Allies,E-2C,Red AWACS,xu,,142.411731309146,89.5293502807617,0.468518732515652,9000,8756,142.411731309146,0,6.20000822753505,-0.0474608064919142,0,0.0523391626455858,5000,0.989253530409761,-0.00469633335414195,0.153080297846386,1014.05506072342,8825.985,9840.04006072342,,,66.9800000190735,244,9623.70408656413,9637.55369541994
2018-07-19T08:01:08Z,1531987268,102,41.0668084,44.8750977,9000,0,6.2,236.8,537657.06,2714.04,231.1,Air+FixedWing,Red,Allies,E-2C,Red AWACS,xu,,142.856389554098,89.8191528320312,0.469981608610285,9000,8756,142.856389554098,0,6.20000822753505,-0.0600655857362699,0,0.0484566469995765,5000,0.998933413158189,0.0060138121919594,0.0639755625816188,1020.39740182161,8825.985,9846.38240182161,,,67.9800000190735,244,9765.76639971777,9779.81646849118
2018-07-19T08:01:09Z,1531987269,102,41.0653075,44.8743983,9000,0,6.2,236.8,537546.31,2624.49,231.1,Air+FixedWing,Red,Allies,E-2C,Red AWACS,xu,,142.422168747081,89.5362930297852,0.468553070523811,9000,8756,142.422168747081,0,6.20000822753505,-0.0446217117136138,0,0.0197823405926261,5000,0.996939763200443,-0.0015558331144028,0.0823274017838495,1014.20370753109,8825.985,9840.18870753109,,,68.9800000190735,244,9907.46935573947,9921.7193773527
2018-07-19T08:01:10Z,1531987270,102,41.0638094,44.8737002,9000,0,6.2,236.8,537435.75,2535.11,231.1,Air+FixedWing,Red,Allies,E-2C,Red AWACS,xu,,142.168915981822,89.3711624145508,0.467719897136378,9000,8756,142.168915981822,0,6.20000822753505,-0.0356925451039291,0,0.0197823405926261,5000,0.987007067020296,0.000784150684961911,0.173759321632369,1010.60003357232,8825.985,9836.58503357232,,,69.9800000190735,244,10048.9151807512,10063.3647923741
2018-07-19T08:01:11Z,1531987271,102,41.0623045,44.8729989,9000,0,6.2,236.8,537324.69,2445.33,231.1,Air+FixedWing,Red,Allies,E-2C,Red AWACS,xu,,142.817600338635,89.7937774658203,0.469853996412209,9000,8756,142.817600338635,0,6.20000822753505,-0.0530675533957105,0,0.0197823405926261,5000,1.00053615014852,-0.00222884144435954,0.04922213437035,1019.8433483243,8825.985,9845.8283483243,,,70.9800000190735,244,10190.9965387378,10205.6466371515
2018-07-19T08:01:12Z,1531987272,102,41.0608061,44.8723005,9000,0,6.2,236.8,537214.06,2355.92,231.1,Air+FixedWing,Red,Allies,E-2C,Red AWACS,xu,,142.237781347046,89.4159545898438,0.467946456516933,9000,8756,142.237781347046,0,6.20000822753505,-0.0529207444188284,0,0.0197823405926261,5000,0.996041088563156,-0.00139242470411147,0.0905998331475076,1011.57932212651,8825.985,9837.56432212651,,,71.9800000190735,244,10332.485199267,10347.3349481348
2018-07-19T08:01:13Z,1531987273,102,41.0593096,44.8716031,9000,0,6.2,236.8,537103.56,2266.63,231.1,Air+FixedWing,Red,Allies,E-2C,Red AWACS,xu,,142.066134888399,89.3039474487305,0.467381758787984,9000,8756,142.066134888399,0,6.20000822753505,-0.0495680900366567,0,0.0197823405926261,5000,0.994497445535311,0.00617211482450731,0.104809292798425,1009.13933410645,8825.985,9835.12433410644,,,72.9800000190735,244,10473.7796845208,10488.828809847
2018-07-19T08:01:14Z,1531987274,102,41.0578127,44.8709054,9000,0,6.2,236.8,536993.12,2177.31,231.1,Air+FixedWing,Red,Allies,E-2C,Red AWACS,xu,,142.034720514616,89.2838516235352,0.467278408997538,9000,8756,142.034720514616,0,6.20000822753505,-0.0512214147227424,0,0.0197823405926261,5000,0.994746882169174,-0.00683926514337589,0.102513192132407,1008.69309158325,8825.985,9834.67809158325,,,73.9800000190735,244,10615.1259571752,10630.3745320356
2018-07-19T08:01:15Z,1531987275,102,41.0563172,44.8702083,9000,0,6.2,236.8,536882.69,2088.08,231.1,Air+FixedWing,Red,Allies,E-2C,Red AWACS,xu,,141.980542293969,89.2482833862305,0.467100168686616,9000,8756,141.980542293969,0,6.20000822753505,-0.0441514444333253,0,0.0197823405926261,5000,0.994690767212586,0.00395371295788821,0.103029738508134,1007.92371950448,8825.985,9833.90871950447,,,74.9800000190735,244,10756.3414235917,10771.7892634092
2018-07-19T08:01:16Z,1531987276,102,41.0548219,44.8695113,9000,0,6.2,236.8,536772.31,1998.85,231.1,Air+FixedWing,Red,Allies,E-2C,Red AWACS,xu,,141.931549296124,89.2165679931641,0.466938987181121,9000,8756,141.931549296124,0,6.20000822753505,-0.042249898449826,0,0.0197823405926261,5000,0.993552737719458,-0.00328528619458377,0.11350546629782,1007.2282342799,8825.985,9833.2132342799,,,75.9800000190735,244,10897.5438009686,10913.1908872742
2018-07-19T08:01:17Z,1531987277,102,41.0533264,44.868814,9000,0,6.2,236.8,536661.88,1909.61,231.1,Air+FixedWing,Red,Allies,E-2C,Red AWACS,xu,,141.98583593763,89.2517623901367,0.467117584184591,9000,8756,141.98583593763,0,6.20000822753505,-0.0564798134567867,0,0.0197823405926261,5000,0.993871447324922,0.00320651099498218,0.110571697805035,1007.99888034537,8825.985,9833.98388034537,,,76.9800000190735,244,11038.7705894323,11054.6169566717
2018-07-19T08:01:18Z,1531987278,102,41.0518303,44.8681166,9000,0,6.2,236.8,536551.44,1820.34,231.1,Air+FixedWing,Red,Allies,E-2C,Red AWACS,xu,,142.011234285874,89.2683944702148,0.467201141921148,9000,8756,142.011234285874,0,6.20000822753505,-0.0476372015619299,0,0.0197823405926261,5000,0.998743021871266,-0.00195046134575547,0.0657281422004982,1008.35953316987,8825.985,9834.34453316986,,,77.9800000190735,244,11180.0517668333,11196.0974917522
2018-07-19T08:01:19Z,1531987279,102,41.0503388,44.8674212,9000,0,6.2,236.8,536441.31,1731.33,231.1,Air+FixedWing,Red,Allies,E-2C,Red AWACS,xu,,141.594238838225,88.9969635009766,0.465829273348233,9000,8756,141.594238838225,0,6.20000822753505,-0.0488962357600696,0,0.0197823405926261,5000,0.991370433489263,0.00145895967044564,0.133593895646851,1002.44642360881,8825.985,9828.43142360881,,,78.9800000190735,244,11320.8983679206,11337.1428373022
2018-07-19T08:01:20Z,1531987280,102,41.0488445,44.8667245,9000,0,6.2,236.8,536331,1642.16,231.1,Air+FixedWing,Red,Allies,E-2C,Red AWACS,xu,,141.846722619022,89.1612319946289,0.466659916862448,9000,8756,141.846722619022,0,6.20000822753505,-0.0417757221131406,0,0.0197823405926261,5000,0.998759905860548,-0.0021442082336698,0.0655727226118265,1006.02463588789,8825.985,9832.00963588789,,,79.9800000190735,244,11462.0142088563,11478.4578026171
2018-07-19T08:01:21Z,1531987281,102,41.0473549,44.8660299,9000,0,6.2,236.8,536221,1553.27,231.1,Air+FixedWing,Red,Allies,E-2C,Red AWACS,xu,,141.428193265515,88.8887023925781,0.465283001910127,9000,8756,141.428193265515,0,6.20000822753505,-0.0431207754891494,0,0.0523391626455858,5000,0.995610546836475,0.00354812093770397,0.0945630326586365,1000.0966925174,8825.985,9826.0816925174,,,80.9800000190735,244,11602.6978955977,11619.3400039377
2018-07-19T08:01:22Z,1531987282,102,41.0458664,44.8653359,9000,0,6.3,236.8,536111.12,1464.43,231.1,Air+FixedWing,Red,Allies,E-2C,Red AWACS,xu,,141.295681277979,88.8024749755859,0.464847052231873,9000,8756,141.295681277979,0,6.30000282459342,-0.0524046761507844,0,0.0523391626455858,5000,0.990552818300006,-0.00210725951161392,0.140603444477803,998.223477390409,8825.985,9824.20847739041,,,81.9800000190735,244,11743.2763298631,11760.116804263
2018-07-19T08:01:23Z,1531987283,102,41.0443749,44.8646403,9000,0,6.3,236.8,536001,1375.42,231.1,Air+FixedWing,Red,Allies,E-2C,Red AWACS,xu,,141.600223980122,89.0008392333984,0.46584896379838,9000,8756,141.600223980122,0,6.30000282459342,-0.0586911674325361,0,0,5000,0.999316800677758,0.000404839786839512,0.0612203037100239,1002.53117156103,8825.985,9828.51617156103,,,82.9800000190735,244,11884.1474286431,11901.1866820735
2018-07-19T08:01:24Z,1531987284,102,41.0428884,44.8639471,9000,0,6.3,236.8,535891.25,1286.71,231.1,Air+FixedWing,Red,Allies,E-2C,Red AWACS,xu,,141.1215765439,88.6889190673828,0.464274267050583,9000,8756,141.1215765439,0,6.30000282459342,-0.0464514718387152,0,0,5000,0.989597677680975,-0.00146917122593248,0.149254997954916,995.764968311787,8825.985,9821.74996831179,,,83.9800000190735,244,12024.5375241893,12041.7748779203
2018-07-19T08:01:25Z,1531987285,102,41.041398,44.863252,9000,0,6.3,236.8,535781.19,1197.76,231.1,Air+FixedWing,Red,Allies,E-2C,Red AWACS,xu,,141.51148456149,88.9430465698242,0.465557020995921,9000,8756,141.51148456149,0,6.30000282459342,-0.0512753819903664,0,0,5000,0.996646090373443,0.000120077466056166,0.0854112893714711,1001.27501313984,8825.985,9827.26001313984,,,84.9800000190735,244,12165.3072559447,12182.7432456705
2018-07-19T08:01:26Z,1531987286,102,41.0399103,44.8625582,9000,0,6.3,236.8,535671.31,1108.96,231.1,Air+FixedWing,Red,Allies,E-2C,Red AWACS,xu,,141.271508467698,88.7865371704102,0.4647675263787,9000,8756,141.271508467698,0,6.30000282459342,-0.0363138368727743,0,0,5000,0.995642915186325,0.00130065703789773,0.0944979344217735,997.881955236942,8825.985,9823.86695523694,,,85.9800000190735,244,12305.8226528212,12323.4569196572
2018-07-19T08:01:27Z,1531987287,102,41.0384239,44.8618648,9000,0,6.3,236.8,535561.56,1020.25,231.1,Air+FixedWing,Red,Allies,E-2C,Red AWACS,xu,,141.121192854643,88.6889190673828,0.464273004755668,9000,8756,141.121192854643,0,6.30000282459342,-0.0500563636989753,0,0,5000,0.993970662388334,-0.00011140446055074,0.109645007240999,995.759553635865,8825.985,9821.74455363586,,,86.9800000190735,244,12446.2246648854,12464.0570488369
2018-07-19T08:01:28Z,1531987288,102,41.0369376,44.8611716,9000,0,6.3,236.8,535451.81,931.53,231.1,Air+FixedWing,Red,Allies,E-2C,Red AWACS,xu,,141.120310375411,88.6881408691406,0.464270101497297,9000,8756,141.120310375411,0,6.30000282459342,-0.0590778339539479,0,0,5000,0.99031779202044,0.000547072852812421,0.142732285389479,995.747100022621,8825.985,9821.73210002262,,,87.9800000190735,244,12586.6141001709,12604.6445834929
2018-07-19T08:01:29Z,1531987289,102,41.0354479,44.8604766,9000,0,6.3,236.8,535341.81,842.61,231.1,Air+FixedWing,Red,Allies,E-2C,Red AWACS,xu,,141.445880228226,88.8999710083008,0.465341190047264,9000,8756,141.445880228226,0,6.30000282459342,-0.0379284784881597,0,0,5000,0.999394427970826,-0.000471864880972837,0.0605171646497806,1000.34685167689,8825.985,9826.33185167689,,,88.9800000190735,244,12727.3367347513,12745.56578761
2018-07-19T08:01:30Z,1531987290,102,41.0339633,44.8597841,9000,0,6.3,236.8,535232.19,754,231.1,Air+FixedWing,Red,Allies,E-2C,Red AWACS,xu,,140.960288027901,88.5841903686523,0.463743645799155,9000,8756,140.960288027901,0,6.30000282459342,-0.0510424585582044,0,0,5000,0.997801089106121,-0.00277516206382723,0.0749494441701957,993.490140045434,8825.985,9819.47514004543,,,89.9800000190735,244,12867.5700775038,12885.9970094745
2018-07-19T08:01:31Z,1531987291,102,41.0324828,44.8590933,9000,0,6.3,236.8,535122.81,665.62,231.1,Air+FixedWing,Red,Allies,E-2C,Red AWACS,xu,,140.617071175952,88.3606643676758,0.46261450058777,9000,8756,140.617071175952,0,6.30000282459342,-0.0501975887162624,0,0,5000,0.989819862256613,0.00617057627452589,0.147242475715128,988.658035305142,8825.985,9814.64303530514,,,90.9800000190735,244,13007.4286319043,13026.0529141337
2018-07-19T08:01:32Z,1531987292,102,41.0309976,44.8584004,9000,0,6.3,236.8,535013.19,576.97,231.1,Air+FixedWing,Red,Allies,E-2C,Red AWACS,xu,,140.98718846443,88.6017150878906,0.46383214523885,9000,8756,140.98718846443,0,6.30000282459342,-0.0452893321974431,0,0,5000,1.00256649907954,-0.00584935535948582,0.0317849106931706,993.869365555234,8825.985,9819.85436555523,,,91.9800000190735,244,13147.7303384104,13166.5525962177
2018-07-19T08:01:33Z,1531987293,102,41.0295212,44.8577115,9000,0,6.3,236.8,534904.12,488.84,231.1,Air+FixedWing,Red,Allies,E-2C,Red AWACS,xu,,140.218069835269,88.1013336181641,0.461301830622379,9000,8756,140.218069835269,0,6.30000282459342,-0.0528576691157105,0,0,5000,0.983801215315739,0.00310044033442846,0.201758684984541,983.055355416425,8825.985,9809.04035541642,,,92.9800000190735,244,13287.2083393555,13306.2274104343
2018-07-19T08:01:34Z,1531987294,102,41.0280351,44.8570181,9000,0,6.3,236.8,534794.38,400.12,231.1,Air+FixedWing,Red,Allies,E-2C,Red AWACS,xu,,141.126027455953,88.6920394897461,0.464288910055442,9000,8756,141.126027455953,0,6.30000282459342,-0.0423168604782063,0,0,5000,1.00038066239509,-0.001461119400999,0.0515839670739512,995.827781274915,8825.985,9821.81278127491,,,93.9800000190735,244,13427.6026669285,13446.8198442802
2018-07-19T08:01:35Z,1531987295,102,41.0265551,44.8563275,9000,0,6.3,236.8,534685.06,311.77,231.1,Air+FixedWing,Red,Allies,E-2C,Red AWACS,xu,,140.552290037342,88.318473815918,0.462401377857828,9000,8755.59289550781,140.552290037342,0,6.30000282459342,-0.0595528809057675,0,0,5000,0.988757905801365,-0.00213403076147492,0.156861554707137,987.747311737062,8825.985,9813.73231173706,,,94.9800000190735,244.407104492188,13567.4243204937,13586.8387960343
2018-07-19T08:01:36Z,1531987296,102,41.0250705,44.8556347,9000,0,6.3,236.8,534575.38,223.14,231.1,Air+FixedWing,Red,Allies,E-2C,Red AWACS,xu,,141.017242542461,88.6211929321289,0.463931019807796,9000,8755,141.017242542461,0,6.30000282459342,-0.0394546727046604,0,0,5000,1.00436679727733,0.00426563968685091,0.0154780174226838,994.293134713965,8825.985,9820.27813471396,,,95.9800000190735,245,13707.6818284914,13727.2942172428
2018-07-19T08:01:37Z,1531987297,102,41.0235951,44.8549462,9000,0,6.3,236.8,534466.44,135.07,231.1,Air+FixedWing,Red,Allies,E-2C,Red AWACS,xu,,140.087321574524,88.0158920288086,0.460871683408803,9000,8754.93530273438,140.087321574524,0,6.30000282459342,-0.0487665919781124,0,0,5000,0.992397025201945,-0.00263720783499425,0.123898831233349,981.222883296199,8825.985,9807.2078832962,,,96.9800000190735,245.064697265625,13847.0718447144,13866.8809225846
2018-07-19T08:01:38Z,1531987298,102,41.0221187,44.8542572,9000,0,6.3,236.8,534357.38,46.93,231.1,Air+FixedWing,Red,Allies,E-2C,Red AWACS,xu,,140.227049110289,88.106819152832,0.461331371436975,9000,8754.05880737305,140.227049110289,0,6.30000282459342,-0.0357939947253528,0,0,5000,0.984840738088976,0.00150935954381841,0.192342807694704,983.181265108963,8825.985,9809.16626510896,,,97.9800000190735,245.941192626953,13986.5605482365,14006.5664544797
2018-07-19T08:01:39Z,1531987299,102,41.0206336,44.853564,9000,0,6.4,236.8,534247.69,-41.74,231.1,Air+FixedWing,Red,Allies,E-2C,Red AWACS,xu,,141.042095349776,88.6371536254883,0.464012782775466,9000,8752.82659912109,141.042095349776,0,6.38571127103184,-0.0545300520328419,0,0.0513960362511687,5000,1.00583719559121,-0.00223904381897401,0.00362591687389991,994.643633032771,8825.985,9820.62863303277,,,98.9800000190735,247.173400878906,14126.8839624139,14147.0878748664
2018-07-19T08:01:40Z,1531987300,102,41.0191599,44.8528761,9000,0,6.4,236.8,534138.81,-129.72,231.1,Air+FixedWing,Red,Allies,E-2C,Red AWACS,xu,,139.980342608546,87.9464645385742,0.460519734527311,9000,8751.44309997559,139.980342608546,0,6.39999669631503,-0.0530929187115936,0,0.0513960362511687,5000,0.988824629223357,0.00421306172118002,0.155538251803276,979.7248158403,8825.985,9805.7098158403,,,99.9800000190735,248.556900024414,14266.1258519061,14286.5262444602
2018-07-19T08:01:41Z,1531987301,102,41.0176811,44.8521858,9000,0,6.4,236.8,534029.62,-218.01,231.1,Air+FixedWing,Red,Allies,E-2C,Red AWACS,xu,,140.415261646607,88.2293395996094,0.461950569716139,9000,8749.70483398438,140.415261646607,0,6.39999669631503,-0.0385420848305316,0,0.0139882274201861,5000,0.993391799346911,-0.00596868059219726,0.114820982745449,985.822285164252,8825.985,9811.80728516425,,,100.980000019073,250.295166015625,14405.8527572058,14426.4503142535
2018-07-19T08:01:42Z,1531987302,102,41.0162029,44.8514958,9000,0,6.4,236.8,533920.38,-306.27,231.1,Air+FixedWing,Red,Allies,E-2C,Red AWACS,xu,,140.448293423612,88.250846862793,0.46205924058302,9000,8747.44348144531,140.448293423612,0,6.39999669631503,-0.0574867416356149,0,0.0139882274201861,5000,1.00049163625517,0.00643655364399532,0.0515244639297081,986.286156280257,8825.985,9812.27115628026,,,101.980000019073,252.556518554688,14545.5284980299,14566.3231473733
2018-07-19T08:01:43Z,1531987303,102,41.01473,44.8508082,9000,0,6.4,236.8,533811.62,-394.21,231.1,Air+FixedWing,Red,Allies,E-2C,Red AWACS,xu,,139.856805405126,87.8659896850586,0.460113310889083,9000,8745.65550231934,139.856805405126,0,6.39999669631503,-0.0373744615100294,0,0.0139882274201861,5000,0.987610233505289,-0.00258334688421267,0.166364841542124,977.996300906362,8825.985,9803.98130090636,,,102.980000019073,254.344497680664,14684.7094286603,14705.7004720884
2018-07-19T08:01:44Z,1531987304,102,41.0132519,44.8501181,9000,0,6.4,236.8,533702.44,-482.47,231.1,Air+FixedWing,Red,Allies,E-2C,Red AWACS,xu,,140.398502413944,88.218376159668,0.461895433707518,9000,8743.91610717773,140.398502413944,0,6.39999669631503,-0.0596355887157558,0,0.0139882274201861,5000,0.998527936095318,-0.00217811393905481,0.0690312582015491,985.586974003911,8825.985,9811.57197400391,,,103.980000019073,256.083892822266,14824.3835451677,14845.5716786002
2018-07-19T08:01:45Z,1531987305,102,41.0117785,44.8494302,9000,0,6.4,236.8,533593.56,-570.45,231.1,Air+FixedWing,Red,Allies,E-2C,Red AWACS,xu,,139.979704838488,87.9460678100586,0.460517636334861,9000,8742.04241943359,139.979704838488,0,6.39999669631503,-0.0352569486346055,0,0.0139882274201861,5000,0.992809758666158,0.000502465464141406,0.120009996151934,979.715888333507,8825.985,9805.70088833351,,,104.980000019073,257.957580566406,14963.616417584,14985.0010183942
2018-07-19T08:01:46Z,1531987306,102,41.010304,44.8487417,9000,0,6.4,236.8,533484.62,-658.48,231.1,Air+FixedWing,Red,Allies,E-2C,Red AWACS,xu,,140.063993517524,88.0009918212891,0.460794936699826,9000,8739.85470581055,140.063993517524,0,6.39999669631503,-0.0621285229616415,0,0.0139882274201861,5000,0.994317625307558,0.0040360553852518,0.106567052254446,980.896114003845,8825.985,9806.88111400384,,,105.980000019073,260.145294189453,15102.9561252575,15124.5373441975
2018-07-19T08:01:47Z,1531987307,102,41.0088298,44.8480533,9000,0,6.4,236.8,533375.75,-746.52,231.1,Air+FixedWing,Red,Allies,E-2C,Red AWACS,xu,,140.015657074785,87.9696197509766,0.460635915187496,9000,8738.25961303711,140.015657074785,0,6.39999669631503,-0.0397015783227771,0,0.0139882274201861,5000,0.996337802070331,-0.00827528289726809,0.0885567573521479,980.219211304188,8825.985,9806.20421130419,,,106.980000019073,261.740386962891,15242.2740122474,15264.0518185271
2018-07-19T08:01:48Z,1531987308,102,41.0073588,44.8473665,9000,0,6.4,236.8,533267,-834.35,231.1,Air+FixedWing,Red,Allies,E-2C,Red AWACS,xu,,139.789496263017,87.8223724365234,0.459891871309227,9000,8735.83056640625,139.789496263017,0,6.39999669631503,-0.0555992326810035,0,0.0139882274201861,5000,0.99408019104782,0.00667585673308457,0.108683827932989,977.055163273402,8825.985,9803.0401632734,,,107.980000019073,264.16943359375,15381.2847248562,15403.2586850305
2018-07-19T08:01:49Z,1531987309,102,41.0058873,44.8466793,9000,0,6.4,236.8,533158.31,-922.22,231.1,Air+FixedWing,Red,Allies,E-2C,Red AWACS,xu,,139.762058352441,87.8046951293945,0.459801603639789,9000,8734.07885742188,139.762058352441,0,6.39999669631503,-0.0478295265534624,0,0.0139882274201861,5000,0.992721755509338,0.00148088724810878,0.12079456255022,976.671647745557,8825.985,9802.65664774556,,,108.980000019073,265.921142578125,15520.350169186,15542.520360485
2018-07-19T08:01:50Z,1531987310,102,41.0044148,44.8459917,9000,0,6.4,236.8,533049.56,-1010.16,231.1,Air+FixedWing,Red,Allies,E-2C,Red AWACS,xu,,139.854099806548,87.8644104003906,0.460104409771144,9000,8732.43118286133,139.854099806548,0,6.39999669631503,-0.0489908448968765,0,0.0139882274201861,5000,0.996932066297097,-0.00473328207619783,0.0832587684973233,977.958461635001,8825.985,9803.943461635,,,109.980000019073,267.568817138672,15659.5099600489,15681.8765156024
2018-07-19T08:01:51Z,1531987311,102,41.0029458,44.8453056,9000,0,6.4,236.8,532941,-1097.88,231.1,Air+FixedWing,Red,Allies,E-2C,Red AWACS,xu,,139.575678230439,87.6831512451172,0.45918843379961,9000,8731.19610595703,139.575678230439,0,6.39999669631503,-0.0487319956687745,0,0.0139882274201861,5000,0.989069524146761,0.00149031248695893,0.153354962760521,974.068497674353,8825.985,9800.05349767435,,,110.980000019073,268.803894042969,15798.3515904618,15820.9140613236
2018-07-19T08:01:52Z,1531987312,102,41.0014723,44.8446174,9000,0,6.4,236.8,532832.12,-1185.88,231.1,Air+FixedWing,Red,Allies,E-2C,Red AWACS,xu,,139.989027273711,87.9519577026367,0.460548306108301,9000,8730,139.989027273711,0,6.39999669631503,-0.0408240755232781,0,0.0139882274201861,5000,0.999953027490204,0.00227577369964867,0.0563262727974979,979.846387851983,8825.985,9805.83138785198,,,111.980000019073,270,15937.6158117259,15960.3747942007
2018-07-19T08:01:53Z,1531987313,102,41.0000044,44.8439317,9000,0,6.4,236.8,532723.69,-1273.55,231.1,Air+FixedWing,Red,Allies,E-2C,Red AWACS,xu,,139.444891764053,87.5980987548828,0.458758160893733,9000,8729.00524902344,139.444891764053,0,6.39999669631503,-0.0477579229168166,0,0.0139882274201861,5000,0.991967604359041,-0.000283485876347491,0.127517976494999,972.243891954422,8825.985,9798.22889195442,,,112.980000019073,270.994750976562,16076.3624949786,16099.3172587843
2018-07-19T08:01:54Z,1531987314,102,40.9985348,44.8432452,9000,0,6.4,236.8,532615.12,-1361.31,231.1,Air+FixedWing,Red,Allies,E-2C,Red AWACS,xu,,139.603263983001,87.7012557983398,0.459279187852713,9000,8729,139.603263983001,0,6.39999669631503,-0.0554773747608648,0,0.0139882274201861,5000,0.99208523234093,-0.00159127736976923,0.126469298635904,974.45356573537,8825.985,9800.43856573537,,,113.980000019073,271,16215.2645904963,16238.41535493
2018-07-19T08:01:55Z,1531987315,102,40.9970638,44.8425581,9000,0,6.4,236.8,532506.44,-1449.16,231.1,Air+FixedWing,Red,Allies,E-2C,Red AWACS,xu,,139.751276508195,87.7976150512695,0.459766132573228,9000,8729,139.751276508195,0,6.39999669631503,-0.050860106432742,0,0.0139882274201861,5000,0.995037769952232,-0.00397053475780794,0.100146813361542,976.520964283496,8825.985,9802.50596428349,,,114.980000019073,271,16354.305565,16377.6525260306
2018-07-19T08:01:56Z,1531987316,102,40.9955947,44.8418717,9000,0,6.4,236.8,532397.81,-1536.91,231.1,Air+FixedWing,Red,Allies,E-2C,Red AWACS,xu,,139.639521794754,87.7248687744141,0.459398472014561,9000,8729,139.639521794754,0,6.39999669631503,-0.029647692901253,0,0.0139882274201861,5000,0.995233406018153,0.00400342612430265,0.0984026772514281,974.959802353382,8825.985,9800.94480235338,,,115.980000019073,271,16493.1725923132,16516.7155044881
2018-07-19T08:01:57Z,1531987317,102,40.9941263,44.8411858,9000,0,6.4,236.8,532289.31,-1624.61,231.1,Air+FixedWing,Red,Allies,E-2C,Red AWACS,xu,,139.510609890749,87.6410293579102,0.458974366210105,9000,8729.01992797852,139.510609890749,0,6.39999669631503,-0.0445954616358348,0,0.0139882274201861,5000,0.994545475065068,0.00150281482577192,0.104535724401458,973.160513604432,8825.985,9799.14551360443,,,116.980000019073,270.980072021484,16631.9681052832,16655.706867691
2018-07-19T08:01:58Z,1531987318,102,40.9926586,44.8405,9000,0,6.4,236.8,532180.88,-1712.28,231.1,Air+FixedWing,Red,Allies,E-2C,Red AWACS,xu,,139.442205649382,87.5965194702148,0.458749323875676,9000,8729,139.442205649382,0,6.39999669631503,-0.0586190160753064,0,0.0139882274201861,5000,0.999374882653548,-0.00144544299274235,0.0614805539457058,972.206435818225,8825.985,9798.19143581822,,,117.980000019073,271,16770.7102110654,16794.6447483446
2018-07-19T08:01:59Z,1531987319,102,40.9911961,44.8398167,9000,0,6.4,236.8,532072.81,-1799.62,231.1,Air+FixedWing,Red,Allies,E-2C,Red AWACS,xu,,138.948900986298,87.2760162353516,0.457126406484198,9000,8728.90390014648,138.948900986298,0,6.39999669631503,-0.0448290925060695,0,0.0139882274201861,5000,0.982889087226066,-0.000838741606866172,0.208454839968302,965.339854265004,8825.985,9791.324854265,,,118.980000019073,271.096099853516,16908.9583391424,16933.0879542562
2018-07-19T08:02:00Z,1531987320,102,40.9897239,44.8391288,9000,0,6.4,236.8,531964,-1887.56,231.1,Air+FixedWing,Red,Allies,E-2C,Red AWACS,xu,,139.905966026729,87.8981857299805,0.460275043858068,9000,8729,139.905966026729,0,6.39999669631503,-0.0644702792088564,0,0.0197823405926261,5000,1.00653819180043,0.000105056321663422,-0.0023818330439834,978.683966493607,8825.985,9804.66896649361,,,119.980000019073,271,17048.1295008991,17072.4554963127
2018-07-19T08:02:01Z,1531987321,102,40.9882633,44.8384463,9000,0,6.5,236.8,531856.06,-1974.8,231.1,Air+FixedWing,Red,Allies,E-2C,Red AWACS,xu,,138.782471377681,87.1676025390625,0.456578871610732,9000,8729.07144165039,138.782471377681,0,6.49999046451537,-0.0381871524383135,0,0.0504352774299245,5000,0.983977700789279,0.00354249094886943,0.197409156861795,963.028718084842,8825.985,9789.01371808484,,,120.980000019073,270.928558349609,17186.2031641733,17210.7239912388
2018-07-19T08:02:02Z,1531987322,102,40.9867938,44.8377596,9000,0,6.5,236.8,531747.5,-2062.58,231.1,Air+FixedWing,Red,Allies,E-2C,Red AWACS,xu,,139.613625182622,87.7079467773438,0.459313275045315,9000,8730,139.613625182622,0,6.49999046451537,-0.0349880711738201,0,0.0395646845203054,5000,1.00421662978022,-0.00489744271983389,0.0197740552497205,974.598216831684,8825.985,9800.58321683168,,,121.980000019073,270,17325.124067033,17349.8409212649
2018-07-19T08:02:03Z,1531987323,102,40.9853345,44.8370776,9000,0,6.5,236.8,531639.62,-2149.75,231.1,Air+FixedWing,Red,Allies,E-2C,Red AWACS,xu,,138.691430750228,87.1085891723633,0.456279358087587,9000,8730,138.691430750228,0,6.49999046451537,-0.0459008383376312,0,0,5000,0.981308402163292,0.00231805622170157,0.220837330006358,961.765648177266,8825.985,9787.75064817727,,,122.980000019073,270,17463.083513319,17487.9950380348
2018-07-19T08:02:04Z,1531987324,102,40.9838639,44.8363902,9000,0,6.5,236.7,531530.94,-2237.6,231.1,Air+FixedWing,Red,Allies,E-2C,Red AWACS,xu,,139.753808784275,87.799186706543,0.459774463479457,9000,8731.12017822266,139.753808784275,0,6.49999046451537,-0.0712081897833353,0,0,5000,1.00381312727127,-0.000480013675387136,0.0233155573326716,976.556353485584,8825.985,9802.54135348558,,,123.980000019073,268.879821777344,17602.1257510903,17627.2334741856
2018-07-19T08:02:05Z,1531987325,102,40.9824026,44.8357072,9000,0,6.5,236.7,531422.94,-2324.9,231.1,Air+FixedWing,Red,Allies,E-2C,Red AWACS,xu,,138.866606940492,87.2222213745117,0.456855668240375,9000,8732.15148925781,138.866606940492,0,6.49999046451537,-0.0440410860000658,0,0,5000,0.99294126050423,-0.0032465368170009,0.118736869336907,964.196726158261,8825.985,9790.18172615826,,,124.980000019073,267.848510742188,17740.2804234617,17765.5830925181
2018-07-19T08:02:06Z,1531987326,102,40.9809411,44.8350241,9000,0,6.5,236.7,531314.88,-2412.2,231.1,Air+FixedWing,Red,Allies,E-2C,Red AWACS,xu,,138.921203649416,87.2578277587891,0.457035285331109,9000,8732.97119140625,138.921203649416,0,6.49999046451537,-0.0512162595557255,0,0,5000,0.993083308247842,0.00534741410643554,0.11749013017489,964.95504117012,8825.985,9790.94004117012,,,125.980000019073,267.02880859375,17878.4571483018,17903.954794438
2018-07-19T08:02:07Z,1531987327,102,40.9794787,44.8343405,9000,0,6.5,236.7,531206.81,-2499.57,231.1,Air+FixedWing,Red,Allies,E-2C,Red AWACS,xu,,138.963558675651,87.2855072021484,0.457174628649423,9000,8733.13012695312,138.963558675651,0,6.49999046451537,-0.044354874262982,0,0,5000,0.992651021857441,-6.90878552058719e-05,0.121284265572013,965.543531990051,8825.985,9791.52853199005,,,126.980000019073,266.869873046875,18016.7246762305,18042.417427575
2018-07-19T08:02:08Z,1531987328,102,40.9780154,44.8336564,9000,0,6.5,236.7,531098.69,-2586.99,231.1,Air+FixedWing,Red,Allies,E-2C,Red AWACS,xu,,139.043320370227,87.337287902832,0.457437035739784,9000,8731.38757324219,139.043320370227,0,6.49999046451537,-0.0408336128412359,0,0,5000,0.991946194298714,-0.00250188774296658,0.127470468165514,966.652246978879,8825.985,9792.63724697888,,,127.980000019073,268.612426757812,18155.0834556777,18180.9714409934
2018-07-19T08:02:09Z,1531987329,102,40.9765509,44.8329718,9000,0,6.5,236.7,530990.44,-2674.47,231.1,Air+FixedWing,Red,Allies,E-2C,Red AWACS,xu,,139.184119558416,87.4285278320312,0.457900249385058,9000,8729.62023925781,139.184119558416,0,6.49999046451537,-0.0513042140448655,0,0,5000,0.999873566649671,0.00205296477854719,0.0578926958580292,968.610956862569,8825.985,9794.59595686257,,,128.980000019073,270.379760742188,18293.5565549823,18319.6399355833
2018-07-19T08:02:10Z,1531987330,102,40.9750921,44.8322898,9000,0,6.5,236.7,530882.62,-2761.64,231.1,Air+FixedWing,Red,Allies,E-2C,Red AWACS,xu,,138.638218649552,87.0737228393555,0.456104296203751,9000,8726.83129882812,138.638218649552,0,6.49999046451537,-0.0447924168786847,0,0,5000,0.98841721517745,-0.00446383708864475,0.15844397299243,961.027783516049,8825.985,9787.01278351605,,,129.980000019073,273.168701171875,18431.4958567805,18457.7738794393
