ISOTime,UnixTime,Id,Longitude,Latitude,Altitude,Roll,Pitch,Yaw,U,V,Heading,Type,Color,Coalition,Name,Group,Country,Pilot,TAS,CAS,M,ASL,AGL,GS,VS,AOA,AOS,RRT,TRT,TRD,G,LatG,LonG,Ek,Ep,Em,FFW,FFV,RelativeTime,Elev,GroundDistance,AirDistance
2018-07-19T08:01:05Z,1531987265,104,40.027402,44.6682894,182.3,0.1,-0.4,342.2,457551.62,-27934.94,337.2,Air+FixedWing,Red,Allies,J-11A,Red J-11A #003,xu,<51>Moltar,0.170380465117625,0,0.000501540898841153,182.298004150391,2.29800415039062,NaN,NaN,NaN,NaN,NaN,NaN,NaN,NaN,NaN,NaN,NaN,178.773272240143,NaN,,,0.200000047683716,180,NaN,NaN
2018-07-19T08:01:06Z,1531987266,104,40.0274021,44.6682892,182.25,0,-0.3,342.3,457551.62,-27934.96,337.3,Air+FixedWing,Red,Allies,J-11A,Red J-11A #003,xu,<51>Moltar,0.0518253623362948,0,0.000152555779691579,182.25,2.25,0.01953125,-0.048004150390625,NaN,NaN,0,NaN,NaN,1.00489078423262,-0.000768583011013596,-0.00342426309985222,0.000134293409064412,178.72619625,178.726330543409,,,1.20000004768372,180,0.020592852112502,0.052234933398173
2018-07-19T08:01:07Z,1531987267,104,40.0274021,44.6682892,182.25,0,-0.3,342.3,457551.62,-27934.96,337.3,Air+FixedWing,Red,Allies,J-11A,Red J-11A #003,xu,<51>Moltar,0,0,0,182.25,2.25,0,0,NaN,NaN,0,0,NaN,0.999986171723233,0,-0.00523596443235874,0,178.72619625,178.72619625,,,2.20000004768372,180,0.020592852112502,0.052234933398173
2018-07-19T08:01:08Z,1531987268,104,40.0274021,44.6682892,182.25,0,-0.3,342.3,457551.62,-27934.96,337.3,Air+FixedWing,Red,Allies,J-11A,Red J-11A #003,xu,<51>Moltar,0,0,0,182.25,2.25,0,0,NaN,NaN,0,0,NaN,0.999985209689713,7.68583011013596e-05,-0.00541969760156306,0,178.72619625,178.72619625,,,3.20000004768372,180,0.020592852112502,0.052234933398173
2018-07-19T08:01:09Z,1531987269,104,40.0274021,44.6682892,182.25,0,-0.3,342.3,457551.62,-27934.96,337.3,Air+FixedWing,Red,Allies,J-11A,Red J-11A #003,xu,<51>Moltar,0.001953125,0,5.74931836031649e-06,182.25,2.25,0.001953125,0,NaN,NaN,0,0,NaN,0.999987133756753,-7.68583011013596e-05,-0.00505223126315442,1.9073486328125e-07,178.72619625,178.726196440735,,,4.20000004768372,180,0.020592852112502,0.052234933398173
2018-07-19T08:01:10Z,1531987270,104,40.0274021,44.6682892,182.25,0,-0.3,342.3,457551.62,-27934.96,337.3,Air+FixedWing,Red,Allies,J-11A,Red J-11A #003,xu,<51>Moltar,0,0,0,182.25,2.25,0,0,NaN,NaN,0,0,NaN,0.999986171723233,0,-0.00523596443235874,0,178.72619625,178.72619625,,,5.20000004768372,180,0.020592852112502,0.052234933398173
2018-07-19T08:01:11Z,1531987271,104,40.0274021,44.6682892,182.25,0,-0.3,342.3,457551.62,-27934.96,337.3,Air+FixedWing,Red,Allies,J-11A,Red J-11A #003,xu,<51>Moltar,0,0,0,182.25,2.25,0,0,NaN,NaN,0,0,NaN,0.999986171723233,0,-0.00523596443235874,0,178.72619625,178.72619625,,,6.20000004768372,180,0.020592852112502,0.052234933398173
2018-07-19T08:01:12Z,1531987272,104,40.0274021,44.6682892,182.25,0,-0.3,342.3,457551.62,-27934.96,337.3,Air+FixedWing,Red,Allies,J-11A,Red J-11A #003,xu,<51>Moltar,0,0,0,182.25,2.25,0,0,NaN,NaN,0,0,NaN,0.999986171723233,0,-0.00523596443235874,0,178.72619625,178.72619625,,,7.20000004768372,180,0.020592852112502,0.052234933398173
2018-07-19T08:01:13Z,1531987273,104,40.0274021,44.6682892,182.25,0,-0.3,342.3,457551.62,-27934.96,337.3,Air+FixedWing,Red,Allies,J-11A,Red J-11A #003,xu,<51>Moltar,0,0,0,182.25,2.25,0,0,NaN,NaN,0,0,NaN,0.999986171723233,0,-0.00523596443235874,0,178.72619625,178.72619625,,,8.20000004768372,180,0.020592852112502,0.052234933398173
2018-07-19T08:01:14Z,1531987274,104,40.0274021,44.6682892,182.25,0,-0.3,342.3,457551.62,-27934.96,337.3,Air+FixedWing,Red,Allies,J-11A,Red J-11A #003,xu,<51>Moltar,0,0,0,182.25,2.25,0,0,NaN,NaN,0,0,NaN,0.999986171723233,0,-0.00523596443235874,0,178.72619625,178.72619625,,,9.20000004768372,180,0.020592852112502,0.052234933398173
2018-07-19T08:01:15Z,1531987275,104,40.0274021,44.6682892,182.25,0,-0.3,342.3,457551.62,-27934.96,337.3,Air+FixedWing,Red,Allies,J-11A,Red J-11A #003,xu,<51>Moltar,0,0,0,182.25,2.25,0,0,NaN,NaN,0,0,NaN,0.999986171723233,0,-0.00523596443235874,0,178.72619625,178.72619625,,,10.2000000476837,180,0.020592852112502,0.052234933398173
2018-07-19T08:01:16Z,1531987276,104,40.0274021,44.6682892,182.25,0,-0.3,342.3,457551.62,-27934.96,337.3,Air+FixedWing,Red,Allies,J-11A,Red J-11A #003,xu,<51>Moltar,0,0,0,182.25,2.25,0,0,NaN,NaN,0,0,NaN,0.999985209689713,7.68583011013596e-05,-0.00541969760156306,0,178.72619625,178.72619625,,,11.2000000476837,180,0.020592852112502,0.052234933398173
2018-07-19T08:01:17Z,1531987277,104,40.0274021,44.6682892,182.25,0,-0.3,342.3,457551.62,-27934.96,337.3,Air+FixedWing,Red,Allies,J-11A,Red J-11A #003,xu,<51>Moltar,0.001953125,0,5.74931836031649e-06,182.25,2.25,0.001953125,0,NaN,NaN,0,0,NaN,0.999987133756753,-7.68583011013596e-05,-0.00505223126315442,1.9073486328125e-07,178.72619625,178.726196440735,,,12.2000000476837,180,0.020592852112502,0.052234933398173
2018-07-19T08:01:18Z,1531987278,104,40.0274021,44.6682892,182.25,0,-0.3,342.3,457551.62,-27934.96,337.3,Air+FixedWing,Red,Allies,J-11A,Red J-11A #003,xu,<51>Moltar,0,0,0,182.25,2.25,0,0,NaN,NaN,0,0,NaN,0.999986171723233,0,-0.00523596443235874,0,178.72619625,178.72619625,,,13.2000000476837,180,0.020592852112502,0.052234933398173
2018-07-19T08:01:19Z,1531987279,104,40.0274021,44.6682892,182.25,0,-0.3,342.3,457551.62,-27934.96,337.3,Air+FixedWing,Red,Allies,J-11A,Red J-11A #003,xu,<51>Moltar,0,0,0,182.25,2.25,0,0,NaN,NaN,0,0,NaN,0.999986171723233,0,-0.00523596443235874,0,178.72619625,178.72619625,,,14.2000000476837,180,0.020592852112502,0.052234933398173
2018-07-19T08:01:20Z,1531987280,104,40.0274021,44.6682892,182.25,0,-0.3,342.3,457551.62,-27934.96,337.3,Air+FixedWing,Red,Allies,J-11A,Red J-11A #003,xu,<51>Moltar,0,0,0,182.25,2.25,0,0,NaN,NaN,0,0,NaN,0.999986171723233,0,-0.00523596443235874,0,178.72619625,178.72619625,,,15.2000000476837,180,0.020592852112502,0.052234933398173
2018-07-19T08:01:21Z,1531987281,104,40.0274021,44.6682892,182.25,0,-0.3,342.3,457551.62,-27934.96,337.3,Air+FixedWing,Red,Allies,J-11A,Red J-11A #003,xu,<51>Moltar,0,0,0,182.25,2.25,0,0,NaN,NaN,0,0,NaN,0.999986171723233,0,-0.00523596443235874,0,178.72619625,178.72619625,,,16.2000000476837,180,0.020592852112502,0.052234933398173
2018-07-19T08:01:22Z,1531987282,104,40.0274021,44.6682892,182.25,0,-0.3,342.3,457551.62,-27934.96,337.3,Air+FixedWing,Red,Allies,J-11A,Red J-11A #003,xu,<51>Moltar,0,0,0,182.25,2.25,0,0,NaN,NaN,0,0,NaN,0.999986171723233,0,-0.00523596443235874,0,178.72619625,178.72619625,,,17.2000000476837,180,0.020592852112502,0.052234933398173
2018-07-19T08:01:23Z,1531987283,104,40.0274021,44.6682892,182.25,0,-0.3,342.3,457551.62,-27934.96,337.3,Air+FixedWing,Red,Allies,J-11A,Red J-11A #003,xu,<51>Moltar,0,0,0,182.25,2.25,0,0,NaN,NaN,0,0,NaN,0.999985209689713,7.68583011013596e-05,-0.00541969760156306,0,178.72619625,178.72619625,,,18.2000000476837,180,0.020592852112502,0.052234933398173
2018-07-19T08:01:24Z,1531987284,104,40.0274021,44.6682892,182.25,0,-0.3,342.3,457551.62,-27934.97,337.3,Air+FixedWing,Red,Allies,J-11A,Red J-11A #003,xu,<51>Moltar,0.001953125,0,5.74931836031649e-06,182.25,2.25,0.001953125,0,NaN,NaN,0,0,NaN,0.999987133756753,-7.68583011013596e-05,-0.00505223126315442,1.9073486328125e-07,178.72619625,178.726196440735,,,19.2000000476837,180,0.020592852112502,0.052234933398173
2018-07-19T08:01:25Z,1531987285,104,40.0274021,44.6682892,182.25,0,-0.3,342.3,457551.62,-27934.97,337.3,Air+FixedWing,Red,Allies,J-11A,Red J-11A #003,xu,<51>Moltar,0,0,0,182.25,2.25,0,0,NaN,NaN,0,0,NaN,0.999986171723233,0,-0.00523596443235874,0,178.72619625,178.72619625,,,20.2000000476837,180,0.020592852112502,0.052234933398173
2018-07-19T08:01:26Z,1531987286,104,40.0274021,44.6682892,182.25,0,-0.3,342.3,457551.62,-27934.97,337.3,Air+FixedWing,Red,Allies,J-11A,Red J-11A #003,xu,<51>Moltar,0,0,0,182.25,2.25,0,0,NaN,NaN,0,0,NaN,0.999986171723233,0,-0.00523596443235874,0,178.72619625,178.72619625,,,21.2000000476837,180,0.020592852112502,0.052234933398173
2018-07-19T08:01:27Z,1531987287,104,40.0274021,44.6682892,182.25,0,-0.3,342.3,457551.62,-27934.97,337.3,Air+FixedWing,Red,Allies,J-11A,Red J-11A #003,xu,<51>Moltar,0,0,0,182.25,2.25,0,0,NaN,NaN,0,0,NaN,0.999986171723233,0,-0.00523596443235874,0,178.72619625,178.72619625,,,22.2000000476837,180,0.020592852112502,0.052234933398173
2018-07-19T08:01:28Z,1531987288,104,40.0274021,44.6682892,182.25,0,-0.3,342.3,457551.62,-27934.97,337.3,Air+FixedWing,Red,Allies,J-11A,Red J-11A #003,xu,<51>Moltar,0,0,0,182.25,2.25,0,0,NaN,NaN,0,0,NaN,0.999986171723233,0,-0.00523596443235874,0,178.72619625,178.72619625,,,23.2000000476837,180,0.020592852112502,0.052234933398173
2018-07-19T08:01:29Z,1531987289,104,40.0274021,44.6682892,182.25,0,-0.3,342.3,457551.62,-27934.97,337.3,Air+FixedWing,Red,Allies,J-11A,Red J-11A #003,xu,<51>Moltar,0,0,0,182.25,2.25,0,0,NaN,NaN,0,0,NaN,0.999986171723233,0,-0.00523596443235874,0,178.72619625,178.72619625,,,24.2000000476837,180,0.020592852112502,0.052234933398173
2018-07-19T08:01:30Z,1531987290,104,40.0274021,44.6682892,182.25,0,-0.3,342.3,457551.62,-27934.97,337.3,Air+FixedWing,Red,Allies,J-11A,Red J-11A #003,xu,<51>Moltar,0,0,0,182.25,2.25,0,0,NaN,NaN,0,0,NaN,0.999985209689713,7.68583011013596e-05,-0.00541969760156306,0,178.72619625,178.72619625,,,25.2000000476837,180,0.020592852112502,0.052234933398173
2018-07-19T08:01:31Z,1531987291,104,40.0274021,44.6682892,182.25,0,-0.3,342.3,457551.62,-27934.97,337.3,Air+FixedWing,Red,Allies,J-11A,Red J-11A #003,xu,<51>Moltar,0.001953125,0,5.74931836031649e-06,182.25,2.25,0.001953125,0,NaN,NaN,0,0,NaN,0.999987133756753,-7.68583011013596e-05,-0.00505223126315442,1.9073486328125e-07,178.72619625,178.726196440735,,,26.2000000476837,180,0.020592852112502,0.052234933398173
2018-07-19T08:01:32Z,1531987292,104,40.0274021,44.6682892,182.25,0,-0.3,342.3,457551.62,-27934.97,337.3,Air+FixedWing,Red,Allies,J-11A,Red J-11A #003,xu,<51>Moltar,0,0,0,182.25,2.25,0,0,NaN,NaN,0,0,NaN,0.999986171723233,0,-0.00523596443235874,0,178.72619625,178.72619625,,,27.2000000476837,180,0.020592852112502,0.052234933398173
2018-07-19T08:01:33Z,1531987293,104,40.0274021,44.6682892,182.25,0,-0.3,342.3,457551.62,-27934.97,337.3,Air+FixedWing,Red,Allies,J-11A,Red J-11A #003,xu,<51>Moltar,0,0,0,182.25,2.25,0,0,NaN,NaN,0,0,NaN,0.999986171723233,0,-0.00523596443235874,0,178.72619625,178.72619625,,,28.2000000476837,180,0.020592852112502,0.052234933398173
2018-07-19T08:01:34Z,1531987294,104,40.0274021,44.6682892,182.25,0,-0.3,342.3,457551.62,-27934.97,337.3,Air+FixedWing,Red,Allies,J-11A,Red J-11A #003,xu,<51>Moltar,0,0,0,182.25,2.25,0,0,NaN,NaN,0,0,NaN,0.999986171723233,0,-0.00523596443235874,0,178.72619625,178.72619625,,,29.2000000476837,180,0.020592852112502,0.052234933398173
2018-07-19T08:01:35Z,1531987295,104,40.0274021,44.6682892,182.25,0,-0.3,342.3,457551.62,-27934.97,337.3,Air+FixedWing,Red,Allies,J-11A,Red J-11A #003,xu,<51>Moltar,0,0,0,182.25,2.25,0,0,NaN,NaN,0,0,NaN,0.999986171723233,0,-0.00523596443235874,0,178.72619625,178.72619625,,,30.2000000476837,180,0.020592852112502,0.052234933398173
2018-07-19T08:01:36Z,1531987296,104,40.0274021,44.6682892,182.25,0,-0.3,342.3,457551.62,-27934.97,337.3,Air+FixedWing,Red,Allies,J-11A,Red J-11A #003,xu,<51>Moltar,0,0,0,182.25,2.25,0,0,NaN,NaN,0,0,NaN,0.999986171723233,0,-0.00523596443235874,0,178.72619625,178.72619625,,,31.2000000476837,180,0.020592852112502,0.052234933398173
2018-07-19T08:01:37Z,1531987297,104,40.0274021,44.6682892,182.25,0,-0.3,342.3,457551.62,-27934.97,337.3,Air+FixedWing,Red,Allies,J-11A,Red J-11A #003,xu,<51>Moltar,0,0,0,182.25,2.25,0,0,NaN,NaN,0,0,NaN,0.999985209689713,7.68583011013596e-05,-0.00541969760156306,0,178.72619625,178.72619625,,,32.2000000476837,180,0.020592852112502,0.052234933398173
2018-07-19T08:01:38Z,1531987298,104,40.0274021,44.6682892,182.25,0,-0.3,342.3,457551.62,-27934.97,337.3,Air+FixedWing,Red,Allies,J-11A,Red J-11A #003,xu,<51>Moltar,0.001953125,0,5.74931836031649e-06,182.25,2.25,0.001953125,0,NaN,NaN,0,0,NaN,0.999987133756753,-7.68583011013596e-05,-0.00505223126315442,1.9073486328125e-07,178.72619625,178.726196440735,,,33.2000000476837,180,0.020592852112502,0.052234933398173
2018-07-19T08:01:39Z,1531987299,104,40.0274021,44.6682892,182.25,0,-0.3,342.3,457551.62,-27934.97,337.3,Air+FixedWing,Red,Allies,J-11A,Red J-11A #003,xu,<51>Moltar,0,0,0,182.25,2.25,0,0,NaN,NaN,0,0,NaN,0.999986171723233,0,-0.00523596443235874,0,178.72619625,178.72619625,,,34.2000000476837,180,0.020592852112502,0.052234933398173
2018-07-19T08:01:40Z,1531987300,104,40.0274021,44.6682892,182.25,0,-0.3,342.3,457551.62,-27934.97,337.3,Air+FixedWing,Red,Allies,J-11A,Red J-11A #003,xu,<51>Moltar,0,0,0,182.25,2.25,0,0,NaN,NaN,0,0,NaN,0.999986171723233,0,-0.00523596443235874,0,178.72619625,178.72619625,,,35.2000000476837,180,0.020592852112502,0.052234933398173
2018-07-19T08:01:41Z,1531987301,104,40.0274021,44.6682892,182.25,0,-0.3,342.3,457551.62,-27934.97,337.3,Air+FixedWing,Red,Allies,J-11A,Red J-11A #003,xu,<51>Moltar,0,0,0,182.25,2.25,0,0,NaN,NaN,0,0.0395646845203054,NaN,0.999989057823794,-0.000230574903304079,-0.00468476492474579,0,178.72619625,178.72619625,,,36.2000000476837,180,0.020592852112502,0.052234933398173
2018-07-19T08:01:42Z,1531987302,104,40.0274021,44.6682892,182.25,0,-0.3,342.3,457551.62,-27934.96,337.3,Air+FixedWing,Red,Allies,J-11A,Red J-11A #003,xu,<51>Moltar,0.005859375,0,1.72479550809495e-05,182.25,2.25,0.005859375,0,NaN,NaN,0,0,NaN,0.999985209689713,7.68583011013596e-05,-0.00541969760156306,1.71661376953125e-06,178.72619625,178.726197966614,,,37.2000000476837,180,0.020592852112502,0.052234933398173
2018-07-19T08:01:43Z,1531987303,104,40.0274021,44.6682892,182.25,0,-0.3,342.3,457551.62,-27934.96,337.3,Air+FixedWing,Red,Allies,J-11A,Red J-11A #003,xu,<51>Moltar,0.00390625,0,1.1498636720633e-05,182.25,2.25,0.00390625,0,NaN,NaN,0,0.0395646845203054,NaN,0.999984247656192,0.000153716602202719,-0.00560343077076738,7.62939453125e-07,178.72619625,178.726197012939,,,38.2000000476837,180,0.0215120442210853,0.0531541516782305
2018-07-19T08:01:44Z,1531987304,104,40.0274021,44.6682892,182.25,0,-0.3,342.3,457551.62,-27934.96,337.3,Air+FixedWing,Red,Allies,J-11A,Red J-11A #003,xu,<51>Moltar,0,0,0,182.25,2.25,0,0,NaN,NaN,0,0,NaN,0.999986171723233,0,-0.00523596443235874,0,178.72619625,178.72619625,,,39.2000000476837,180,0.0225004236162767,0.0541425591560113
2018-07-19T08:01:45Z,1531987305,104,40.0274021,44.6682892,182.25,0,-0.3,342.3,457551.62,-27934.96,337.3,Air+FixedWing,Red,Allies,J-11A,Red J-11A #003,xu,<51>Moltar,0,0,0,182.25,2.25,0,0,NaN,NaN,0,0,NaN,0.999986171723233,0,-0.00523596443235874,0,178.72619625,178.72619625,,,40.2000000476837,180,0.0234888028973043,0.0551309665196283
2018-07-19T08:01:46Z,1531987306,104,40.0274021,44.6682892,182.25,0,-0.3,342.3,457551.62,-27934.96,337.3,Air+FixedWing,Red,Allies,J-11A,Red J-11A #003,xu,<51>Moltar,0,0,0,182.25,2.25,0,0,NaN,NaN,0,0,NaN,0.999986171723233,0,-0.00523596443235874,0,178.72619625,178.72619625,,,41.2000000476837,180,0.0244771816364298,0.0561193736979173
2018-07-19T08:01:47Z,1531987307,104,40.0274022,44.6682892,182.25,0,-0.3,342.3,457551.62,-27934.96,337.3,Air+FixedWing,Red,Allies,J-11A,Red J-11A #003,xu,<51>Moltar,0,0,0,182.25,2.25,0,0,NaN,NaN,0,0,NaN,0.999986171723233,0,-0.00523596443235874,0,178.72619625,178.72619625,,,42.2000000476837,180,0.0254655610316213,0.057107781175698
2018-07-19T08:01:48Z,1531987308,104,40.0274022,44.6682892,182.25,0,-0.3,342.3,457551.62,-27934.96,337.3,Air+FixedWing,Red,Allies,J-11A,Red J-11A #003,xu,<51>Moltar,0,0,0,182.25,2.25,0,0,NaN,NaN,0,0,NaN,0.999986171723233,0,-0.00523596443235874,0,178.72619625,178.72619625,,,43.2000000476837,180,0.0264539397707468,0.0580961879974128
2018-07-19T08:01:49Z,1531987309,104,40.0274022,44.6682892,182.25,0,-0.3,342.3,457551.62,-27934.96,337.3,Air+FixedWing,Red,Allies,J-11A,Red J-11A #003,xu,<51>Moltar,0,0,0,182.25,2.25,0,0,NaN,NaN,0,0,NaN,0.999986171723233,0,-0.00523596443235874,0,178.72619625,178.72619625,,,44.2000000476837,180,0.0274423184527902,0.0590845951186195
2018-07-19T08:01:50Z,1531987310,104,40.0274022,44.6682892,182.25,0,-0.3,342.3,457551.62,-27934.96,337.3,Air+FixedWing,Red,Allies,J-11A,Red J-11A #003,xu,<51>Moltar,0,0,0,182.25,2.25,0,0,NaN,NaN,0,0.0484566469995765,NaN,0.999986171723233,0,-0.00523596443235874,0,178.72619625,178.72619625,,,45.2000000476837,180,0.0284306980903915,0.0600730031953841
2018-07-19T08:01:51Z,1531987311,104,40.0274021,44.6682892,182.25,0.1,-0.2,342.3,457551.62,-27934.96,337.3,Air+FixedWing,Red,Allies,J-11A,Red J-11A #003,xu,<51>Moltar,0,0,0,182.25,2.25,0,0,NaN,NaN,0,0.0484566469995765,NaN,0.999989807619137,0.00174531333926341,-0.00415553338825703,0,178.72619625,178.72619625,,,46.2000000476837,180,0.03626854406828,0.0679110729925936
2018-07-19T08:01:52Z,1531987312,104,40.0274022,44.6682892,182.25,0.1,-0.3,342.3,457551.62,-27934.96,337.3,Air+FixedWing,Red,Allies,J-11A,Red J-11A #003,xu,<51>Moltar,0,0,0,182.25,2.25,0,0,NaN,NaN,0,0,NaN,0.999988734737194,0.00174531146672916,-0.00440923869609833,0,178.72619625,178.72619625,,,47.2000000476837,180,0.0441854600817153,0.0758282151501217
2018-07-19T08:01:53Z,1531987313,104,40.0274021,44.6682892,182.25,0.1,-0.2,342.3,457551.62,-27934.96,337.3,Air+FixedWing,Red,Allies,J-11A,Red J-11A #003,xu,<51>Moltar,0,0,0,182.25,2.25,0,0,NaN,NaN,0,0,NaN,0.999989149408584,0.00205274589352998,-0.00422558989797886,0,178.72619625,178.72619625,,,48.2000000476837,180,0.051970427373202,0.0836134052482894
2018-07-19T08:01:54Z,1531987314,104,40.0274021,44.6682892,182.25,0,-0.2,342.3,457551.62,-27934.97,337.3,Air+FixedWing,Red,Allies,J-11A,Red J-11A #003,xu,<51>Moltar,0.0078125,0,2.2997273441266e-05,182.25,2.25,0.0078125,0,NaN,NaN,0.199987938897973,0,NaN,0.999998872370533,-0.000614866408810877,-0.0020207753786225,3.0517578125e-06,178.72619625,178.726199301758,,,49.2000000476837,180,0.0521023760951512,0.083745357307652
2018-07-19T08:01:55Z,1531987315,104,40.0274021,44.6682892,182.25,0,-0.2,342.3,457551.62,-27934.96,337.3,Air+FixedWing,Red,Allies,J-11A,Red J-11A #003,xu,<51>Moltar,0.0078125,0,2.2997273441266e-05,182.25,2.25,0.0078125,0,NaN,NaN,0,0,NaN,0.999991176083736,0.000307433204405438,-0.00422558989797886,3.0517578125e-06,178.72619625,178.726199301758,,,50.2000000476837,180,0.055635193371667,0.0872782751053386
2018-07-19T08:01:56Z,1531987316,104,40.0274022,44.6682892,182.25,0,-0.2,342.3,457551.62,-27934.96,337.3,Air+FixedWing,Red,Allies,J-11A,Red J-11A #003,xu,<51>Moltar,0,0,0,182.25,2.25,0,0,NaN,NaN,0,0,NaN,0.999993741512668,0,-0.00349065172486007,0,178.72619625,178.72619625,,,51.2000000476837,180,0.0598915989197356,0.0915348026394257
2018-07-19T08:01:57Z,1531987317,104,40.0274021,44.6682892,182.25,0,-0.2,342.3,457551.62,-27934.96,337.3,Air+FixedWing,Red,Allies,J-11A,Red J-11A #003,xu,<51>Moltar,0,0,0,182.25,2.25,0,0,NaN,NaN,0,0,NaN,0.999993741512668,0,-0.00349065172486007,0,178.72619625,178.72619625,,,52.2000000476837,180,0.0653693128499675,0.0970126729565151
2018-07-19T08:01:58Z,1531987318,104,40.0274022,44.6682892,182.25,0,-0.2,342.3,457551.62,-27934.96,337.3,Air+FixedWing,Red,Allies,J-11A,Red J-11A #003,xu,<51>Moltar,0,0,0,182.25,2.25,0,0,NaN,NaN,0,0,NaN,0.999993741512668,0,-0.00349065172486007,0,178.72619625,178.72619625,,,53.2000000476837,180,0.0696552324930728,0.101298714585639
2018-07-19T08:01:59Z,1531987319,104,40.0274021,44.6682892,182.25,-0,-0.2,342.3,457551.62,-27934.96,337.3,Air+FixedWing,Red,Allies,J-11A,Red J-11A #003,xu,<51>Moltar,0,0,0,182.25,2.25,0,0,NaN,NaN,0.00513630225584959,0,NaN,0.999993741512668,-4.47490010632226e-05,-0.00349065172486007,0,178.72619625,178.72619625,,,54.2000000476837,180,0.0762526610305306,0.107896331229447
2018-07-19T08:02:00Z,1531987320,104,40.0274021,44.6682892,182.25,0,-0.2,342.3,457551.62,-27934.96,337.3,Air+FixedWing,Red,Allies,J-11A,Red J-11A #003,xu,<51>Moltar,0,0,0,182.25,2.25,0,0,NaN,NaN,0.136833888738133,0,NaN,0.999993741512668,0,-0.00349065172486007,0,178.72619625,178.72619625,,,55.2000000476837,180,0.0770681371671477,0.108711830200126
2018-07-19T08:02:01Z,1531987321,104,40.0274022,44.6682892,182.25,0,-0.2,342.3,457551.62,-27934.96,337.3,Air+FixedWing,Red,Allies,J-11A,Red J-11A #003,xu,<51>Moltar,0,0,0,182.25,2.25,0,0,NaN,NaN,0,0,NaN,0.999993741512668,0,-0.00349065172486007,0,178.72619625,178.72619625,,,56.2000000476837,180,0.0804659550875316,0.112109745603761
2018-07-19T08:02:02Z,1531987322,104,40.0274022,44.6682892,182.25,0,-0.2,342.3,457551.62,-27934.96,337.3,Air+FixedWing,Red,Allies,J-11A,Red J-11A #003,xu,<51>Moltar,0,0,0,182.25,2.25,0,0,NaN,NaN,0,0,NaN,0.998973036210358,0,-0.0034870887758106,0,178.72619625,178.72619625,,,57.2000000476837,180,0.0838637736068993,0.115507661007396
2018-07-19T08:02:03Z,1531987323,104,40.0274022,44.6682892,182.24,0,-0.2,342.3,457551.62,-27934.96,337.3,Air+FixedWing,Red,Allies,J-11A,Red J-11A #003,xu,<51>Moltar,0.010009765625,0,2.94652532616449e-05,182.239990234375,2.239990234375,0,-0.010009765625,NaN,NaN,0.142832915923307,0,NaN,1.00101444681498,0,-0.00349421467390954,5.00977039337158e-06,178.716380023193,178.716385032964,,,58.2000000476837,180,0.0863593404264871,0.125823843962416
2018-07-19T08:02:04Z,1531987324,104,40.0274022,44.6682892,182.24,0,-0.2,342.3,457551.62,-27934.96,337.3,Air+FixedWing,Red,Allies,J-11A,Red J-11A #003,xu,<51>Moltar,0,0,0,182.239990234375,2.239990234375,0,0,NaN,NaN,0,0,NaN,0.999993741512668,0,-0.00349065172486007,0,178.716380023193,178.716380023193,,,59.2000000476837,180,0.0885901224406858,0.128054689415601
2018-07-19T08:02:05Z,1531987325,104,40.0274021,44.6682892,182.24,0,-0.2,342.3,457551.62,-27934.96,337.3,Air+FixedWing,Red,Allies,J-11A,Red J-11A #003,xu,<51>Moltar,0,0,0,182.239990234375,2.239990234375,0,0,NaN,NaN,0,0,NaN,0.999993741512668,0,-0.00349065172486007,0,178.716380023193,178.716380023193,,,60.2000000476837,180,0.0957224789593029,0.135187249543741
2018-07-19T08:02:06Z,1531987326,104,40.0274022,44.6682892,182.24,0,-0.2,342.3,457551.62,-27934.96,337.3,Air+FixedWing,Red,Allies,J-11A,Red J-11A #003,xu,<51>Moltar,0,0,0,182.239990234375,2.239990234375,0,0,NaN,NaN,0.159990377798805,0,NaN,0.999993741512668,0,-0.00349065172486007,0,178.716380023193,178.716380023193,,,61.2000000476837,180,0.103132205593402,0.142597187717236
2018-07-19T08:02:07Z,1531987327,104,40.0274021,44.6682892,182.24,0,-0.2,342.3,457551.62,-27934.96,337.3,Air+FixedWing,Red,Allies,J-11A,Red J-11A #003,xu,<51>Moltar,0,0,0,182.239990234375,2.239990234375,0,0,NaN,NaN,0,0,NaN,0.999993741512668,0,-0.00349065172486007,0,178.716380023193,178.716380023193,,,62.2000000476837,180,0.109998729807213,0.149463907910188
2018-07-19T08:02:08Z,1531987328,104,40.0274021,44.6682892,182.24,0,-0.2,342.3,457551.62,-27934.96,337.3,Air+FixedWing,Red,Allies,J-11A,Red J-11A #003,xu,<51>Moltar,0,0,0,182.239990234375,2.239990234375,0,0,NaN,NaN,0,0,NaN,0.999993741512668,0,-0.00349065172486007,0,178.716380023193,178.716380023193,,,63.2000000476837,180,0.111112219248939,0.150577429071407
2018-07-19T08:02:09Z,1531987329,104,40.0274021,44.6682892,182.24,0,-0.2,342.3,457551.62,-27934.96,337.3,Air+FixedWing,Red,Allies,J-11A,Red J-11A #003,xu,<51>Moltar,0,0,0,182.239990234375,2.239990234375,0,0,NaN,NaN,0,0,NaN,0.999993741512668,0,-0.00349065172486007,0,178.716380023193,178.716380023193,,,64.2000000476837,180,0.112225710188124,0.151690951730085
2018-07-19T08:02:10Z,1531987330,104,40.0274022,44.6682892,182.24,0,-0.2,342.3,457551.62,-27934.96,337.3,Air+FixedWing,Red,Allies,J-11A,Red J-11A #003,xu,<51>Moltar,0,0,0,182.239990234375,2.239990234375,0,0,NaN,NaN,0,0,NaN,0.999993741512668,0,-0.00349065172486007,0,178.716380023193,178.716380023193,,,65.2000000476837,180,0.113339200528325,0.152804474146353
2018-07-19T08:02:11Z,1531987331,104,40.0274022,44.6682892,182.24,0,-0.2,342.3,457551.62,-27934.96,337.3,Air+FixedWing,Red,Allies,J-11A,Red J-11A #003,xu,<51>Moltar,0,0,0,182.239990234375,2.239990234375,0,0,NaN,NaN,0,0,NaN,0.999993741512668,0,-0.00349065172486007,0,178.716380023193,178.716380023193,,,66.2000000476837,180,0.11445269021246,0.153917995549981
2018-07-19T08:02:12Z,1531987332,104,40.0274022,44.6682892,182.24,0,-0.2,342.3,457551.62,-27934.96,337.3,Air+FixedWing,Red,Allies,J-11A,Red J-11A #003,xu,<51>Moltar,0,0,0,182.239990234375,2.239990234375,0,0,NaN,NaN,0,0,NaN,0.999993741512668,0,-0.00349065172486007,0,178.716380023193,178.716380023193,,,67.2000000476837,180,0.115566180552661,0.155031517966249
2018-07-19T08:02:13Z,1531987333,104,40.0274022,44.6682892,182.24,0,-0.2,342.3,457551.62,-27934.96,337.3,Air+FixedWing,Red,Allies,J-11A,Red J-11A #003,xu,<51>Moltar,0,0,0,182.239990234375,2.239990234375,0,0,NaN,NaN,0,0,NaN,0.999990534726502,0.000384291505506798,-0.00440932444125856,0,178.716380023193,178.716380023193,,,68.2000000476837,180,0.116679671249436,0.156145040025943
2018-07-19T08:02:14Z,1531987334,104,40.0274022,44.6682891,182.24,0,-0.2,342.3,457551.62,-27934.97,337.3,Air+FixedWing,Red,Allies,J-11A,Red J-11A #003,xu,<51>Moltar,0.009765625,0,2.87465885479462e-05,182.239990234375,2.239990234375,0.009765625,0,NaN,NaN,0,0,NaN,0.999996948298834,-0.000384291505506798,-0.00257197900846159,4.76837158203125e-06,178.716380023193,178.716384791565,,,69.2000000476837,180,0.127821911727782,0.167287599140762
2018-07-19T08:02:15Z,1531987335,104,40.0274021,44.6682891,182.24,0,-0.2,342.3,457551.62,-27934.97,337.3,Air+FixedWing,Red,Allies,J-11A,Red J-11A #003,xu,<51>Moltar,0,0,0,182.239990234375,2.239990234375,0,0,NaN,NaN,0,0,NaN,0.999993741512668,0,-0.00349065172486007,0,178.716380023193,178.716380023193,,,70.2000000476837,180,0.133589950678547,0.173055802707751
2018-07-19T08:02:16Z,1531987336,104,40.0274022,44.6682891,182.24,0,-0.2,342.3,457551.62,-27934.97,337.3,Air+FixedWing,Red,Allies,J-11A,Red J-11A #003,xu,<51>Moltar,0,0,0,182.239990234375,2.239990234375,0,0,NaN,NaN,0,0,NaN,0.999993741512668,0,-0.00349065172486007,0,178.716380023193,178.716380023193,,,71.2000000476837,180,0.139244890661669,0.178710904326257
2018-07-19T08:02:17Z,1531987337,104,40.0274022,44.6682891,182.24,0,-0.2,342.3,457551.62,-27934.97,337.3,Air+FixedWing,Red,Allies,J-11A,Red J-11A #003,xu,<51>Moltar,0,0,0,182.239990234375,2.239990234375,0,0,NaN,NaN,0,0,NaN,0.999993741512668,0,-0.00349065172486007,0,178.716380023193,178.716380023193,,,72.2000000476837,180,0.139357989629314,0.17882400627474
2018-07-19T08:02:18Z,1531987338,104,40.0274022,44.6682891,182.24,0,-0.2,342.3,457551.62,-27934.97,337.3,Air+FixedWing,Red,Allies,J-11A,Red J-11A #003,xu,<51>Moltar,0,0,0,182.239990234375,2.239990234375,0,0,NaN,NaN,0,0.00989117029631303,NaN,0.999993741512668,0,-0.00349065172486007,0,178.716380023193,178.716380023193,,,73.2000000476837,180,0.139357989629314,0.17882400627474
2018-07-19T08:02:19Z,1531987339,104,40.0274022,44.6682891,182.24,0,-0.2,342.3,457551.62,-27934.97,337.3,Air+FixedWing,Red,Allies,J-11A,Red J-11A #003,xu,<51>Moltar,0,0,0,182.239990234375,2.239990234375,0,0,NaN,NaN,0,0.00989117029631303,NaN,0.999993741512668,0,-0.00349065172486007,0,178.716380023193,178.716380023193,,,74.2000000476837,180,0.139357989629314,0.17882400627474
2018-07-19T08:02:20Z,1531987340,104,40.0274022,44.6682891,182.24,0,-0.2,342.3,457551.62,-27934.97,337.3,Air+FixedWing,Red,Allies,J-11A,Red J-11A #003,xu,<51>Moltar,0,0,0,182.239990234375,2.239990234375,0,0,NaN,NaN,0,0,NaN,0.999993741512668,0,-0.00349065172486007,0,178.716380023193,178.716380023193,,,75.2000000476837,180,0.139357989629314,0.17882400627474
2018-07-19T08:02:21Z,1531987341,104,40.0274022,44.6682891,182.24,0,-0.2,342.3,457551.62,-27934.97,337.3,Air+FixedWing,Red,Allies,J-11A,Red J-11A #003,xu,<51>Moltar,0,0,0,182.239990234375,2.239990234375,0,0,NaN,NaN,0,0.00989117029631303,NaN,0.999993741512668,0,-0.00349065172486007,0,178.716380023193,178.716380023193,,,76.2000000476837,180,0.139357989629314,0.17882400627474
2018-07-19T08:02:22Z,1531987342,104,40.0274022,44.6682891,182.24,0,-0.2,342.3,457551.62,-27934.97,337.3,Air+FixedWing,Red,Allies,J-11A,Red J-11A #003,xu,<51>Moltar,0,0,0,182.239990234375,2.239990234375,0,0,NaN,NaN,0,0.00989117029631303,NaN,0.999993741512668,0,-0.00349065172486007,0,178.716380023193,178.716380023193,,,77.2000000476837,180,0.139357989629314,0.17882400627474
2018-07-19T08:02:23Z,1531987343,104,40.0274022,44.6682891,182.24,0,-0.2,342.3,457551.62,-27934.97,337.3,Air+FixedWing,Red,Allies,J-11A,Red J-11A #003,xu,<51>Moltar,0,0,0,182.239990234375,2.239990234375,0,0,NaN,NaN,0,0.00989117029631303,NaN,0.999993741512668,0,-0.00349065172486007,0,178.716380023193,178.716380023193,,,78.2000000476837,180,0.139357989629314,0.17882400627474
2018-07-19T08:02:24Z,1531987344,104,40.0274022,44.6682891,182.24,0,-0.2,342.3,457551.62,-27934.97,337.3,Air+FixedWing,Red,Allies,J-11A,Red J-11A #003,xu,<51>Moltar,0,0,0,182.239990234375,2.239990234375,0,0,NaN,NaN,0,0.0139882274201861,NaN,0.999993741512668,0,-0.00349065172486007,0,178.716380023193,178.716380023193,,,79.2000000476837,180,0.139357989629314,0.17882400627474
2018-07-19T08:02:25Z,1531987345,104,40.0274022,44.6682891,182.24,0,-0.2,342.3,457551.62,-27934.97,337.3,Air+FixedWing,Red,Allies,J-11A,Red J-11A #003,xu,<51>Moltar,0,0,0,182.239990234375,2.239990234375,0,0,NaN,NaN,0,0,NaN,0.999993741512668,0,-0.00349065172486007,0,178.716380023193,178.716380023193,,,80.2000000476837,180,0.139357989629314,0.17882400627474
2018-07-19T08:02:26Z,1531987346,104,40.0274022,44.6682891,182.24,0,-0.2,342.3,457551.62,-27934.97,337.3,Air+FixedWing,Red,Allies,J-11A,Red J-11A #003,xu,<51>Moltar,0,0,0,182.239990234375,2.239990234375,0,0,NaN,NaN,0,0.0139882274201861,NaN,0.999993741512668,0,-0.00349065172486007,0,178.716380023193,178.716380023193,,,81.2000000476837,180,0.139357989629314,0.17882400627474
2018-07-19T08:02:27Z,1531987347,104,40.0274022,44.6682891,182.24,0,-0.2,342.3,457551.62,-27934.97,337.3,Air+FixedWing,Red,Allies,J-11A,Red J-11A #003,xu,<51>Moltar,0,0,0,182.239990234375,2.239990234375,0,0,NaN,NaN,0,0.00989117029631303,NaN,0.999993741512668,0,-0.00349065172486007,0,178.716380023193,178.716380023193,,,82.2000000476837,180,0.139357989629314,0.17882400627474
2018-07-19T08:02:28Z,1531987348,104,40.0274022,44.6682891,182.24,0,-0.2,342.3,457551.62,-27934.97,337.3,Air+FixedWing,Red,Allies,J-11A,Red J-11A #003,xu,<51>Moltar,0,0,0,182.239990234375,2.239990234375,0,0,NaN,NaN,0,0.0139882274201861,NaN,0.999993741512668,0,-0.00349065172486007,0,178.716380023193,178.716380023193,,,83.2000000476837,180,0.139357989629314,0.17882400627474
2018-07-19T08:02:29Z,1531987349,104,40.0274022,44.6682891,182.24,0,-0.2,342.3,457551.62,-27934.97,337.3,Air+FixedWing,Red,Allies,J-11A,Red J-11A #003,xu,<51>Moltar,0,0,0,182.239990234375,2.239990234375,0,0,NaN,NaN,0,0.00989117029631303,NaN,0.999993741512668,0,-0.00349065172486007,0,178.716380023193,178.716380023193,,,84.2000000476837,180,0.139357989629314,0.17882400627474
2018-07-19T08:02:30Z,1531987350,104,40.0274022,44.6682891,182.24,0,-0.2,342.3,457551.62,-27934.97,337.3,Air+FixedWing,Red,Allies,J-11A,Red J-11A #003,xu,<51>Moltar,0,0,0,182.239990234375,2.239990234375,0,0,NaN,NaN,0,0.0139882274201861,NaN,0.999993741512668,0,-0.00349065172486007,0,178.716380023193,178.716380023193,,,85.2000000476837,180,0.139357989629314,0.17882400627474
2018-07-19T08:02:31Z,1531987351,104,40.0274022,44.6682891,182.24,0,-0.2,342.3,457551.62,-27934.97,337.3,Air+FixedWing,Red,Allies,J-11A,Red J-11A #003,xu,<51>Moltar,0,0,0,182.239990234375,2.239990234375,0,0,NaN,NaN,0,0,NaN,0.999993741512668,0,-0.00349065172486007,0,178.716380023193,178.716380023193,,,86.2000000476837,180,0.139357989629314,0.17882400627474
2018-07-19T08:02:32Z,1531987352,104,40.0274022,44.6682891,182.24,0,-0.2,342.3,457551.62,-27934.97,337.3,Air+FixedWing,Red,Allies,J-11A,Red J-11A #003,xu,<51>Moltar,0,0,0,182.239990234375,2.239990234375,0,0,NaN,NaN,0,0,NaN,0.999993741512668,0,-0.00349065172486007,0,178.716380023193,178.716380023193,,,87.2000000476837,180,0.139357989629314,0.17882400627474
2018-07-19T08:02:33Z,1531987353,104,40.0274022,44.6682891,182.24,0,-0.2,342.3,457551.62,-27934.97,337.3,Air+FixedWing,Red,Allies,J-11A,Red J-11A #003,xu,<51>Moltar,0,0,0,182.239990234375,2.239990234375,0,0,NaN,NaN,0,0,NaN,0.999993741512668,0,-0.00349065172486007,0,178.716380023193,178.716380023193,,,88.2000000476837,180,0.139357989629314,0.17882400627474
2018-07-19T08:02:34Z,1531987354,104,40.0274022,44.6682891,182.24,0,-0.2,342.3,457551.62,-27934.97,337.3,Air+FixedWing,Red,Allies,J-11A,Red J-11A #003,xu,<51>Moltar,0,0,0,182.239990234375,2.239990234375,0,0,NaN,NaN,0,0.00989117029631303,NaN,0.999993741512668,0,-0.00349065172486007,0,178.716380023193,178.716380023193,,,89.2000000476837,180,0.139357989629314,0.17882400627474
2018-07-19T08:02:35Z,1531987355,104,40.0274022,44.6682891,182.24,0,-0.2,342.3,457551.62,-27934.97,337.3,Air+FixedWing,Red,Allies,J-11A,Red J-11A #003,xu,<51>Moltar,0,0,0,182.239990234375,2.239990234375,0,0,NaN,NaN,0,0,NaN,0.999993741512668,0,-0.00349065172486007,0,178.716380023193,178.716380023193,,,90.2000000476837,180,0.139357989629314,0.17882400627474
2018-07-19T08:02:36Z,1531987356,104,40.0274022,44.6682891,182.24,0,-0.2,342.3,457551.62,-27934.97,337.3,Air+FixedWing,Red,Allies,J-11A,Red J-11A #003,xu,<51>Moltar,0,0,0,182.239990234375,2.239990234375,0,0,NaN,NaN,0,0.0139882274201861,NaN,0.999993741512668,0,-0.00349065172486007,0,178.716380023193,178.716380023193,,,91.2000000476837,180,0.139357989629314,0.17882400627474
2018-07-19T08:02:37Z,1531987357,104,40.0274022,44.6682891,182.24,0,-0.2,342.3,457551.62,-27934.97,337.3,Air+FixedWing,Red,Allies,J-11A,Red J-11A #003,xu,<51>Moltar,0,0,0,182.239990234375,2.239990234375,0,0,NaN,NaN,0,0.00989117029631303,NaN,0.999993741512668,0,-0.00349065172486007,0,178.716380023193,178.716380023193,,,92.2000000476837,180,0.139357989629314,0.17882400627474
2018-07-19T08:02:38Z,1531987358,104,40.0274022,44.6682891,182.24,0,-0.2,342.3,457551.62,-27934.97,337.3,Air+FixedWing,Red,Allies,J-11A,Red J-11A #003,xu,<51>Moltar,0,0,0,182.239990234375,2.239990234375,0,0,NaN,NaN,0,0.00989117029631303,NaN,0.999993741512668,0,-0.00349065172486007,0,178.716380023193,178.716380023193,,,93.2000000476837,180,0.139357989629314,0.17882400627474
2018-07-19T08:02:39Z,1531987359,104,40.0274022,44.6682891,182.24,0,-0.2,342.3,457551.62,-27934.97,337.3,Air+FixedWing,Red,Allies,J-11A,Red J-11A #003,xu,<51>Moltar,0,0,0,182.239990234375,2.239990234375,0,0,NaN,NaN,0,0.00989117029631303,NaN,0.999993741512668,0,-0.00349065172486007,0,178.716380023193,178.716380023193,,,94.2000000476837,180,0.139357989629314,0.17882400627474
2018-07-19T08:02:40Z,1531987360,104,40.0274022,44.6682891,182.24,0,-0.2,342.3,457551.62,-27934.97,337.3,Air+FixedWing,Red,Allies,J-11A,Red J-11A #003,xu,<51>Moltar,0,0,0,182.239990234375,2.239990234375,0,0,NaN,NaN,0,0.00989117029631303,NaN,0.999993741512668,0,-0.00349065172486007,0,178.716380023193,178.716380023193,,,95.2000000476837,180,0.139357989629314,0.17882400627474
2018-07-19T08:02:41Z,1531987361,104,40.0274022,44.6682891,182.24,0,-0.2,342.3,457551.62,-27934.97,337.3,Air+FixedWing,Red,Allies,J-11A,Red J-11A #003,xu,<51>Moltar,0,0,0,182.239990234375,2.239990234375,0,0,NaN,NaN,0,0,NaN,0.999993741512668,0,-0.00349065172486007,0,178.716380023193,178.716380023193,,,96.2000000476837,180,0.139357989629314,0.17882400627474
2018-07-19T08:02:42Z,1531987362,104,40.0274022,44.6682891,182.24,0,-0.2,342.3,457551.62,-27934.97,337.3,Air+FixedWing,Red,Allies,J-11A,Red J-11A #003,xu,<51>Moltar,0,0,0,182.239990234375,2.239990234375,0,0,NaN,NaN,0,0.0139882274201861,NaN,0.999993741512668,0,-0.00349065172486007,0,178.716380023193,178.716380023193,,,97.2000000476837,180,0.139357989629314,0.17882400627474
2018-07-19T08:02:43Z,1531987363,104,40.0274022,44.6682891,182.24,0,-0.2,342.3,457551.62,-27934.97,337.3,Air+FixedWing,Red,Allies,J-11A,Red J-11A #003,xu,<51>Moltar,0,0,0,182.239990234375,2.239990234375,0,0,NaN,NaN,0,0.00989117029631303,NaN,0.999993741512668,0,-0.00349065172486007,0,178.716380023193,178.716380023193,,,98.2000000476837,180,0.139357989629314,0.17882400627474
2018-07-19T08:02:44Z,1531987364,104,40.0274022,44.6682891,182.24,0,-0.2,342.3,457551.62,-27934.97,337.3,Air+FixedWing,Red,Allies,J-11A,Red J-11A #003,xu,<51>Moltar,0,0,0,182.239990234375,2.239990234375,0,0,NaN,NaN,0,0.0139882274201861,NaN,0.999993741512668,0,-0.00349065172486007,0,178.716380023193,178.716380023193,,,99.2000000476837,180,0.139357989629314,0.17882400627474
2018-07-19T08:02:45Z,1531987365,104,40.0274022,44.6682891,182.24,0,-0.2,342.3,457551.62,-27934.97,337.3,Air+FixedWing,Red,Allies,J-11A,Red J-11A #003,xu,<51>Moltar,0,0,0,182.239990234375,2.239990234375,0,0,NaN,NaN,0,0.0139882274201861,NaN,0.999993741512668,0,-0.00349065172486007,0,178.716380023193,178.716380023193,,,100.200000047684,180,0.139357989629314,0.17882400627474
2018-07-19T08:02:46Z,1531987366,104,40.0274022,44.6682891,182.24,0,-0.2,342.3,457551.62,-27934.97,337.3,Air+FixedWing,Red,Allies,J-11A,Red J-11A #003,xu,<51>Moltar,0,0,0,182.239990234375,2.239990234375,0,0,NaN,NaN,0,0,NaN,0.999993741512668,0,-0.00349065172486007,0,178.716380023193,178.716380023193,,,101.200000047684,180,0.139357989629314,0.17882400627474
2018-07-19T08:02:47Z,1531987367,104,40.0274022,44.6682891,182.24,0,-0.2,342.3,457551.62,-27934.97,337.3,Air+FixedWing,Red,Allies,J-11A,Red J-11A #003,xu,<51>Moltar,0,0,0,182.239990234375,2.239990234375,0,0,NaN,NaN,0,0.00989117029631303,NaN,0.999993741512668,0,-0.00349065172486007,0,178.716380023193,178.716380023193,,,102.200000047684,180,0.139357989629314,0.17882400627474
2018-07-19T08:02:48Z,1531987368,104,40.0274022,44.6682891,182.24,0,-0.2,342.3,457551.62,-27934.97,337.3,Air+FixedWing,Red,Allies,J-11A,Red J-11A #003,xu,<51>Moltar,0,0,0,182.239990234375,2.239990234375,0,0,NaN,NaN,0,0.00989117029631303,NaN,0.999993741512668,0,-0.00349065172486007,0,178.716380023193,178.716380023193,,,103.200000047684,180,0.139357989629314,0.17882400627474
2018-07-19T08:02:49Z,1531987369,104,40.0274022,44.6682891,182.24,0,-0.2,342.3,457551.62,-27934.97,337.3,Air+FixedWing,Red,Allies,J-11A,Red J-11A #003,xu,<51>Moltar,0,0,0,182.239990234375,2.239990234375,0,0,NaN,NaN,0,0.00989117029631303,NaN,0.999993741512668,0,-0.00349065172486007,0,178.716380023193,178.716380023193,,,104.200000047684,180,0.139357989629314,0.17882400627474
2018-07-19T08:02:50Z,1531987370,104,40.0274022,44.6682891,182.24,0,-0.2,342.3,457551.62,-27934.97,337.3,Air+FixedWing,Red,Allies,J-11A,Red J-11A #003,xu,<51>Moltar,0,0,0,182.239990234375,2.239990234375,0,0,NaN,NaN,0,0,NaN,0.999993741512668,0,-0.00349065172486007,0,178.716380023193,178.716380023193,,,105.200000047684,180,0.139357989629314,0.17882400627474
2018-07-19T08:02:51Z,1531987371,104,40.0274022,44.6682891,182.24,0,-0.2,342.3,457551.62,-27934.97,337.3,Air+FixedWing,Red,Allies,J-11A,Red J-11A #003,xu,<51>Moltar,0,0,0,182.239990234375,2.239990234375,0,0,NaN,NaN,0,0,NaN,0.999993741512668,0,-0.00349065172486007,0,178.716380023193,178.716380023193,,,106.200000047684,180,0.139357989629314,0.17882400627474
2018-07-19T08:02:52Z,1531987372,104,40.0274022,44.6682891,182.24,0,-0.2,342.3,457551.62,-27934.97,337.3,Air+FixedWing,Red,Allies,J-11A,Red J-11A #003,xu,<51>Moltar,0,0,0,182.239990234375,2.239990234375,0,0,NaN,NaN,0,0,NaN,0.999993741512668,0,-0.00349065172486007,0,178.716380023193,178.716380023193,,,107.200000047684,180,0.139357989629314,0.17882400627474
2018-07-19T08:02:53Z,1531987373,104,40.0274022,44.6682891,182.24,0,-0.2,342.3,457551.62,-27934.97,337.3,Air+FixedWing,Red,Allies,J-11A,Red J-11A #003,xu,<51>Moltar,0,0,0,182.239990234375,2.239990234375,0,0,NaN,NaN,0,0,NaN,0.999993741512668,0,-0.00349065172486007,0,178.716380023193,178.716380023193,,,108.200000047684,180,0.139357989629314,0.17882400627474
2018-07-19T08:02:54Z,1531987374,104,40.0274022,44.6682891,182.24,0,-0.2,342.3,457551.62,-27934.97,337.3,Air+FixedWing,Red,Allies,J-11A,Red J-11A #003,xu,<51>Moltar,0,0,0,182.239990234375,2.239990234375,0,0,NaN,NaN,0,0.0139882274201861,NaN,0.999993741512668,0,-0.00349065172486007,0,178.716380023193,178.716380023193,,,109.200000047684,180,0.139357989629314,0.17882400627474
2018-07-19T08:02:55Z,1531987375,104,40.0274022,44.6682891,182.24,0,-0.2,342.3,457551.62,-27934.97,337.3,Air+FixedWing,Red,Allies,J-11A,Red J-11A #003,xu,<51>Moltar,0,0,0,182.239990234375,2.239990234375,0,0,NaN,NaN,0,0.00989117029631303,NaN,0.999993741512668,0,-0.00349065172486007,0,178.716380023193,178.716380023193,,,110.200000047684,180,0.139357989629314,0.17882400627474
2018-07-19T08:02:56Z,1531987376,104,40.0274022,44.6682891,182.24,0,-0.2,342.3,457551.62,-27934.97,337.3,Air+FixedWing,Red,Allies,J-11A,Red J-11A #003,xu,<51>Moltar,0,0,0,182.239990234375,2.239990234375,0,0,NaN,NaN,0,0.0139882274201861,NaN,0.999993741512668,0,-0.00349065172486007,0,178.716380023193,178.716380023193,,,111.200000047684,180,0.139357989629314,0.17882400627474
2018-07-19T08:02:57Z,1531987377,104,40.0274022,44.6682891,182.24,0,-0.2,342.3,457551.62,-27934.97,337.3,Air+FixedWing,Red,Allies,J-11A,Red J-11A #003,xu,<51>Moltar,0,0,0,182.239990234375,2.239990234375,0,0,NaN,NaN,0,0.00989117029631303,NaN,0.999993741512668,0,-0.00349065172486007,0,178.716380023193,178.716380023193,,,112.200000047684,180,0.139357989629314,0.17882400627474
2018-07-19T08:02:58Z,1531987378,104,40.0274022,44.6682891,182.24,0,-0.2,342.3,457551.62,-27934.97,337.3,Air+FixedWing,Red,Allies,J-11A,Red J-11A #003,xu,<51>Moltar,0,0,0,182.239990234375,2.239990234375,0,0,NaN,NaN,0,0.00989117029631303,NaN,0.999993741512668,0,-0.00349065172486007,0,178.716380023193,178.716380023193,,,113.200000047684,180,0.139357989629314,0.17882400627474
2018-07-19T08:02:59Z,1531987379,104,40.0274022,44.6682891,182.24,0,-0.2,342.3,457551.62,-27934.97,337.3,Air+FixedWing,Red,Allies,J-11A,Red J-11A #003,xu,<51>Moltar,0,0,0,182.239990234375,2.239990234375,0,0,NaN,NaN,0,0,NaN,0.999993741512668,0,-0.00349065172486007,0,178.716380023193,178.716380023193,,,114.200000047684,180,0.139357989629314,0.17882400627474
2018-07-19T08:03:00Z,1531987380,104,40.0274022,44.6682891,182.24,0,-0.2,342.3,457551.62,-27934.97,337.3,Air+FixedWing,Red,Allies,J-11A,Red J-11A #003,xu,<51>Moltar,0,0,0,182.239990234375,2.239990234375,0,0,NaN,NaN,0,0,NaN,0.999993741512668,0,-0.00349065172486007,0,178.716380023193,178.716380023193,,,115.200000047684,180,0.139357989629314,0.17882400627474
2018-07-19T08:03:01Z,1531987381,104,40.0274022,44.6682891,182.24,0,-0.2,342.3,457551.62,-27934.97,337.3,Air+FixedWing,Red,Allies,J-11A,Red J-11A #003,xu,<51>Moltar,0,0,0,182.239990234375,2.239990234375,0,0,NaN,NaN,0,0,NaN,0.999993741512668,0,-0.00349065172486007,0,178.716380023193,178.716380023193,,,116.200000047684,180,0.139357989629314,0.17882400627474
2018-07-19T08:03:02Z,1531987382,104,40.0274022,44.6682891,182.24,0,-0.2,342.3,457551.62,-27934.97,337.3,Air+FixedWing,Red,Allies,J-11A,Red J-11A #003,xu,<51>Moltar,0,0,0,182.239990234375,2.239990234375,0,0,NaN,NaN,0,0.00989117029631303,NaN,0.999993741512668,0,-0.00349065172486007,0,178.716380023193,178.716380023193,,,117.200000047684,180,0.139357989629314,0.17882400627474
2018-07-19T08:03:03Z,1531987383,104,40.0274022,44.6682891,182.24,0,-0.2,342.3,457551.62,-27934.97,337.3,Air+FixedWing,Red,Allies,J-11A,Red J-11A #003,xu,<51>Moltar,0,0,0,182.239990234375,2.239990234375,0,0,NaN,NaN,0,0.0139882274201861,NaN,0.999993741512668,0,-0.00349065172486007,0,178.716380023193,178.716380023193,,,118.200000047684,180,0.139357989629314,0.17882400627474
2018-07-19T08:03:04Z,1531987384,104,40.0274022,44.6682891,182.24,0,-0.2,342.3,457551.62,-27934.97,337.3,Air+FixedWing,Red,Allies,J-11A,Red J-11A #003,xu,<51>Moltar,0,0,0,182.239990234375,2.239990234375,0,0,NaN,NaN,0,0.0139882274201861,NaN,0.999993741512668,0,-0.00349065172486007,0,178.716380023193,178.716380023193,,,119.200000047684,180,0.139357989629314,0.17882400627474
2018-07-19T08:03:05Z,1531987385,104,40.0274022,44.6682891,182.24,0,-0.2,342.3,457551.62,-27934.97,337.3,Air+FixedWing,Red,Allies,J-11A,Red J-11A #003,xu,<51>Moltar,0,0,0,182.239990234375,2.239990234375,0,0,NaN,NaN,0,0.00989117029631303,NaN,0.999993741512668,0,-0.00349065172486007,0,178.716380023193,178.716380023193,,,120.200000047684,180,0.139357989629314,0.17882400627474
2018-07-19T08:03:06Z,1531987386,104,40.0274022,44.6682891,182.24,0,-0.2,342.3,457551.62,-27934.97,337.3,Air+FixedWing,Red,Allies,J-11A,Red J-11A #003,xu,<51>Moltar,0,0,0,182.239990234375,2.239990234375,0,0,NaN,NaN,0,0.0139882274201861,NaN,0.999993741512668,0,-0.00349065172486007,0,178.716380023193,178.716380023193,,,121.200000047684,180,0.139357989629314,0.17882400627474
2018-07-19T08:03:07Z,1531987387,104,40.0274022,44.6682891,182.24,0,-0.2,342.3,457551.62,-27934.97,337.3,Air+FixedWing,Red,Allies,J-11A,Red J-11A #003,xu,<51>Moltar,0,0,0,182.239990234375,2.239990234375,0,0,NaN,NaN,0,0.00989117029631303,NaN,0.999993741512668,0,-0.00349065172486007,0,178.716380023193,178.716380023193,,,122.200000047684,180,0.139357989629314,0.17882400627474
2018-07-19T08:03:08Z,1531987388,104,40.0274022,44.6682891,182.24,0,-0.2,342.3,457551.62,-27934.97,337.3,Air+FixedWing,Red,Allies,J-11A,Red J-11A #003,xu,<51>Moltar,0,0,0,182.239990234375,2.239990234375,0,0,NaN,NaN,0,0.00989117029631303,NaN,0.999993741512668,0,-0.00349065172486007,0,178.716380023193,178.716380023193,,,123.200000047684,180,0.139357989629314,0.17882400627474
2018-07-19T08:03:09Z,1531987389,104,40.0274022,44.6682891,182.24,0,-0.2,342.3,457551.62,-27934.97,337.3,Air+FixedWing,Red,Allies,J-11A,Red J-11A #003,xu,<51>Moltar,0,0,0,182.239990234375,2.239990234375,0,0,NaN,NaN,0,0.0139882274201861,NaN,0.999993741512668,0,-0.00349065172486007,0,178.716380023193,178.716380023193,,,124.200000047684,180,0.139357989629314,0.17882400627474
2018-07-19T08:03:10Z,1531987390,104,40.0274022,44.6682891,182.24,0,-0.2,342.3,457551.62,-27934.97,337.3,Air+FixedWing,Red,Allies,J-11A,Red J-11A #003,xu,<51>Moltar,0,0,0,182.239990234375,2.239990234375,0,0,NaN,NaN,0,0,NaN,0.999993741512668,0,-0.00349065172486007,0,178.716380023193,178.716380023193,,,125.200000047684,180,0.139357989629314,0.17882400627474
2018-07-19T08:03:11Z,1531987391,104,40.0274022,44.6682891,182.24,0,-0.2,342.3,457551.62,-27934.97,337.3,Air+FixedWing,Red,Allies,J-11A,Red J-11A #003,xu,<51>Moltar,0,0,0,182.239990234375,2.239990234375,0,0,NaN,NaN,0,0.00989117029631303,NaN,0.999993741512668,0,-0.00349065172486007,0,178.716380023193,178.716380023193,,,126.200000047684,180,0.139357989629314,0.17882400627474
2018-07-19T08:03:12Z,1531987392,104,40.0274022,44.6682891,182.24,0,-0.2,342.3,457551.62,-27934.97,337.3,Air+FixedWing,Red,Allies,J-11A,Red J-11A #003,xu,<51>Moltar,0,0,0,182.239990234375,2.239990234375,0,0,NaN,NaN,0,0.00989117029631303,NaN,0.999993741512668,0,-0.00349065172486007,0,178.716380023193,178.716380023193,,,127.200000047684,180,0.139357989629314,0.17882400627474
2018-07-19T08:03:13Z,1531987393,104,40.0274022,44.6682891,182.24,0,-0.2,342.3,457551.62,-27934.97,337.3,Air+FixedWing,Red,Allies,J-11A,Red J-11A #003,xu,<51>Moltar,0,0,0,182.239990234375,2.239990234375,0,0,NaN,NaN,0,0,NaN,0.999993741512668,0,-0.00349065172486007,0,178.716380023193,178.716380023193,,,128.200000047684,180,0.139357989629314,0.17882400627474
2018-07-19T08:03:14Z,1531987394,104,40.0274022,44.6682891,182.24,0,-0.2,342.3,457551.62,-27934.97,337.3,Air+FixedWing,Red,Allies,J-11A,Red J-11A #003,xu,<51>Moltar,0,0,0,182.239990234375,2.239990234375,0,0,NaN,NaN,0,0,NaN,0.999993741512668,0,-0.00349065172486007,0,178.716380023193,178.716380023193,,,129.200000047684,180,0.139357989629314,0.17882400627474
2018-07-19T08:03:15Z,1531987395,104,40.0274022,44.6682891,182.24,0,-0.2,342.3,457551.62,-27934.97,337.3,Air+FixedWing,Red,Allies,J-11A,Red J-11A #003,xu,<51>Moltar,0,0,0,182.239990234375,2.239990234375,0,0,NaN,NaN,0,0.00989117029631303,NaN,0.999993741512668,0,-0.00349065172486007,0,178.716380023193,178.716380023193,,,130.200000047684,180,0.139357989629314,0.17882400627474
2018-07-19T08:03:16Z,1531987396,104,40.0274022,44.6682891,182.24,0,-0.2,342.3,457551.62,-27934.97,337.3,Air+FixedWing,Red,Allies,J-11A,Red J-11A #003,xu,<51>Moltar,0,0,0,182.239990234375,2.239990234375,0,0,NaN,NaN,0,0,NaN,0.999993741512668,0,-0.00349065172486007,0,178.716380023193,178.716380023193,,,131.200000047684,180,0.139357989629314,0.17882400627474
2018-07-19T08:03:17Z,1531987397,104,40.0274022,44.6682891,182.24,0,-0.2,342.3,457551.62,-27934.97,337.3,Air+FixedWing,Red,Allies,J-11A,Red J-11A #003,xu,<51>Moltar,0,0,0,182.239990234375,2.239990234375,0,0,NaN,NaN,0,0.00989117029631303,NaN,0.999993741512668,0,-0.00349065172486007,0,178.716380023193,178.716380023193,,,132.200000047684,180,0.139357989629314,0.17882400627474
2018-07-19T08:03:18Z,1531987398,104,40.0274022,44.6682891,182.24,0,-0.2,342.3,457551.62,-27934.97,337.3,Air+FixedWing,Red,Allies,J-11A,Red J-11A #003,xu,<51>Moltar,0,0,0,182.239990234375,2.239990234375,0,0,NaN,NaN,0,0,NaN,0.999993741512668,0,-0.00349065172486007,0,178.716380023193,178.716380023193,,,133.200000047684,180,0.139357989629314,0.17882400627474
2018-07-19T08:03:19Z,1531987399,104,40.0274022,44.6682891,182.24,0,-0.2,342.3,457551.62,-27934.97,337.3,Air+FixedWing,Red,Allies,J-11A,Red J-11A #003,xu,<51>Moltar,0,0,0,182.239990234375,2.239990234375,0,0,NaN,NaN,0,0,NaN,0.999993741512668,0,-0.00349065172486007,0,178.716380023193,178.716380023193,,,134.200000047684,180,0.139357989629314,0.17882400627474
2018-07-19T08:03:20Z,1531987400,104,40.0274022,44.6682891,182.24,0,-0.2,342.3,457551.62,-27934.97,337.3,Air+FixedWing,Red,Allies,J-11A,Red J-11A #003,xu,<51>Moltar,0,0,0,182.239990234375,2.239990234375,0,0,NaN,NaN,0,0,NaN,0.999993741512668,0,-0.00349065172486007,0,178.716380023193,178.716380023193,,,135.200000047684,180,0.139357989629314,0.17882400627474
2018-07-19T08:03:21Z,1531987401,104,40.0274022,44.6682891,182.24,0,-0.2,342.3,457551.62,-27934.97,337.3,Air+FixedWing,Red,Allies,J-11A,Red J-11A #003,xu,<51>Moltar,0,0,0,182.239990234375,2.239990234375,0,0,NaN,NaN,0,0.00989117029631303,NaN,0.999993741512668,0,-0.00349065172486007,0,178.716380023193,178.716380023193,,,136.200000047684,180,0.139357989629314,0.17882400627474
2018-07-19T08:03:22Z,1531987402,104,40.0274022,44.6682891,182.24,0,-0.2,342.3,457551.62,-27934.97,337.3,Air+FixedWing,Red,Allies,J-11A,Red J-11A #003,xu,<51>Moltar,0,0,0,182.239990234375,2.239990234375,0,0,NaN,NaN,0,0.00989117029631303,NaN,0.999993741512668,0,-0.00349065172486007,0,178.716380023193,178.716380023193,,,137.200000047684,180,0.139357989629314,0.17882400627474
2018-07-19T08:03:23Z,1531987403,104,40.0274022,44.6682891,182.24,0,-0.2,342.3,457551.62,-27934.97,337.3,Air+FixedWing,Red,Allies,J-11A,Red J-11A #003,xu,<51>Moltar,0,0,0,182.239990234375,2.239990234375,0,0,NaN,NaN,0,0.0139882274201861,NaN,0.999993741512668,0,-0.00349065172486007,0,178.716380023193,178.716380023193,,,138.200000047684,180,0.139357989629314,0.17882400627474
2018-07-19T08:03:24Z,1531987404,104,40.0274022,44.6682891,182.24,0,-0.2,342.3,457551.62,-27934.97,337.3,Air+FixedWing,Red,Allies,J-11A,Red J-11A #003,xu,<51>Moltar,0,0,0,182.239990234375,2.239990234375,0,0,NaN,NaN,0,0,NaN,0.999993741512668,0,-0.00349065172486007,0,178.716380023193,178.716380023193,,,139.200000047684,180,0.139357989629314,0.17882400627474
2018-07-19T08:03:25Z,1531987405,104,40.0274022,44.6682891,182.24,0,-0.2,342.3,457551.62,-27934.97,337.3,Air+FixedWing,Red,Allies,J-11A,Red J-11A #003,xu,<51>Moltar,0,0,0,182.239990234375,2.239990234375,0,0,NaN,NaN,0,0.00989117029631303,NaN,0.999993741512668,0,-0.00349065172486007,0,178.716380023193,178.716380023193,,,140.200000047684,180,0.139357989629314,0.17882400627474
2018-07-19T08:03:26Z,1531987406,104,40.0274022,44.6682891,182.24,0,-0.2,342.3,457551.62,-27934.97,337.3,Air+FixedWing,Red,Allies,J-11A,Red J-11A #003,xu,<51>Moltar,0,0,0,182.239990234375,2.239990234375,0,0,NaN,NaN,0,0.0139882274201861,NaN,0.999993741512668,0,-0.00349065172486007,0,178.716380023193,178.716380023193,,,141.200000047684,180,0.139357989629314,0.17882400627474
2018-07-19T08:03:27Z,1531987407,104,40.0274022,44.6682891,182.24,0,-0.2,342.3,457551.62,-27934.97,337.3,Air+FixedWing,Red,Allies,J-11A,Red J-11A #003,xu,<51>Moltar,0,0,0,182.239990234375,2.239990234375,0,0,NaN,NaN,0,0,NaN,0.999993741512668,0,-0.00349065172486007,0,178.716380023193,178.716380023193,,,142.200000047684,180,0.139357989629314,0.17882400627474
2018-07-19T08:03:28Z,1531987408,104,40.0274022,44.6682891,182.24,0,-0.2,342.3,457551.62,-27934.97,337.3,Air+FixedWing,Red,Allies,J-11A,Red J-11A #003,xu,<51>Moltar,0,0,0,182.239990234375,2.239990234375,0,0,NaN,NaN,0,0.0139882274201861,NaN,0.999993741512668,0,-0.00349065172486007,0,178.716380023193,178.716380023193,,,143.200000047684,180,0.139357989629314,0.17882400627474
2018-07-19T08:03:29Z,1531987409,104,40.0274022,44.6682891,182.24,0,-0.2,342.3,457551.62,-27934.97,337.3,Air+FixedWing,Red,Allies,J-11A,Red J-11A #003,xu,<51>Moltar,0,0,0,182.239990234375,2.239990234375,0,0,NaN,NaN,0,0.0139882274201861,NaN,0.999993741512668,0,-0.00349065172486007,0,178.716380023193,178.716380023193,,,144.200000047684,180,0.139357989629314,0.17882400627474
2018-07-19T08:03:30Z,1531987410,104,40.0274022,44.6682891,182.24,0,-0.2,342.3,457551.62,-27934.97,337.3,Air+FixedWing,Red,Allies,J-11A,Red J-11A #003,xu,<51>Moltar,0,0,0,182.239990234375,2.239990234375,0,0,NaN,NaN,0,0.00989117029631303,NaN,0.999993741512668,0,-0.00349065172486007,0,178.716380023193,178.716380023193,,,145.200000047684,180,0.139357989629314,0.17882400627474
2018-07-19T08:03:31Z,1531987411,104,40.0274022,44.6682891,182.24,0,-0.2,342.3,457551.62,-27934.97,337.3,Air+FixedWing,Red,Allies,J-11A,Red J-11A #003,xu,<51>Moltar,0,0,0,182.239990234375,2.239990234375,0,0,NaN,NaN,0,0.0139882274201861,NaN,0.999993741512668,0,-0.00349065172486007,0,178.716380023193,178.716380023193,,,146.200000047684,180,0.139357989629314,0.17882400627474
2018-07-19T08:03:32Z,1531987412,104,40.0274022,44.6682891,182.24,0,-0.2,342.3,457551.62,-27934.97,337.3,Air+FixedWing,Red,Allies,J-11A,Red J-11A #003,xu,<51>Moltar,0,0,0,182.239990234375,2.239990234375,0,0,NaN,NaN,0,0,NaN,0.999993741512668,0,-0.00349065172486007,0,178.716380023193,178.716380023193,,,147.200000047684,180,0.139357989629314,0.17882400627474
2018-07-19T08:03:33Z,1531987413,104,40.0274022,44.6682891,182.24,0,-0.2,342.3,457551.62,-27934.97,337.3,Air+FixedWing,Red,Allies,J-11A,Red J-11A #003,xu,<51>Moltar,0,0,0,182.239990234375,2.239990234375,0,0,NaN,NaN,0,0.00989117029631303,NaN,0.999993741512668,0,-0.00349065172486007,0,178.716380023193,178.716380023193,,,148.200000047684,180,0.139357989629314,0.17882400627474
2018-07-19T08:03:34Z,1531987414,104,40.0274022,44.6682891,182.24,0,-0.2,342.3,457551.62,-27934.97,337.3,Air+FixedWing,Red,Allies,J-11A,Red J-11A #003,xu,<51>Moltar,0,0,0,182.239990234375,2.239990234375,0,0,NaN,NaN,0,0,NaN,0.999993741512668,0,-0.00349065172486007,0,178.716380023193,178.716380023193,,,149.200000047684,180,0.139357989629314,0.17882400627474
2018-07-19T08:03:35Z,1531987415,104,40.0274022,44.6682891,182.24,0,-0.2,342.3,457551.62,-27934.97,337.3,Air+FixedWing,Red,Allies,J-11A,Red J-11A #003,xu,<51>Moltar,0,0,0,182.239990234375,2.239990234375,0,0,NaN,NaN,0,0.0139882274201861,NaN,0.999993741512668,0,-0.00349065172486007,0,178.716380023193,178.716380023193,,,150.200000047684,180,0.139357989629314,0.17882400627474
2018-07-19T08:03:36Z,1531987416,104,40.0274022,44.6682891,182.24,0,-0.2,342.3,457551.62,-27934.97,337.3,Air+FixedWing,Red,Allies,J-11A,Red J-11A #003,xu,<51>Moltar,0,0,0,182.239990234375,2.239990234375,0,0,NaN,NaN,0,0,NaN,0.999993741512668,0,-0.00349065172486007,0,178.716380023193,178.716380023193,,,151.200000047684,180,0.139357989629314,0.17882400627474
2018-07-19T08:03:37Z,1531987417,104,40.0274022,44.6682891,182.24,0,-0.2,342.3,457551.62,-27934.97,337.3,Air+FixedWing,Red,Allies,J-11A,Red J-11A #003,xu,<51>Moltar,0,0,0,182.239990234375,2.239990234375,0,0,NaN,NaN,0,0.00989117029631303,NaN,0.999993741512668,0,-0.00349065172486007,0,178.716380023193,178.716380023193,,,152.200000047684,180,0.139357989629314,0.17882400627474
2018-07-19T08:03:38Z,1531987418,104,40.0274022,44.6682891,182.24,0,-0.2,342.3,457551.62,-27934.97,337.3,Air+FixedWing,Red,Allies,J-11A,Red J-11A #003,xu,<51>Moltar,0,0,0,182.239990234375,2.239990234375,0,0,NaN,NaN,0,0,NaN,0.999993741512668,0,-0.00349065172486007,0,178.716380023193,178.716380023193,,,153.200000047684,180,0.139357989629314,0.17882400627474
2018-07-19T08:03:39Z,1531987419,104,40.0274022,44.6682891,182.24,0,-0.2,342.3,457551.62,-27934.97,337.3,Air+FixedWing,Red,Allies,J-11A,Red J-11A #003,xu,<51>Moltar,0,0,0,182.239990234375,2.239990234375,0,0,NaN,NaN,0,0.00989117029631303,NaN,0.999993741512668,0,-0.00349065172486007,0,178.716380023193,178.716380023193,,,154.200000047684,180,0.139357989629314,0.17882400627474
2018-07-19T08:03:40Z,1531987420,104,40.0274022,44.6682891,182.24,0,-0.2,342.3,457551.62,-27934.97,337.3,Air+FixedWing,Red,Allies,J-11A,Red J-11A #003,xu,<51>Moltar,0,0,0,182.239990234375,2.239990234375,0,0,NaN,NaN,0,0,NaN,0.999993741512668,0,-0.00349065172486007,0,178.716380023193,178.716380023193,,,155.200000047684,180,0.139357989629314,0.17882400627474
2018-07-19T08:03:41Z,1531987421,104,40.0274022,44.6682891,182.24,0,-0.2,342.3,457551.62,-27934.97,337.3,Air+FixedWing,Red,Allies,J-11A,Red J-11A #003,xu,<51>Moltar,0,0,0,182.239990234375,2.239990234375,0,0,NaN,NaN,0,0.00989117029631303,NaN,0.999993741512668,0,-0.00349065172486007,0,178.716380023193,178.716380023193,,,156.200000047684,180,0.139357989629314,0.17882400627474
2018-07-19T08:03:42Z,1531987422,104,40.0274022,44.6682891,182.24,0,-0.2,342.3,457551.62,-27934.97,337.3,Air+FixedWing,Red,Allies,J-11A,Red J-11A #003,xu,<51>Moltar,0,0,0,182.239990234375,2.239990234375,0,0,NaN,NaN,0,0,NaN,0.999993741512668,0,-0.00349065172486007,0,178.716380023193,178.716380023193,,,157.200000047684,180,0.139357989629314,0.17882400627474
2018-07-19T08:03:43Z,1531987423,104,40.0274022,44.6682891,182.24,0,-0.2,342.3,457551.62,-27934.97,337.3,Air+FixedWing,Red,Allies,J-11A,Red J-11A #003,xu,<51>Moltar,0,0,0,182.239990234375,2.239990234375,0,0,NaN,NaN,0,0.0139882274201861,NaN,0.999993741512668,0,-0.00349065172486007,0,178.716380023193,178.716380023193,,,158.200000047684,180,0.139357989629314,0.17882400627474
2018-07-19T08:03:44Z,1531987424,104,40.0274022,44.6682891,182.24,0,-0.2,342.3,457551.62,-27934.97,337.3,Air+FixedWing,Red,Allies,J-11A,Red J-11A #003,xu,<51>Moltar,0,0,0,182.239990234375,2.239990234375,0,0,NaN,NaN,0,0.00989117029631303,NaN,0.999993741512668,0,-0.00349065172486007,0,178.716380023193,178.716380023193,,,159.200000047684,180,0.139357989629314,0.17882400627474
2018-07-19T08:03:45Z,1531987425,104,40.0274022,44.6682891,182.24,0,-0.2,342.3,457551.62,-27934.97,337.3,Air+FixedWing,Red,Allies,J-11A,Red J-11A #003,xu,<51>Moltar,0,0,0,182.239990234375,2.239990234375,0,0,NaN,NaN,0,0.0139882274201861,NaN,0.999993741512668,0,-0.00349065172486007,0,178.716380023193,178.716380023193,,,160.200000047684,180,0.139357989629314,0.17882400627474
2018-07-19T08:03:46Z,1531987426,104,40.0274022,44.6682891,182.24,0,-0.2,342.3,457551.62,-27934.97,337.3,Air+FixedWing,Red,Allies,J-11A,Red J-11A #003,xu,<51>Moltar,0,0,0,182.239990234375,2.239990234375,0,0,NaN,NaN,0,0.0139882274201861,NaN,0.999993741512668,0,-0.00349065172486007,0,178.716380023193,178.716380023193,,,161.200000047684,180,0.139357989629314,0.17882400627474
2018-07-19T08:03:47Z,1531987427,104,40.0274022,44.6682891,182.24,0,-0.2,342.3,457551.62,-27934.97,337.3,Air+FixedWing,Red,Allies,J-11A,Red J-11A #003,xu,<51>Moltar,0,0,0,182.239990234375,2.239990234375,0,0,NaN,NaN,0,0.00989117029631303,NaN,0.999993741512668,0,-0.00349065172486007,0,178.716380023193,178.716380023193,,,162.200000047684,180,0.139357989629314,0.17882400627474
2018-07-19T08:03:48Z,1531987428,104,40.0274022,44.6682891,182.24,0,-0.2,342.3,457551.62,-27934.97,337.3,Air+FixedWing,Red,Allies,J-11A,Red J-11A #003,xu,<51>Moltar,0,0,0,182.239990234375,2.239990234375,0,0,NaN,NaN,0,0.0139882274201861,NaN,0.999993741512668,0,-0.00349065172486007,0,178.716380023193,178.716380023193,,,163.200000047684,180,0.139357989629314,0.17882400627474
