ISOTime,UnixTime,Id,Longitude,Latitude,Altitude,Roll,Pitch,Yaw,U,V,Heading,Type,Color,Coalition,Name,Group,Country,Pilot,TAS,CAS,M,ASL,AGL,GS,VS,AOA,AOS,RRT,TRT,TRD,G,LatG,LonG,Ek,Ep,Em,FFW,FFV,RelativeTime,Elev,GroundDistance,AirDistance
2018-07-19T08:01:45Z,1531987305,106,40.0288404,44.6686118,182.23,0,-0.2,342.2,457662.53,-27889.24,337.2,Air+FixedWing,Red,Allies,J-11A,Red J-11A #005,xu,<51>Frostie,0.251223950159564,0.262722313404083,0.000739515440970693,182.227127075195,2.22712707519531,NaN,NaN,NaN,NaN,NaN,NaN,NaN,NaN,NaN,NaN,NaN,178.703765573196,NaN,,,0.450000047683716,180,NaN,NaN
2018-07-19T08:01:46Z,1531987306,106,40.0288407,44.6686112,182.03,-0.3,0.9,342.2,457662.56,-27889.31,337.2,Air+FixedWing,Red,Allies,J-11A,Red J-11A #005,xu,<51>Frostie,0.210565632730338,0.262722313404083,0.000619830216867683,182.033325195312,2.0333251953125,0.0823329644857734,-0.193801879882812,NaN,NaN,0.295282738197991,NaN,NaN,1.0521892384514,-0.00866419747497554,0.0406586315638462,0.00221689428435639,178.513710852661,178.515927746945,,,1.45000004768372,180,0.0783125532080777,0.209027209860429
2018-07-19T08:01:47Z,1531987307,106,40.0288402,44.6686125,182.36,-0.1,0,342.2,457662.53,-27889.16,337.2,Air+FixedWing,Red,Allies,J-11A,Red J-11A #005,xu,<51>Frostie,0.35878947620856,0.37154546380043,0.00105615227434978,182.356658935547,2.35665893554688,0.155515853417144,0.323333740234375,NaN,NaN,0.199987938897973,0.354983687505354,NaN,0.957761383473502,0.00341747805512467,-0.0203293970328342,0.00643649441190064,178.830792935028,178.83722942944,,,2.45000004768372,180,0.231610879561018,0.566862964146832
2018-07-19T08:01:48Z,1531987308,106,40.0288403,44.6686121,182.27,-0.1,-0.1,342.2,457662.53,-27889.21,337.2,Air+FixedWing,Red,Allies,J-11A,Red J-11A #005,xu,<51>Frostie,0.104173067139644,0,0.000306649207751154,182.265701293945,2.26570129394531,0.05078125,-0.0909576416015625,NaN,NaN,0,0.221615759585245,NaN,1.00971402282985,-0.00376883230950303,0.0030113474392141,0.00054260139586404,178.741593959427,178.742136560823,,,3.45000004768372,180,0.276836993918843,0.668444512729949
2018-07-19T08:01:49Z,1531987309,106,40.0288403,44.6686121,182.27,-0,-0.1,342.2,457662.53,-27889.21,337.2,Air+FixedWing,Red,Allies,J-11A,Red J-11A #005,xu,<51>Frostie,0.0042877197265625,0,1.26215533156277e-05,182.269989013672,2.26998901367188,0,0.0042877197265625,NaN,NaN,0.0999938827376007,0.00989117029631303,NaN,0.998541654297594,-0.000871340432406333,-0.00174278655919353,9.1922702267766e-07,178.745798776093,178.74579969532,,,4.45000004768372,180,0.276836993918843,0.672732232700496
2018-07-19T08:01:50Z,1531987310,106,40.0288403,44.6686121,182.26,-0.1,-0.1,342.2,457662.53,-27889.21,337.2,Air+FixedWing,Red,Allies,J-11A,Red J-11A #005,xu,<51>Frostie,0.0099945068359375,0,2.94203433717504e-05,182.259994506836,2.25999450683594,0,-0.0099945068359375,NaN,NaN,0.0363366063844678,0.0513960362511687,NaN,1.00050564481026,-0.00174610823667515,-0.00251018824785869,4.99450834468007e-06,178.735997513046,178.736002507555,,,5.45000004768372,180,0.276836993918843,0.682726739812952
2018-07-19T08:01:51Z,1531987311,106,40.0288403,44.6686121,182.26,-0.1,-0.2,342.2,457662.53,-27889.21,337.2,Air+FixedWing,Red,Allies,J-11A,Red J-11A #005,xu,<51>Frostie,0.0049896240234375,0,1.46877125798236e-05,182.255004882812,2.2550048828125,0,-0.0049896240234375,NaN,NaN,0,0.0513960362511687,NaN,0.999990695454798,-0.00174520953378086,-0.00349064629353478,1.24481739476323e-06,178.731104363403,178.731105608221,,,6.45000004768372,180,0.276836993918843,0.687716363562356
2018-07-19T08:01:52Z,1531987312,106,40.0288403,44.6686121,182.25,-0.1,-0.2,342.2,457662.53,-27889.21,337.2,Air+FixedWing,Red,Allies,J-11A,Red J-11A #005,xu,<51>Frostie,0.0050048828125,0,1.4732628298311e-05,182.25,2.25,0,-0.0050048828125,NaN,NaN,0.0310326176484091,0.0139882274201861,NaN,1.00050302075367,-0.00147515607116167,-0.00349243319955635,1.2524425983429e-06,178.72619625,178.726197502443,,,7.45000004768372,180,0.276836993918843,0.692721245804098
2018-07-19T08:01:53Z,1531987313,106,40.0288403,44.6686121,182.25,0,-0.2,342.2,457662.53,-27889.21,337.2,Air+FixedWing,Red,Allies,J-11A,Red J-11A #005,xu,<51>Frostie,0,0,0,182.25,2.25,0,0,NaN,NaN,0.0827536248287357,0.0523391626455858,NaN,0.999993503094103,0,-0.00358251039870083,0,178.72619625,178.72619625,,,8.45000004768372,180,0.276836993918843,0.692721245804098
2018-07-19T08:01:54Z,1531987314,106,40.0288403,44.6686121,182.25,0,-0.3,342.2,457662.53,-27889.21,337.2,Air+FixedWing,Red,Allies,J-11A,Red J-11A #005,xu,<51>Frostie,0,0,0,182.25,2.25,0,0,NaN,NaN,0,0.0585169653632099,NaN,0.999985456467538,0,-0.0053655463270843,0,178.72619625,178.72619625,,,9.45000004768372,180,0.276836993918843,0.692721245804098
2018-07-19T08:01:55Z,1531987315,106,40.0288403,44.6686121,182.25,0,-0.3,342.2,457662.53,-27889.21,337.2,Air+FixedWing,Red,Allies,J-11A,Red J-11A #005,xu,<51>Frostie,0,0,0,182.25,2.25,0,0,NaN,NaN,0,0.0171320104161963,NaN,0.999984443188637,0,-0.00556801725178957,0,178.72619625,178.72619625,,,10.4500000476837,180,0.276836993918843,0.692721245804098
2018-07-19T08:01:56Z,1531987316,106,40.0288403,44.6686121,182.25,0,-0.3,342.2,457662.53,-27889.21,337.2,Air+FixedWing,Red,Allies,J-11A,Red J-11A #005,xu,<51>Frostie,0,0,0,182.25,2.25,0,0,NaN,NaN,0,0.0197823405926261,NaN,0.999983251095813,0,-0.00577048817649484,0,178.72619625,178.72619625,,,11.4500000476837,180,0.276836993918843,0.692721245804098
2018-07-19T08:01:57Z,1531987317,106,40.0288403,44.6686121,182.25,0,-0.3,342.2,457662.53,-27889.21,337.2,Air+FixedWing,Red,Allies,J-11A,Red J-11A #005,xu,<51>Frostie,0,0,0,182.25,2.25,0,0,NaN,NaN,0,0.0197823405926261,NaN,0.999982059002989,0,-0.00597295956686139,0,178.72619625,178.72619625,,,12.4500000476837,180,0.276836993918843,0.692721245804098
2018-07-19T08:01:58Z,1531987318,106,40.0288403,44.6686121,182.25,0,-0.4,342.2,457662.53,-27889.21,337.2,Air+FixedWing,Red,Allies,J-11A,Red J-11A #005,xu,<51>Frostie,0,0,0,182.25,2.25,0,0,NaN,NaN,0,0.0197823405926261,NaN,0.999980866910164,0,-0.00617543002590537,0,178.72619625,178.72619625,,,13.4500000476837,180,0.276836993918843,0.692721245804098
2018-07-19T08:01:59Z,1531987319,106,40.0288403,44.6686121,182.25,0,-0.4,342.2,457662.53,-27889.21,337.2,Air+FixedWing,Red,Allies,J-11A,Red J-11A #005,xu,<51>Frostie,0,0,0,182.25,2.25,0,0,NaN,NaN,0,0.0197823405926261,NaN,0.999979555608057,0,-0.00637790048494935,0,178.72619625,178.72619625,,,14.4500000476837,180,0.276836993918843,0.692721245804098
2018-07-19T08:02:00Z,1531987320,106,40.0288403,44.6686121,182.25,0,-0.4,342.2,457662.53,-27889.21,337.2,Air+FixedWing,Red,Allies,J-11A,Red J-11A #005,xu,<51>Frostie,0,0,0,182.25,2.25,0,0,NaN,NaN,0,0.0171320104161963,NaN,0.99997824430595,0,-0.00658037047833204,0,178.72619625,178.72619625,,,15.4500000476837,180,0.276836993918843,0.692721245804098
2018-07-19T08:02:01Z,1531987321,106,40.0288403,44.6686121,182.25,0,-0.4,342.2,457662.53,-27889.21,337.2,Air+FixedWing,Red,Allies,J-11A,Red J-11A #005,xu,<51>Frostie,0,0,0,182.25,2.25,0,0,NaN,NaN,0,0.0171320104161963,NaN,0.999976933003843,0,-0.00678284047171474,0,178.72619625,178.72619625,,,16.4500000476837,180,0.276836993918843,0.692721245804098
2018-07-19T08:02:02Z,1531987322,106,40.0288403,44.6686121,182.25,0,-0.4,342.2,457662.53,-27889.21,337.2,Air+FixedWing,Red,Allies,J-11A,Red J-11A #005,xu,<51>Frostie,0,0,0,182.25,2.25,0,0,NaN,NaN,0,0.0139882274201861,NaN,0.999975502492454,0,-0.00698057701811194,0,178.72619625,178.72619625,,,17.4500000476837,180,0.276836993918843,0.692721245804098
2018-07-19T08:02:03Z,1531987323,106,40.0288403,44.6686121,182.25,0,-0.4,342.2,457662.53,-27889.21,337.2,Air+FixedWing,Red,Allies,J-11A,Red J-11A #005,xu,<51>Frostie,0,0,0,182.25,2.25,0,0,NaN,NaN,0,0.00989117029631303,NaN,0.99997580051566,0,-0.00694640493020415,0,178.72619625,178.72619625,,,18.4500000476837,180,0.276836993918843,0.692721245804098
2018-07-19T08:02:04Z,1531987324,106,40.0288403,44.6686121,182.25,0,-0.4,342.2,457662.53,-27889.21,337.2,Air+FixedWing,Red,Allies,J-11A,Red J-11A #005,xu,<51>Frostie,0,0,0,182.25,2.25,0,0,NaN,NaN,0,0,NaN,0.999976038934225,0,-0.00691223284229636,0,178.72619625,178.72619625,,,19.4500000476837,180,0.276836993918843,0.692721245804098
2018-07-19T08:02:05Z,1531987325,106,40.0288403,44.6686121,182.25,0,-0.4,342.2,457662.53,-27889.21,337.2,Air+FixedWing,Red,Allies,J-11A,Red J-11A #005,xu,<51>Frostie,0,0,0,182.25,2.25,0,0,NaN,NaN,0,0.0139882274201861,NaN,0.99997627735279,0,-0.00687806028872728,0,178.72619625,178.72619625,,,20.4500000476837,180,0.276836993918843,0.692721245804098
2018-07-19T08:02:06Z,1531987326,106,40.0288403,44.6686121,182.25,0,-0.4,342.2,457662.53,-27889.21,337.2,Air+FixedWing,Red,Allies,J-11A,Red J-11A #005,xu,<51>Frostie,0,0,0,182.25,2.25,0,0,NaN,NaN,0,0,NaN,0.999976515771355,0,-0.00684388773515821,0,178.72619625,178.72619625,,,21.4500000476837,180,0.276836993918843,0.692721245804098
2018-07-19T08:02:07Z,1531987327,106,40.0288403,44.6686121,182.25,0,-0.4,342.2,457662.53,-27889.21,337.2,Air+FixedWing,Red,Allies,J-11A,Red J-11A #005,xu,<51>Frostie,0,0,0,182.25,2.25,0,0,NaN,NaN,0,0.0139882274201861,NaN,0.999976694585278,0,-0.00680971564725041,0,178.72619625,178.72619625,,,22.4500000476837,180,0.276836993918843,0.692721245804098
2018-07-19T08:02:08Z,1531987328,106,40.0288403,44.6686121,182.25,0,-0.4,342.2,457662.53,-27889.21,337.2,Air+FixedWing,Red,Allies,J-11A,Red J-11A #005,xu,<51>Frostie,0,0,0,182.25,2.25,0,0,NaN,NaN,0,0,NaN,0.999976933003843,0,-0.00677554309368134,0,178.72619625,178.72619625,,,23.4500000476837,180,0.276836993918843,0.692721245804098
2018-07-19T08:02:09Z,1531987329,106,40.0288403,44.6686121,182.25,0,-0.4,342.2,457662.53,-27889.21,337.2,Air+FixedWing,Red,Allies,J-11A,Red J-11A #005,xu,<51>Frostie,0,0,0,182.25,2.25,0,0,NaN,NaN,0,0,NaN,0.999977171422408,0,-0.00674137054011226,0,178.72619625,178.72619625,,,24.4500000476837,180,0.276836993918843,0.692721245804098
2018-07-19T08:02:10Z,1531987330,106,40.0288403,44.6686121,182.25,0,-0.4,342.2,457662.53,-27889.21,337.2,Air+FixedWing,Red,Allies,J-11A,Red J-11A #005,xu,<51>Frostie,0,0,0,182.25,2.25,0,0,NaN,NaN,0,0,NaN,0.999977350236332,0,-0.00670719845220447,0,178.72619625,178.72619625,,,25.4500000476837,180,0.276836993918843,0.692721245804098
2018-07-19T08:02:11Z,1531987331,106,40.0288403,44.6686121,182.25,0,-0.4,342.2,457662.53,-27889.21,337.2,Air+FixedWing,Red,Allies,J-11A,Red J-11A #005,xu,<51>Frostie,0,0,0,182.25,2.25,0,0,NaN,NaN,0,0,NaN,0.999977648259538,0,-0.00667302589863539,0,178.72619625,178.72619625,,,26.4500000476837,180,0.276836993918843,0.692721245804098
2018-07-19T08:02:12Z,1531987332,106,40.0288403,44.6686121,182.25,0,-0.4,342.2,457662.53,-27889.21,337.2,Air+FixedWing,Red,Allies,J-11A,Red J-11A #005,xu,<51>Frostie,0,0,0,182.25,2.25,0,0,NaN,NaN,0,0.00989117029631303,NaN,0.999977827073462,0,-0.00663885334506631,0,178.72619625,178.72619625,,,27.4500000476837,180,0.276836993918843,0.692721245804098
2018-07-19T08:02:13Z,1531987333,106,40.0288403,44.6686121,182.25,0,-0.4,342.2,457662.53,-27889.21,337.2,Air+FixedWing,Red,Allies,J-11A,Red J-11A #005,xu,<51>Frostie,0,0,0,182.25,2.25,0,0,NaN,NaN,0,0.00989117029631303,NaN,0.999978125096668,0,-0.00660468125715852,0,178.72619625,178.72619625,,,28.4500000476837,180,0.276836993918843,0.692721245804098
2018-07-19T08:02:14Z,1531987334,106,40.0288403,44.6686121,182.25,0,-0.4,342.2,457662.53,-27889.21,337.2,Air+FixedWing,Red,Allies,J-11A,Red J-11A #005,xu,<51>Frostie,0,0,0,182.25,2.25,0,0,NaN,NaN,0,0.0139882274201861,NaN,0.999978303910591,0,-0.00657050823792815,0,178.72619625,178.72619625,,,29.4500000476837,180,0.276836993918843,0.692721245804098
2018-07-19T08:02:15Z,1531987335,106,40.0288403,44.6686121,182.25,0,-0.4,342.2,457662.53,-27889.21,337.2,Air+FixedWing,Red,Allies,J-11A,Red J-11A #005,xu,<51>Frostie,0,0,0,182.25,2.25,0,0,NaN,NaN,0,0.00989117029631303,NaN,0.999978542329156,0,-0.00653633615002036,0,178.72619625,178.72619625,,,30.4500000476837,180,0.276836993918843,0.692721245804098
2018-07-19T08:02:16Z,1531987336,106,40.0288403,44.6686121,182.25,0,-0.4,342.2,457662.53,-27889.21,337.2,Air+FixedWing,Red,Allies,J-11A,Red J-11A #005,xu,<51>Frostie,0,0,0,182.25,2.25,0,0,NaN,NaN,0,0.00989117029631303,NaN,0.999978780747721,0,-0.00650216406211257,0,178.72619625,178.72619625,,,31.4500000476837,180,0.276836993918843,0.692721245804098
2018-07-19T08:02:17Z,1531987337,106,40.0288403,44.6686121,182.25,0,-0.4,342.2,457662.53,-27889.21,337.2,Air+FixedWing,Red,Allies,J-11A,Red J-11A #005,xu,<51>Frostie,0,0,0,182.25,2.25,0,0,NaN,NaN,0,0.0139882274201861,NaN,0.999979019166286,0,-0.0064679910428822,0,178.72619625,178.72619625,,,32.4500000476837,180,0.276836993918843,0.692721245804098
2018-07-19T08:02:18Z,1531987338,106,40.0288403,44.6686121,182.25,0,-0.4,342.2,457662.53,-27889.21,337.2,Air+FixedWing,Red,Allies,J-11A,Red J-11A #005,xu,<51>Frostie,0,0,0,182.25,2.25,0,0,NaN,NaN,0,0.0139882274201861,NaN,0.99997919798021,0,-0.00643381895497441,0,178.72619625,178.72619625,,,33.4500000476837,180,0.276836993918843,0.692721245804098
2018-07-19T08:02:19Z,1531987339,106,40.0288403,44.6686121,182.25,0,-0.4,342.2,457662.53,-27889.21,337.2,Air+FixedWing,Red,Allies,J-11A,Red J-11A #005,xu,<51>Frostie,0,0,0,182.25,2.25,0,0,NaN,NaN,0,0.0139882274201861,NaN,0.999979376794133,0,-0.00639964640140533,0,178.72619625,178.72619625,,,34.4500000476837,180,0.276836993918843,0.692721245804098
2018-07-19T08:02:20Z,1531987340,106,40.0288403,44.6686121,182.25,0,-0.4,342.2,457662.53,-27889.21,337.2,Air+FixedWing,Red,Allies,J-11A,Red J-11A #005,xu,<51>Frostie,0,0,0,182.25,2.25,0,0,NaN,NaN,0,0.0139882274201861,NaN,0.99997967481734,0,-0.00636547384783626,0,178.72619625,178.72619625,,,35.4500000476837,180,0.276836993918843,0.692721245804098
2018-07-19T08:02:21Z,1531987341,106,40.0288403,44.6686121,182.25,0,-0.4,342.2,457662.53,-27889.21,337.2,Air+FixedWing,Red,Allies,J-11A,Red J-11A #005,xu,<51>Frostie,0,0,0,182.25,2.25,0,0,NaN,NaN,0,0.0171320104161963,NaN,0.999979853631263,0,-0.00633130129426718,0,178.72619625,178.72619625,,,36.4500000476837,180,0.276836993918843,0.692721245804098
2018-07-19T08:02:22Z,1531987342,106,40.0288403,44.6686121,182.25,0,-0.4,342.2,457662.53,-27889.21,337.2,Air+FixedWing,Red,Allies,J-11A,Red J-11A #005,xu,<51>Frostie,0,0,0,182.25,2.25,0,0,NaN,NaN,0,0.0139882274201861,NaN,0.999980151654469,0,-0.00629712920635939,0,178.72619625,178.72619625,,,37.4500000476837,180,0.276836993918843,0.692721245804098
2018-07-19T08:02:23Z,1531987343,106,40.0288403,44.6686121,182.25,0,-0.4,342.2,457662.53,-27889.21,337.2,Air+FixedWing,Red,Allies,J-11A,Red J-11A #005,xu,<51>Frostie,0,0,0,182.25,2.25,0,0,NaN,NaN,0,0.0171320104161963,NaN,0.999980270863752,0,-0.00626295618712902,0,178.72619625,178.72619625,,,38.4500000476837,180,0.276836993918843,0.692721245804098
2018-07-19T08:02:24Z,1531987344,106,40.0288403,44.6686121,182.25,0,-0.4,342.2,457662.53,-27889.21,337.2,Air+FixedWing,Red,Allies,J-11A,Red J-11A #005,xu,<51>Frostie,0,0,0,182.25,2.25,0,0,NaN,NaN,0,0.0139882274201861,NaN,0.999980509282317,0,-0.00622878409922123,0,178.72619625,178.72619625,,,39.4500000476837,180,0.276836993918843,0.692721245804098
2018-07-19T08:02:25Z,1531987345,106,40.0288403,44.6686121,182.25,0,-0.4,342.2,457662.53,-27889.21,337.2,Air+FixedWing,Red,Allies,J-11A,Red J-11A #005,xu,<51>Frostie,0,0,0,182.25,2.25,0,0,NaN,NaN,0,0.0139882274201861,NaN,0.999980747700881,0,-0.00619461154565215,0,178.72619625,178.72619625,,,40.4500000476837,180,0.276836993918843,0.692721245804098
2018-07-19T08:02:26Z,1531987346,106,40.0288403,44.6686121,182.25,0,-0.4,342.2,457662.53,-27889.21,337.2,Air+FixedWing,Red,Allies,J-11A,Red J-11A #005,xu,<51>Frostie,0,0,0,182.25,2.25,0,0,NaN,NaN,0,0.00989117029631303,NaN,0.999980926514805,0,-0.00616043852642179,0,178.72619625,178.72619625,,,41.4500000476837,180,0.276836993918843,0.692721245804098
2018-07-19T08:02:27Z,1531987347,106,40.0288403,44.6686121,182.25,0,-0.4,342.2,457662.53,-27889.21,337.2,Air+FixedWing,Red,Allies,J-11A,Red J-11A #005,xu,<51>Frostie,0,0,0,182.25,2.25,0,0,NaN,NaN,0,0,NaN,0.999981105328729,0,-0.00612626643851399,0,178.72619625,178.72619625,,,42.4500000476837,180,0.276836993918843,0.692721245804098
2018-07-19T08:02:28Z,1531987348,106,40.0288403,44.6686121,182.25,0,-0.3,342.2,457662.53,-27889.21,337.2,Air+FixedWing,Red,Allies,J-11A,Red J-11A #005,xu,<51>Frostie,0,0,0,182.25,2.25,0,0,NaN,NaN,0,0.00989117029631303,NaN,0.999981403351935,0,-0.00609209388494492,0,178.72619625,178.72619625,,,43.4500000476837,180,0.276836993918843,0.692721245804098
2018-07-19T08:02:29Z,1531987349,106,40.0288403,44.6686121,182.25,0,-0.3,342.2,457662.53,-27889.21,337.2,Air+FixedWing,Red,Allies,J-11A,Red J-11A #005,xu,<51>Frostie,0,0,0,182.25,2.25,0,0,NaN,NaN,0,0.00989117029631303,NaN,0.999981582165859,0,-0.00605792086571455,0,178.72619625,178.72619625,,,44.4500000476837,180,0.276836993918843,0.692721245804098
2018-07-19T08:02:30Z,1531987350,106,40.0288403,44.6686121,182.25,0,-0.3,342.2,457662.53,-27889.21,337.2,Air+FixedWing,Red,Allies,J-11A,Red J-11A #005,xu,<51>Frostie,0,0,0,182.25,2.25,0,0,NaN,NaN,0,0.00989117029631303,NaN,0.999981760979782,0,-0.00602374877780676,0,178.72619625,178.72619625,,,45.4500000476837,180,0.276836993918843,0.692721245804098
2018-07-19T08:02:31Z,1531987351,106,40.0288403,44.6686121,182.25,0,-0.3,342.2,457662.53,-27889.21,337.2,Air+FixedWing,Red,Allies,J-11A,Red J-11A #005,xu,<51>Frostie,0,0,0,182.25,2.25,0,0,NaN,NaN,0,0.00989117029631303,NaN,0.999981939793706,0,-0.00598957622423768,0,178.72619625,178.72619625,,,46.4500000476837,180,0.276836993918843,0.692721245804098
2018-07-19T08:02:32Z,1531987352,106,40.0288403,44.6686121,182.25,0,-0.3,342.2,457662.53,-27889.21,337.2,Air+FixedWing,Red,Allies,J-11A,Red J-11A #005,xu,<51>Frostie,0,0,0,182.25,2.25,0,0,NaN,NaN,0,0,NaN,0.999982178212271,0,-0.00595540320500731,0,178.72619625,178.72619625,,,47.4500000476837,180,0.276836993918843,0.692721245804098
2018-07-19T08:02:33Z,1531987353,106,40.0288403,44.6686121,182.25,0,-0.3,342.2,457662.53,-27889.21,337.2,Air+FixedWing,Red,Allies,J-11A,Red J-11A #005,xu,<51>Frostie,0,0,0,182.25,2.25,0,0,NaN,NaN,0,0.00989117029631303,NaN,0.999982357026194,0,-0.00592123111709952,0,178.72619625,178.72619625,,,48.4500000476837,180,0.276836993918843,0.692721245804098
2018-07-19T08:02:34Z,1531987354,106,40.0288403,44.6686121,182.25,0,-0.3,342.2,457662.53,-27889.21,337.2,Air+FixedWing,Red,Allies,J-11A,Red J-11A #005,xu,<51>Frostie,0,0,0,182.25,2.25,0,0,NaN,NaN,0,0,NaN,0.999982595444759,0,-0.00588705856353045,0,178.72619625,178.72619625,,,49.4500000476837,180,0.276836993918843,0.692721245804098
2018-07-19T08:02:35Z,1531987355,106,40.0288403,44.6686121,182.25,0,-0.3,342.2,457662.53,-27889.21,337.2,Air+FixedWing,Red,Allies,J-11A,Red J-11A #005,xu,<51>Frostie,0,0,0,182.25,2.25,0,0,NaN,NaN,0,0.0139882274201861,NaN,0.999982774258683,0,-0.00585288554430008,0,178.72619625,178.72619625,,,50.4500000476837,180,0.276836993918843,0.692721245804098
2018-07-19T08:02:36Z,1531987356,106,40.0288403,44.6686121,182.25,0,-0.3,342.2,457662.53,-27889.21,337.2,Air+FixedWing,Red,Allies,J-11A,Red J-11A #005,xu,<51>Frostie,0,0,0,182.25,2.25,0,0,NaN,NaN,0,0.00989117029631303,NaN,0.999982953072607,0,-0.005818712990731,0,178.72619625,178.72619625,,,51.4500000476837,180,0.276836993918843,0.692721245804098
2018-07-19T08:02:37Z,1531987357,106,40.0288403,44.6686121,182.25,0,-0.3,342.2,457662.53,-27889.21,337.2,Air+FixedWing,Red,Allies,J-11A,Red J-11A #005,xu,<51>Frostie,0,0,0,182.25,2.25,0,0,NaN,NaN,0,0.0139882274201861,NaN,0.999983191491172,0,-0.00578454090282321,0,178.72619625,178.72619625,,,52.4500000476837,180,0.276836993918843,0.692721245804098
2018-07-19T08:02:38Z,1531987358,106,40.0288403,44.6686121,182.25,0,-0.3,342.2,457662.53,-27889.21,337.2,Air+FixedWing,Red,Allies,J-11A,Red J-11A #005,xu,<51>Frostie,0,0,0,182.25,2.25,0,0,NaN,NaN,0,0.00989117029631303,NaN,0.999983370305095,0,-0.00575036788359284,0,178.72619625,178.72619625,,,53.4500000476837,180,0.276836993918843,0.692721245804098
2018-07-19T08:02:39Z,1531987359,106,40.0288403,44.6686121,182.25,0,-0.3,342.2,457662.53,-27889.21,337.2,Air+FixedWing,Red,Allies,J-11A,Red J-11A #005,xu,<51>Frostie,0,0,0,182.25,2.25,0,0,NaN,NaN,0,0.0171320104161963,NaN,0.999983549119019,0,-0.00571619533002377,0,178.72619625,178.72619625,,,54.4500000476837,180,0.276836993918843,0.692721245804098
2018-07-19T08:02:40Z,1531987360,106,40.0288403,44.6686121,182.25,0,-0.3,342.2,457662.53,-27889.21,337.2,Air+FixedWing,Red,Allies,J-11A,Red J-11A #005,xu,<51>Frostie,0,0,0,182.25,2.25,0,0,NaN,NaN,0,0.00989117029631303,NaN,0.999983787537584,0,-0.0056820223107934,0,178.72619625,178.72619625,,,55.4500000476837,180,0.276836993918843,0.692721245804098
2018-07-19T08:02:41Z,1531987361,106,40.0288403,44.6686121,182.25,0,-0.3,342.2,457662.53,-27889.21,337.2,Air+FixedWing,Red,Allies,J-11A,Red J-11A #005,xu,<51>Frostie,0,0,0,182.25,2.25,0,0,NaN,NaN,0,0.0171320104161963,NaN,0.999984025956149,0,-0.00564785022288561,0,178.72619625,178.72619625,,,56.4500000476837,180,0.276836993918843,0.692721245804098
2018-07-19T08:02:42Z,1531987362,106,40.0288403,44.6686121,182.25,0,-0.3,342.2,457662.53,-27889.21,337.2,Air+FixedWing,Red,Allies,J-11A,Red J-11A #005,xu,<51>Frostie,0,0,0,182.25,2.25,0,0,NaN,NaN,0,0.00989117029631303,NaN,0.999984145165431,0,-0.00561367766931653,0,178.72619625,178.72619625,,,57.4500000476837,180,0.276836993918843,0.692721245804098
2018-07-19T08:02:43Z,1531987363,106,40.0288403,44.6686121,182.25,0,-0.3,342.2,457662.53,-27889.21,337.2,Air+FixedWing,Red,Allies,J-11A,Red J-11A #005,xu,<51>Frostie,0,0,0,182.25,2.25,0,0,NaN,NaN,0,0.0139882274201861,NaN,0.999984323979355,0,-0.00557950511574745,0,178.72619625,178.72619625,,,58.4500000476837,180,0.276836993918843,0.692721245804098
2018-07-19T08:02:44Z,1531987364,106,40.0288403,44.6686121,182.25,0,-0.3,342.2,457662.53,-27889.21,337.2,Air+FixedWing,Red,Allies,J-11A,Red J-11A #005,xu,<51>Frostie,0,0,0,182.25,2.25,0,0,NaN,NaN,0,0.00989117029631303,NaN,0.999984502793279,0,-0.00554533209651709,0,178.72619625,178.72619625,,,59.4500000476837,180,0.276836993918843,0.692721245804098
2018-07-19T08:02:45Z,1531987365,106,40.0288403,44.6686121,182.25,0,-0.3,342.2,457662.53,-27889.21,337.2,Air+FixedWing,Red,Allies,J-11A,Red J-11A #005,xu,<51>Frostie,0,0,0,182.25,2.25,0,0,NaN,NaN,0,0.0139882274201861,NaN,0.999984741211843,0,-0.00551115954294801,0,178.72619625,178.72619625,,,60.4500000476837,180,0.276836993918843,0.692721245804098
2018-07-19T08:02:46Z,1531987366,106,40.0288403,44.6686121,182.25,0,-0.3,342.2,457662.53,-27889.21,337.2,Air+FixedWing,Red,Allies,J-11A,Red J-11A #005,xu,<51>Frostie,0,0,0,182.25,2.25,0,0,NaN,NaN,0,0.00989117029631303,NaN,0.999984979630408,0,-0.00547698698937893,0,178.72619625,178.72619625,,,61.4500000476837,180,0.276836993918843,0.692721245804098
2018-07-19T08:02:47Z,1531987367,106,40.0288403,44.6686121,182.25,0,-0.3,342.2,457662.53,-27889.21,337.2,Air+FixedWing,Red,Allies,J-11A,Red J-11A #005,xu,<51>Frostie,0,0,0,182.25,2.25,0,0,NaN,NaN,0,0.0139882274201861,NaN,0.999985098839691,0,-0.00544281397014856,0,178.72619625,178.72619625,,,62.4500000476837,180,0.276836993918843,0.692721245804098
2018-07-19T08:02:48Z,1531987368,106,40.0288403,44.6686121,182.25,0,-0.3,342.2,457662.53,-27889.21,337.2,Air+FixedWing,Red,Allies,J-11A,Red J-11A #005,xu,<51>Frostie,0,0,0,182.25,2.25,0,0,NaN,NaN,0,0,NaN,0.999985337258256,0,-0.00540864141657948,0,178.72619625,178.72619625,,,63.4500000476837,180,0.276836993918843,0.692721245804098
2018-07-19T08:02:49Z,1531987369,106,40.0288403,44.6686121,182.25,0,-0.3,342.2,457662.53,-27889.21,337.2,Air+FixedWing,Red,Allies,J-11A,Red J-11A #005,xu,<51>Frostie,0,0,0,182.25,2.25,0,0,NaN,NaN,0,0.0171320104161963,NaN,0.999985396862897,0,-0.00537446886301041,0,178.72619625,178.72619625,,,64.4500000476837,180,0.276836993918843,0.692721245804098
2018-07-19T08:02:50Z,1531987370,106,40.0288403,44.6686121,182.25,0,-0.3,342.2,457662.53,-27889.21,337.2,Air+FixedWing,Red,Allies,J-11A,Red J-11A #005,xu,<51>Frostie,0,0,0,182.25,2.25,0,0,NaN,NaN,0,0,NaN,0.999985694886103,0,-0.00534029584378004,0,178.72619625,178.72619625,,,65.4500000476837,180,0.276836993918843,0.692721245804098
2018-07-19T08:02:51Z,1531987371,106,40.0288403,44.6686121,182.25,0,-0.3,342.2,457662.53,-27889.21,337.2,Air+FixedWing,Red,Allies,J-11A,Red J-11A #005,xu,<51>Frostie,0,0,0,182.25,2.25,0,0,NaN,NaN,0,0.0197823405926261,NaN,0.999985814095385,0,-0.00530612375587225,0,178.72619625,178.72619625,,,66.4500000476837,180,0.276836993918843,0.692721245804098
2018-07-19T08:02:52Z,1531987372,106,40.0288403,44.6686121,182.25,0,-0.3,342.2,457662.53,-27889.21,337.2,Air+FixedWing,Red,Allies,J-11A,Red J-11A #005,xu,<51>Frostie,0,0,0,182.25,2.25,0,0,NaN,NaN,0,0,NaN,0.999985992909309,0,-0.00527195120230317,0,178.72619625,178.72619625,,,67.4500000476837,180,0.276836993918843,0.692721245804098
2018-07-19T08:02:53Z,1531987373,106,40.0288403,44.6686121,182.25,0,-0.3,342.2,457662.53,-27889.21,337.2,Air+FixedWing,Red,Allies,J-11A,Red J-11A #005,xu,<51>Frostie,0,0,0,182.25,2.25,0,0,NaN,NaN,0,0.0139882274201861,NaN,1.00074080339824,0,-0.005241730831465,0,178.72619625,178.72619625,,,68.4500000476837,180,0.276836993918843,0.692721245804098
2018-07-19T08:02:54Z,1531987374,106,40.0288403,44.6686121,182.26,0,-0.4,342.2,457662.53,-27889.21,337.2,Air+FixedWing,Red,Allies,J-11A,Red J-11A #005,xu,<51>Frostie,0.0074005126953125,0,2.17845284225616e-05,182.257400512695,2.25740051269531,0,0.0074005126953125,NaN,NaN,0,0.0513960362511687,NaN,0.998466314631985,0,-0.00697072390041581,2.73837940767407e-06,178.733453673782,178.733456412162,,,69.4500000476837,180,0.276836993918843,0.700121758310377
2018-07-19T08:02:55Z,1531987375,106,40.0288403,44.6686121,182.25,0,-0.4,342.2,457662.53,-27889.21,337.2,Air+FixedWing,Red,Allies,J-11A,Red J-11A #005,xu,<51>Frostie,0.0074005126953125,0,2.17845265996367e-05,182.25,2.25,0,-0.0074005126953125,NaN,NaN,0,0.0513960362511687,NaN,1.00073018582965,0,-0.00698652896311466,2.73837940767407e-06,178.72619625,178.726198988379,,,70.4500000476837,180,0.279750403161521,0.708075124155966
2018-07-19T08:02:56Z,1531987376,106,40.0288404,44.6686121,182.25,0.1,-0.4,342.2,457662.53,-27889.21,337.2,Air+FixedWing,Red,Allies,J-11A,Red J-11A #005,xu,<51>Frostie,0,0,0,182.25,2.25,0,0,NaN,NaN,0.20000001179094,0.0513960362511687,NaN,0.999974072017302,0.00174528587542771,-0.00698126060888171,0,178.72619625,178.72619625,,,71.4500000476837,180,0.284753865568926,0.713078729001601
2018-07-19T08:02:57Z,1531987377,106,40.0288404,44.6686121,182.25,0,-0.4,342.2,457662.53,-27889.21,337.2,Air+FixedWing,Red,Allies,J-11A,Red J-11A #005,xu,<51>Frostie,0,0,0,182.25,2.25,0,0,NaN,NaN,0.168405144175834,0.0171320104161963,NaN,0.999977231027049,0,-0.00673193437978625,0,178.72619625,178.72619625,,,72.4500000476837,180,0.284753865568926,0.713078729001601
2018-07-19T08:02:58Z,1531987378,106,40.0288404,44.6686121,182.25,0,-0.4,342.2,457662.53,-27889.21,337.2,Air+FixedWing,Red,Allies,J-11A,Red J-11A #005,xu,<51>Frostie,0,0,0,182.25,2.25,0,0,NaN,NaN,0.0978083089145826,0.0513960362511687,NaN,0.999975562097095,0,-0.00698126060888171,0,178.72619625,178.72619625,,,73.4500000476837,180,0.286541545338448,0.714866459331203
2018-07-19T08:02:59Z,1531987379,106,40.0288403,44.6686121,182.25,0,-0.4,342.2,457662.53,-27889.21,337.2,Air+FixedWing,Red,Allies,J-11A,Red J-11A #005,xu,<51>Frostie,0,0,0,182.25,2.25,0,0,NaN,NaN,0,0.0171320104161963,NaN,0.999975562097095,0,-0.00698126060888171,0,178.72619625,178.72619625,,,74.4500000476837,180,0.292354061453354,0.720679142030527
2018-07-19T08:03:00Z,1531987380,106,40.0288404,44.6686121,182.25,0,-0.4,342.2,457662.53,-27889.21,337.2,Air+FixedWing,Red,Allies,J-11A,Red J-11A #005,xu,<51>Frostie,0,0,0,182.25,2.25,0,0,NaN,NaN,0,0.0171320104161963,NaN,0.999975562097095,0,-0.00698126060888171,0,178.72619625,178.72619625,,,75.4500000476837,180,0.299586031268139,0.727911318435668
2018-07-19T08:03:01Z,1531987381,106,40.0288403,44.6686121,182.25,0,-0.4,342.2,457662.53,-27889.21,337.2,Air+FixedWing,Red,Allies,J-11A,Red J-11A #005,xu,<51>Frostie,0,0,0,182.25,2.25,0,0,NaN,NaN,0,0.0171320104161963,NaN,0.999966941206385,-0.00293762083390456,-0.00821609231608212,0,178.72619625,178.72619625,,,76.4500000476837,180,0.305417764478725,0.733743218230673
2018-07-19T08:03:02Z,1531987382,106,40.0288405,44.668612,182.25,0.1,-0.3,342.2,457662.56,-27889.21,337.2,Air+FixedWing,Red,Allies,J-11A,Red J-11A #005,xu,<51>Frostie,0.03125,0,9.19890937650638e-05,182.25,2.25,0.03125,0,NaN,NaN,0.133333350087435,0.0513960362511687,NaN,0.999991551695946,0.00703878878894421,-0.00276627507153419,4.8828125e-05,178.72619625,178.726245078125,,,77.4500000476837,180,0.319085875922038,0.747411720358383
2018-07-19T08:03:03Z,1531987383,106,40.0288403,44.6686121,182.25,0.1,-0.3,342.2,457662.53,-27889.21,337.2,Air+FixedWing,Red,Allies,J-11A,Red J-11A #005,xu,<51>Frostie,0.03125,0,9.19890937650638e-05,182.25,2.25,0.03125,0,NaN,NaN,0.199987938897973,0.0513960362511687,NaN,0.999982004490934,-0.00412995147723809,-0.00770565379318329,4.8828125e-05,178.72619625,178.726245078125,,,78.4500000476837,180,0.331682873999777,0.76000907854448
2018-07-19T08:03:04Z,1531987384,106,40.0288404,44.668612,182.25,0.1,-0.3,342.2,457662.56,-27889.21,337.2,Air+FixedWing,Red,Allies,J-11A,Red J-11A #005,xu,<51>Frostie,0.03125,0,9.19890937650638e-05,182.25,2.25,0.03125,0,NaN,NaN,0,0,NaN,0.998965566518246,0.00769595587261888,-0.00294452944501958,4.8828125e-05,178.72619625,178.726245078125,,,79.4500000476837,180,0.341191344979142,0.769517821674095
2018-07-19T08:03:05Z,1531987385,106,40.0288404,44.668612,182.24,-0,-0.3,342.2,457662.53,-27889.21,337.2,Air+FixedWing,Red,Allies,J-11A,Red J-11A #005,xu,<51>Frostie,0.0328720642055387,0,9.6763873734481e-05,182.239990234375,2.239990234375,0.0313109756677371,-0.010009765625,NaN,NaN,0.228565450385307,0,NaN,1.00202225327218,-0.00334180055754268,-0.00611430036580023,5.40286302566528e-05,178.716380023193,178.716434051824,,,80.4500000476837,180,0.344382316330213,0.780023929496847
2018-07-19T08:03:06Z,1531987386,106,40.0288404,44.6686121,182.25,0,-0.3,342.2,457662.53,-27889.21,337.2,Air+FixedWing,Red,Allies,J-11A,Red J-11A #005,xu,<51>Frostie,0.0101985344600612,0,3.00209261668099e-05,182.25,2.25,0.001953125,0.010009765625,NaN,NaN,0.0952324671537349,0,NaN,0.998964512724575,7.71788507784092e-05,-0.00541421880584414,5.20050525665283e-06,178.72619625,178.726201450505,,,81.4500000476837,180,0.355799881387987,0.795208252996261
2018-07-19T08:03:07Z,1531987387,106,40.0288404,44.668612,182.25,0,-0.3,342.2,457662.53,-27889.21,337.2,Air+FixedWing,Red,Allies,J-11A,Red J-11A #005,xu,<51>Frostie,0,0,0,182.25,2.25,0,0,NaN,NaN,0,0,NaN,0.999975860713298,-0.00262890543079092,-0.00720520425130903,0,178.72619625,178.72619625,,,82.4500000476837,180,0.367520818002979,0.80692952452691
2018-07-19T08:03:08Z,1531987388,106,40.0288405,44.668612,182.25,0,-0.3,342.2,457662.56,-27889.22,337.2,Air+FixedWing,Red,Allies,J-11A,Red J-11A #005,xu,<51>Frostie,0.032211762700138,0,9.48201874995513e-05,182.25,2.25,0.032211762700138,0,NaN,NaN,0,0,NaN,1.00000032805231,0.00232019002767729,-0.00253232947487044,5.18798828125e-05,178.72619625,178.726248129883,,,83.4500000476837,180,0.376945664001984,0.816354639899195
2018-07-19T08:03:09Z,1531987389,106,40.0288404,44.6686121,182.25,0,-0.3,342.2,457662.56,-27889.21,337.2,Air+FixedWing,Red,Allies,J-11A,Red J-11A #005,xu,<51>Frostie,0.0078125,0,2.2997273441266e-05,182.25,2.25,0.0078125,0,NaN,NaN,0.085732534462,0,NaN,0.999988792094885,0.00324633623701819,-0.00473551489048448,3.0517578125e-06,178.72619625,178.726199301758,,,84.4500000476837,180,0.391531548018087,0.830940940861854
2018-07-19T08:03:10Z,1531987390,106,40.0288404,44.6686121,182.25,0,-0.3,342.2,457662.53,-27889.21,337.2,Air+FixedWing,Red,Allies,J-11A,Red J-11A #005,xu,<51>Frostie,0.03125,0,9.19890937650638e-05,182.25,2.25,0.03125,0,NaN,NaN,0.199987938897973,0,NaN,0.999974899383512,-0.00255172658001251,-0.00738880303594353,4.8828125e-05,178.72619625,178.726245078125,,,85.4500000476837,180,0.394698297416914,0.834107780470131
2018-07-19T08:03:11Z,1531987391,106,40.0288404,44.668612,182.25,0,-0.3,342.2,457662.53,-27889.22,337.2,Air+FixedWing,Red,Allies,J-11A,Red J-11A #005,xu,<51>Frostie,0.009765625,0,2.87465918015824e-05,182.25,2.25,0.009765625,0,NaN,NaN,0.199987938897973,0,NaN,0.99999097837216,-0.000385894253892046,-0.00431797050918623,4.76837158203125e-06,178.72619625,178.726201018372,,,86.4500000476837,180,0.405832543965423,0.845242345283339
2018-07-19T08:03:12Z,1531987392,106,40.0288404,44.668612,182.25,0,-0.3,342.2,457662.53,-27889.22,337.2,Air+FixedWing,Red,Allies,J-11A,Red J-11A #005,xu,<51>Frostie,0,0,0,182.25,2.25,0,0,NaN,NaN,0,0,NaN,0.999986171723233,0,-0.00523596443235874,0,178.72619625,178.72619625,,,87.4500000476837,180,0.409225485351997,0.848635383497102
2018-07-19T08:03:13Z,1531987393,106,40.0288403,44.668612,182.25,0,-0.3,342.2,457662.53,-27889.22,337.2,Air+FixedWing,Red,Allies,J-11A,Red J-11A #005,xu,<51>Frostie,0,0,0,182.25,2.25,0,0,NaN,NaN,0,0,NaN,0.999986171723233,0,-0.00523596443235874,0,178.72619625,178.72619625,,,88.4500000476837,180,0.413749415729637,0.853159442777993
2018-07-19T08:03:14Z,1531987394,106,40.0288404,44.668612,182.25,0.1,-0.3,342.2,457662.53,-27889.22,337.2,Air+FixedWing,Red,Allies,J-11A,Red J-11A #005,xu,<51>Frostie,0,0,0,182.25,2.25,0,0,NaN,NaN,0.0961538490005991,0,NaN,0.999985098854399,0.00147679603355641,-0.00523596443235874,0,178.72619625,178.72619625,,,89.4500000476837,180,0.418273346107277,0.857683502058885
2018-07-19T08:03:15Z,1531987395,106,40.0288404,44.668612,182.25,0,-0.3,342.2,457662.53,-27889.22,337.2,Air+FixedWing,Red,Allies,J-11A,Red J-11A #005,xu,<51>Frostie,0,0,0,182.25,2.25,0,0,NaN,NaN,0.0292878511610147,0,NaN,0.999986171723233,0.000302756955129603,-0.00523596443235874,0,178.72619625,178.72619625,,,90.4500000476837,180,0.418273346107277,0.857683502058885
2018-07-19T08:03:16Z,1531987396,106,40.0288404,44.668612,182.25,0.1,-0.3,342.2,457662.53,-27889.22,337.2,Air+FixedWing,Red,Allies,J-11A,Red J-11A #005,xu,<51>Frostie,0,0,0,182.25,2.25,0,0,NaN,NaN,0.0510204125324044,0,NaN,0.999985456477344,0.00119321861696716,-0.00523596443235874,0,178.72619625,178.72619625,,,91.4500000476837,180,0.418273346107277,0.857683502058885
2018-07-19T08:03:17Z,1531987397,106,40.0288403,44.668612,182.25,0,-0.3,342.2,457662.53,-27889.22,337.2,Air+FixedWing,Red,Allies,J-11A,Red J-11A #005,xu,<51>Frostie,0,0,0,182.25,2.25,0,0,NaN,NaN,0.187748239905311,0,NaN,0.999986171723233,0,-0.00523596443235874,0,178.72619625,178.72619625,,,92.4500000476837,180,0.423449764073229,0.862860067768671
2018-07-19T08:03:18Z,1531987398,106,40.0288404,44.668612,182.25,-0,-0.3,342.2,457662.53,-27889.22,337.2,Air+FixedWing,Red,Allies,J-11A,Red J-11A #005,xu,<51>Frostie,0,0,0,182.25,2.25,0,0,NaN,NaN,0.0217473223173206,0,NaN,0.999986231327057,-0.000189695587499831,-0.00523596443235874,0,178.72619625,178.72619625,,,93.4500000476837,180,0.42862618203918,0.868036633478458
2018-07-19T08:03:19Z,1531987399,106,40.0288404,44.668612,182.25,-0,-0.3,342.2,457662.53,-27889.22,337.2,Air+FixedWing,Red,Allies,J-11A,Red J-11A #005,xu,<51>Frostie,0,0,0,182.25,2.25,0,0,NaN,NaN,0.0271568321399707,0,NaN,0.99998599291176,-0.000663934679938985,-0.00523596443235874,0,178.72619625,178.72619625,,,94.4500000476837,180,0.42862618203918,0.868036633478458
2018-07-19T08:03:20Z,1531987400,106,40.0288404,44.668612,182.25,-0.1,-0.3,342.2,457662.53,-27889.22,337.2,Air+FixedWing,Red,Allies,J-11A,Red J-11A #005,xu,<51>Frostie,0,0,0,182.25,2.25,0,0,NaN,NaN,0.0271568321399707,0,NaN,0.999985516081168,-0.00113817355410242,-0.00523596443235874,0,178.72619625,178.72619625,,,95.4500000476837,180,0.42862618203918,0.868036633478458
2018-07-19T08:03:21Z,1531987401,106,40.0288404,44.668612,182.25,-0.1,-0.3,342.2,457662.53,-27889.22,337.2,Air+FixedWing,Red,Allies,J-11A,Red J-11A #005,xu,<51>Frostie,0,0,0,182.25,2.25,0,0,NaN,NaN,0.0271568321399707,0,NaN,0.999984860439103,-0.00161241231185213,-0.00523596443235874,0,178.72619625,178.72619625,,,96.4500000476837,180,0.42862618203918,0.868036633478458
2018-07-19T08:03:22Z,1531987402,106,40.0288404,44.668612,182.25,0,-0.3,342.2,457662.53,-27889.22,337.2,Air+FixedWing,Red,Allies,J-11A,Red J-11A #005,xu,<51>Frostie,0,0,0,182.25,2.25,0,0,NaN,NaN,0.115377636533118,0,NaN,0.999986171723233,0,-0.00523596443235874,0,178.72619625,178.72619625,,,97.4500000476837,180,0.42862618203918,0.868036633478458
2018-07-19T08:03:23Z,1531987403,106,40.0288404,44.668612,182.25,0,-0.3,342.2,457662.53,-27889.22,337.2,Air+FixedWing,Red,Allies,J-11A,Red J-11A #005,xu,<51>Frostie,0,0,0,182.25,2.25,0,0,NaN,NaN,0,0,NaN,0.999986171723233,0,-0.00523596443235874,0,178.72619625,178.72619625,,,98.4500000476837,180,0.42862618203918,0.868036633478458
2018-07-19T08:03:24Z,1531987404,106,40.0288404,44.668612,182.25,0,-0.3,342.2,457662.53,-27889.22,337.2,Air+FixedWing,Red,Allies,J-11A,Red J-11A #005,xu,<51>Frostie,0,0,0,182.25,2.25,0,0,NaN,NaN,0,0,NaN,0.999986171723233,0,-0.00523596443235874,0,178.72619625,178.72619625,,,99.4500000476837,180,0.42862618203918,0.868036633478458
2018-07-19T08:03:25Z,1531987405,106,40.0288404,44.668612,182.25,0,-0.3,342.2,457662.53,-27889.22,337.2,Air+FixedWing,Red,Allies,J-11A,Red J-11A #005,xu,<51>Frostie,0,0,0,182.25,2.25,0,0,NaN,NaN,0,0,NaN,0.999986171723233,0,-0.00523596443235874,0,178.72619625,178.72619625,,,100.450000047684,180,0.42862618203918,0.868036633478458
2018-07-19T08:03:26Z,1531987406,106,40.0288404,44.668612,182.25,0,-0.3,342.2,457662.53,-27889.22,337.2,Air+FixedWing,Red,Allies,J-11A,Red J-11A #005,xu,<51>Frostie,0,0,0,182.25,2.25,0,0,NaN,NaN,0,0,NaN,0.999986171723233,0,-0.00523596443235874,0,178.72619625,178.72619625,,,101.450000047684,180,0.42862618203918,0.868036633478458
2018-07-19T08:03:27Z,1531987407,106,40.0288404,44.668612,182.25,0,-0.3,342.2,457662.53,-27889.22,337.2,Air+FixedWing,Red,Allies,J-11A,Red J-11A #005,xu,<51>Frostie,0,0,0,182.25,2.25,0,0,NaN,NaN,0,0,NaN,0.999986171723233,0,-0.00523596443235874,0,178.72619625,178.72619625,,,102.450000047684,180,0.42862618203918,0.868036633478458
2018-07-19T08:03:28Z,1531987408,106,40.0288404,44.668612,182.25,0,-0.3,342.2,457662.53,-27889.22,337.2,Air+FixedWing,Red,Allies,J-11A,Red J-11A #005,xu,<51>Frostie,0,0,0,182.25,2.25,0,0,NaN,NaN,0,0,NaN,0.999986171723233,0,-0.00523596443235874,0,178.72619625,178.72619625,,,103.450000047684,180,0.42862618203918,0.868036633478458
2018-07-19T08:03:29Z,1531987409,106,40.0288404,44.668612,182.25,0,-0.3,342.2,457662.53,-27889.22,337.2,Air+FixedWing,Red,Allies,J-11A,Red J-11A #005,xu,<51>Frostie,0,0,0,182.25,2.25,0,0,NaN,NaN,0,0,NaN,0.999986171723233,0,-0.00523596443235874,0,178.72619625,178.72619625,,,104.450000047684,180,0.42862618203918,0.868036633478458
2018-07-19T08:03:30Z,1531987410,106,40.0288404,44.668612,182.25,0,-0.3,342.2,457662.53,-27889.22,337.2,Air+FixedWing,Red,Allies,J-11A,Red J-11A #005,xu,<51>Frostie,0,0,0,182.25,2.25,0,0,NaN,NaN,0,0,NaN,0.999986171723233,0,-0.00523596443235874,0,178.72619625,178.72619625,,,105.450000047684,180,0.42862618203918,0.868036633478458
2018-07-19T08:03:31Z,1531987411,106,40.0288404,44.668612,182.25,0,-0.3,342.2,457662.53,-27889.22,337.2,Air+FixedWing,Red,Allies,J-11A,Red J-11A #005,xu,<51>Frostie,0,0,0,182.25,2.25,0,0,NaN,NaN,0,0,NaN,0.999986171723233,0,-0.00523596443235874,0,178.72619625,178.72619625,,,106.450000047684,180,0.42862618203918,0.868036633478458
2018-07-19T08:03:32Z,1531987412,106,40.0288404,44.668612,182.25,0,-0.3,342.2,457662.53,-27889.22,337.2,Air+FixedWing,Red,Allies,J-11A,Red J-11A #005,xu,<51>Frostie,0,0,0,182.25,2.25,0,0,NaN,NaN,0,0,NaN,0.999986171723233,0,-0.00523596443235874,0,178.72619625,178.72619625,,,107.450000047684,180,0.42862618203918,0.868036633478458
2018-07-19T08:03:33Z,1531987413,106,40.0288404,44.668612,182.25,0,-0.3,342.2,457662.53,-27889.22,337.2,Air+FixedWing,Red,Allies,J-11A,Red J-11A #005,xu,<51>Frostie,0,0,0,182.25,2.25,0,0,NaN,NaN,0,0,NaN,0.999986171723233,0,-0.00523596443235874,0,178.72619625,178.72619625,,,108.450000047684,180,0.42862618203918,0.868036633478458
2018-07-19T08:03:34Z,1531987414,106,40.0288404,44.668612,182.25,0,-0.3,342.2,457662.53,-27889.22,337.2,Air+FixedWing,Red,Allies,J-11A,Red J-11A #005,xu,<51>Frostie,0,0,0,182.25,2.25,0,0,NaN,NaN,0,0,NaN,0.999986171723233,0,-0.00523596443235874,0,178.72619625,178.72619625,,,109.450000047684,180,0.42862618203918,0.868036633478458
2018-07-19T08:03:35Z,1531987415,106,40.0288404,44.668612,182.25,0,-0.3,342.2,457662.53,-27889.22,337.2,Air+FixedWing,Red,Allies,J-11A,Red J-11A #005,xu,<51>Frostie,0,0,0,182.25,2.25,0,0,NaN,NaN,0,0,NaN,0.999986171723233,0,-0.00523596443235874,0,178.72619625,178.72619625,,,110.450000047684,180,0.42862618203918,0.868036633478458
2018-07-19T08:03:36Z,1531987416,106,40.0288404,44.668612,182.25,0,-0.3,342.2,457662.53,-27889.22,337.2,Air+FixedWing,Red,Allies,J-11A,Red J-11A #005,xu,<51>Frostie,0,0,0,182.25,2.25,0,0,NaN,NaN,0,0,NaN,0.999986171723233,0,-0.00523596443235874,0,178.72619625,178.72619625,,,111.450000047684,180,0.42862618203918,0.868036633478458
2018-07-19T08:03:37Z,1531987417,106,40.0288404,44.668612,182.25,0,-0.3,342.2,457662.53,-27889.22,337.2,Air+FixedWing,Red,Allies,J-11A,Red J-11A #005,xu,<51>Frostie,0,0,0,182.25,2.25,0,0,NaN,NaN,0,0,NaN,0.999986171723233,0,-0.00523596443235874,0,178.72619625,178.72619625,,,112.450000047684,180,0.42862618203918,0.868036633478458
2018-07-19T08:03:38Z,1531987418,106,40.0288404,44.668612,182.25,0,-0.3,342.2,457662.53,-27889.22,337.2,Air+FixedWing,Red,Allies,J-11A,Red J-11A #005,xu,<51>Frostie,0,0,0,182.25,2.25,0,0,NaN,NaN,0,0,NaN,0.999986171723233,0,-0.00523596443235874,0,178.72619625,178.72619625,,,113.450000047684,180,0.42862618203918,0.868036633478458
2018-07-19T08:03:39Z,1531987419,106,40.0288404,44.668612,182.25,0,-0.3,342.2,457662.53,-27889.22,337.2,Air+FixedWing,Red,Allies,J-11A,Red J-11A #005,xu,<51>Frostie,0,0,0,182.25,2.25,0,0,NaN,NaN,0,0,NaN,0.999986171723233,0,-0.00523596443235874,0,178.72619625,178.72619625,,,114.450000047684,180,0.42862618203918,0.868036633478458
2018-07-19T08:03:40Z,1531987420,106,40.0288404,44.668612,182.25,0,-0.3,342.2,457662.53,-27889.22,337.2,Air+FixedWing,Red,Allies,J-11A,Red J-11A #005,xu,<51>Frostie,0,0,0,182.25,2.25,0,0,NaN,NaN,0,0,NaN,0.999986171723233,0,-0.00523596443235874,0,178.72619625,178.72619625,,,115.450000047684,180,0.42862618203918,0.868036633478458
2018-07-19T08:03:41Z,1531987421,106,40.0288404,44.668612,182.25,0,-0.3,342.2,457662.53,-27889.22,337.2,Air+FixedWing,Red,Allies,J-11A,Red J-11A #005,xu,<51>Frostie,0,0,0,182.25,2.25,0,0,NaN,NaN,0,0,NaN,0.999986171723233,0,-0.00523596443235874,0,178.72619625,178.72619625,,,116.450000047684,180,0.42862618203918,0.868036633478458
2018-07-19T08:03:42Z,1531987422,106,40.0288404,44.668612,182.25,0,-0.3,342.2,457662.53,-27889.22,337.2,Air+FixedWing,Red,Allies,J-11A,Red J-11A #005,xu,<51>Frostie,0,0,0,182.25,2.25,0,0,NaN,NaN,0,0,NaN,0.999986171723233,0,-0.00523596443235874,0,178.72619625,178.72619625,,,117.450000047684,180,0.42862618203918,0.868036633478458
2018-07-19T08:03:43Z,1531987423,106,40.0288404,44.668612,182.25,0,-0.3,342.2,457662.53,-27889.22,337.2,Air+FixedWing,Red,Allies,J-11A,Red J-11A #005,xu,<51>Frostie,0,0,0,182.25,2.25,0,0,NaN,NaN,0,0,NaN,0.999986171723233,0,-0.00523596443235874,0,178.72619625,178.72619625,,,118.450000047684,180,0.42862618203918,0.868036633478458
2018-07-19T08:03:44Z,1531987424,106,40.0288404,44.668612,182.25,0,-0.3,342.2,457662.53,-27889.22,337.2,Air+FixedWing,Red,Allies,J-11A,Red J-11A #005,xu,<51>Frostie,0,0,0,182.25,2.25,0,0,NaN,NaN,0,0,NaN,0.999986171723233,0,-0.00523596443235874,0,178.72619625,178.72619625,,,119.450000047684,180,0.42862618203918,0.868036633478458
2018-07-19T08:03:45Z,1531987425,106,40.0288404,44.668612,182.25,0,-0.3,342.2,457662.53,-27889.22,337.2,Air+FixedWing,Red,Allies,J-11A,Red J-11A #005,xu,<51>Frostie,0,0,0,182.25,2.25,0,0,NaN,NaN,0,0,NaN,0.999986171723233,0,-0.00523596443235874,0,178.72619625,178.72619625,,,120.450000047684,180,0.42862618203918,0.868036633478458
2018-07-19T08:03:46Z,1531987426,106,40.0288404,44.668612,182.25,0,-0.3,342.2,457662.53,-27889.22,337.2,Air+FixedWing,Red,Allies,J-11A,Red J-11A #005,xu,<51>Frostie,0,0,0,182.25,2.25,0,0,NaN,NaN,0,0,NaN,0.999986171723233,0,-0.00523596443235874,0,178.72619625,178.72619625,,,121.450000047684,180,0.42862618203918,0.868036633478458
2018-07-19T08:03:47Z,1531987427,106,40.0288404,44.668612,182.25,0,-0.3,342.2,457662.53,-27889.22,337.2,Air+FixedWing,Red,Allies,J-11A,Red J-11A #005,xu,<51>Frostie,0,0,0,182.25,2.25,0,0,NaN,NaN,0,0,NaN,0.999986171723233,0,-0.00523596443235874,0,178.72619625,178.72619625,,,122.450000047684,180,0.42862618203918,0.868036633478458
2018-07-19T08:03:48Z,1531987428,106,40.0288404,44.668612,182.25,0,-0.3,342.2,457662.53,-27889.22,337.2,Air+FixedWing,Red,Allies,J-11A,Red J-11A #005,xu,<51>Frostie,0,0,0,182.25,2.25,0,0,NaN,NaN,0,0,NaN,0.999986171723233,0,-0.00523596443235874,0,178.72619625,178.72619625,,,123.450000047684,180,0.42862618203918,0.868036633478458
2018-07-19T08:03:49Z,1531987429,106,40.0288404,44.668612,182.25,0,-0.3,342.2,457662.53,-27889.22,337.2,Air+FixedWing,Red,Allies,J-11A,Red J-11A #005,xu,<51>Frostie,0,0,0,182.25,2.25,0,0,NaN,NaN,0,0,NaN,0.999986171723233,0,-0.00523596443235874,0,178.72619625,178.72619625,,,124.450000047684,180,0.42862618203918,0.868036633478458
2018-07-19T08:03:50Z,1531987430,106,40.0288404,44.668612,182.25,0,-0.3,342.2,457662.53,-27889.22,337.2,Air+FixedWing,Red,Allies,J-11A,Red J-11A #005,xu,<51>Frostie,0,0,0,182.25,2.25,0,0,NaN,NaN,0,0,NaN,0.999986171723233,0,-0.00523596443235874,0,178.72619625,178.72619625,,,125.450000047684,180,0.42862618203918,0.868036633478458
2018-07-19T08:03:51Z,1531987431,106,40.0288404,44.668612,182.25,0,-0.3,342.2,457662.53,-27889.22,337.2,Air+FixedWing,Red,Allies,J-11A,Red J-11A #005,xu,<51>Frostie,0,0,0,182.25,2.25,0,0,NaN,NaN,0,0,NaN,0.999986171723233,0,-0.00523596443235874,0,178.72619625,178.72619625,,,126.450000047684,180,0.42862618203918,0.868036633478458
2018-07-19T08:03:52Z,1531987432,106,40.0288404,44.668612,182.25,0,-0.3,342.2,457662.53,-27889.22,337.2,Air+FixedWing,Red,Allies,J-11A,Red J-11A #005,xu,<51>Frostie,0,0,0,182.25,2.25,0,0,NaN,NaN,0,0,NaN,0.999986171723233,0,-0.00523596443235874,0,178.72619625,178.72619625,,,127.450000047684,180,0.42862618203918,0.868036633478458
2018-07-19T08:03:53Z,1531987433,106,40.0288404,44.668612,182.25,0,-0.3,342.2,457662.53,-27889.22,337.2,Air+FixedWing,Red,Allies,J-11A,Red J-11A #005,xu,<51>Frostie,0,0,0,182.25,2.25,0,0,NaN,NaN,0,0,NaN,0.999986171723233,0,-0.00523596443235874,0,178.72619625,178.72619625,,,128.450000047684,180,0.42862618203918,0.868036633478458
2018-07-19T08:03:54Z,1531987434,106,40.0288404,44.668612,182.25,0,-0.3,342.2,457662.53,-27889.22,337.2,Air+FixedWing,Red,Allies,J-11A,Red J-11A #005,xu,<51>Frostie,0,0,0,182.25,2.25,0,0,NaN,NaN,0,0,NaN,0.999986171723233,0,-0.00523596443235874,0,178.72619625,178.72619625,,,129.450000047684,180,0.42862618203918,0.868036633478458
2018-07-19T08:03:55Z,1531987435,106,40.0288404,44.668612,182.25,0,-0.3,342.2,457662.53,-27889.22,337.2,Air+FixedWing,Red,Allies,J-11A,Red J-11A #005,xu,<51>Frostie,0,0,0,182.25,2.25,0,0,NaN,NaN,0,0,NaN,0.999986171723233,0,-0.00523596443235874,0,178.72619625,178.72619625,,,130.450000047684,180,0.42862618203918,0.868036633478458
2018-07-19T08:03:56Z,1531987436,106,40.0288404,44.668612,182.25,0,-0.3,342.2,457662.53,-27889.22,337.2,Air+FixedWing,Red,Allies,J-11A,Red J-11A #005,xu,<51>Frostie,0,0,0,182.25,2.25,0,0,NaN,NaN,0,0,NaN,0.999986171723233,0,-0.00523596443235874,0,178.72619625,178.72619625,,,131.450000047684,180,0.42862618203918,0.868036633478458
2018-07-19T08:03:57Z,1531987437,106,40.0288404,44.668612,182.25,0,-0.3,342.2,457662.53,-27889.22,337.2,Air+FixedWing,Red,Allies,J-11A,Red J-11A #005,xu,<51>Frostie,0,0,0,182.25,2.25,0,0,NaN,NaN,0,0,NaN,0.999986171723233,0,-0.00523596443235874,0,178.72619625,178.72619625,,,132.450000047684,180,0.42862618203918,0.868036633478458
2018-07-19T08:03:58Z,1531987438,106,40.0288404,44.668612,182.25,0,-0.3,342.2,457662.53,-27889.22,337.2,Air+FixedWing,Red,Allies,J-11A,Red J-11A #005,xu,<51>Frostie,0,0,0,182.25,2.25,0,0,NaN,NaN,0,0,NaN,0.999986171723233,0,-0.00523596443235874,0,178.72619625,178.72619625,,,133.450000047684,180,0.42862618203918,0.868036633478458
2018-07-19T08:03:59Z,1531987439,106,40.0288404,44.668612,182.25,0,-0.3,342.2,457662.53,-27889.22,337.2,Air+FixedWing,Red,Allies,J-11A,Red J-11A #005,xu,<51>Frostie,0,0,0,182.25,2.25,0,0,NaN,NaN,0,0,NaN,0.999986171723233,0,-0.00523596443235874,0,178.72619625,178.72619625,,,134.450000047684,180,0.42862618203918,0.868036633478458
2018-07-19T08:04:00Z,1531987440,106,40.0288404,44.668612,182.25,0,-0.3,342.2,457662.53,-27889.22,337.2,Air+FixedWing,Red,Allies,J-11A,Red J-11A #005,xu,<51>Frostie,0,0,0,182.25,2.25,0,0,NaN,NaN,0,0,NaN,0.999986171723233,0,-0.00523596443235874,0,178.72619625,178.72619625,,,135.450000047684,180,0.42862618203918,0.868036633478458
2018-07-19T08:04:01Z,1531987441,106,40.0288404,44.668612,182.25,0,-0.3,342.2,457662.53,-27889.22,337.2,Air+FixedWing,Red,Allies,J-11A,Red J-11A #005,xu,<51>Frostie,0,0,0,182.25,2.25,0,0,NaN,NaN,0,0,NaN,0.999986171723233,0,-0.00523596443235874,0,178.72619625,178.72619625,,,136.450000047684,180,0.42862618203918,0.868036633478458
2018-07-19T08:04:02Z,1531987442,106,40.0288404,44.668612,182.25,0,-0.3,342.2,457662.53,-27889.22,337.2,Air+FixedWing,Red,Allies,J-11A,Red J-11A #005,xu,<51>Frostie,0,0,0,182.25,2.25,0,0,NaN,NaN,0,0,NaN,0.999987133053018,-7.71788507784092e-05,-0.00505236564772424,0,178.72619625,178.72619625,,,137.450000047684,180,0.42862618203918,0.868036633478458
2018-07-19T08:04:03Z,1531987443,106,40.0288404,44.668612,182.25,0,-0.3,342.2,457662.53,-27889.22,337.2,Air+FixedWing,Red,Allies,J-11A,Red J-11A #005,xu,<51>Frostie,0.001953125,0,5.74931836031649e-06,182.25,2.25,0.001953125,0,NaN,NaN,0,0,NaN,0.999985210393447,7.71788507784092e-05,-0.00541956321699325,1.9073486328125e-07,178.72619625,178.726196440735,,,138.450000047684,180,0.42862618203918,0.868036633478458
2018-07-19T08:04:04Z,1531987444,106,40.0288404,44.668612,182.25,0,-0.3,342.2,457662.53,-27889.22,337.2,Air+FixedWing,Red,Allies,J-11A,Red J-11A #005,xu,<51>Frostie,0,0,0,182.25,2.25,0,0,NaN,NaN,0,0,NaN,0.999986171723233,0,-0.00523596443235874,0,178.72619625,178.72619625,,,139.450000047684,180,0.42862618203918,0.868036633478458
2018-07-19T08:04:05Z,1531987445,106,40.0288404,44.668612,182.25,0,-0.3,342.2,457662.53,-27889.22,337.2,Air+FixedWing,Red,Allies,J-11A,Red J-11A #005,xu,<51>Frostie,0,0,0,182.25,2.25,0,0,NaN,NaN,0,0,NaN,0.999986171723233,0,-0.00523596443235874,0,178.72619625,178.72619625,,,140.450000047684,180,0.42862618203918,0.868036633478458
2018-07-19T08:04:06Z,1531987446,106,40.0288404,44.668612,182.25,0,-0.3,342.2,457662.53,-27889.22,337.2,Air+FixedWing,Red,Allies,J-11A,Red J-11A #005,xu,<51>Frostie,0,0,0,182.25,2.25,0,0,NaN,NaN,0,0,NaN,0.999986171723233,0,-0.00523596443235874,0,178.72619625,178.72619625,,,141.450000047684,180,0.42862618203918,0.868036633478458
2018-07-19T08:04:07Z,1531987447,106,40.0288404,44.668612,182.25,0,-0.3,342.2,457662.53,-27889.22,337.2,Air+FixedWing,Red,Allies,J-11A,Red J-11A #005,xu,<51>Frostie,0,0,0,182.25,2.25,0,0,NaN,NaN,0,0,NaN,0.999986171723233,0,-0.00523596443235874,0,178.72619625,178.72619625,,,142.450000047684,180,0.42862618203918,0.868036633478458
2018-07-19T08:04:08Z,1531987448,106,40.0288404,44.668612,182.25,0,-0.3,342.2,457662.53,-27889.22,337.2,Air+FixedWing,Red,Allies,J-11A,Red J-11A #005,xu,<51>Frostie,0,0,0,182.25,2.25,0,0,NaN,NaN,0,0,NaN,0.999986171723233,0,-0.00523596443235874,0,178.72619625,178.72619625,,,143.450000047684,180,0.42862618203918,0.868036633478458
2018-07-19T08:04:09Z,1531987449,106,40.0288404,44.668612,182.25,0,-0.3,342.2,457662.53,-27889.22,337.2,Air+FixedWing,Red,Allies,J-11A,Red J-11A #005,xu,<51>Frostie,0,0,0,182.25,2.25,0,0,NaN,NaN,0,0,NaN,0.999986171723233,0,-0.00523596443235874,0,178.72619625,178.72619625,,,144.450000047684,180,0.42862618203918,0.868036633478458
2018-07-19T08:04:10Z,1531987450,106,40.0288404,44.668612,182.25,0,-0.3,342.2,457662.53,-27889.22,337.2,Air+FixedWing,Red,Allies,J-11A,Red J-11A #005,xu,<51>Frostie,0,0,0,182.25,2.25,0,0,NaN,NaN,0,0,NaN,0.999986171723233,0,-0.00523596443235874,0,178.72619625,178.72619625,,,145.450000047684,180,0.42862618203918,0.868036633478458
2018-07-19T08:04:11Z,1531987451,106,40.0288404,44.668612,182.25,0,-0.3,342.2,457662.53,-27889.22,337.2,Air+FixedWing,Red,Allies,J-11A,Red J-11A #005,xu,<51>Frostie,0,0,0,182.25,2.25,0,0,NaN,NaN,0,0,NaN,0.999986171723233,0,-0.00523596443235874,0,178.72619625,178.72619625,,,146.450000047684,180,0.42862618203918,0.868036633478458
2018-07-19T08:04:12Z,1531987452,106,40.0288404,44.668612,182.25,0,-0.3,342.2,457662.53,-27889.22,337.2,Air+FixedWing,Red,Allies,J-11A,Red J-11A #005,xu,<51>Frostie,0,0,0,182.25,2.25,0,0,NaN,NaN,0,0,NaN,0.999986171723233,0,-0.00523596443235874,0,178.72619625,178.72619625,,,147.450000047684,180,0.42862618203918,0.868036633478458
2018-07-19T08:04:13Z,1531987453,106,40.0288404,44.668612,182.25,0,-0.3,342.2,457662.53,-27889.22,337.2,Air+FixedWing,Red,Allies,J-11A,Red J-11A #005,xu,<51>Frostie,0,0,0,182.25,2.25,0,0,NaN,NaN,0,0,NaN,0.999986171723233,0,-0.00523596443235874,0,178.72619625,178.72619625,,,148.450000047684,180,0.42862618203918,0.868036633478458
2018-07-19T08:04:14Z,1531987454,106,40.0288404,44.668612,182.25,0,-0.3,342.2,457662.53,-27889.22,337.2,Air+FixedWing,Red,Allies,J-11A,Red J-11A #005,xu,<51>Frostie,0,0,0,182.25,2.25,0,0,NaN,NaN,0,0,NaN,0.999986171723233,0,-0.00523596443235874,0,178.72619625,178.72619625,,,149.450000047684,180,0.42862618203918,0.868036633478458
2018-07-19T08:04:15Z,1531987455,106,40.0288404,44.668612,182.25,0,-0.3,342.2,457662.53,-27889.22,337.2,Air+FixedWing,Red,Allies,J-11A,Red J-11A #005,xu,<51>Frostie,0,0,0,182.25,2.25,0,0,NaN,NaN,0,0,NaN,0.999986171723233,0,-0.00523596443235874,0,178.72619625,178.72619625,,,150.450000047684,180,0.42862618203918,0.868036633478458
2018-07-19T08:04:16Z,1531987456,106,40.0288404,44.668612,182.25,0,-0.3,342.2,457662.53,-27889.22,337.2,Air+FixedWing,Red,Allies,J-11A,Red J-11A #005,xu,<51>Frostie,0,0,0,182.25,2.25,0,0,NaN,NaN,0,0,NaN,0.999986171723233,0,-0.00523596443235874,0,178.72619625,178.72619625,,,151.450000047684,180,0.42862618203918,0.868036633478458
2018-07-19T08:04:17Z,1531987457,106,40.0288404,44.668612,182.25,0,-0.3,342.2,457662.53,-27889.22,337.2,Air+FixedWing,Red,Allies,J-11A,Red J-11A #005,xu,<51>Frostie,0,0,0,182.25,2.25,0,0,NaN,NaN,0,0,NaN,0.999986171723233,0,-0.00523596443235874,0,178.72619625,178.72619625,,,152.450000047684,180,0.42862618203918,0.868036633478458
2018-07-19T08:04:18Z,1531987458,106,40.0288404,44.668612,182.25,0,-0.3,342.2,457662.53,-27889.22,337.2,Air+FixedWing,Red,Allies,J-11A,Red J-11A #005,xu,<51>Frostie,0,0,0,182.25,2.25,0,0,NaN,NaN,0,0,NaN,0.999986171723233,0,-0.00523596443235874,0,178.72619625,178.72619625,,,153.450000047684,180,0.42862618203918,0.868036633478458
2018-07-19T08:04:19Z,1531987459,106,40.0288404,44.668612,182.25,0,-0.3,342.2,457662.53,-27889.22,337.2,Air+FixedWing,Red,Allies,J-11A,Red J-11A #005,xu,<51>Frostie,0,0,0,182.25,2.25,0,0,NaN,NaN,0,0,NaN,0.999986171723233,0,-0.00523596443235874,0,178.72619625,178.72619625,,,154.450000047684,180,0.42862618203918,0.868036633478458
2018-07-19T08:04:20Z,1531987460,106,40.0288404,44.668612,182.25,0,-0.3,342.2,457662.53,-27889.22,337.2,Air+FixedWing,Red,Allies,J-11A,Red J-11A #005,xu,<51>Frostie,0,0,0,182.25,2.25,0,0,NaN,NaN,0,0,NaN,0.999986171723233,0,-0.00523596443235874,0,178.72619625,178.72619625,,,155.450000047684,180,0.42862618203918,0.868036633478458
2018-07-19T08:04:21Z,1531987461,106,40.0288404,44.668612,182.25,0,-0.3,342.2,457662.53,-27889.22,337.2,Air+FixedWing,Red,Allies,J-11A,Red J-11A #005,xu,<51>Frostie,0,0,0,182.25,2.25,0,0,NaN,NaN,0,0,NaN,0.999986171723233,0,-0.00523596443235874,0,178.72619625,178.72619625,,,156.450000047684,180,0.42862618203918,0.868036633478458
2018-07-19T08:04:22Z,1531987462,106,40.0288404,44.668612,182.25,0,-0.3,342.2,457662.53,-27889.22,337.2,Air+FixedWing,Red,Allies,J-11A,Red J-11A #005,xu,<51>Frostie,0,0,0,182.25,2.25,0,0,NaN,NaN,0,0,NaN,0.999986171723233,0,-0.00523596443235874,0,178.72619625,178.72619625,,,157.450000047684,180,0.42862618203918,0.868036633478458
2018-07-19T08:04:23Z,1531987463,106,40.0288404,44.668612,182.25,0,-0.3,342.2,457662.53,-27889.22,337.2,Air+FixedWing,Red,Allies,J-11A,Red J-11A #005,xu,<51>Frostie,0,0,0,182.25,2.25,0,0,NaN,NaN,0,0,NaN,0.999986171723233,0,-0.00523596443235874,0,178.72619625,178.72619625,,,158.450000047684,180,0.42862618203918,0.868036633478458
2018-07-19T08:04:24Z,1531987464,106,40.0288404,44.668612,182.25,0,-0.3,342.2,457662.53,-27889.22,337.2,Air+FixedWing,Red,Allies,J-11A,Red J-11A #005,xu,<51>Frostie,0,0,0,182.25,2.25,0,0,NaN,NaN,0,0,NaN,0.999986171723233,0,-0.00523596443235874,0,178.72619625,178.72619625,,,159.450000047684,180,0.42862618203918,0.868036633478458
2018-07-19T08:04:25Z,1531987465,106,40.0288404,44.668612,182.25,0,-0.3,342.2,457662.53,-27889.22,337.2,Air+FixedWing,Red,Allies,J-11A,Red J-11A #005,xu,<51>Frostie,0,0,0,182.25,2.25,0,0,NaN,NaN,0,0,NaN,0.999986171723233,0,-0.00523596443235874,0,178.72619625,178.72619625,,,160.450000047684,180,0.42862618203918,0.868036633478458
2018-07-19T08:04:26Z,1531987466,106,40.0288404,44.668612,182.25,0,-0.3,342.2,457662.53,-27889.22,337.2,Air+FixedWing,Red,Allies,J-11A,Red J-11A #005,xu,<51>Frostie,0,0,0,182.25,2.25,0,0,NaN,NaN,0,0,NaN,0.999986171723233,0,-0.00523596443235874,0,178.72619625,178.72619625,,,161.450000047684,180,0.42862618203918,0.868036633478458
2018-07-19T08:04:27Z,1531987467,106,40.0288404,44.668612,182.25,0,-0.3,342.2,457662.53,-27889.22,337.2,Air+FixedWing,Red,Allies,J-11A,Red J-11A #005,xu,<51>Frostie,0,0,0,182.25,2.25,0,0,NaN,NaN,0,0,NaN,0.999986171723233,0,-0.00523596443235874,0,178.72619625,178.72619625,,,162.450000047684,180,0.42862618203918,0.868036633478458
2018-07-19T08:04:28Z,1531987468,106,40.0288404,44.668612,182.25,0,-0.3,342.2,457662.53,-27889.22,337.2,Air+FixedWing,Red,Allies,J-11A,Red J-11A #005,xu,<51>Frostie,0,0,0,182.25,2.25,0,0,NaN,NaN,0,0,NaN,0.999986171723233,0,-0.00523596443235874,0,178.72619625,178.72619625,,,163.450000047684,180,0.42862618203918,0.868036633478458
2018-07-19T08:04:29Z,1531987469,106,40.0288404,44.668612,182.25,0,-0.3,342.2,457662.53,-27889.22,337.2,Air+FixedWing,Red,Allies,J-11A,Red J-11A #005,xu,<51>Frostie,0,0,0,182.25,2.25,0,0,NaN,NaN,0,0,NaN,0.999986171723233,0,-0.00523596443235874,0,178.72619625,178.72619625,,,164.450000047684,180,0.42862618203918,0.868036633478458
2018-07-19T08:04:30Z,1531987470,106,40.0288404,44.668612,182.25,0,-0.3,342.2,457662.53,-27889.22,337.2,Air+FixedWing,Red,Allies,J-11A,Red J-11A #005,xu,<51>Frostie,0,0,0,182.25,2.25,0,0,NaN,NaN,0,0,NaN,0.999986171723233,0,-0.00523596443235874,0,178.72619625,178.72619625,,,165.450000047684,180,0.42862618203918,0.868036633478458
2018-07-19T08:04:31Z,1531987471,106,40.0288404,44.668612,182.25,0,-0.3,342.2,457662.53,-27889.22,337.2,Air+FixedWing,Red,Allies,J-11A,Red J-11A #005,xu,<51>Frostie,0,0,0,182.25,2.25,0,0,NaN,NaN,0,0,NaN,0.999986171723233,0,-0.00523596443235874,0,178.72619625,178.72619625,,,166.450000047684,180,0.42862618203918,0.868036633478458
2018-07-19T08:04:32Z,1531987472,106,40.0288404,44.668612,182.25,0,-0.3,342.2,457662.53,-27889.22,337.2,Air+FixedWing,Red,Allies,J-11A,Red J-11A #005,xu,<51>Frostie,0,0,0,182.25,2.25,0,0,NaN,NaN,0,0,NaN,0.999986171723233,0,-0.00523596443235874,0,178.72619625,178.72619625,,,167.450000047684,180,0.42862618203918,0.868036633478458
2018-07-19T08:04:33Z,1531987473,106,40.0288404,44.668612,182.25,0,-0.3,342.2,457662.53,-27889.22,337.2,Air+FixedWing,Red,Allies,J-11A,Red J-11A #005,xu,<51>Frostie,0,0,0,182.25,2.25,0,0,NaN,NaN,0,0,NaN,0.999986171723233,0,-0.00523596443235874,0,178.72619625,178.72619625,,,168.450000047684,180,0.42862618203918,0.868036633478458
2018-07-19T08:04:34Z,1531987474,106,40.0288404,44.668612,182.25,0,-0.3,342.2,457662.53,-27889.22,337.2,Air+FixedWing,Red,Allies,J-11A,Red J-11A #005,xu,<51>Frostie,0,0,0,182.25,2.25,0,0,NaN,NaN,0,0,NaN,0.999986171723233,0,-0.00523596443235874,0,178.72619625,178.72619625,,,169.450000047684,180,0.42862618203918,0.868036633478458
