ISOTime,UnixTime,Id,Longitude,Latitude,Altitude,Roll,Pitch,Yaw,U,V,Heading,Type,Color,Coalition,Name,Group,Country,Pilot,TAS,CAS,M,ASL,AGL,GS,VS,AOA,AOS,RRT,TRT,TRD,G,LatG,LonG,Ek,Ep,Em,FFW,FFV,RelativeTime,Elev,GroundDistance,AirDistance
2018-07-19T08:02:00Z,1531987320,109,40.0289476,44.6716352,182.15,0.3,-0.1,104.9,457641.94,-27552.64,99.9,Air+FixedWing,Red,Allies,J-11A,Red J-11A #006,xu,<51>Teknetinium,0.395405656796901,0.37154546380043,0.00116393489707153,182.14665222168,2.14665222167969,NaN,NaN,NaN,NaN,NaN,NaN,NaN,NaN,NaN,NaN,NaN,178.624846700974,NaN,,,0.490000009536743,180,NaN,NaN
2018-07-19T08:02:01Z,1531987321,109,40.0289479,44.6716352,182.22,0.3,-0.1,104.9,457641.94,-27552.64,99.9,Air+FixedWing,Red,Allies,J-11A,Red J-11A #006,xu,<51>Teknetinium,0.0753576582148149,0,0.000221826575537452,182.221908569336,2.22190856933594,0.00390625,0.07525634765625,NaN,NaN,0.419045765958622,NaN,NaN,0.994156057639579,0.00598047135163966,0.00133552024428493,0.000283938832581043,178.698647967148,178.69893190598,,,1.49000000953674,180,0.0273946114061708,0.0800876110224273
2018-07-19T08:02:02Z,1531987322,109,40.0289479,44.6716352,182.24,0,-0.1,104.9,457641.97,-27552.64,99.9,Air+FixedWing,Red,Allies,J-11A,Red J-11A #006,xu,<51>Teknetinium,0.0361041425681992,0,0.000106277983363524,182.239990234375,2.239990234375,0.03125,0.0180816650390625,NaN,NaN,0.161902804085982,0.0523391626455858,NaN,1.00018914505778,-0.000215280494457795,-0.00488482755112505,6.51754555292428e-05,178.716380023193,178.716445198649,,,2.49000000953674,180,0.0281485591736979,0.0981849891358418
2018-07-19T08:02:03Z,1531987323,109,40.0289481,44.6716352,182.26,0,-0.2,104.9,457641.97,-27552.64,99.9,Air+FixedWing,Red,Allies,J-11A,Red J-11A #006,xu,<51>Teknetinium,0.0200042724609375,0,5.88856032982669e-05,182.259994506836,2.25999450683594,0,0.0200042724609375,NaN,NaN,0,0.0845102307553653,NaN,0.997432642537664,0,-0.00348171176380885,2.00085458345711e-05,178.735997513046,178.736017521592,,,3.49000000953674,180,0.0462433197708664,0.125159236169409
2018-07-19T08:02:04Z,1531987324,109,40.0289481,44.6716352,182.25,0,-0.3,104.9,457641.97,-27552.64,99.9,Air+FixedWing,Red,Allies,J-11A,Red J-11A #006,xu,<51>Teknetinium,0.0051116943359375,0,1.50470449769094e-05,182.2548828125,2.2548828125,0,-0.0051116943359375,NaN,NaN,0,0.0513960362511687,NaN,1.00000951084676,0,-0.00523608663687675,1.30647094920278e-06,178.73098465332,178.730985959791,,,4.49000000953674,180,0.0485051617042483,0.130749016813986
2018-07-19T08:02:05Z,1531987325,109,40.028948,44.6716352,182.25,0,-0.3,104.9,457641.97,-27552.64,99.9,Air+FixedWing,Red,Allies,J-11A,Red J-11A #006,xu,<51>Teknetinium,0.0048828125,0,1.43732959007912e-05,182.25,2.25,0,-0.0048828125,NaN,NaN,0,0.0197823405926261,NaN,1.00048407302512,0,-0.00523857146207619,1.19209289550781e-06,178.72619625,178.726197442093,,,5.49000000953674,180,0.0537828039639261,0.137939076459761
2018-07-19T08:02:06Z,1531987326,109,40.0289481,44.6716352,182.25,0,-0.3,104.9,457641.97,-27552.64,99.9,Air+FixedWing,Red,Allies,J-11A,Red J-11A #006,xu,<51>Teknetinium,0,0,0,182.25,2.25,0,0,NaN,NaN,0,0.0171320104161963,NaN,0.99998605251395,0,-0.00526414625346661,0,178.72619625,178.72619625,,,6.49000000953674,180,0.059060446223604,0.143216869800676
2018-07-19T08:02:07Z,1531987327,109,40.0289481,44.6716352,182.25,0,-0.3,104.9,457641.97,-27552.64,99.9,Air+FixedWing,Red,Allies,J-11A,Red J-11A #006,xu,<51>Teknetinium,0,0,0,182.25,2.25,0,0,NaN,NaN,0,0.00989117029631303,NaN,0.999985873700027,0,-0.00529691576957703,0,178.72619625,178.72619625,,,7.49000000953674,180,0.059060446223604,0.143216869800676
2018-07-19T08:02:08Z,1531987328,109,40.0289481,44.6716352,182.25,0,-0.3,104.9,457641.97,-27552.64,99.9,Air+FixedWing,Red,Allies,J-11A,Red J-11A #006,xu,<51>Teknetinium,0,0,0,182.25,2.25,0,0,NaN,NaN,0,0.0139882274201861,NaN,0.999985694886103,0,-0.00532968528568745,0,178.72619625,178.72619625,,,8.49000000953674,180,0.059060446223604,0.143216869800676
2018-07-19T08:02:09Z,1531987329,109,40.0289481,44.6716352,182.25,0,-0.3,104.9,457641.97,-27552.64,99.9,Air+FixedWing,Red,Allies,J-11A,Red J-11A #006,xu,<51>Teknetinium,0,0,0,182.25,2.25,0,0,NaN,NaN,0,0.00989117029631303,NaN,0.999985516072179,0,-0.00536245480179787,0,178.72619625,178.72619625,,,9.49000000953674,180,0.059060446223604,0.143216869800676
2018-07-19T08:02:10Z,1531987330,109,40.0289481,44.6716352,182.25,0,-0.3,104.9,457641.97,-27552.64,99.9,Air+FixedWing,Red,Allies,J-11A,Red J-11A #006,xu,<51>Teknetinium,0,0,0,182.25,2.25,0,0,NaN,NaN,0,0.00989117029631303,NaN,0.999985396862897,0,-0.00539522431790829,0,178.72619625,178.72619625,,,10.4900000095367,180,0.059060446223604,0.143216869800676
2018-07-19T08:02:11Z,1531987331,109,40.0289481,44.6716352,182.25,0,-0.3,104.9,457641.97,-27552.64,99.9,Air+FixedWing,Red,Allies,J-11A,Red J-11A #006,xu,<51>Teknetinium,0,0,0,182.25,2.25,0,0,NaN,NaN,0,0.0139882274201861,NaN,0.999985158444332,0,-0.00542799383401871,0,178.72619625,178.72619625,,,11.4900000095367,180,0.059060446223604,0.143216869800676
2018-07-19T08:02:12Z,1531987332,109,40.0289481,44.6716352,182.25,0,-0.3,104.9,457641.97,-27552.64,99.9,Air+FixedWing,Red,Allies,J-11A,Red J-11A #006,xu,<51>Teknetinium,0,0,0,182.25,2.25,0,0,NaN,NaN,0,0.0139882274201861,NaN,0.999984979630408,0,-0.00546076335012913,0,178.72619625,178.72619625,,,12.4900000095367,180,0.059060446223604,0.143216869800676
2018-07-19T08:02:13Z,1531987333,109,40.0289481,44.6716352,182.25,0,-0.3,104.9,457641.97,-27552.64,99.9,Air+FixedWing,Red,Allies,J-11A,Red J-11A #006,xu,<51>Teknetinium,0,0,0,182.25,2.25,0,0,NaN,NaN,0,0.0139882274201861,NaN,0.999984800816485,0,-0.00549353286623955,0,178.72619625,178.72619625,,,13.4900000095367,180,0.059060446223604,0.143216869800676
2018-07-19T08:02:14Z,1531987334,109,40.0289481,44.6716352,182.25,0,-0.3,104.9,457641.97,-27552.64,99.9,Air+FixedWing,Red,Allies,J-11A,Red J-11A #006,xu,<51>Teknetinium,0,0,0,182.25,2.25,0,0,NaN,NaN,0,0.00989117029631303,NaN,0.999984622002561,0,-0.00552630238234997,0,178.72619625,178.72619625,,,14.4900000095367,180,0.059060446223604,0.143216869800676
2018-07-19T08:02:15Z,1531987335,109,40.0289481,44.6716352,182.25,0,-0.3,104.9,457641.97,-27552.64,99.9,Air+FixedWing,Red,Allies,J-11A,Red J-11A #006,xu,<51>Teknetinium,0,0,0,182.25,2.25,0,0,NaN,NaN,0,0.00989117029631303,NaN,0.999984443188637,0,-0.00555907189846039,0,178.72619625,178.72619625,,,15.4900000095367,180,0.059060446223604,0.143216869800676
2018-07-19T08:02:16Z,1531987336,109,40.0289481,44.6716352,182.25,0,-0.3,104.9,457641.97,-27552.64,99.9,Air+FixedWing,Red,Allies,J-11A,Red J-11A #006,xu,<51>Teknetinium,0,0,0,182.25,2.25,0,0,NaN,NaN,0,0,NaN,0.999984264374714,0,-0.00559184094890952,0,178.72619625,178.72619625,,,16.4900000095367,180,0.059060446223604,0.143216869800676
2018-07-19T08:02:17Z,1531987337,109,40.0289481,44.6716352,182.25,0,-0.3,104.9,457641.97,-27552.64,99.9,Air+FixedWing,Red,Allies,J-11A,Red J-11A #006,xu,<51>Teknetinium,0,0,0,182.25,2.25,0,0,NaN,NaN,0,0.00989117029631303,NaN,0.99998408556079,0,-0.00562461046501994,0,178.72619625,178.72619625,,,17.4900000095367,180,0.059060446223604,0.143216869800676
2018-07-19T08:02:18Z,1531987338,109,40.0289481,44.6716352,182.25,0,-0.3,104.9,457641.97,-27552.64,99.9,Air+FixedWing,Red,Allies,J-11A,Red J-11A #006,xu,<51>Teknetinium,0,0,0,182.25,2.25,0,0,NaN,NaN,0,0.0139882274201861,NaN,0.999983906746866,0,-0.00565737998113036,0,178.72619625,178.72619625,,,18.4900000095367,180,0.059060446223604,0.143216869800676
2018-07-19T08:02:19Z,1531987339,109,40.0289481,44.6716352,182.25,0,-0.3,104.9,457641.97,-27552.64,99.9,Air+FixedWing,Red,Allies,J-11A,Red J-11A #006,xu,<51>Teknetinium,0,0,0,182.25,2.25,0,0,NaN,NaN,0,0.0139882274201861,NaN,0.999983668328301,0,-0.00569014949724078,0,178.72619625,178.72619625,,,19.4900000095367,180,0.059060446223604,0.143216869800676
2018-07-19T08:02:20Z,1531987340,109,40.0289481,44.6716352,182.25,0,-0.3,104.9,457641.97,-27552.64,99.9,Air+FixedWing,Red,Allies,J-11A,Red J-11A #006,xu,<51>Teknetinium,0,0,0,182.25,2.25,0,0,NaN,NaN,0,0.0171320104161963,NaN,0.999983549119019,0,-0.0057229190133512,0,178.72619625,178.72619625,,,20.4900000095367,180,0.059060446223604,0.143216869800676
2018-07-19T08:02:21Z,1531987341,109,40.0289481,44.6716352,182.25,0,-0.3,104.9,457641.97,-27552.64,99.9,Air+FixedWing,Red,Allies,J-11A,Red J-11A #006,xu,<51>Teknetinium,0,0,0,182.25,2.25,0,0,NaN,NaN,0,0.00989117029631303,NaN,0.999983310700454,0,-0.00575568852946162,0,178.72619625,178.72619625,,,21.4900000095367,180,0.059060446223604,0.143216869800676
2018-07-19T08:02:22Z,1531987342,109,40.0289481,44.6716352,182.25,0,-0.3,104.9,457641.97,-27552.64,99.9,Air+FixedWing,Red,Allies,J-11A,Red J-11A #006,xu,<51>Teknetinium,0,0,0,182.25,2.25,0,0,NaN,NaN,0,0.0197823405926261,NaN,0.99998313188653,0,-0.00578845804557204,0,178.72619625,178.72619625,,,22.4900000095367,180,0.059060446223604,0.143216869800676
2018-07-19T08:02:23Z,1531987343,109,40.0289481,44.6716352,182.25,0,-0.3,104.9,457641.97,-27552.64,99.9,Air+FixedWing,Red,Allies,J-11A,Red J-11A #006,xu,<51>Teknetinium,0,0,0,182.25,2.25,0,0,NaN,NaN,0,0.0171320104161963,NaN,0.999982953072607,0,-0.00582122709602118,0,178.72619625,178.72619625,,,23.4900000095367,180,0.059060446223604,0.143216869800676
2018-07-19T08:02:24Z,1531987344,109,40.0289481,44.6716352,182.25,0,-0.3,104.9,457641.97,-27552.64,99.9,Air+FixedWing,Red,Allies,J-11A,Red J-11A #006,xu,<51>Teknetinium,0,0,0,182.25,2.25,0,0,NaN,NaN,0,0.0171320104161963,NaN,0.999982714654042,0,-0.0058539966121316,0,178.72619625,178.72619625,,,24.4900000095367,180,0.059060446223604,0.143216869800676
2018-07-19T08:02:25Z,1531987345,109,40.0289481,44.6716352,182.25,0,-0.3,104.9,457641.97,-27552.64,99.9,Air+FixedWing,Red,Allies,J-11A,Red J-11A #006,xu,<51>Teknetinium,0,0,0,182.25,2.25,0,0,NaN,NaN,0,0.0171320104161963,NaN,0.999982595444759,0,-0.00588676612824202,0,178.72619625,178.72619625,,,25.4900000095367,180,0.059060446223604,0.143216869800676
2018-07-19T08:02:26Z,1531987346,109,40.0289481,44.6716352,182.25,0,-0.3,104.9,457641.97,-27552.64,99.9,Air+FixedWing,Red,Allies,J-11A,Red J-11A #006,xu,<51>Teknetinium,0,0,0,182.25,2.25,0,0,NaN,NaN,0,0.0171320104161963,NaN,0.999982357026194,0,-0.00591953564435244,0,178.72619625,178.72619625,,,26.4900000095367,180,0.059060446223604,0.143216869800676
2018-07-19T08:02:27Z,1531987347,109,40.0289481,44.6716352,182.25,0,-0.3,104.9,457641.97,-27552.64,99.9,Air+FixedWing,Red,Allies,J-11A,Red J-11A #006,xu,<51>Teknetinium,0,0,0,182.25,2.25,0,0,NaN,NaN,0,0.0171320104161963,NaN,0.999982237816912,0,-0.00595230516046286,0,178.72619625,178.72619625,,,27.4900000095367,180,0.059060446223604,0.143216869800676
2018-07-19T08:02:28Z,1531987348,109,40.0289481,44.6716352,182.25,0,-0.3,104.9,457641.97,-27552.64,99.9,Air+FixedWing,Red,Allies,J-11A,Red J-11A #006,xu,<51>Teknetinium,0,0,0,182.25,2.25,0,0,NaN,NaN,0,0.0171320104161963,NaN,0.999981999398347,0,-0.00598507421091199,0,178.72619625,178.72619625,,,28.4900000095367,180,0.059060446223604,0.143216869800676
2018-07-19T08:02:29Z,1531987349,109,40.0289481,44.6716352,182.25,0,-0.3,104.9,457641.97,-27552.64,99.9,Air+FixedWing,Red,Allies,J-11A,Red J-11A #006,xu,<51>Teknetinium,0,0,0,182.25,2.25,0,0,NaN,NaN,0,0.0139882274201861,NaN,0.999981760979782,0,-0.00601784372702241,0,178.72619625,178.72619625,,,29.4900000095367,180,0.059060446223604,0.143216869800676
2018-07-19T08:02:30Z,1531987350,109,40.0289481,44.6716352,182.25,0,-0.3,104.9,457641.97,-27552.64,99.9,Air+FixedWing,Red,Allies,J-11A,Red J-11A #006,xu,<51>Teknetinium,0,0,0,182.25,2.25,0,0,NaN,NaN,0,0.00989117029631303,NaN,0.999981582165859,0,-0.00605061324313283,0,178.72619625,178.72619625,,,30.4900000095367,180,0.059060446223604,0.143216869800676
2018-07-19T08:02:31Z,1531987351,109,40.0289481,44.6716352,182.25,0,-0.3,104.9,457641.97,-27552.64,99.9,Air+FixedWing,Red,Allies,J-11A,Red J-11A #006,xu,<51>Teknetinium,0,0,0,182.25,2.25,0,0,NaN,NaN,0,0.00989117029631303,NaN,0.999981343747294,0,-0.00608338229358196,0,178.72619625,178.72619625,,,31.4900000095367,180,0.059060446223604,0.143216869800676
2018-07-19T08:02:32Z,1531987352,109,40.0289481,44.6716352,182.25,0,-0.4,104.9,457641.97,-27552.64,99.9,Air+FixedWing,Red,Allies,J-11A,Red J-11A #006,xu,<51>Teknetinium,0,0,0,182.25,2.25,0,0,NaN,NaN,0,0.0171320104161963,NaN,0.999981224538011,0,-0.00611615180969238,0,178.72619625,178.72619625,,,32.4900000095367,180,0.059060446223604,0.143216869800676
2018-07-19T08:02:33Z,1531987353,109,40.0289481,44.6716352,182.25,0,-0.4,104.9,457641.97,-27552.64,99.9,Air+FixedWing,Red,Allies,J-11A,Red J-11A #006,xu,<51>Teknetinium,0,0,0,182.25,2.25,0,0,NaN,NaN,0,0.0139882274201861,NaN,0.999980986119446,0,-0.0061489213258028,0,178.72619625,178.72619625,,,33.4900000095367,180,0.059060446223604,0.143216869800676
2018-07-19T08:02:34Z,1531987354,109,40.0289481,44.6716352,182.25,0,-0.4,104.9,457641.97,-27552.64,99.9,Air+FixedWing,Red,Allies,J-11A,Red J-11A #006,xu,<51>Teknetinium,0,0,0,182.25,2.25,0,0,NaN,NaN,0,0.0171320104161963,NaN,0.999980747700881,0,-0.00618169037625194,0,178.72619625,178.72619625,,,34.4900000095367,180,0.059060446223604,0.143216869800676
2018-07-19T08:02:35Z,1531987355,109,40.0289481,44.6716352,182.25,0,-0.4,104.9,457641.97,-27552.64,99.9,Air+FixedWing,Red,Allies,J-11A,Red J-11A #006,xu,<51>Teknetinium,0,0,0,182.25,2.25,0,0,NaN,NaN,0,0.00989117029631303,NaN,0.999980568886958,0,-0.00621445989236236,0,178.72619625,178.72619625,,,35.4900000095367,180,0.059060446223604,0.143216869800676
2018-07-19T08:02:36Z,1531987356,109,40.0289481,44.6716352,182.25,0,-0.4,104.9,457641.97,-27552.64,99.9,Air+FixedWing,Red,Allies,J-11A,Red J-11A #006,xu,<51>Teknetinium,0,0,0,182.25,2.25,0,0,NaN,NaN,0,0.0139882274201861,NaN,0.999980390073034,0,-0.00624722940847278,0,178.72619625,178.72619625,,,36.4900000095367,180,0.059060446223604,0.143216869800676
2018-07-19T08:02:37Z,1531987357,109,40.0289481,44.6716352,182.25,0,-0.4,104.9,457641.97,-27552.64,99.9,Air+FixedWing,Red,Allies,J-11A,Red J-11A #006,xu,<51>Teknetinium,0,0,0,182.25,2.25,0,0,NaN,NaN,0,0,NaN,0.999980211259111,0,-0.00627999845892191,0,178.72619625,178.72619625,,,37.4900000095367,180,0.059060446223604,0.143216869800676
2018-07-19T08:02:38Z,1531987358,109,40.0289481,44.6716352,182.25,0,-0.4,104.9,457641.97,-27552.64,99.9,Air+FixedWing,Red,Allies,J-11A,Red J-11A #006,xu,<51>Teknetinium,0,0,0,182.25,2.25,0,0,NaN,NaN,0,0.0171320104161963,NaN,0.999979972840546,0,-0.00631276797503233,0,178.72619625,178.72619625,,,38.4900000095367,180,0.059060446223604,0.143216869800676
2018-07-19T08:02:39Z,1531987359,109,40.0289481,44.6716352,182.25,0,-0.4,104.9,457641.97,-27552.64,99.9,Air+FixedWing,Red,Allies,J-11A,Red J-11A #006,xu,<51>Teknetinium,0,0,0,182.25,2.25,0,0,NaN,NaN,0,0.00989117029631303,NaN,0.999979734421981,0,-0.00634553749114275,0,178.72619625,178.72619625,,,39.4900000095367,180,0.059060446223604,0.143216869800676
2018-07-19T08:02:40Z,1531987360,109,40.0289481,44.6716352,182.25,0,-0.4,104.9,457641.97,-27552.64,99.9,Air+FixedWing,Red,Allies,J-11A,Red J-11A #006,xu,<51>Teknetinium,0,0,0,182.25,2.25,0,0,NaN,NaN,0,0.0139882274201861,NaN,0.999979555608057,0,-0.00637830654159188,0,178.72619625,178.72619625,,,40.4900000095367,180,0.059060446223604,0.143216869800676
2018-07-19T08:02:41Z,1531987361,109,40.0289481,44.6716352,182.25,0,-0.4,104.9,457641.97,-27552.64,99.9,Air+FixedWing,Red,Allies,J-11A,Red J-11A #006,xu,<51>Teknetinium,0,0,0,182.25,2.25,0,0,NaN,NaN,0,0.00989117029631303,NaN,0.999979317189492,0,-0.0064110760577023,0,178.72619625,178.72619625,,,41.4900000095367,180,0.059060446223604,0.143216869800676
2018-07-19T08:02:42Z,1531987362,109,40.0289481,44.6716352,182.25,0,-0.4,104.9,457641.97,-27552.64,99.9,Air+FixedWing,Red,Allies,J-11A,Red J-11A #006,xu,<51>Teknetinium,0,0,0,182.25,2.25,0,0,NaN,NaN,0,0.0139882274201861,NaN,0.999979078770927,0,-0.00644384510815144,0,178.72619625,178.72619625,,,42.4900000095367,180,0.059060446223604,0.143216869800676
2018-07-19T08:02:43Z,1531987363,109,40.0289481,44.6716352,182.25,0,-0.4,104.9,457641.97,-27552.64,99.9,Air+FixedWing,Red,Allies,J-11A,Red J-11A #006,xu,<51>Teknetinium,0,0,0,182.25,2.25,0,0,NaN,NaN,0,0.0139882274201861,NaN,0.999978959561645,0,-0.00647661462426186,0,178.72619625,178.72619625,,,43.4900000095367,180,0.059060446223604,0.143216869800676
2018-07-19T08:02:44Z,1531987364,109,40.0289481,44.6716352,182.25,0,-0.4,104.9,457641.97,-27552.64,99.9,Air+FixedWing,Red,Allies,J-11A,Red J-11A #006,xu,<51>Teknetinium,0,0,0,182.25,2.25,0,0,NaN,NaN,0,0.0171320104161963,NaN,0.99997872114308,0,-0.00650938367471099,0,178.72619625,178.72619625,,,44.4900000095367,180,0.059060446223604,0.143216869800676
2018-07-19T08:02:45Z,1531987365,109,40.0289481,44.6716352,182.25,0,-0.4,104.9,457641.97,-27552.64,99.9,Air+FixedWing,Red,Allies,J-11A,Red J-11A #006,xu,<51>Teknetinium,0,0,0,182.25,2.25,0,0,NaN,NaN,0,0.0139882274201861,NaN,0.999978482724515,0,-0.00654215319082141,0,178.72619625,178.72619625,,,45.4900000095367,180,0.059060446223604,0.143216869800676
2018-07-19T08:02:46Z,1531987366,109,40.0289481,44.6716352,182.25,0,-0.4,104.9,457641.97,-27552.64,99.9,Air+FixedWing,Red,Allies,J-11A,Red J-11A #006,xu,<51>Teknetinium,0,0,0,182.25,2.25,0,0,NaN,NaN,0,0.0139882274201861,NaN,0.99997824430595,0,-0.00657492224127054,0,178.72619625,178.72619625,,,46.4900000095367,180,0.059060446223604,0.143216869800676
2018-07-19T08:02:47Z,1531987367,109,40.0289481,44.6716352,182.25,0,-0.4,104.9,457641.97,-27552.64,99.9,Air+FixedWing,Red,Allies,J-11A,Red J-11A #006,xu,<51>Teknetinium,0,0,0,182.25,2.25,0,0,NaN,NaN,0,0.0171320104161963,NaN,0.999978065492027,0,-0.00660769175738096,0,178.72619625,178.72619625,,,47.4900000095367,180,0.059060446223604,0.143216869800676
2018-07-19T08:02:48Z,1531987368,109,40.0289481,44.6716352,182.25,0,-0.4,104.9,457641.97,-27552.64,99.9,Air+FixedWing,Red,Allies,J-11A,Red J-11A #006,xu,<51>Teknetinium,0,0,0,182.25,2.25,0,0,NaN,NaN,0,0.0139882274201861,NaN,0.999977827073462,0,-0.0066404608078301,0,178.72619625,178.72619625,,,48.4900000095367,180,0.059060446223604,0.143216869800676
2018-07-19T08:02:49Z,1531987369,109,40.0289481,44.6716352,182.25,0,-0.4,104.9,457641.97,-27552.64,99.9,Air+FixedWing,Red,Allies,J-11A,Red J-11A #006,xu,<51>Teknetinium,0,0,0,182.25,2.25,0,0,NaN,NaN,0,0.0171320104161963,NaN,0.999977648259538,0,-0.00667323032394052,0,178.72619625,178.72619625,,,49.4900000095367,180,0.059060446223604,0.143216869800676
2018-07-19T08:02:50Z,1531987370,109,40.0289481,44.6716352,182.25,0,-0.4,104.9,457641.97,-27552.64,99.9,Air+FixedWing,Red,Allies,J-11A,Red J-11A #006,xu,<51>Teknetinium,0,0,0,182.25,2.25,0,0,NaN,NaN,0,0.00989117029631303,NaN,0.999977409840973,0,-0.00670599937438965,0,178.72619625,178.72619625,,,50.4900000095367,180,0.059060446223604,0.143216869800676
2018-07-19T08:02:51Z,1531987371,109,40.0289481,44.6716352,182.25,0,-0.4,104.9,457641.97,-27552.64,99.9,Air+FixedWing,Red,Allies,J-11A,Red J-11A #006,xu,<51>Teknetinium,0,0,0,182.25,2.25,0,0,NaN,NaN,0,0.0139882274201861,NaN,0.999977231027049,0,-0.00673876842483878,0,178.72619625,178.72619625,,,51.4900000095367,180,0.059060446223604,0.143216869800676
2018-07-19T08:02:52Z,1531987372,109,40.0289481,44.6716352,182.25,0,-0.4,104.9,457641.97,-27552.64,99.9,Air+FixedWing,Red,Allies,J-11A,Red J-11A #006,xu,<51>Teknetinium,0,0,0,182.25,2.25,0,0,NaN,NaN,0,0.0139882274201861,NaN,0.999976933003843,0,-0.0067715379409492,0,178.72619625,178.72619625,,,52.4900000095367,180,0.059060446223604,0.143216869800676
2018-07-19T08:02:53Z,1531987373,109,40.0289481,44.6716352,182.25,0,-0.4,104.9,457641.97,-27552.64,99.9,Air+FixedWing,Red,Allies,J-11A,Red J-11A #006,xu,<51>Teknetinium,0,0,0,182.25,2.25,0,0,NaN,NaN,0,0.00989117029631303,NaN,0.99997675418992,0,-0.00680430699139833,0,178.72619625,178.72619625,,,53.4900000095367,180,0.059060446223604,0.143216869800676
2018-07-19T08:02:54Z,1531987374,109,40.0289481,44.6716352,182.25,0,-0.4,104.9,457641.97,-27552.64,99.9,Air+FixedWing,Red,Allies,J-11A,Red J-11A #006,xu,<51>Teknetinium,0,0,0,182.25,2.25,0,0,NaN,NaN,0,0.0139882274201861,NaN,0.999976515771355,0,-0.00683707650750875,0,178.72619625,178.72619625,,,54.4900000095367,180,0.059060446223604,0.143216869800676
2018-07-19T08:02:55Z,1531987375,109,40.0289481,44.6716352,182.25,0,-0.4,104.9,457641.97,-27552.64,99.9,Air+FixedWing,Red,Allies,J-11A,Red J-11A #006,xu,<51>Teknetinium,0,0,0,182.25,2.25,0,0,NaN,NaN,0,0.00989117029631303,NaN,0.999976336957431,0,-0.00686984555795789,0,178.72619625,178.72619625,,,55.4900000095367,180,0.059060446223604,0.143216869800676
2018-07-19T08:02:56Z,1531987376,109,40.0289481,44.6716352,182.25,0,-0.4,104.9,457641.97,-27552.64,99.9,Air+FixedWing,Red,Allies,J-11A,Red J-11A #006,xu,<51>Teknetinium,0,0,0,182.25,2.25,0,0,NaN,NaN,0,0.0139882274201861,NaN,0.999976098538866,0,-0.00690261460840702,0,178.72619625,178.72619625,,,56.4900000095367,180,0.059060446223604,0.143216869800676
2018-07-19T08:02:57Z,1531987377,109,40.0289481,44.6716352,182.25,0,-0.4,104.9,457641.97,-27552.64,99.9,Air+FixedWing,Red,Allies,J-11A,Red J-11A #006,xu,<51>Teknetinium,0,0,0,182.25,2.25,0,0,NaN,NaN,0,0.0139882274201861,NaN,0.999975860120301,0,-0.00693538412451744,0,178.72619625,178.72619625,,,57.4900000095367,180,0.059060446223604,0.143216869800676
2018-07-19T08:02:58Z,1531987378,109,40.0289481,44.6716352,182.25,0,-0.4,104.9,457641.97,-27552.64,99.9,Air+FixedWing,Red,Allies,J-11A,Red J-11A #006,xu,<51>Teknetinium,0,0,0,182.25,2.25,0,0,NaN,NaN,0,0.00989117029631303,NaN,0.999975621701736,0,-0.00696815317496657,0,178.72619625,178.72619625,,,58.4900000095367,180,0.059060446223604,0.143216869800676
2018-07-19T08:02:59Z,1531987379,109,40.0289481,44.6716352,182.25,0,-0.3,104.9,457641.97,-27552.64,99.9,Air+FixedWing,Red,Allies,J-11A,Red J-11A #006,xu,<51>Teknetinium,0,0,0,182.25,2.25,0,0,NaN,NaN,0,0.0504352774299245,NaN,0.999984204770072,0,-0.00560347968712449,0,178.72619625,178.72619625,,,59.4900000095367,180,0.059060446223604,0.143216869800676
2018-07-19T08:03:00Z,1531987380,109,40.0289481,44.6716352,182.25,0,-0.3,104.9,457641.97,-27552.64,99.9,Air+FixedWing,Red,Allies,J-11A,Red J-11A #006,xu,<51>Teknetinium,0,0,0,182.25,2.25,0,0,NaN,NaN,0,0.0670851975531529,NaN,0.99998795986247,0,-0.00488521298393607,0,178.72619625,178.72619625,,,60.4900000095367,180,0.059060446223604,0.143216869800676
2018-07-19T08:03:01Z,1531987381,109,40.0289481,44.6716352,182.25,0,-0.2,104.9,457641.97,-27552.64,99.9,Air+FixedWing,Red,Allies,J-11A,Red J-11A #006,xu,<51>Teknetinium,0,0,0,182.25,2.25,0,0,NaN,NaN,0,0.0494558589854351,NaN,0.999991834164149,0,-0.00402971962466836,0,178.72619625,178.72619625,,,61.4900000095367,180,0.059060446223604,0.143216869800676
2018-07-19T08:03:02Z,1531987382,109,40.0289481,44.6716352,182.25,-0,-0.3,104.9,457641.97,-27552.64,99.9,Air+FixedWing,Red,Allies,J-11A,Red J-11A #006,xu,<51>Teknetinium,0,0,0,182.25,2.25,0,0,NaN,NaN,0.00491773620240918,0.0261695779877396,NaN,0.999986231327057,-4.27744675437591e-05,-0.00523596443235874,0,178.72619625,178.72619625,,,62.4900000095367,180,0.059060446223604,0.143216869800676
2018-07-19T08:03:03Z,1531987383,109,40.0289481,44.6716352,182.25,-0,-0.3,104.9,457641.97,-27552.64,99.9,Air+FixedWing,Red,Allies,J-11A,Red J-11A #006,xu,<51>Teknetinium,0,0,0,182.25,2.25,0,0,NaN,NaN,0.0245340394986858,0.0494558589854351,NaN,0.999986112119409,-0.000470519514050079,-0.00523596443235874,0,178.72619625,178.72619625,,,63.4900000095367,180,0.059060446223604,0.143216869800676
2018-07-19T08:03:04Z,1531987384,109,40.0289481,44.6716352,182.25,-0.1,-0.3,104.9,457641.97,-27552.64,99.9,Air+FixedWing,Red,Allies,J-11A,Red J-11A #006,xu,<51>Teknetinium,0,0,0,182.25,2.25,0,0,NaN,NaN,0.0245340394986858,0.0139882274201861,NaN,0.999985754496464,-0.000898264611487402,-0.00523596443235874,0,178.72619625,178.72619625,,,64.4900000095367,180,0.059060446223604,0.143216869800676
2018-07-19T08:03:05Z,1531987385,109,40.0289481,44.6716352,182.25,-0.1,-0.3,104.9,457641.97,-27552.64,99.9,Air+FixedWing,Red,Allies,J-11A,Red J-11A #006,xu,<51>Teknetinium,0,0,0,182.25,2.25,0,0,NaN,NaN,0.0245340394986858,0.0139882274201861,NaN,0.999985337269695,-0.00132600941789043,-0.00523596443235874,0,178.72619625,178.72619625,,,65.4900000095367,180,0.059060446223604,0.143216869800676
2018-07-19T08:03:06Z,1531987386,109,40.0289481,44.6716352,182.25,-0.1,-0.3,104.9,457641.97,-27552.64,99.9,Air+FixedWing,Red,Allies,J-11A,Red J-11A #006,xu,<51>Teknetinium,0,0,0,182.25,2.25,0,0,NaN,NaN,0.0139882274201861,0.0139882274201861,NaN,0.999984860439103,-0.00166209454392635,-0.00523596443235874,0,178.72619625,178.72619625,,,66.4900000095367,180,0.059060446223604,0.143216869800676
2018-07-19T08:03:07Z,1531987387,109,40.0289481,44.6716352,182.25,-0.1,-0.3,104.9,457641.97,-27552.64,99.9,Air+FixedWing,Red,Allies,J-11A,Red J-11A #006,xu,<51>Teknetinium,0,0,0,182.25,2.25,0,0,NaN,NaN,0.0892842328304067,0.0139882274201861,NaN,0.999985754496464,-0.00093492841378601,-0.00523596443235874,0,178.72619625,178.72619625,,,67.4900000095367,180,0.059060446223604,0.143216869800676
2018-07-19T08:03:08Z,1531987388,109,40.0289481,44.6716352,182.25,0,-0.3,104.9,457641.97,-27552.64,99.9,Air+FixedWing,Red,Allies,J-11A,Red J-11A #006,xu,<51>Teknetinium,0,0,0,182.25,2.25,0,0,NaN,NaN,0.196416723797622,0.0139882274201861,NaN,0.999986171723233,0,-0.00523596443235874,0,178.72619625,178.72619625,,,68.4900000095367,180,0.0596584420401812,0.143814882820437
2018-07-19T08:03:09Z,1531987389,109,40.0289481,44.6716352,182.25,0,-0.3,104.9,457641.97,-27552.64,99.9,Air+FixedWing,Red,Allies,J-11A,Red J-11A #006,xu,<51>Teknetinium,0,0,0,182.25,2.25,0,0,NaN,NaN,0,0.0139882274201861,NaN,0.999986171723233,0,-0.00523596443235874,0,178.72619625,178.72619625,,,69.4900000095367,180,0.064258422743326,0.148414994348629
2018-07-19T08:03:10Z,1531987390,109,40.0289481,44.6716351,182.25,0,-0.3,104.9,457641.97,-27552.64,99.9,Air+FixedWing,Red,Allies,J-11A,Red J-11A #006,xu,<51>Teknetinium,0,0,0,182.25,2.25,0,0,NaN,NaN,0,0.0139882274201861,NaN,0.999598082780379,-0.000980987945073875,-0.00506272006980973,0,178.72619625,178.72619625,,,70.4900000095367,180,0.0688584023229196,0.153015105465196
2018-07-19T08:03:11Z,1531987391,109,40.0289481,44.6716351,182.25,0.1,-0.3,104.9,457641.97,-27552.65,99.9,Air+FixedWing,Red,Allies,J-11A,Red J-11A #006,xu,<51>Teknetinium,0.0104842427894909,0,3.08619504453848e-05,182.246185302734,2.24618530273438,0.009765625,-0.003814697265625,NaN,NaN,0,0.0139882274201861,NaN,0.999736737900206,0.00370685072125312,-0.00557710874653599,5.49596734344959e-06,178.722455309906,178.722460805873,,,71.4900000095367,180,0.0701923955970495,0.157056338771553
2018-07-19T08:03:12Z,1531987392,109,40.028948,44.6716351,182.24,0.1,-0.3,104.9,457641.97,-27552.64,99.9,Air+FixedWing,Red,Allies,J-11A,Red J-11A #006,xu,<51>Teknetinium,0.0115648736965846,0,3.40429481743036e-05,182.239990234375,2.239990234375,0.009765625,-0.006195068359375,NaN,NaN,0,0.0139882274201861,NaN,1.00061900159895,0.000765421954934986,-0.00506806448073051,6.68731518089771e-06,178.716380023193,178.716386710509,,,72.4900000095367,180,0.075365526572622,0.165127378046711
2018-07-19T08:03:13Z,1531987393,109,40.028948,44.6716351,182.24,0.1,-0.3,104.9,457641.97,-27552.64,99.9,Air+FixedWing,Red,Allies,J-11A,Red J-11A #006,xu,<51>Teknetinium,0,0,0,182.239990234375,2.239990234375,0,0,NaN,NaN,0,0.0139882274201861,NaN,1.00100589956169,0.001550888849026,-0.00520706731916307,0,178.716380023193,178.716380023193,,,73.4900000095367,180,0.0800879683838115,0.169849955022325
2018-07-19T08:03:14Z,1531987394,109,40.028948,44.6716351,182.25,-0.1,-0.2,104.9,457641.97,-27552.64,99.9,Air+FixedWing,Red,Allies,J-11A,Red J-11A #006,xu,<51>Teknetinium,0.0101985344600612,0,3.00209261668099e-05,182.25,2.25,0.001953125,0.010009765625,NaN,NaN,0.05713934822413,0.0139882274201861,NaN,0.998970691623339,-0.000852911199772723,-0.0040537247723484,5.20050525665283e-06,178.72619625,178.726201450505,,,74.4900000095367,180,0.0820670822879324,0.180053509025948
2018-07-19T08:03:15Z,1531987395,109,40.028948,44.6716351,182.25,0,-0.3,104.9,457641.97,-27552.64,99.9,Air+FixedWing,Red,Allies,J-11A,Red J-11A #006,xu,<51>Teknetinium,0.001953125,0,5.74931836031649e-06,182.25,2.25,0.001953125,0,NaN,NaN,0,0.0171320104161963,NaN,0.999986351013082,-0.000196197589014775,-0.00520172290824229,1.9073486328125e-07,178.72619625,178.726196440735,,,75.4900000095367,180,0.0825971738025808,0.180583616369548
2018-07-19T08:03:16Z,1531987396,109,40.028948,44.6716352,182.25,0,-0.2,104.9,457641.97,-27552.64,99.9,Air+FixedWing,Red,Allies,J-11A,Red J-11A #006,xu,<51>Teknetinium,0,0,0,182.25,2.25,0,0,NaN,NaN,0,0.0513960362511687,NaN,0.999992012978073,0,-0.00396672403439879,0,178.72619625,178.72619625,,,76.4900000095367,180,0.0931990312001328,0.19118577686517
2018-07-19T08:03:17Z,1531987397,109,40.028948,44.6716352,182.25,-0,-0.2,104.9,457641.97,-27552.64,99.9,Air+FixedWing,Red,Allies,J-11A,Red J-11A #006,xu,<51>Teknetinium,0,0,0,182.25,2.25,0,0,NaN,NaN,0.152832312868205,0.0383083399245797,NaN,0.999993681908393,-0.000130239808925854,-0.00349065172486007,0,178.72619625,178.72619625,,,77.4900000095367,180,0.0931990312001328,0.19118577686517
2018-07-19T08:03:18Z,1531987398,109,40.028948,44.6716352,182.25,-0,-0.2,104.9,457641.97,-27552.64,99.9,Air+FixedWing,Red,Allies,J-11A,Red J-11A #006,xu,<51>Teknetinium,0,0,0,182.25,2.25,0,0,NaN,NaN,0.0373201536249497,0.0139882274201861,NaN,0.999993443491292,-0.000781438708036875,-0.00349065172486007,0,178.72619625,178.72619625,,,78.4900000095367,180,0.0931990312001328,0.19118577686517
2018-07-19T08:03:19Z,1531987399,109,40.028948,44.6716352,182.25,-0.1,-0.2,104.9,457641.97,-27552.64,99.9,Air+FixedWing,Red,Allies,J-11A,Red J-11A #006,xu,<51>Teknetinium,0,0,0,182.25,2.25,0,0,NaN,NaN,0.0373201536249497,0.0139882274201861,NaN,0.999992728239988,-0.00143263718514497,-0.00349065172486007,0,178.72619625,178.72619625,,,79.4900000095367,180,0.0931990312001328,0.19118577686517
2018-07-19T08:03:20Z,1531987400,109,40.028948,44.6716352,182.25,-0,-0.2,104.9,457641.97,-27552.64,99.9,Air+FixedWing,Red,Allies,J-11A,Red J-11A #006,xu,<51>Teknetinium,0,0,0,182.25,2.25,0,0,NaN,NaN,0.147049944085981,0.0139882274201861,NaN,0.999993681908393,-0.000410638532389873,-0.00349065172486007,0,178.72619625,178.72619625,,,80.4900000095367,180,0.0931990312001328,0.19118577686517
2018-07-19T08:03:21Z,1531987401,109,40.028948,44.6716352,182.25,-0,-0.2,104.9,457641.97,-27552.64,99.9,Air+FixedWing,Red,Allies,J-11A,Red J-11A #006,xu,<51>Teknetinium,0,0,0,182.25,2.25,0,0,NaN,NaN,0.161294650445587,0.0139882274201861,NaN,0.999993741512668,-7.58786871548067e-05,-0.00349065172486007,0,178.72619625,178.72619625,,,81.4900000095367,180,0.0931990312001328,0.19118577686517
2018-07-19T08:03:22Z,1531987402,109,40.028948,44.6716352,182.25,0.1,-0.2,104.9,457641.97,-27552.64,99.9,Air+FixedWing,Red,Allies,J-11A,Red J-11A #006,xu,<51>Teknetinium,0,0,0,182.25,2.25,0,0,NaN,NaN,0.0632911341909166,0.0139882274201861,NaN,0.999993205074191,0.00108253901784833,-0.00349065172486007,0,178.72619625,178.72619625,,,82.4900000095367,180,0.0931990312001328,0.19118577686517
2018-07-19T08:03:23Z,1531987403,109,40.028948,44.6716352,182.25,-0,-0.2,104.9,457641.97,-27552.64,99.9,Air+FixedWing,Red,Allies,J-11A,Red J-11A #006,xu,<51>Teknetinium,0,0,0,182.25,2.25,0,0,NaN,NaN,0.201190052191896,0.0139882274201861,NaN,0.999993741512668,-0.000120822486223696,-0.00349065172486007,0,178.72619625,178.72619625,,,83.4900000095367,180,0.0931990312001328,0.19118577686517
2018-07-19T08:03:24Z,1531987404,109,40.028948,44.6716352,182.25,-0,-0.2,104.9,457641.97,-27552.64,99.9,Air+FixedWing,Red,Allies,J-11A,Red J-11A #006,xu,<51>Teknetinium,0,0,0,182.25,2.25,0,0,NaN,NaN,0.0384676254055118,0.0139882274201861,NaN,0.999993443491292,-0.000792058222487374,-0.00349065172486007,0,178.72619625,178.72619625,,,84.4900000095367,180,0.0931990312001328,0.19118577686517
2018-07-19T08:03:25Z,1531987405,109,40.028948,44.6716352,182.25,-0.1,-0.2,104.9,457641.97,-27552.64,99.9,Air+FixedWing,Red,Allies,J-11A,Red J-11A #006,xu,<51>Teknetinium,0,0,0,182.25,2.25,0,0,NaN,NaN,0.0384676254055118,0.0139882274201861,NaN,0.999992836205408,-0.00126709602059127,-0.0035248935050568,0,178.72619625,178.72619625,,,85.4900000095367,180,0.0931990312001328,0.19118577686517
2018-07-19T08:03:26Z,1531987406,109,40.028948,44.6716352,182.25,-0.1,-0.2,104.9,457641.97,-27552.64,99.9,Air+FixedWing,Red,Allies,J-11A,Red J-11A #006,xu,<51>Teknetinium,0.001953125,0,5.74931836031649e-06,182.25,2.25,0.001953125,0,NaN,NaN,0,0.0139882274201861,NaN,0.99999180564206,-0.00213760728551505,-0.00342216816446662,1.9073486328125e-07,178.72619625,178.726196440735,,,86.4900000095367,180,0.0931990312001328,0.19118577686517
2018-07-19T08:03:27Z,1531987407,109,40.028948,44.6716352,182.25,0,-0.2,104.9,457641.97,-27552.64,99.9,Air+FixedWing,Red,Allies,J-11A,Red J-11A #006,xu,<51>Teknetinium,0.001953125,0,5.74931836031649e-06,182.25,2.25,0.001953125,0,NaN,NaN,0,0.0139882274201861,NaN,0.999993621985812,0.000196197589014775,-0.0035248935050568,1.9073486328125e-07,178.72619625,178.726196440735,,,87.4900000095367,180,0.0931990312001328,0.19118577686517
2018-07-19T08:03:28Z,1531987408,109,40.028948,44.6716351,182.25,0,-0.2,104.9,457641.97,-27552.64,99.9,Air+FixedWing,Red,Allies,J-11A,Red J-11A #006,xu,<51>Teknetinium,0,0,0,182.25,2.25,0,0,NaN,NaN,0,0.0139882274201861,NaN,0.999993741512668,0,-0.00349065172486007,0,178.72619625,178.72619625,,,88.4900000095367,180,0.100522685151022,0.198509639742551
2018-07-19T08:03:29Z,1531987409,109,40.028948,44.6716352,182.25,0,-0.2,104.9,457641.97,-27552.64,99.9,Air+FixedWing,Red,Allies,J-11A,Red J-11A #006,xu,<51>Teknetinium,0,0,0,182.25,2.25,0,0,NaN,NaN,0,0.0139882274201861,NaN,0.999993741512668,0,-0.00349065172486007,0,178.72619625,178.72619625,,,89.4900000095367,180,0.107846339101912,0.205833502619932
2018-07-19T08:03:30Z,1531987410,109,40.028948,44.6716352,182.25,0,-0.2,104.9,457641.97,-27552.64,99.9,Air+FixedWing,Red,Allies,J-11A,Red J-11A #006,xu,<51>Teknetinium,0,0,0,182.25,2.25,0,0,NaN,NaN,0,0.0139882274201861,NaN,0.999993741512668,0,-0.00349065172486007,0,178.72619625,178.72619625,,,90.4900000095367,180,0.107846339101912,0.205833502619932
2018-07-19T08:03:31Z,1531987411,109,40.028948,44.6716352,182.25,0,-0.2,104.9,457641.97,-27552.64,99.9,Air+FixedWing,Red,Allies,J-11A,Red J-11A #006,xu,<51>Teknetinium,0,0,0,182.25,2.25,0,0,NaN,NaN,0,0.0139882274201861,NaN,0.999993741512668,0,-0.00349065172486007,0,178.72619625,178.72619625,,,91.4900000095367,180,0.107846339101912,0.205833502619932
2018-07-19T08:03:32Z,1531987412,109,40.028948,44.6716352,182.25,0,-0.2,104.9,457641.97,-27552.64,99.9,Air+FixedWing,Red,Allies,J-11A,Red J-11A #006,xu,<51>Teknetinium,0,0,0,182.25,2.25,0,0,NaN,NaN,0,0.0139882274201861,NaN,0.999993741512668,0,-0.00349065172486007,0,178.72619625,178.72619625,,,92.4900000095367,180,0.107846339101912,0.205833502619932
2018-07-19T08:03:33Z,1531987413,109,40.028948,44.6716352,182.25,0,-0.2,104.9,457641.97,-27552.64,99.9,Air+FixedWing,Red,Allies,J-11A,Red J-11A #006,xu,<51>Teknetinium,0,0,0,182.25,2.25,0,0,NaN,NaN,0,0.0139882274201861,NaN,0.999993741512668,0,-0.00349065172486007,0,178.72619625,178.72619625,,,93.4900000095367,180,0.107846339101912,0.205833502619932
2018-07-19T08:03:34Z,1531987414,109,40.028948,44.6716352,182.25,0,-0.2,104.9,457641.97,-27552.64,99.9,Air+FixedWing,Red,Allies,J-11A,Red J-11A #006,xu,<51>Teknetinium,0,0,0,182.25,2.25,0,0,NaN,NaN,0,0.0139882274201861,NaN,0.999993741512668,0,-0.00349065172486007,0,178.72619625,178.72619625,,,94.4900000095367,180,0.107846339101912,0.205833502619932
2018-07-19T08:03:35Z,1531987415,109,40.028948,44.6716352,182.25,0,-0.2,104.9,457641.97,-27552.64,99.9,Air+FixedWing,Red,Allies,J-11A,Red J-11A #006,xu,<51>Teknetinium,0,0,0,182.25,2.25,0,0,NaN,NaN,0,0.0139882274201861,NaN,0.999993741512668,0,-0.00349065172486007,0,178.72619625,178.72619625,,,95.4900000095367,180,0.107846339101912,0.205833502619932
2018-07-19T08:03:36Z,1531987416,109,40.028948,44.6716352,182.25,0,-0.2,104.9,457641.97,-27552.64,99.9,Air+FixedWing,Red,Allies,J-11A,Red J-11A #006,xu,<51>Teknetinium,0,0,0,182.25,2.25,0,0,NaN,NaN,0,0.0139882274201861,NaN,0.999993741512668,0,-0.00349065172486007,0,178.72619625,178.72619625,,,96.4900000095367,180,0.107846339101912,0.205833502619932
2018-07-19T08:03:37Z,1531987417,109,40.028948,44.6716352,182.25,0,-0.2,104.9,457641.97,-27552.64,99.9,Air+FixedWing,Red,Allies,J-11A,Red J-11A #006,xu,<51>Teknetinium,0,0,0,182.25,2.25,0,0,NaN,NaN,0,0.0139882274201861,NaN,0.999993741512668,0,-0.00349065172486007,0,178.72619625,178.72619625,,,97.4900000095367,180,0.107846339101912,0.205833502619932
2018-07-19T08:03:38Z,1531987418,109,40.028948,44.6716352,182.25,0,-0.2,104.9,457641.97,-27552.64,99.9,Air+FixedWing,Red,Allies,J-11A,Red J-11A #006,xu,<51>Teknetinium,0,0,0,182.25,2.25,0,0,NaN,NaN,0,0.0139882274201861,NaN,0.999993741512668,0,-0.00349065172486007,0,178.72619625,178.72619625,,,98.4900000095367,180,0.107846339101912,0.205833502619932
2018-07-19T08:03:39Z,1531987419,109,40.028948,44.6716352,182.25,0,-0.2,104.9,457641.97,-27552.64,99.9,Air+FixedWing,Red,Allies,J-11A,Red J-11A #006,xu,<51>Teknetinium,0,0,0,182.25,2.25,0,0,NaN,NaN,0,0.0139882274201861,NaN,0.999993741512668,0,-0.00349065172486007,0,178.72619625,178.72619625,,,99.4900000095367,180,0.107846339101912,0.205833502619932
2018-07-19T08:03:40Z,1531987420,109,40.028948,44.6716352,182.25,0,-0.2,104.9,457641.97,-27552.64,99.9,Air+FixedWing,Red,Allies,J-11A,Red J-11A #006,xu,<51>Teknetinium,0,0,0,182.25,2.25,0,0,NaN,NaN,0,0.0139882274201861,NaN,0.999993741512668,0,-0.00349065172486007,0,178.72619625,178.72619625,,,100.490000009537,180,0.107846339101912,0.205833502619932
2018-07-19T08:03:41Z,1531987421,109,40.028948,44.6716352,182.25,0,-0.2,104.9,457641.97,-27552.64,99.9,Air+FixedWing,Red,Allies,J-11A,Red J-11A #006,xu,<51>Teknetinium,0,0,0,182.25,2.25,0,0,NaN,NaN,0,0.0139882274201861,NaN,0.999993741512668,0,-0.00349065172486007,0,178.72619625,178.72619625,,,101.490000009537,180,0.107846339101912,0.205833502619932
2018-07-19T08:03:42Z,1531987422,109,40.028948,44.6716352,182.25,0,-0.2,104.9,457641.97,-27552.64,99.9,Air+FixedWing,Red,Allies,J-11A,Red J-11A #006,xu,<51>Teknetinium,0,0,0,182.25,2.25,0,0,NaN,NaN,0,0.0139882274201861,NaN,0.999993741512668,0,-0.00349065172486007,0,178.72619625,178.72619625,,,102.490000009537,180,0.107846339101912,0.205833502619932
2018-07-19T08:03:43Z,1531987423,109,40.028948,44.6716352,182.25,0,-0.2,104.9,457641.97,-27552.64,99.9,Air+FixedWing,Red,Allies,J-11A,Red J-11A #006,xu,<51>Teknetinium,0,0,0,182.25,2.25,0,0,NaN,NaN,0,0.0139882274201861,NaN,0.999993741512668,0,-0.00349065172486007,0,178.72619625,178.72619625,,,103.490000009537,180,0.107846339101912,0.205833502619932
2018-07-19T08:03:44Z,1531987424,109,40.028948,44.6716352,182.25,0,-0.2,104.9,457641.97,-27552.64,99.9,Air+FixedWing,Red,Allies,J-11A,Red J-11A #006,xu,<51>Teknetinium,0,0,0,182.25,2.25,0,0,NaN,NaN,0,0.0139882274201861,NaN,0.999993741512668,0,-0.00349065172486007,0,178.72619625,178.72619625,,,104.490000009537,180,0.107846339101912,0.205833502619932
2018-07-19T08:03:45Z,1531987425,109,40.028948,44.6716352,182.25,0,-0.2,104.9,457641.97,-27552.64,99.9,Air+FixedWing,Red,Allies,J-11A,Red J-11A #006,xu,<51>Teknetinium,0,0,0,182.25,2.25,0,0,NaN,NaN,0,0.0139882274201861,NaN,0.999993741512668,0,-0.00349065172486007,0,178.72619625,178.72619625,,,105.490000009537,180,0.107846339101912,0.205833502619932
2018-07-19T08:03:46Z,1531987426,109,40.028948,44.6716352,182.25,0,-0.2,104.9,457641.97,-27552.64,99.9,Air+FixedWing,Red,Allies,J-11A,Red J-11A #006,xu,<51>Teknetinium,0,0,0,182.25,2.25,0,0,NaN,NaN,0,0.0139882274201861,NaN,0.999993741512668,0,-0.00349065172486007,0,178.72619625,178.72619625,,,106.490000009537,180,0.107846339101912,0.205833502619932
2018-07-19T08:03:47Z,1531987427,109,40.028948,44.6716352,182.25,0,-0.2,104.9,457641.97,-27552.64,99.9,Air+FixedWing,Red,Allies,J-11A,Red J-11A #006,xu,<51>Teknetinium,0,0,0,182.25,2.25,0,0,NaN,NaN,0,0.0139882274201861,NaN,0.999993621985812,0.000196197589014775,-0.0035248935050568,0,178.72619625,178.72619625,,,107.490000009537,180,0.107846339101912,0.205833502619932
2018-07-19T08:03:48Z,1531987428,109,40.028948,44.6716352,182.25,0,-0.2,104.9,457641.97,-27552.64,99.9,Air+FixedWing,Red,Allies,J-11A,Red J-11A #006,xu,<51>Teknetinium,0.001953125,0,5.74931836031649e-06,182.25,2.25,0.001953125,0,NaN,NaN,0,0.0139882274201861,NaN,0.999993861039524,-0.000196197589014775,-0.00345640994466335,1.9073486328125e-07,178.72619625,178.726196440735,,,108.490000009537,180,0.107846339101912,0.205833502619932
2018-07-19T08:03:49Z,1531987429,109,40.028948,44.6716352,182.25,0,-0.2,104.9,457641.97,-27552.64,99.9,Air+FixedWing,Red,Allies,J-11A,Red J-11A #006,xu,<51>Teknetinium,0,0,0,182.25,2.25,0,0,NaN,NaN,0,0.0139882274201861,NaN,0.999993741512668,0,-0.00349065172486007,0,178.72619625,178.72619625,,,109.490000009537,180,0.107846339101912,0.205833502619932
2018-07-19T08:03:50Z,1531987430,109,40.028948,44.6716352,182.25,0,-0.2,104.9,457641.97,-27552.64,99.9,Air+FixedWing,Red,Allies,J-11A,Red J-11A #006,xu,<51>Teknetinium,0,0,0,182.25,2.25,0,0,NaN,NaN,0,0.0139882274201861,NaN,0.999993741512668,0,-0.00349065172486007,0,178.72619625,178.72619625,,,110.490000009537,180,0.107846339101912,0.205833502619932
2018-07-19T08:03:51Z,1531987431,109,40.028948,44.6716352,182.25,0,-0.2,104.9,457641.97,-27552.64,99.9,Air+FixedWing,Red,Allies,J-11A,Red J-11A #006,xu,<51>Teknetinium,0,0,0,182.25,2.25,0,0,NaN,NaN,0,0.0139882274201861,NaN,0.999993741512668,0,-0.00349065172486007,0,178.72619625,178.72619625,,,111.490000009537,180,0.107846339101912,0.205833502619932
2018-07-19T08:03:52Z,1531987432,109,40.028948,44.6716352,182.25,0,-0.2,104.9,457641.97,-27552.64,99.9,Air+FixedWing,Red,Allies,J-11A,Red J-11A #006,xu,<51>Teknetinium,0,0,0,182.25,2.25,0,0,NaN,NaN,0,0.0139882274201861,NaN,0.999993741512668,0,-0.00349065172486007,0,178.72619625,178.72619625,,,112.490000009537,180,0.107846339101912,0.205833502619932
2018-07-19T08:03:53Z,1531987433,109,40.028948,44.6716352,182.25,0,-0.2,104.9,457641.97,-27552.64,99.9,Air+FixedWing,Red,Allies,J-11A,Red J-11A #006,xu,<51>Teknetinium,0,0,0,182.25,2.25,0,0,NaN,NaN,0,0.0139882274201861,NaN,0.999993741512668,0,-0.00349065172486007,0,178.72619625,178.72619625,,,113.490000009537,180,0.107846339101912,0.205833502619932
2018-07-19T08:03:54Z,1531987434,109,40.028948,44.6716352,182.25,0,-0.2,104.9,457641.97,-27552.64,99.9,Air+FixedWing,Red,Allies,J-11A,Red J-11A #006,xu,<51>Teknetinium,0,0,0,182.25,2.25,0,0,NaN,NaN,0,0.0139882274201861,NaN,0.999993741512668,0,-0.00349065172486007,0,178.72619625,178.72619625,,,114.490000009537,180,0.107846339101912,0.205833502619932
2018-07-19T08:03:55Z,1531987435,109,40.028948,44.6716352,182.25,0,-0.2,104.9,457641.97,-27552.64,99.9,Air+FixedWing,Red,Allies,J-11A,Red J-11A #006,xu,<51>Teknetinium,0,0,0,182.25,2.25,0,0,NaN,NaN,0,0.0139882274201861,NaN,0.999993741512668,0,-0.00349065172486007,0,178.72619625,178.72619625,,,115.490000009537,180,0.107846339101912,0.205833502619932
2018-07-19T08:03:56Z,1531987436,109,40.028948,44.6716352,182.25,0,-0.2,104.9,457641.97,-27552.64,99.9,Air+FixedWing,Red,Allies,J-11A,Red J-11A #006,xu,<51>Teknetinium,0,0,0,182.25,2.25,0,0,NaN,NaN,0,0.0139882274201861,NaN,0.999993741512668,0,-0.00349065172486007,0,178.72619625,178.72619625,,,116.490000009537,180,0.107846339101912,0.205833502619932
2018-07-19T08:03:57Z,1531987437,109,40.028948,44.6716352,182.25,0,-0.2,104.9,457641.97,-27552.64,99.9,Air+FixedWing,Red,Allies,J-11A,Red J-11A #006,xu,<51>Teknetinium,0,0,0,182.25,2.25,0,0,NaN,NaN,0,0.0139882274201861,NaN,0.999993741512668,0,-0.00349065172486007,0,178.72619625,178.72619625,,,117.490000009537,180,0.107846339101912,0.205833502619932
2018-07-19T08:03:58Z,1531987438,109,40.028948,44.6716352,182.25,0,-0.2,104.9,457641.97,-27552.64,99.9,Air+FixedWing,Red,Allies,J-11A,Red J-11A #006,xu,<51>Teknetinium,0,0,0,182.25,2.25,0,0,NaN,NaN,0,0.0139882274201861,NaN,0.999993741512668,0,-0.00349065172486007,0,178.72619625,178.72619625,,,118.490000009537,180,0.107846339101912,0.205833502619932
2018-07-19T08:03:59Z,1531987439,109,40.028948,44.6716352,182.25,0,-0.2,104.9,457641.97,-27552.64,99.9,Air+FixedWing,Red,Allies,J-11A,Red J-11A #006,xu,<51>Teknetinium,0,0,0,182.25,2.25,0,0,NaN,NaN,0,0.0139882274201861,NaN,0.999993741512668,0,-0.00349065172486007,0,178.72619625,178.72619625,,,119.490000009537,180,0.107846339101912,0.205833502619932
2018-07-19T08:04:00Z,1531987440,109,40.028948,44.6716352,182.25,0,-0.2,104.9,457641.97,-27552.64,99.9,Air+FixedWing,Red,Allies,J-11A,Red J-11A #006,xu,<51>Teknetinium,0,0,0,182.25,2.25,0,0,NaN,NaN,0,0.0139882274201861,NaN,0.999993741512668,0,-0.00349065172486007,0,178.72619625,178.72619625,,,120.490000009537,180,0.107846339101912,0.205833502619932
2018-07-19T08:04:01Z,1531987441,109,40.028948,44.6716352,182.25,0,-0.2,104.9,457641.97,-27552.64,99.9,Air+FixedWing,Red,Allies,J-11A,Red J-11A #006,xu,<51>Teknetinium,0,0,0,182.25,2.25,0,0,NaN,NaN,0,0.0139882274201861,NaN,0.999993741512668,0,-0.00349065172486007,0,178.72619625,178.72619625,,,121.490000009537,180,0.107846339101912,0.205833502619932
2018-07-19T08:04:02Z,1531987442,109,40.028948,44.6716352,182.25,0,-0.2,104.9,457641.97,-27552.64,99.9,Air+FixedWing,Red,Allies,J-11A,Red J-11A #006,xu,<51>Teknetinium,0,0,0,182.25,2.25,0,0,NaN,NaN,0,0.0139882274201861,NaN,0.999993741512668,0,-0.00349065172486007,0,178.72619625,178.72619625,,,122.490000009537,180,0.107846339101912,0.205833502619932
2018-07-19T08:04:03Z,1531987443,109,40.028948,44.6716352,182.25,0,-0.2,104.9,457641.97,-27552.64,99.9,Air+FixedWing,Red,Allies,J-11A,Red J-11A #006,xu,<51>Teknetinium,0,0,0,182.25,2.25,0,0,NaN,NaN,0,0.0139882274201861,NaN,0.999993741512668,0,-0.00349065172486007,0,178.72619625,178.72619625,,,123.490000009537,180,0.107846339101912,0.205833502619932
2018-07-19T08:04:04Z,1531987444,109,40.028948,44.6716352,182.25,0,-0.2,104.9,457641.97,-27552.64,99.9,Air+FixedWing,Red,Allies,J-11A,Red J-11A #006,xu,<51>Teknetinium,0,0,0,182.25,2.25,0,0,NaN,NaN,0,0.0139882274201861,NaN,0.999993741512668,0,-0.00349065172486007,0,178.72619625,178.72619625,,,124.490000009537,180,0.107846339101912,0.205833502619932
2018-07-19T08:04:05Z,1531987445,109,40.028948,44.6716352,182.25,0,-0.2,104.9,457641.97,-27552.64,99.9,Air+FixedWing,Red,Allies,J-11A,Red J-11A #006,xu,<51>Teknetinium,0,0,0,182.25,2.25,0,0,NaN,NaN,0,0.0139882274201861,NaN,0.999993741512668,0,-0.00349065172486007,0,178.72619625,178.72619625,,,125.490000009537,180,0.107846339101912,0.205833502619932
2018-07-19T08:04:06Z,1531987446,109,40.028948,44.6716352,182.25,0,-0.2,104.9,457641.97,-27552.64,99.9,Air+FixedWing,Red,Allies,J-11A,Red J-11A #006,xu,<51>Teknetinium,0,0,0,182.25,2.25,0,0,NaN,NaN,0,0.0139882274201861,NaN,0.999993741512668,0,-0.00349065172486007,0,178.72619625,178.72619625,,,126.490000009537,180,0.107846339101912,0.205833502619932
2018-07-19T08:04:07Z,1531987447,109,40.028948,44.6716352,182.25,0,-0.2,104.9,457641.97,-27552.64,99.9,Air+FixedWing,Red,Allies,J-11A,Red J-11A #006,xu,<51>Teknetinium,0,0,0,182.25,2.25,0,0,NaN,NaN,0,0.0139882274201861,NaN,0.999993741512668,0,-0.00349065172486007,0,178.72619625,178.72619625,,,127.490000009537,180,0.107846339101912,0.205833502619932
2018-07-19T08:04:08Z,1531987448,109,40.028948,44.6716352,182.25,0,-0.2,104.9,457641.97,-27552.64,99.9,Air+FixedWing,Red,Allies,J-11A,Red J-11A #006,xu,<51>Teknetinium,0,0,0,182.25,2.25,0,0,NaN,NaN,0,0.0139882274201861,NaN,0.999993741512668,0,-0.00349065172486007,0,178.72619625,178.72619625,,,128.490000009537,180,0.107846339101912,0.205833502619932
2018-07-19T08:04:09Z,1531987449,109,40.028948,44.6716352,182.25,0,-0.2,104.9,457641.97,-27552.64,99.9,Air+FixedWing,Red,Allies,J-11A,Red J-11A #006,xu,<51>Teknetinium,0,0,0,182.25,2.25,0,0,NaN,NaN,0,0.0139882274201861,NaN,0.999993741512668,0,-0.00349065172486007,0,178.72619625,178.72619625,,,129.490000009537,180,0.107846339101912,0.205833502619932
2018-07-19T08:04:10Z,1531987450,109,40.028948,44.6716352,182.25,0,-0.2,104.9,457641.97,-27552.64,99.9,Air+FixedWing,Red,Allies,J-11A,Red J-11A #006,xu,<51>Teknetinium,0,0,0,182.25,2.25,0,0,NaN,NaN,0,0.0139882274201861,NaN,0.999993741512668,0,-0.00349065172486007,0,178.72619625,178.72619625,,,130.490000009537,180,0.107846339101912,0.205833502619932
2018-07-19T08:04:11Z,1531987451,109,40.028948,44.6716352,182.25,0,-0.2,104.9,457641.97,-27552.64,99.9,Air+FixedWing,Red,Allies,J-11A,Red J-11A #006,xu,<51>Teknetinium,0,0,0,182.25,2.25,0,0,NaN,NaN,0,0.0139882274201861,NaN,0.999993741512668,0,-0.00349065172486007,0,178.72619625,178.72619625,,,131.490000009537,180,0.107846339101912,0.205833502619932
2018-07-19T08:04:12Z,1531987452,109,40.028948,44.6716352,182.25,0,-0.2,104.9,457641.97,-27552.64,99.9,Air+FixedWing,Red,Allies,J-11A,Red J-11A #006,xu,<51>Teknetinium,0,0,0,182.25,2.25,0,0,NaN,NaN,0,0.0139882274201861,NaN,0.999993741512668,0,-0.00349065172486007,0,178.72619625,178.72619625,,,132.490000009537,180,0.107846339101912,0.205833502619932
2018-07-19T08:04:13Z,1531987453,109,40.028948,44.6716352,182.25,0,-0.2,104.9,457641.97,-27552.64,99.9,Air+FixedWing,Red,Allies,J-11A,Red J-11A #006,xu,<51>Teknetinium,0,0,0,182.25,2.25,0,0,NaN,NaN,0,0.0139882274201861,NaN,0.999993741512668,0,-0.00349065172486007,0,178.72619625,178.72619625,,,133.490000009537,180,0.107846339101912,0.205833502619932
2018-07-19T08:04:14Z,1531987454,109,40.028948,44.6716352,182.25,0,-0.2,104.9,457641.97,-27552.64,99.9,Air+FixedWing,Red,Allies,J-11A,Red J-11A #006,xu,<51>Teknetinium,0,0,0,182.25,2.25,0,0,NaN,NaN,0,0.0139882274201861,NaN,0.999993741512668,0,-0.00349065172486007,0,178.72619625,178.72619625,,,134.490000009537,180,0.107846339101912,0.205833502619932
2018-07-19T08:04:15Z,1531987455,109,40.028948,44.6716352,182.25,0,-0.2,104.9,457641.97,-27552.64,99.9,Air+FixedWing,Red,Allies,J-11A,Red J-11A #006,xu,<51>Teknetinium,0,0,0,182.25,2.25,0,0,NaN,NaN,0,0.0139882274201861,NaN,0.999993741512668,0,-0.00349065172486007,0,178.72619625,178.72619625,,,135.490000009537,180,0.107846339101912,0.205833502619932
2018-07-19T08:04:16Z,1531987456,109,40.028948,44.6716352,182.25,0,-0.2,104.9,457641.97,-27552.64,99.9,Air+FixedWing,Red,Allies,J-11A,Red J-11A #006,xu,<51>Teknetinium,0,0,0,182.25,2.25,0,0,NaN,NaN,0,0.0139882274201861,NaN,0.999993741512668,0,-0.00349065172486007,0,178.72619625,178.72619625,,,136.490000009537,180,0.107846339101912,0.205833502619932
2018-07-19T08:04:17Z,1531987457,109,40.028948,44.6716352,182.25,0,-0.2,104.9,457641.97,-27552.64,99.9,Air+FixedWing,Red,Allies,J-11A,Red J-11A #006,xu,<51>Teknetinium,0,0,0,182.25,2.25,0,0,NaN,NaN,0,0.0139882274201861,NaN,0.999993741512668,0,-0.00349065172486007,0,178.72619625,178.72619625,,,137.490000009537,180,0.107846339101912,0.205833502619932
2018-07-19T08:04:18Z,1531987458,109,40.028948,44.6716352,182.25,0,-0.2,104.9,457641.97,-27552.64,99.9,Air+FixedWing,Red,Allies,J-11A,Red J-11A #006,xu,<51>Teknetinium,0,0,0,182.25,2.25,0,0,NaN,NaN,0,0.0139882274201861,NaN,0.999993741512668,0,-0.00349065172486007,0,178.72619625,178.72619625,,,138.490000009537,180,0.107846339101912,0.205833502619932
2018-07-19T08:04:19Z,1531987459,109,40.028948,44.6716352,182.25,0,-0.2,104.9,457641.97,-27552.64,99.9,Air+FixedWing,Red,Allies,J-11A,Red J-11A #006,xu,<51>Teknetinium,0,0,0,182.25,2.25,0,0,NaN,NaN,0,0.0139882274201861,NaN,0.999993741512668,0,-0.00349065172486007,0,178.72619625,178.72619625,,,139.490000009537,180,0.107846339101912,0.205833502619932
2018-07-19T08:04:20Z,1531987460,109,40.028948,44.6716352,182.25,0,-0.2,104.9,457641.97,-27552.64,99.9,Air+FixedWing,Red,Allies,J-11A,Red J-11A #006,xu,<51>Teknetinium,0,0,0,182.25,2.25,0,0,NaN,NaN,0,0.0139882274201861,NaN,0.999993741512668,0,-0.00349065172486007,0,178.72619625,178.72619625,,,140.490000009537,180,0.107846339101912,0.205833502619932
2018-07-19T08:04:21Z,1531987461,109,40.028948,44.6716352,182.25,0,-0.2,104.9,457641.97,-27552.64,99.9,Air+FixedWing,Red,Allies,J-11A,Red J-11A #006,xu,<51>Teknetinium,0,0,0,182.25,2.25,0,0,NaN,NaN,0,0.0139882274201861,NaN,0.999993741512668,0,-0.00349065172486007,0,178.72619625,178.72619625,,,141.490000009537,180,0.107846339101912,0.205833502619932
2018-07-19T08:04:22Z,1531987462,109,40.028948,44.6716352,182.25,0,-0.2,104.9,457641.97,-27552.64,99.9,Air+FixedWing,Red,Allies,J-11A,Red J-11A #006,xu,<51>Teknetinium,0,0,0,182.25,2.25,0,0,NaN,NaN,0,0.0139882274201861,NaN,0.999993741512668,0,-0.00349065172486007,0,178.72619625,178.72619625,,,142.490000009537,180,0.107846339101912,0.205833502619932
2018-07-19T08:04:23Z,1531987463,109,40.028948,44.6716352,182.25,0,-0.2,104.9,457641.97,-27552.64,99.9,Air+FixedWing,Red,Allies,J-11A,Red J-11A #006,xu,<51>Teknetinium,0,0,0,182.25,2.25,0,0,NaN,NaN,0,0.0139882274201861,NaN,0.999993741512668,0,-0.00349065172486007,0,178.72619625,178.72619625,,,143.490000009537,180,0.107846339101912,0.205833502619932
2018-07-19T08:04:24Z,1531987464,109,40.028948,44.6716352,182.25,0,-0.2,104.9,457641.97,-27552.64,99.9,Air+FixedWing,Red,Allies,J-11A,Red J-11A #006,xu,<51>Teknetinium,0,0,0,182.25,2.25,0,0,NaN,NaN,0,0.0139882274201861,NaN,0.999993741512668,0,-0.00349065172486007,0,178.72619625,178.72619625,,,144.490000009537,180,0.107846339101912,0.205833502619932
2018-07-19T08:04:25Z,1531987465,109,40.028948,44.6716352,182.25,0,-0.2,104.9,457641.97,-27552.64,99.9,Air+FixedWing,Red,Allies,J-11A,Red J-11A #006,xu,<51>Teknetinium,0,0,0,182.25,2.25,0,0,NaN,NaN,0,0.0139882274201861,NaN,0.999993621985812,0.000196197589014775,-0.0035248935050568,0,178.72619625,178.72619625,,,145.490000009537,180,0.107846339101912,0.205833502619932
2018-07-19T08:04:26Z,1531987466,109,40.028948,44.6716352,182.25,0,-0.2,104.9,457641.97,-27552.64,99.9,Air+FixedWing,Red,Allies,J-11A,Red J-11A #006,xu,<51>Teknetinium,0.001953125,0,5.74931836031649e-06,182.25,2.25,0.001953125,0,NaN,NaN,0,0.0139882274201861,NaN,0.999993861039524,-0.000196197589014775,-0.00345640994466335,1.9073486328125e-07,178.72619625,178.726196440735,,,146.490000009537,180,0.107846339101912,0.205833502619932
2018-07-19T08:04:27Z,1531987467,109,40.028948,44.6716352,182.25,0,-0.2,104.9,457641.97,-27552.64,99.9,Air+FixedWing,Red,Allies,J-11A,Red J-11A #006,xu,<51>Teknetinium,0,0,0,182.25,2.25,0,0,NaN,NaN,0,0.0139882274201861,NaN,0.999993741512668,0,-0.00349065172486007,0,178.72619625,178.72619625,,,147.490000009537,180,0.107846339101912,0.205833502619932
2018-07-19T08:04:28Z,1531987468,109,40.028948,44.6716352,182.25,0,-0.2,104.9,457641.97,-27552.64,99.9,Air+FixedWing,Red,Allies,J-11A,Red J-11A #006,xu,<51>Teknetinium,0,0,0,182.25,2.25,0,0,NaN,NaN,0,0.0139882274201861,NaN,0.999993741512668,0,-0.00349065172486007,0,178.72619625,178.72619625,,,148.490000009537,180,0.107846339101912,0.205833502619932
2018-07-19T08:04:29Z,1531987469,109,40.028948,44.6716352,182.25,0,-0.2,104.9,457641.97,-27552.64,99.9,Air+FixedWing,Red,Allies,J-11A,Red J-11A #006,xu,<51>Teknetinium,0,0,0,182.25,2.25,0,0,NaN,NaN,0,0.0139882274201861,NaN,0.999993741512668,0,-0.00349065172486007,0,178.72619625,178.72619625,,,149.490000009537,180,0.107846339101912,0.205833502619932
2018-07-19T08:04:30Z,1531987470,109,40.028948,44.6716352,182.25,0,-0.2,104.9,457641.97,-27552.64,99.9,Air+FixedWing,Red,Allies,J-11A,Red J-11A #006,xu,<51>Teknetinium,0,0,0,182.25,2.25,0,0,NaN,NaN,0,0.0139882274201861,NaN,0.999993741512668,0,-0.00349065172486007,0,178.72619625,178.72619625,,,150.490000009537,180,0.107846339101912,0.205833502619932
2018-07-19T08:04:31Z,1531987471,109,40.028948,44.6716352,182.25,0,-0.2,104.9,457641.97,-27552.64,99.9,Air+FixedWing,Red,Allies,J-11A,Red J-11A #006,xu,<51>Teknetinium,0,0,0,182.25,2.25,0,0,NaN,NaN,0,0.0139882274201861,NaN,0.999993741512668,0,-0.00349065172486007,0,178.72619625,178.72619625,,,151.490000009537,180,0.107846339101912,0.205833502619932
2018-07-19T08:04:32Z,1531987472,109,40.028948,44.6716352,182.25,0,-0.2,104.9,457641.97,-27552.64,99.9,Air+FixedWing,Red,Allies,J-11A,Red J-11A #006,xu,<51>Teknetinium,0,0,0,182.25,2.25,0,0,NaN,NaN,0,0.0139882274201861,NaN,0.999993741512668,0,-0.00349065172486007,0,178.72619625,178.72619625,,,152.490000009537,180,0.107846339101912,0.205833502619932
2018-07-19T08:04:33Z,1531987473,109,40.028948,44.6716352,182.25,0,-0.2,104.9,457641.97,-27552.64,99.9,Air+FixedWing,Red,Allies,J-11A,Red J-11A #006,xu,<51>Teknetinium,0,0,0,182.25,2.25,0,0,NaN,NaN,0,0.0139882274201861,NaN,0.999993741512668,0,-0.00349065172486007,0,178.72619625,178.72619625,,,153.490000009537,180,0.107846339101912,0.205833502619932
2018-07-19T08:04:34Z,1531987474,109,40.028948,44.6716352,182.25,0,-0.2,104.9,457641.97,-27552.64,99.9,Air+FixedWing,Red,Allies,J-11A,Red J-11A #006,xu,<51>Teknetinium,0,0,0,182.25,2.25,0,0,NaN,NaN,0,0.0139882274201861,NaN,0.999993741512668,0,-0.00349065172486007,0,178.72619625,178.72619625,,,154.490000009537,180,0.107846339101912,0.205833502619932
2018-07-19T08:04:35Z,1531987475,109,40.028948,44.6716352,182.25,0,-0.2,104.9,457641.97,-27552.64,99.9,Air+FixedWing,Red,Allies,J-11A,Red J-11A #006,xu,<51>Teknetinium,0,0,0,182.25,2.25,0,0,NaN,NaN,0,0.0139882274201861,NaN,0.999993741512668,0,-0.00349065172486007,0,178.72619625,178.72619625,,,155.490000009537,180,0.107846339101912,0.205833502619932
2018-07-19T08:04:36Z,1531987476,109,40.028948,44.6716352,182.25,0,-0.2,104.9,457641.97,-27552.64,99.9,Air+FixedWing,Red,Allies,J-11A,Red J-11A #006,xu,<51>Teknetinium,0,0,0,182.25,2.25,0,0,NaN,NaN,0,0.0139882274201861,NaN,0.999993741512668,0,-0.00349065172486007,0,178.72619625,178.72619625,,,156.490000009537,180,0.107846339101912,0.205833502619932
2018-07-19T08:04:37Z,1531987477,109,40.028948,44.6716352,182.25,0,-0.2,104.9,457641.97,-27552.64,99.9,Air+FixedWing,Red,Allies,J-11A,Red J-11A #006,xu,<51>Teknetinium,0,0,0,182.25,2.25,0,0,NaN,NaN,0,0.0139882274201861,NaN,0.999993741512668,0,-0.00349065172486007,0,178.72619625,178.72619625,,,157.490000009537,180,0.107846339101912,0.205833502619932
2018-07-19T08:04:38Z,1531987478,109,40.028948,44.6716352,182.25,0,-0.2,104.9,457641.97,-27552.64,99.9,Air+FixedWing,Red,Allies,J-11A,Red J-11A #006,xu,<51>Teknetinium,0,0,0,182.25,2.25,0,0,NaN,NaN,0,0.0139882274201861,NaN,0.999993741512668,0,-0.00349065172486007,0,178.72619625,178.72619625,,,158.490000009537,180,0.107846339101912,0.205833502619932
2018-07-19T08:04:39Z,1531987479,109,40.028948,44.6716352,182.25,0,-0.2,104.9,457641.97,-27552.64,99.9,Air+FixedWing,Red,Allies,J-11A,Red J-11A #006,xu,<51>Teknetinium,0,0,0,182.25,2.25,0,0,NaN,NaN,0,0.0139882274201861,NaN,0.999993741512668,0,-0.00349065172486007,0,178.72619625,178.72619625,,,159.490000009537,180,0.107846339101912,0.205833502619932
2018-07-19T08:04:40Z,1531987480,109,40.028948,44.6716352,182.25,0,-0.2,104.9,457641.97,-27552.64,99.9,Air+FixedWing,Red,Allies,J-11A,Red J-11A #006,xu,<51>Teknetinium,0,0,0,182.25,2.25,0,0,NaN,NaN,0,0.0139882274201861,NaN,0.999993741512668,0,-0.00349065172486007,0,178.72619625,178.72619625,,,160.490000009537,180,0.107846339101912,0.205833502619932
2018-07-19T08:04:41Z,1531987481,109,40.028948,44.6716352,182.25,0,-0.2,104.9,457641.97,-27552.64,99.9,Air+FixedWing,Red,Allies,J-11A,Red J-11A #006,xu,<51>Teknetinium,0,0,0,182.25,2.25,0,0,NaN,NaN,0,0.0139882274201861,NaN,0.999993741512668,0,-0.00349065172486007,0,178.72619625,178.72619625,,,161.490000009537,180,0.107846339101912,0.205833502619932
2018-07-19T08:04:42Z,1531987482,109,40.028948,44.6716352,182.25,0,-0.2,104.9,457641.97,-27552.64,99.9,Air+FixedWing,Red,Allies,J-11A,Red J-11A #006,xu,<51>Teknetinium,0,0,0,182.25,2.25,0,0,NaN,NaN,0,0.0139882274201861,NaN,0.999993741512668,0,-0.00349065172486007,0,178.72619625,178.72619625,,,162.490000009537,180,0.107846339101912,0.205833502619932
2018-07-19T08:04:43Z,1531987483,109,40.028948,44.6716352,182.25,0,-0.2,104.9,457641.97,-27552.64,99.9,Air+FixedWing,Red,Allies,J-11A,Red J-11A #006,xu,<51>Teknetinium,0,0,0,182.25,2.25,0,0,NaN,NaN,0,0.0139882274201861,NaN,0.999993741512668,0,-0.00349065172486007,0,178.72619625,178.72619625,,,163.490000009537,180,0.107846339101912,0.205833502619932
