ISOTime,UnixTime,Id,Longitude,Latitude,Altitude,Roll,Pitch,Yaw,U,V,Heading,Type,Color,Coalition,Name,Group,Country,Pilot,TAS,CAS,M,ASL,AGL,GS,VS,AOA,AOS,RRT,TRT,TRD,G,LatG,LonG,Ek,Ep,Em,FFW,FFV,RelativeTime,Elev,GroundDistance,AirDistance
2018-07-19T08:03:09Z,1531987389,10C,40.0314424,44.6725193,181.75,-0.1,0.8,332,457831.19,-27437.28,327,Air+FixedWing,Red,Allies,F-14B,Red F-14B #005,xu,<51>X-man,1.28478401081702,1.25997197628021,0.00378193423711585,181.747192382812,1.7471923828125,NaN,NaN,NaN,NaN,NaN,NaN,NaN,NaN,NaN,NaN,NaN,178.233110418091,NaN,,,0.399999856948853,180,NaN,NaN
2018-07-19T08:03:10Z,1531987390,10C,40.0314427,44.672519,181.73,-0.1,0.8,332,457831.22,-27437.31,327,Air+FixedWing,Red,Allies,F-14B,Red F-14B #005,xu,<51>X-man,0.0500824257265555,0,0.000147424315767301,181.729995727539,1.72999572753906,0.0470374788234074,-0.0171966552734375,NaN,NaN,0,NaN,NaN,1.00156981158562,0.00164457700840175,0.0204638342580717,0.000125412468332797,178.216246260147,178.216371672615,,,1.39999985694885,180,0.04340011172167,0.0466840657737763
2018-07-19T08:03:11Z,1531987391,10C,40.0314427,44.672519,181.73,-0.1,0.8,332,457831.19,-27437.31,327,Air+FixedWing,Red,Allies,F-14B,Red F-14B #005,xu,<51>X-man,0.03125,0,9.19885528884307e-05,181.729995727539,1.72999572753906,0.03125,0,NaN,NaN,0,0,NaN,0.999940073498858,-0.00709016460710459,0.010491523020701,4.8828125e-05,178.216246260147,178.216295088272,,,2.39999985694885,180,0.04340011172167,0.0466840657737763
2018-07-19T08:03:12Z,1531987392,10C,40.0314427,44.672519,181.73,-0.1,0.8,332,457831.22,-27437.31,327,Air+FixedWing,Red,Allies,F-14B,Red F-14B #005,xu,<51>X-man,0.03125,0,9.19885528884307e-05,181.729995727539,1.72999572753906,0.03125,0,NaN,NaN,0,0,NaN,0.999881369097823,0.000927502975427064,0.0156976766582646,4.8828125e-05,178.216246260147,178.216295088272,,,3.39999985694885,180,0.04340011172167,0.0466840657737763
2018-07-19T08:03:13Z,1531987393,10C,40.0314427,44.672519,181.73,-0.1,0.8,332,457831.22,-27437.31,327,Air+FixedWing,Red,Allies,F-14B,Red F-14B #005,xu,<51>X-man,0,0,0,181.729995727539,1.72999572753906,0,0,NaN,NaN,0,0,NaN,0.999881369097823,0.000927502975427064,0.0156976766582646,0,178.216246260147,178.216246260147,,,4.39999985694885,180,0.04340011172167,0.0466840657737763
2018-07-19T08:03:14Z,1531987394,10C,40.0314427,44.672519,181.73,-0.1,0.8,332,457831.19,-27437.31,327,Air+FixedWing,Red,Allies,F-14B,Red F-14B #005,xu,<51>X-man,0.03125,0,9.19885528884307e-05,181.729995727539,1.72999572753906,0.03125,0,NaN,NaN,0,0,NaN,0.99992050536518,-0.00441760874626071,0.0122269075665555,4.8828125e-05,178.216246260147,178.216295088272,,,5.39999985694885,180,0.04340011172167,0.0466840657737763
2018-07-19T08:03:15Z,1531987395,10C,40.0314427,44.672519,181.73,-0.1,0.8,332,457831.19,-27437.31,327,Air+FixedWing,Red,Allies,F-14B,Red F-14B #005,xu,<51>X-man,0,0,0,181.729995727539,1.72999572753906,0,0,NaN,NaN,0,0,NaN,0.99992050536518,-0.00441760874626071,0.0122269075665555,0,178.216246260147,178.216246260147,,,6.39999985694885,180,0.04340011172167,0.0466840657737763
2018-07-19T08:03:16Z,1531987396,10C,40.0314427,44.672519,181.73,-0.1,0.8,332,457831.22,-27437.31,327,Air+FixedWing,Red,Allies,F-14B,Red F-14B #005,xu,<51>X-man,0.03125,0,9.19885528884307e-05,181.729995727539,1.72999572753906,0.03125,0,NaN,NaN,0,0,NaN,0.999881369097823,0.000927502975427064,0.0156976766582646,4.8828125e-05,178.216246260147,178.216295088272,,,7.39999985694885,180,0.04340011172167,0.0466840657737763
2018-07-19T08:03:17Z,1531987397,10C,40.0314427,44.672519,181.73,-0.1,0.8,332,457831.22,-27437.31,327,Air+FixedWing,Red,Allies,F-14B,Red F-14B #005,xu,<51>X-man,0,0,0,181.729995727539,1.72999572753906,0,0,NaN,NaN,0,0,NaN,0.999900937231501,-0.00174505288541682,0.0139622921124101,0,178.216246260147,178.216246260147,,,8.39999985694885,180,0.04340011172167,0.0466840657737763
2018-07-19T08:03:18Z,1531987398,10C,40.0314427,44.672519,181.73,-0.1,0.8,332,457831.22,-27437.31,327,Air+FixedWing,Red,Allies,F-14B,Red F-14B #005,xu,<51>X-man,0,0,0,181.729995727539,1.72999572753906,0,0,NaN,NaN,0,0,NaN,0.999881369097823,0.000927502975427064,0.0156976766582646,0,178.216246260147,178.216246260147,,,9.39999985694885,180,0.04340011172167,0.0466840657737763
2018-07-19T08:03:19Z,1531987399,10C,40.0314427,44.672519,181.73,-0.1,0.8,332,457831.19,-27437.31,327,Air+FixedWing,Red,Allies,F-14B,Red F-14B #005,xu,<51>X-man,0.03125,0,9.19885528884307e-05,181.729995727539,1.72999572753906,0.03125,0,NaN,NaN,0,0,NaN,0.99992050536518,-0.00441760874626071,0.0122269075665555,4.8828125e-05,178.216246260147,178.216295088272,,,10.3999998569489,180,0.04340011172167,0.0466840657737763
2018-07-19T08:03:20Z,1531987400,10C,40.0314427,44.672519,181.73,-0.1,0.8,332,457831.19,-27437.31,327,Air+FixedWing,Red,Allies,F-14B,Red F-14B #005,xu,<51>X-man,0,0,0,181.729995727539,1.72999572753906,0,0,NaN,NaN,0,0,NaN,0.99992050536518,-0.00441760874626071,0.0122269075665555,0,178.216246260147,178.216246260147,,,11.3999998569489,180,0.04340011172167,0.0466840657737763
2018-07-19T08:03:21Z,1531987401,10C,40.0314427,44.672519,181.73,-0.1,0.8,332,457831.22,-27437.31,327,Air+FixedWing,Red,Allies,F-14B,Red F-14B #005,xu,<51>X-man,0.03125,0,9.19885528884307e-05,181.729995727539,1.72999572753906,0.03125,0,NaN,NaN,0,0,NaN,0.999861800964144,0.00360005883627095,0.0174330612041191,4.8828125e-05,178.216246260147,178.216295088272,,,12.3999998569489,180,0.04340011172167,0.0466840657737763
2018-07-19T08:03:22Z,1531987402,10C,40.0314427,44.672519,181.73,-0.1,0.8,332,457831.19,-27437.31,327,Air+FixedWing,Red,Allies,F-14B,Red F-14B #005,xu,<51>X-man,0.03125,0,9.19885528884307e-05,181.729995727539,1.72999572753906,0.03125,0,NaN,NaN,0,0,NaN,0.999940073498858,-0.00709016460710459,0.010491523020701,4.8828125e-05,178.216246260147,178.216295088272,,,13.3999998569489,180,0.04340011172167,0.0466840657737763
2018-07-19T08:03:23Z,1531987403,10C,40.0314427,44.672519,181.73,-0.1,0.8,332,457831.22,-27437.31,327,Air+FixedWing,Red,Allies,F-14B,Red F-14B #005,xu,<51>X-man,0.03125,0,9.19885528884307e-05,181.729995727539,1.72999572753906,0.03125,0,NaN,NaN,0,0,NaN,0.999861800964144,0.00360005883627095,0.0174330612041191,4.8828125e-05,178.216246260147,178.216295088272,,,14.3999998569489,180,0.04340011172167,0.0466840657737763
2018-07-19T08:03:24Z,1531987404,10C,40.0314427,44.672519,181.73,-0.1,0.8,332,457831.19,-27437.31,327,Air+FixedWing,Red,Allies,F-14B,Red F-14B #005,xu,<51>X-man,0.03125,0,9.19885528884307e-05,181.729995727539,1.72999572753906,0.03125,0,NaN,NaN,0,0,NaN,0.999940073498858,-0.00709016460710459,0.010491523020701,4.8828125e-05,178.216246260147,178.216295088272,,,15.3999998569489,180,0.04340011172167,0.0466840657737763
2018-07-19T08:03:25Z,1531987405,10C,40.0314427,44.672519,181.73,-0.1,0.8,332,457831.22,-27437.31,327,Air+FixedWing,Red,Allies,F-14B,Red F-14B #005,xu,<51>X-man,0.03125,0,9.19885528884307e-05,181.729995727539,1.72999572753906,0.03125,0,NaN,NaN,0,0,NaN,0.999881369097823,0.000927502975427064,0.0156976766582646,4.8828125e-05,178.216246260147,178.216295088272,,,16.3999998569489,180,0.04340011172167,0.0466840657737763
2018-07-19T08:03:26Z,1531987406,10C,40.0314427,44.672519,181.73,-0.1,0.8,332,457831.22,-27437.31,327,Air+FixedWing,Red,Allies,F-14B,Red F-14B #005,xu,<51>X-man,0,0,0,181.729995727539,1.72999572753906,0,0,NaN,NaN,0,0,NaN,0.999881369097823,0.000927502975427064,0.0156976766582646,0,178.216246260147,178.216246260147,,,17.3999998569489,180,0.04340011172167,0.0466840657737763
2018-07-19T08:03:27Z,1531987407,10C,40.0314427,44.672519,181.73,-0.1,0.8,332,457831.19,-27437.31,327,Air+FixedWing,Red,Allies,F-14B,Red F-14B #005,xu,<51>X-man,0.03125,0,9.19885528884307e-05,181.729995727539,1.72999572753906,0.03125,0,NaN,NaN,0,0,NaN,0.99992050536518,-0.00441760874626071,0.0122269075665555,4.8828125e-05,178.216246260147,178.216295088272,,,18.3999998569489,180,0.04340011172167,0.0466840657737763
2018-07-19T08:03:28Z,1531987408,10C,40.0314427,44.672519,181.73,-0.1,0.8,332,457831.19,-27437.31,327,Air+FixedWing,Red,Allies,F-14B,Red F-14B #005,xu,<51>X-man,0,0,0,181.729995727539,1.72999572753906,0,0,NaN,NaN,0,0,NaN,0.99992050536518,-0.00441760874626071,0.0122269075665555,0,178.216246260147,178.216246260147,,,19.3999998569489,180,0.04340011172167,0.0466840657737763
2018-07-19T08:03:29Z,1531987409,10C,40.0314427,44.672519,181.73,-0.1,0.8,332,457831.22,-27437.31,327,Air+FixedWing,Red,Allies,F-14B,Red F-14B #005,xu,<51>X-man,0.03125,0,9.19885528884307e-05,181.729995727539,1.72999572753906,0.03125,0,NaN,NaN,0,0,NaN,0.999881369097823,0.000927502975427064,0.0156976766582646,4.8828125e-05,178.216246260147,178.216295088272,,,20.3999998569489,180,0.04340011172167,0.0466840657737763
2018-07-19T08:03:30Z,1531987410,10C,40.0314427,44.672519,181.73,-0.1,0.8,332,457831.22,-27437.31,327,Air+FixedWing,Red,Allies,F-14B,Red F-14B #005,xu,<51>X-man,0,0,0,181.729995727539,1.72999572753906,0,0,NaN,NaN,0,0,NaN,0.999881369097823,0.000927502975427064,0.0156976766582646,0,178.216246260147,178.216246260147,,,21.3999998569489,180,0.04340011172167,0.0466840657737763
2018-07-19T08:03:31Z,1531987411,10C,40.0314427,44.672519,181.73,-0.1,0.8,332,457831.19,-27437.31,327,Air+FixedWing,Red,Allies,F-14B,Red F-14B #005,xu,<51>X-man,0.03125,0,9.19885528884307e-05,181.729995727539,1.72999572753906,0.03125,0,NaN,NaN,0,0,NaN,0.999940073498858,-0.00709016460710459,0.010491523020701,4.8828125e-05,178.216246260147,178.216295088272,,,22.3999998569489,180,0.04340011172167,0.0466840657737763
2018-07-19T08:03:32Z,1531987412,10C,40.0314427,44.672519,181.73,-0.1,0.8,332,457831.22,-27437.31,327,Air+FixedWing,Red,Allies,F-14B,Red F-14B #005,xu,<51>X-man,0.03125,0,9.19885528884307e-05,181.729995727539,1.72999572753906,0.03125,0,NaN,NaN,0,0,NaN,0.999861800964144,0.00360005883627095,0.0174330612041191,4.8828125e-05,178.216246260147,178.216295088272,,,23.3999998569489,180,0.04340011172167,0.0466840657737763
2018-07-19T08:03:33Z,1531987413,10C,40.0314427,44.672519,181.73,-0.1,0.8,332,457831.19,-27437.31,327,Air+FixedWing,Red,Allies,F-14B,Red F-14B #005,xu,<51>X-man,0.03125,0,9.19885528884307e-05,181.729995727539,1.72999572753906,0.03125,0,NaN,NaN,0,0,NaN,0.999940073498858,-0.00709016460710459,0.010491523020701,4.8828125e-05,178.216246260147,178.216295088272,,,24.3999998569489,180,0.04340011172167,0.0466840657737763
2018-07-19T08:03:34Z,1531987414,10C,40.0314427,44.672519,181.73,-0.1,0.8,332,457831.22,-27437.31,327,Air+FixedWing,Red,Allies,F-14B,Red F-14B #005,xu,<51>X-man,0.03125,0,9.19885528884307e-05,181.729995727539,1.72999572753906,0.03125,0,NaN,NaN,0,0,NaN,0.999881369097823,0.000927502975427064,0.0156976766582646,4.8828125e-05,178.216246260147,178.216295088272,,,25.3999998569489,180,0.04340011172167,0.0466840657737763
2018-07-19T08:03:35Z,1531987415,10C,40.0314427,44.672519,181.73,-0.1,0.8,332,457831.22,-27437.31,327,Air+FixedWing,Red,Allies,F-14B,Red F-14B #005,xu,<51>X-man,0,0,0,181.729995727539,1.72999572753906,0,0,NaN,NaN,0,0,NaN,0.999881369097823,0.000927502975427064,0.0156976766582646,0,178.216246260147,178.216246260147,,,26.3999998569489,180,0.04340011172167,0.0466840657737763
2018-07-19T08:03:36Z,1531987416,10C,40.0314427,44.672519,181.73,-0.1,0.8,332,457831.19,-27437.31,327,Air+FixedWing,Red,Allies,F-14B,Red F-14B #005,xu,<51>X-man,0.03125,0,9.19885528884307e-05,181.729995727539,1.72999572753906,0.03125,0,NaN,NaN,0,0,NaN,0.99992050536518,-0.00441760874626071,0.0122269075665555,4.8828125e-05,178.216246260147,178.216295088272,,,27.3999998569489,180,0.04340011172167,0.0466840657737763
2018-07-19T08:03:37Z,1531987417,10C,40.0314427,44.672519,181.73,-0.1,0.8,332,457831.19,-27437.31,327,Air+FixedWing,Red,Allies,F-14B,Red F-14B #005,xu,<51>X-man,0,0,0,181.729995727539,1.72999572753906,0,0,NaN,NaN,0,0,NaN,0.99992050536518,-0.00441760874626071,0.0122269075665555,0,178.216246260147,178.216246260147,,,28.3999998569489,180,0.04340011172167,0.0466840657737763
2018-07-19T08:03:38Z,1531987418,10C,40.0314427,44.672519,181.73,-0.1,0.8,332,457831.22,-27437.31,327,Air+FixedWing,Red,Allies,F-14B,Red F-14B #005,xu,<51>X-man,0.03125,0,9.19885528884307e-05,181.729995727539,1.72999572753906,0.03125,0,NaN,NaN,0,0,NaN,0.999881369097823,0.000927502975427064,0.0156976766582646,4.8828125e-05,178.216246260147,178.216295088272,,,29.3999998569489,180,0.04340011172167,0.0466840657737763
2018-07-19T08:03:39Z,1531987419,10C,40.0314427,44.672519,181.73,-0.1,0.8,332,457831.22,-27437.31,327,Air+FixedWing,Red,Allies,F-14B,Red F-14B #005,xu,<51>X-man,0,0,0,181.729995727539,1.72999572753906,0,0,NaN,NaN,0,0,NaN,0.999900937231501,-0.00174505288541682,0.0139622921124101,0,178.216246260147,178.216246260147,,,30.3999998569489,180,0.04340011172167,0.0466840657737763
2018-07-19T08:03:40Z,1531987420,10C,40.0314427,44.672519,181.73,-0.1,0.8,332,457831.22,-27437.31,327,Air+FixedWing,Red,Allies,F-14B,Red F-14B #005,xu,<51>X-man,0,0,0,181.729995727539,1.72999572753906,0,0,NaN,NaN,0,0,NaN,0.999881369097823,0.000927502975427064,0.0156976766582646,0,178.216246260147,178.216246260147,,,31.3999998569489,180,0.04340011172167,0.0466840657737763
2018-07-19T08:03:41Z,1531987421,10C,40.0314427,44.672519,181.73,-0.1,0.8,332,457831.19,-27437.31,327,Air+FixedWing,Red,Allies,F-14B,Red F-14B #005,xu,<51>X-man,0.03125,0,9.19885528884307e-05,181.729995727539,1.72999572753906,0.03125,0,NaN,NaN,0,0,NaN,0.999940073498858,-0.00709016460710459,0.010491523020701,4.8828125e-05,178.216246260147,178.216295088272,,,32.3999998569489,180,0.04340011172167,0.0466840657737763
2018-07-19T08:03:42Z,1531987422,10C,40.0314427,44.672519,181.73,-0.1,0.8,332,457831.22,-27437.31,327,Air+FixedWing,Red,Allies,F-14B,Red F-14B #005,xu,<51>X-man,0.03125,0,9.19885528884307e-05,181.729995727539,1.72999572753906,0.03125,0,NaN,NaN,0,0,NaN,0.999881369097823,0.000927502975427064,0.0156976766582646,4.8828125e-05,178.216246260147,178.216295088272,,,33.3999998569489,180,0.04340011172167,0.0466840657737763
2018-07-19T08:03:43Z,1531987423,10C,40.0314427,44.672519,181.73,-0.1,0.8,332,457831.22,-27437.31,327,Air+FixedWing,Red,Allies,F-14B,Red F-14B #005,xu,<51>X-man,0,0,0,181.729995727539,1.72999572753906,0,0,NaN,NaN,0,0,NaN,0.999881369097823,0.000927502975427064,0.0156976766582646,0,178.216246260147,178.216246260147,,,34.3999998569489,180,0.04340011172167,0.0466840657737763
2018-07-19T08:03:44Z,1531987424,10C,40.0314427,44.672519,181.73,-0.1,0.8,332,457831.19,-27437.31,327,Air+FixedWing,Red,Allies,F-14B,Red F-14B #005,xu,<51>X-man,0.03125,0,9.19885528884307e-05,181.729995727539,1.72999572753906,0.03125,0,NaN,NaN,0,0,NaN,0.99992050536518,-0.00441760874626071,0.0122269075665555,4.8828125e-05,178.216246260147,178.216295088272,,,35.3999998569489,180,0.04340011172167,0.0466840657737763
2018-07-19T08:03:45Z,1531987425,10C,40.0314427,44.672519,181.73,-0.1,0.8,332,457831.19,-27437.31,327,Air+FixedWing,Red,Allies,F-14B,Red F-14B #005,xu,<51>X-man,0,0,0,181.729995727539,1.72999572753906,0,0,NaN,NaN,0,0,NaN,0.99992050536518,-0.00441760874626071,0.0122269075665555,0,178.216246260147,178.216246260147,,,36.3999998569489,180,0.04340011172167,0.0466840657737763
2018-07-19T08:03:46Z,1531987426,10C,40.0314427,44.672519,181.73,-0.1,0.8,332,457831.22,-27437.31,327,Air+FixedWing,Red,Allies,F-14B,Red F-14B #005,xu,<51>X-man,0.03125,0,9.19885528884307e-05,181.729995727539,1.72999572753906,0.03125,0,NaN,NaN,0,0,NaN,0.999861800964144,0.00360005883627095,0.0174330612041191,4.8828125e-05,178.216246260147,178.216295088272,,,37.3999998569489,180,0.04340011172167,0.0466840657737763
2018-07-19T08:03:47Z,1531987427,10C,40.0314427,44.672519,181.73,-0.1,0.8,332,457831.19,-27437.31,327,Air+FixedWing,Red,Allies,F-14B,Red F-14B #005,xu,<51>X-man,0.03125,0,9.19885528884307e-05,181.729995727539,1.72999572753906,0.03125,0,NaN,NaN,0,0,NaN,0.999940073498858,-0.00709016460710459,0.010491523020701,4.8828125e-05,178.216246260147,178.216295088272,,,38.3999998569489,180,0.04340011172167,0.0466840657737763
2018-07-19T08:03:48Z,1531987428,10C,40.0314427,44.672519,181.73,-0.1,0.8,332,457831.22,-27437.31,327,Air+FixedWing,Red,Allies,F-14B,Red F-14B #005,xu,<51>X-man,0.03125,0,9.19885528884307e-05,181.729995727539,1.72999572753906,0.03125,0,NaN,NaN,0,0,NaN,0.999881369097823,0.000927502975427064,0.0156976766582646,4.8828125e-05,178.216246260147,178.216295088272,,,39.3999998569489,180,0.04340011172167,0.0466840657737763
2018-07-19T08:03:49Z,1531987429,10C,40.0314427,44.672519,181.73,-0.1,0.8,332,457831.22,-27437.31,327,Air+FixedWing,Red,Allies,F-14B,Red F-14B #005,xu,<51>X-man,0,0,0,181.729995727539,1.72999572753906,0,0,NaN,NaN,0,0,NaN,0.999881369097823,0.000927502975427064,0.0156976766582646,0,178.216246260147,178.216246260147,,,40.3999998569489,180,0.04340011172167,0.0466840657737763
2018-07-19T08:03:50Z,1531987430,10C,40.0314427,44.672519,181.73,-0.1,0.8,332,457831.19,-27437.31,327,Air+FixedWing,Red,Allies,F-14B,Red F-14B #005,xu,<51>X-man,0.03125,0,9.19885528884307e-05,181.729995727539,1.72999572753906,0.03125,0,NaN,NaN,0,0,NaN,0.99992050536518,-0.00441760874626071,0.0122269075665555,4.8828125e-05,178.216246260147,178.216295088272,,,41.3999998569489,180,0.04340011172167,0.0466840657737763
2018-07-19T08:03:51Z,1531987431,10C,40.0314427,44.672519,181.73,-0.1,0.8,332,457831.19,-27437.31,327,Air+FixedWing,Red,Allies,F-14B,Red F-14B #005,xu,<51>X-man,0,0,0,181.729995727539,1.72999572753906,0,0,NaN,NaN,0,0,NaN,0.99992050536518,-0.00441760874626071,0.0122269075665555,0,178.216246260147,178.216246260147,,,42.3999998569489,180,0.04340011172167,0.0466840657737763
2018-07-19T08:03:52Z,1531987432,10C,40.0314427,44.672519,181.73,-0.1,0.8,332,457831.22,-27437.31,327,Air+FixedWing,Red,Allies,F-14B,Red F-14B #005,xu,<51>X-man,0.03125,0,9.19885528884307e-05,181.729995727539,1.72999572753906,0.03125,0,NaN,NaN,0,0,NaN,0.999861800964144,0.00360005883627095,0.0174330612041191,4.8828125e-05,178.216246260147,178.216295088272,,,43.3999998569489,180,0.04340011172167,0.0466840657737763
2018-07-19T08:03:53Z,1531987433,10C,40.0314427,44.672519,181.73,-0.1,0.8,332,457831.19,-27437.31,327,Air+FixedWing,Red,Allies,F-14B,Red F-14B #005,xu,<51>X-man,0.03125,0,9.19885528884307e-05,181.729995727539,1.72999572753906,0.03125,0,NaN,NaN,0,0,NaN,0.999940073498858,-0.00709016460710459,0.010491523020701,4.8828125e-05,178.216246260147,178.216295088272,,,44.3999998569489,180,0.04340011172167,0.0466840657737763
2018-07-19T08:03:54Z,1531987434,10C,40.0314427,44.672519,181.73,-0.1,0.8,332,457831.22,-27437.31,327,Air+FixedWing,Red,Allies,F-14B,Red F-14B #005,xu,<51>X-man,0.03125,0,9.19885528884307e-05,181.729995727539,1.72999572753906,0.03125,0,NaN,NaN,0,0,NaN,0.999861800964144,0.00360005883627095,0.0174330612041191,4.8828125e-05,178.216246260147,178.216295088272,,,45.3999998569489,180,0.04340011172167,0.0466840657737763
2018-07-19T08:03:55Z,1531987435,10C,40.0314427,44.672519,181.73,-0.1,0.8,332,457831.19,-27437.31,327,Air+FixedWing,Red,Allies,F-14B,Red F-14B #005,xu,<51>X-man,0.03125,0,9.19885528884307e-05,181.729995727539,1.72999572753906,0.03125,0,NaN,NaN,0,0,NaN,0.999940073498858,-0.00709016460710459,0.010491523020701,4.8828125e-05,178.216246260147,178.216295088272,,,46.3999998569489,180,0.04340011172167,0.0466840657737763
2018-07-19T08:03:56Z,1531987436,10C,40.0314427,44.672519,181.73,-0.1,0.8,332,457831.22,-27437.31,327,Air+FixedWing,Red,Allies,F-14B,Red F-14B #005,xu,<51>X-man,0.03125,0,9.19885528884307e-05,181.729995727539,1.72999572753906,0.03125,0,NaN,NaN,0,0,NaN,0.999861800964144,0.00360005883627095,0.0174330612041191,4.8828125e-05,178.216246260147,178.216295088272,,,47.3999998569489,180,0.04340011172167,0.0466840657737763
2018-07-19T08:03:57Z,1531987437,10C,40.0314427,44.672519,181.73,-0.1,0.8,332,457831.19,-27437.31,327,Air+FixedWing,Red,Allies,F-14B,Red F-14B #005,xu,<51>X-man,0.03125,0,9.19885528884307e-05,181.729995727539,1.72999572753906,0.03125,0,NaN,NaN,0,0,NaN,0.999940073498858,-0.00709016460710459,0.010491523020701,4.8828125e-05,178.216246260147,178.216295088272,,,48.3999998569489,180,0.04340011172167,0.0466840657737763
2018-07-19T08:03:58Z,1531987438,10C,40.0314427,44.672519,181.73,-0.1,0.8,332,457831.22,-27437.31,327,Air+FixedWing,Red,Allies,F-14B,Red F-14B #005,xu,<51>X-man,0.03125,0,9.19885528884307e-05,181.729995727539,1.72999572753906,0.03125,0,NaN,NaN,0,0,NaN,0.999881369097823,0.000927502975427064,0.0156976766582646,4.8828125e-05,178.216246260147,178.216295088272,,,49.3999998569489,180,0.04340011172167,0.0466840657737763
2018-07-19T08:03:59Z,1531987439,10C,40.0314427,44.672519,181.73,-0.1,0.8,332,457831.22,-27437.31,327,Air+FixedWing,Red,Allies,F-14B,Red F-14B #005,xu,<51>X-man,0,0,0,181.729995727539,1.72999572753906,0,0,NaN,NaN,0,0,NaN,0.999881369097823,0.000927502975427064,0.0156976766582646,0,178.216246260147,178.216246260147,,,50.3999998569489,180,0.04340011172167,0.0466840657737763
2018-07-19T08:04:00Z,1531987440,10C,40.0314427,44.672519,181.73,-0.1,0.8,332,457831.19,-27437.31,327,Air+FixedWing,Red,Allies,F-14B,Red F-14B #005,xu,<51>X-man,0.03125,0,9.19885528884307e-05,181.729995727539,1.72999572753906,0.03125,0,NaN,NaN,0,0,NaN,0.999940073498858,-0.00709016460710459,0.010491523020701,4.8828125e-05,178.216246260147,178.216295088272,,,51.3999998569489,180,0.04340011172167,0.0466840657737763
2018-07-19T08:04:01Z,1531987441,10C,40.0314427,44.672519,181.73,-0.1,0.8,332,457831.22,-27437.31,327,Air+FixedWing,Red,Allies,F-14B,Red F-14B #005,xu,<51>X-man,0.03125,0,9.19885528884307e-05,181.729995727539,1.72999572753906,0.03125,0,NaN,NaN,0,0,NaN,0.999861800964144,0.00360005883627095,0.0174330612041191,4.8828125e-05,178.216246260147,178.216295088272,,,52.3999998569489,180,0.04340011172167,0.0466840657737763
2018-07-19T08:04:02Z,1531987442,10C,40.0314427,44.672519,181.73,-0.1,0.8,332,457831.19,-27437.31,327,Air+FixedWing,Red,Allies,F-14B,Red F-14B #005,xu,<51>X-man,0.03125,0,9.19885528884307e-05,181.729995727539,1.72999572753906,0.03125,0,NaN,NaN,0,0,NaN,0.99992050536518,-0.00441760874626071,0.0122269075665555,4.8828125e-05,178.216246260147,178.216295088272,,,53.3999998569489,180,0.04340011172167,0.0466840657737763
2018-07-19T08:04:03Z,1531987443,10C,40.0314427,44.672519,181.73,-0.1,0.8,332,457831.19,-27437.31,327,Air+FixedWing,Red,Allies,F-14B,Red F-14B #005,xu,<51>X-man,0,0,0,181.729995727539,1.72999572753906,0,0,NaN,NaN,0,0,NaN,0.999900937231501,-0.00174505288541682,0.0139622921124101,0,178.216246260147,178.216246260147,,,54.3999998569489,180,0.04340011172167,0.0466840657737763
2018-07-19T08:04:04Z,1531987444,10C,40.0314427,44.672519,181.73,-0.1,0.8,332,457831.19,-27437.31,327,Air+FixedWing,Red,Allies,F-14B,Red F-14B #005,xu,<51>X-man,0,0,0,181.729995727539,1.72999572753906,0,0,NaN,NaN,0,0,NaN,0.99992050536518,-0.00441760874626071,0.0122269075665555,0,178.216246260147,178.216246260147,,,55.3999998569489,180,0.04340011172167,0.0466840657737763
2018-07-19T08:04:05Z,1531987445,10C,40.0314427,44.672519,181.73,-0.1,0.8,332,457831.22,-27437.31,327,Air+FixedWing,Red,Allies,F-14B,Red F-14B #005,xu,<51>X-man,0.03125,0,9.19885528884307e-05,181.729995727539,1.72999572753906,0.03125,0,NaN,NaN,0,0,NaN,0.999881369097823,0.000927502975427064,0.0156976766582646,4.8828125e-05,178.216246260147,178.216295088272,,,56.3999998569489,180,0.04340011172167,0.0466840657737763
2018-07-19T08:04:06Z,1531987446,10C,40.0314427,44.672519,181.73,-0.1,0.8,332,457831.22,-27437.31,327,Air+FixedWing,Red,Allies,F-14B,Red F-14B #005,xu,<51>X-man,0,0,0,181.729995727539,1.72999572753906,0,0,NaN,NaN,0,0,NaN,0.999881369097823,0.000927502975427064,0.0156976766582646,0,178.216246260147,178.216246260147,,,57.3999998569489,180,0.04340011172167,0.0466840657737763
2018-07-19T08:04:07Z,1531987447,10C,40.0314427,44.672519,181.73,-0.1,0.8,332,457831.19,-27437.31,327,Air+FixedWing,Red,Allies,F-14B,Red F-14B #005,xu,<51>X-man,0.03125,0,9.19885528884307e-05,181.729995727539,1.72999572753906,0.03125,0,NaN,NaN,0,0,NaN,0.99992050536518,-0.00441760874626071,0.0122269075665555,4.8828125e-05,178.216246260147,178.216295088272,,,58.3999998569489,180,0.04340011172167,0.0466840657737763
2018-07-19T08:04:08Z,1531987448,10C,40.0314427,44.672519,181.73,-0.1,0.8,332,457831.19,-27437.31,327,Air+FixedWing,Red,Allies,F-14B,Red F-14B #005,xu,<51>X-man,0,0,0,181.729995727539,1.72999572753906,0,0,NaN,NaN,0,0,NaN,0.99992050536518,-0.00441760874626071,0.0122269075665555,0,178.216246260147,178.216246260147,,,59.3999998569489,180,0.04340011172167,0.0466840657737763
2018-07-19T08:04:09Z,1531987449,10C,40.0314427,44.672519,181.73,-0.1,0.8,332,457831.22,-27437.31,327,Air+FixedWing,Red,Allies,F-14B,Red F-14B #005,xu,<51>X-man,0.03125,0,9.19885528884307e-05,181.729995727539,1.72999572753906,0.03125,0,NaN,NaN,0,0,NaN,0.999881369097823,0.000927502975427064,0.0156976766582646,4.8828125e-05,178.216246260147,178.216295088272,,,60.3999998569489,180,0.04340011172167,0.0466840657737763
2018-07-19T08:04:10Z,1531987450,10C,40.0314427,44.672519,181.73,-0.1,0.8,332,457831.22,-27437.31,327,Air+FixedWing,Red,Allies,F-14B,Red F-14B #005,xu,<51>X-man,0,0,0,181.729995727539,1.72999572753906,0,0,NaN,NaN,0,0,NaN,0.999881369097823,0.000927502975427064,0.0156976766582646,0,178.216246260147,178.216246260147,,,61.3999998569489,180,0.04340011172167,0.0466840657737763
2018-07-19T08:04:11Z,1531987451,10C,40.0314427,44.672519,181.73,-0.1,0.8,332,457831.19,-27437.31,327,Air+FixedWing,Red,Allies,F-14B,Red F-14B #005,xu,<51>X-man,0.03125,0,9.19885528884307e-05,181.729995727539,1.72999572753906,0.03125,0,NaN,NaN,0,0,NaN,0.999940073498858,-0.00709016460710459,0.010491523020701,4.8828125e-05,178.216246260147,178.216295088272,,,62.3999998569489,180,0.04340011172167,0.0466840657737763
2018-07-19T08:04:12Z,1531987452,10C,40.0314427,44.672519,181.73,-0.1,0.8,332,457831.22,-27437.31,327,Air+FixedWing,Red,Allies,F-14B,Red F-14B #005,xu,<51>X-man,0.03125,0,9.19885528884307e-05,181.729995727539,1.72999572753906,0.03125,0,NaN,NaN,0,0,NaN,0.999861800964144,0.00360005883627095,0.0174330612041191,4.8828125e-05,178.216246260147,178.216295088272,,,63.3999998569489,180,0.04340011172167,0.0466840657737763
2018-07-19T08:04:13Z,1531987453,10C,40.0314427,44.672519,181.73,-0.1,0.8,332,457831.19,-27437.31,327,Air+FixedWing,Red,Allies,F-14B,Red F-14B #005,xu,<51>X-man,0.03125,0,9.19885528884307e-05,181.729995727539,1.72999572753906,0.03125,0,NaN,NaN,0,0,NaN,0.999940073498858,-0.00709016460710459,0.010491523020701,4.8828125e-05,178.216246260147,178.216295088272,,,64.3999998569489,180,0.04340011172167,0.0466840657737763
2018-07-19T08:04:14Z,1531987454,10C,40.0314427,44.672519,181.73,-0.1,0.8,332,457831.22,-27437.31,327,Air+FixedWing,Red,Allies,F-14B,Red F-14B #005,xu,<51>X-man,0.03125,0,9.19885528884307e-05,181.729995727539,1.72999572753906,0.03125,0,NaN,NaN,0,0,NaN,0.999861800964144,0.00360005883627095,0.0174330612041191,4.8828125e-05,178.216246260147,178.216295088272,,,65.3999998569489,180,0.04340011172167,0.0466840657737763
2018-07-19T08:04:15Z,1531987455,10C,40.0314427,44.672519,181.73,-0.1,0.8,332,457831.19,-27437.31,327,Air+FixedWing,Red,Allies,F-14B,Red F-14B #005,xu,<51>X-man,0.03125,0,9.19885528884307e-05,181.729995727539,1.72999572753906,0.03125,0,NaN,NaN,0,0,NaN,0.999940073498858,-0.00709016460710459,0.010491523020701,4.8828125e-05,178.216246260147,178.216295088272,,,66.3999998569489,180,0.04340011172167,0.0466840657737763
2018-07-19T08:04:16Z,1531987456,10C,40.0314427,44.672519,181.73,-0.1,0.8,332,457831.22,-27437.31,327,Air+FixedWing,Red,Allies,F-14B,Red F-14B #005,xu,<51>X-man,0.03125,0,9.19885528884307e-05,181.729995727539,1.72999572753906,0.03125,0,NaN,NaN,0,0,NaN,0.999881369097823,0.000927502975427064,0.0156976766582646,4.8828125e-05,178.216246260147,178.216295088272,,,67.3999998569489,180,0.04340011172167,0.0466840657737763
2018-07-19T08:04:17Z,1531987457,10C,40.0314427,44.672519,181.73,-0.1,0.8,332,457831.22,-27437.31,327,Air+FixedWing,Red,Allies,F-14B,Red F-14B #005,xu,<51>X-man,0,0,0,181.729995727539,1.72999572753906,0,0,NaN,NaN,0,0,NaN,0.999881369097823,0.000927502975427064,0.0156976766582646,0,178.216246260147,178.216246260147,,,68.3999998569489,180,0.04340011172167,0.0466840657737763
2018-07-19T08:04:18Z,1531987458,10C,40.0314427,44.672519,181.73,-0.1,0.8,332,457831.19,-27437.31,327,Air+FixedWing,Red,Allies,F-14B,Red F-14B #005,xu,<51>X-man,0.03125,0,9.19885528884307e-05,181.729995727539,1.72999572753906,0.03125,0,NaN,NaN,0,0,NaN,0.999940073498858,-0.00709016460710459,0.010491523020701,4.8828125e-05,178.216246260147,178.216295088272,,,69.3999998569489,180,0.04340011172167,0.0466840657737763
2018-07-19T08:04:19Z,1531987459,10C,40.0314427,44.672519,181.73,-0.1,0.8,332,457831.22,-27437.31,327,Air+FixedWing,Red,Allies,F-14B,Red F-14B #005,xu,<51>X-man,0.03125,0,9.19885528884307e-05,181.729995727539,1.72999572753906,0.03125,0,NaN,NaN,0,0,NaN,0.999881369097823,0.000927502975427064,0.0156976766582646,4.8828125e-05,178.216246260147,178.216295088272,,,70.3999998569489,180,0.04340011172167,0.0466840657737763
2018-07-19T08:04:20Z,1531987460,10C,40.0314427,44.672519,181.73,-0.1,0.8,332,457831.22,-27437.31,327,Air+FixedWing,Red,Allies,F-14B,Red F-14B #005,xu,<51>X-man,0,0,0,181.729995727539,1.72999572753906,0,0,NaN,NaN,0,0,NaN,0.999881369097823,0.000927502975427064,0.0156976766582646,0,178.216246260147,178.216246260147,,,71.3999998569489,180,0.04340011172167,0.0466840657737763
2018-07-19T08:04:21Z,1531987461,10C,40.0314427,44.672519,181.73,-0.1,0.8,332,457831.19,-27437.31,327,Air+FixedWing,Red,Allies,F-14B,Red F-14B #005,xu,<51>X-man,0.03125,0,9.19885528884307e-05,181.729995727539,1.72999572753906,0.03125,0,NaN,NaN,0,0,NaN,0.99992050536518,-0.00441760874626071,0.0122269075665555,4.8828125e-05,178.216246260147,178.216295088272,,,72.3999998569489,180,0.04340011172167,0.0466840657737763
2018-07-19T08:04:22Z,1531987462,10C,40.0314427,44.672519,181.73,-0.1,0.8,332,457831.19,-27437.31,327,Air+FixedWing,Red,Allies,F-14B,Red F-14B #005,xu,<51>X-man,0,0,0,181.729995727539,1.72999572753906,0,0,NaN,NaN,0,0,NaN,0.999900937231501,-0.00174505288541682,0.0139622921124101,0,178.216246260147,178.216246260147,,,73.3999998569489,180,0.04340011172167,0.0466840657737763
2018-07-19T08:04:23Z,1531987463,10C,40.0314427,44.672519,181.73,-0.1,0.8,332,457831.19,-27437.31,327,Air+FixedWing,Red,Allies,F-14B,Red F-14B #005,xu,<51>X-man,0,0,0,181.729995727539,1.72999572753906,0,0,NaN,NaN,0,0,NaN,0.999900937231501,-0.00174505288541682,0.0139622921124101,0,178.216246260147,178.216246260147,,,74.3999998569489,180,0.04340011172167,0.0466840657737763
2018-07-19T08:04:24Z,1531987464,10C,40.0314427,44.672519,181.73,-0.1,0.8,332,457831.19,-27437.31,327,Air+FixedWing,Red,Allies,F-14B,Red F-14B #005,xu,<51>X-man,0,0,0,181.729995727539,1.72999572753906,0,0,NaN,NaN,0,0,NaN,0.99992050536518,-0.00441760874626071,0.0122269075665555,0,178.216246260147,178.216246260147,,,75.3999998569489,180,0.04340011172167,0.0466840657737763
2018-07-19T08:04:25Z,1531987465,10C,40.0314427,44.672519,181.73,-0.1,0.8,332,457831.22,-27437.31,327,Air+FixedWing,Red,Allies,F-14B,Red F-14B #005,xu,<51>X-man,0.03125,0,9.19885528884307e-05,181.729995727539,1.72999572753906,0.03125,0,NaN,NaN,0,0,NaN,0.999881369097823,0.000927502975427064,0.0156976766582646,4.8828125e-05,178.216246260147,178.216295088272,,,76.3999998569489,180,0.04340011172167,0.0466840657737763
2018-07-19T08:04:26Z,1531987466,10C,40.0314427,44.672519,181.73,-0.1,0.8,332,457831.22,-27437.31,327,Air+FixedWing,Red,Allies,F-14B,Red F-14B #005,xu,<51>X-man,0,0,0,181.729995727539,1.72999572753906,0,0,NaN,NaN,0,0,NaN,0.999881369097823,0.000927502975427064,0.0156976766582646,0,178.216246260147,178.216246260147,,,77.3999998569489,180,0.04340011172167,0.0466840657737763
2018-07-19T08:04:27Z,1531987467,10C,40.0314427,44.672519,181.73,-0.1,0.8,332,457831.19,-27437.31,327,Air+FixedWing,Red,Allies,F-14B,Red F-14B #005,xu,<51>X-man,0.03125,0,9.19885528884307e-05,181.729995727539,1.72999572753906,0.03125,0,NaN,NaN,0,0,NaN,0.99992050536518,-0.00441760874626071,0.0122269075665555,4.8828125e-05,178.216246260147,178.216295088272,,,78.3999998569489,180,0.04340011172167,0.0466840657737763
2018-07-19T08:04:28Z,1531987468,10C,40.0314427,44.672519,181.73,-0.1,0.8,332,457831.19,-27437.31,327,Air+FixedWing,Red,Allies,F-14B,Red F-14B #005,xu,<51>X-man,0,0,0,181.729995727539,1.72999572753906,0,0,NaN,NaN,0,0,NaN,0.99992050536518,-0.00441760874626071,0.0122269075665555,0,178.216246260147,178.216246260147,,,79.3999998569489,180,0.04340011172167,0.0466840657737763
2018-07-19T08:04:29Z,1531987469,10C,40.0314427,44.672519,181.73,-0.1,0.8,332,457831.22,-27437.31,327,Air+FixedWing,Red,Allies,F-14B,Red F-14B #005,xu,<51>X-man,0.03125,0,9.19885528884307e-05,181.729995727539,1.72999572753906,0.03125,0,NaN,NaN,0,0,NaN,0.999881369097823,0.000927502975427064,0.0156976766582646,4.8828125e-05,178.216246260147,178.216295088272,,,80.3999998569489,180,0.04340011172167,0.0466840657737763
2018-07-19T08:04:30Z,1531987470,10C,40.0314427,44.672519,181.73,-0.1,0.8,332,457831.22,-27437.31,327,Air+FixedWing,Red,Allies,F-14B,Red F-14B #005,xu,<51>X-man,0,0,0,181.729995727539,1.72999572753906,0,0,NaN,NaN,0,0,NaN,0.999881369097823,0.000927502975427064,0.0156976766582646,0,178.216246260147,178.216246260147,,,81.3999998569489,180,0.04340011172167,0.0466840657737763
2018-07-19T08:04:31Z,1531987471,10C,40.0314427,44.672519,181.73,-0.1,0.8,332,457831.19,-27437.31,327,Air+FixedWing,Red,Allies,F-14B,Red F-14B #005,xu,<51>X-man,0.03125,0,9.19885528884307e-05,181.729995727539,1.72999572753906,0.03125,0,NaN,NaN,0,0,NaN,0.99992050536518,-0.00441760874626071,0.0122269075665555,4.8828125e-05,178.216246260147,178.216295088272,,,82.3999998569489,180,0.04340011172167,0.0466840657737763
2018-07-19T08:04:32Z,1531987472,10C,40.0314427,44.672519,181.73,-0.1,0.8,332,457831.19,-27437.31,327,Air+FixedWing,Red,Allies,F-14B,Red F-14B #005,xu,<51>X-man,0,0,0,181.729995727539,1.72999572753906,0,0,NaN,NaN,0,0,NaN,0.99992050536518,-0.00441760874626071,0.0122269075665555,0,178.216246260147,178.216246260147,,,83.3999998569489,180,0.04340011172167,0.0466840657737763
2018-07-19T08:04:33Z,1531987473,10C,40.0314427,44.672519,181.73,-0.1,0.8,332,457831.22,-27437.31,327,Air+FixedWing,Red,Allies,F-14B,Red F-14B #005,xu,<51>X-man,0.03125,0,9.19885528884307e-05,181.729995727539,1.72999572753906,0.03125,0,NaN,NaN,0,0,NaN,0.999881369097823,0.000927502975427064,0.0156976766582646,4.8828125e-05,178.216246260147,178.216295088272,,,84.3999998569489,180,0.04340011172167,0.0466840657737763
2018-07-19T08:04:34Z,1531987474,10C,40.0314427,44.672519,181.73,-0.1,0.8,332,457831.22,-27437.31,327,Air+FixedWing,Red,Allies,F-14B,Red F-14B #005,xu,<51>X-man,0,0,0,181.729995727539,1.72999572753906,0,0,NaN,NaN,0,0,NaN,0.999881369097823,0.000927502975427064,0.0156976766582646,0,178.216246260147,178.216246260147,,,85.3999998569489,180,0.04340011172167,0.0466840657737763
2018-07-19T08:04:35Z,1531987475,10C,40.0314427,44.672519,181.73,-0.1,0.8,332,457831.19,-27437.31,327,Air+FixedWing,Red,Allies,F-14B,Red F-14B #005,xu,<51>X-man,0.03125,0,9.19885528884307e-05,181.729995727539,1.72999572753906,0.03125,0,NaN,NaN,0,0,NaN,0.999940073498858,-0.00709016460710459,0.010491523020701,4.8828125e-05,178.216246260147,178.216295088272,,,86.3999998569489,180,0.04340011172167,0.0466840657737763
2018-07-19T08:04:36Z,1531987476,10C,40.0314427,44.672519,181.73,-0.1,0.8,332,457831.22,-27437.31,327,Air+FixedWing,Red,Allies,F-14B,Red F-14B #005,xu,<51>X-man,0.03125,0,9.19885528884307e-05,181.729995727539,1.72999572753906,0.03125,0,NaN,NaN,0,0,NaN,0.999881369097823,0.000927502975427064,0.0156976766582646,4.8828125e-05,178.216246260147,178.216295088272,,,87.3999998569489,180,0.04340011172167,0.0466840657737763
2018-07-19T08:04:37Z,1531987477,10C,40.0314427,44.672519,181.73,-0.1,0.8,332,457831.22,-27437.31,327,Air+FixedWing,Red,Allies,F-14B,Red F-14B #005,xu,<51>X-man,0,0,0,181.729995727539,1.72999572753906,0,0,NaN,NaN,0,0,NaN,0.999900937231501,-0.00174505288541682,0.0139622921124101,0,178.216246260147,178.216246260147,,,88.3999998569489,180,0.04340011172167,0.0466840657737763
2018-07-19T08:04:38Z,1531987478,10C,40.0314427,44.672519,181.73,-0.1,0.8,332,457831.22,-27437.31,327,Air+FixedWing,Red,Allies,F-14B,Red F-14B #005,xu,<51>X-man,0,0,0,181.729995727539,1.72999572753906,0,0,NaN,NaN,0,0,NaN,0.999881369097823,0.000927502975427064,0.0156976766582646,0,178.216246260147,178.216246260147,,,89.3999998569489,180,0.04340011172167,0.0466840657737763
2018-07-19T08:04:39Z,1531987479,10C,40.0314427,44.672519,181.73,-0.1,0.8,332,457831.19,-27437.31,327,Air+FixedWing,Red,Allies,F-14B,Red F-14B #005,xu,<51>X-man,0.03125,0,9.19885528884307e-05,181.729995727539,1.72999572753906,0.03125,0,NaN,NaN,0,0,NaN,0.999940073498858,-0.00709016460710459,0.010491523020701,4.8828125e-05,178.216246260147,178.216295088272,,,90.3999998569489,180,0.04340011172167,0.0466840657737763
2018-07-19T08:04:40Z,1531987480,10C,40.0314427,44.672519,181.73,-0.1,0.8,332,457831.22,-27437.31,327,Air+FixedWing,Red,Allies,F-14B,Red F-14B #005,xu,<51>X-man,0.03125,0,9.19885528884307e-05,181.729995727539,1.72999572753906,0.03125,0,NaN,NaN,0,0,NaN,0.999881369097823,0.000927502975427064,0.0156976766582646,4.8828125e-05,178.216246260147,178.216295088272,,,91.3999998569489,180,0.04340011172167,0.0466840657737763
2018-07-19T08:04:41Z,1531987481,10C,40.0314427,44.672519,181.73,-0.1,0.8,332,457831.22,-27437.31,327,Air+FixedWing,Red,Allies,F-14B,Red F-14B #005,xu,<51>X-man,0,0,0,181.729995727539,1.72999572753906,0,0,NaN,NaN,0,0,NaN,0.999881369097823,0.000927502975427064,0.0156976766582646,0,178.216246260147,178.216246260147,,,92.3999998569489,180,0.04340011172167,0.0466840657737763
2018-07-19T08:04:42Z,1531987482,10C,40.0314427,44.672519,181.73,-0.1,0.8,332,457831.19,-27437.31,327,Air+FixedWing,Red,Allies,F-14B,Red F-14B #005,xu,<51>X-man,0.03125,0,9.19885528884307e-05,181.729995727539,1.72999572753906,0.03125,0,NaN,NaN,0,0,NaN,0.999940073498858,-0.00709016460710459,0.010491523020701,4.8828125e-05,178.216246260147,178.216295088272,,,93.3999998569489,180,0.04340011172167,0.0466840657737763
2018-07-19T08:04:43Z,1531987483,10C,40.0314427,44.672519,181.73,-0.1,0.8,332,457831.22,-27437.31,327,Air+FixedWing,Red,Allies,F-14B,Red F-14B #005,xu,<51>X-man,0.03125,0,9.19885528884307e-05,181.729995727539,1.72999572753906,0.03125,0,NaN,NaN,0,0,NaN,0.999881369097823,0.000927502975427064,0.0156976766582646,4.8828125e-05,178.216246260147,178.216295088272,,,94.3999998569489,180,0.04340011172167,0.0466840657737763
2018-07-19T08:04:44Z,1531987484,10C,40.0314427,44.672519,181.73,-0.1,0.8,332,457831.22,-27437.31,327,Air+FixedWing,Red,Allies,F-14B,Red F-14B #005,xu,<51>X-man,0,0,0,181.729995727539,1.72999572753906,0,0,NaN,NaN,0,0,NaN,0.999881369097823,0.000927502975427064,0.0156976766582646,0,178.216246260147,178.216246260147,,,95.3999998569489,180,0.04340011172167,0.0466840657737763
2018-07-19T08:04:45Z,1531987485,10C,40.0314427,44.672519,181.73,-0.1,0.8,332,457831.19,-27437.31,327,Air+FixedWing,Red,Allies,F-14B,Red F-14B #005,xu,<51>X-man,0.03125,0,9.19885528884307e-05,181.729995727539,1.72999572753906,0.03125,0,NaN,NaN,0,0,NaN,0.999940073498858,-0.00709016460710459,0.010491523020701,4.8828125e-05,178.216246260147,178.216295088272,,,96.3999998569489,180,0.04340011172167,0.0466840657737763
2018-07-19T08:04:46Z,1531987486,10C,40.0314427,44.672519,181.73,-0.1,0.8,332,457831.22,-27437.31,327,Air+FixedWing,Red,Allies,F-14B,Red F-14B #005,xu,<51>X-man,0.03125,0,9.19885528884307e-05,181.729995727539,1.72999572753906,0.03125,0,NaN,NaN,0,0,NaN,0.999861800964144,0.00360005883627095,0.0174330612041191,4.8828125e-05,178.216246260147,178.216295088272,,,97.3999998569489,180,0.04340011172167,0.0466840657737763
2018-07-19T08:04:47Z,1531987487,10C,40.0314427,44.672519,181.73,-0.1,0.8,332,457831.19,-27437.31,327,Air+FixedWing,Red,Allies,F-14B,Red F-14B #005,xu,<51>X-man,0.03125,0,9.19885528884307e-05,181.729995727539,1.72999572753906,0.03125,0,NaN,NaN,0,0,NaN,0.999940073498858,-0.00709016460710459,0.010491523020701,4.8828125e-05,178.216246260147,178.216295088272,,,98.3999998569489,180,0.04340011172167,0.0466840657737763
2018-07-19T08:04:48Z,1531987488,10C,40.0314427,44.672519,181.73,-0.1,0.8,332,457831.22,-27437.31,327,Air+FixedWing,Red,Allies,F-14B,Red F-14B #005,xu,<51>X-man,0.03125,0,9.19885528884307e-05,181.729995727539,1.72999572753906,0.03125,0,NaN,NaN,0,0,NaN,0.999881369097823,0.000927502975427064,0.0156976766582646,4.8828125e-05,178.216246260147,178.216295088272,,,99.3999998569489,180,0.04340011172167,0.0466840657737763
2018-07-19T08:04:49Z,1531987489,10C,40.0314427,44.672519,181.73,-0.1,0.8,332,457831.22,-27437.31,327,Air+FixedWing,Red,Allies,F-14B,Red F-14B #005,xu,<51>X-man,0,0,0,181.729995727539,1.72999572753906,0,0,NaN,NaN,0,0,NaN,0.999881369097823,0.000927502975427064,0.0156976766582646,0,178.216246260147,178.216246260147,,,100.399999856949,180,0.04340011172167,0.0466840657737763
2018-07-19T08:04:50Z,1531987490,10C,40.0314427,44.672519,181.73,-0.1,0.8,332,457831.19,-27437.31,327,Air+FixedWing,Red,Allies,F-14B,Red F-14B #005,xu,<51>X-man,0.03125,0,9.19885528884307e-05,181.729995727539,1.72999572753906,0.03125,0,NaN,NaN,0,0,NaN,0.99992050536518,-0.00441760874626071,0.0122269075665555,4.8828125e-05,178.216246260147,178.216295088272,,,101.399999856949,180,0.04340011172167,0.0466840657737763
2018-07-19T08:04:51Z,1531987491,10C,40.0314427,44.672519,181.73,-0.1,0.8,332,457831.19,-27437.31,327,Air+FixedWing,Red,Allies,F-14B,Red F-14B #005,xu,<51>X-man,0,0,0,181.729995727539,1.72999572753906,0,0,NaN,NaN,0,0,NaN,0.99992050536518,-0.00441760874626071,0.0122269075665555,0,178.216246260147,178.216246260147,,,102.399999856949,180,0.04340011172167,0.0466840657737763
2018-07-19T08:04:52Z,1531987492,10C,40.0314427,44.672519,181.73,-0.1,0.8,332,457831.22,-27437.31,327,Air+FixedWing,Red,Allies,F-14B,Red F-14B #005,xu,<51>X-man,0.03125,0,9.19885528884307e-05,181.729995727539,1.72999572753906,0.03125,0,NaN,NaN,0,0,NaN,0.999881369097823,0.000927502975427064,0.0156976766582646,4.8828125e-05,178.216246260147,178.216295088272,,,103.399999856949,180,0.04340011172167,0.0466840657737763
2018-07-19T08:04:53Z,1531987493,10C,40.0314427,44.672519,181.73,-0.1,0.8,332,457831.22,-27437.31,327,Air+FixedWing,Red,Allies,F-14B,Red F-14B #005,xu,<51>X-man,0,0,0,181.729995727539,1.72999572753906,0,0,NaN,NaN,0,0,NaN,0.999881369097823,0.000927502975427064,0.0156976766582646,0,178.216246260147,178.216246260147,,,104.399999856949,180,0.04340011172167,0.0466840657737763
2018-07-19T08:04:54Z,1531987494,10C,40.0314427,44.672519,181.73,-0.1,0.8,332,457831.19,-27437.31,327,Air+FixedWing,Red,Allies,F-14B,Red F-14B #005,xu,<51>X-man,0.03125,0,9.19885528884307e-05,181.729995727539,1.72999572753906,0.03125,0,NaN,NaN,0,0,NaN,0.99992050536518,-0.00441760874626071,0.0122269075665555,4.8828125e-05,178.216246260147,178.216295088272,,,105.399999856949,180,0.04340011172167,0.0466840657737763
2018-07-19T08:04:55Z,1531987495,10C,40.0314427,44.672519,181.73,-0.1,0.8,332,457831.19,-27437.31,327,Air+FixedWing,Red,Allies,F-14B,Red F-14B #005,xu,<51>X-man,0,0,0,181.729995727539,1.72999572753906,0,0,NaN,NaN,0,0,NaN,0.99992050536518,-0.00441760874626071,0.0122269075665555,0,178.216246260147,178.216246260147,,,106.399999856949,180,0.04340011172167,0.0466840657737763
2018-07-19T08:04:56Z,1531987496,10C,40.0314427,44.672519,181.73,-0.1,0.8,332,457831.22,-27437.31,327,Air+FixedWing,Red,Allies,F-14B,Red F-14B #005,xu,<51>X-man,0.03125,0,9.19885528884307e-05,181.729995727539,1.72999572753906,0.03125,0,NaN,NaN,0,0,NaN,0.999881369097823,0.000927502975427064,0.0156976766582646,4.8828125e-05,178.216246260147,178.216295088272,,,107.399999856949,180,0.04340011172167,0.0466840657737763
2018-07-19T08:04:57Z,1531987497,10C,40.0314427,44.672519,181.73,-0.1,0.8,332,457831.22,-27437.31,327,Air+FixedWing,Red,Allies,F-14B,Red F-14B #005,xu,<51>X-man,0,0,0,181.729995727539,1.72999572753906,0,0,NaN,NaN,0,0,NaN,0.999881369097823,0.000927502975427064,0.0156976766582646,0,178.216246260147,178.216246260147,,,108.399999856949,180,0.04340011172167,0.0466840657737763
2018-07-19T08:04:58Z,1531987498,10C,40.0314427,44.672519,181.73,-0.1,0.8,332,457831.19,-27437.31,327,Air+FixedWing,Red,Allies,F-14B,Red F-14B #005,xu,<51>X-man,0.03125,0,9.19885528884307e-05,181.729995727539,1.72999572753906,0.03125,0,NaN,NaN,0,0,NaN,0.999940073498858,-0.00709016460710459,0.010491523020701,4.8828125e-05,178.216246260147,178.216295088272,,,109.399999856949,180,0.04340011172167,0.0466840657737763
2018-07-19T08:04:59Z,1531987499,10C,40.0314427,44.672519,181.73,-0.1,0.8,332,457831.22,-27437.31,327,Air+FixedWing,Red,Allies,F-14B,Red F-14B #005,xu,<51>X-man,0.03125,0,9.19885528884307e-05,181.729995727539,1.72999572753906,0.03125,0,NaN,NaN,0,0,NaN,0.999881369097823,0.000927502975427064,0.0156976766582646,4.8828125e-05,178.216246260147,178.216295088272,,,110.399999856949,180,0.04340011172167,0.0466840657737763
2018-07-19T08:05:00Z,1531987500,10C,40.0314427,44.672519,181.73,-0.1,0.8,332,457831.22,-27437.31,327,Air+FixedWing,Red,Allies,F-14B,Red F-14B #005,xu,<51>X-man,0,0,0,181.729995727539,1.72999572753906,0,0,NaN,NaN,0,0,NaN,0.999881369097823,0.000927502975427064,0.0156976766582646,0,178.216246260147,178.216246260147,,,111.399999856949,180,0.04340011172167,0.0466840657737763
2018-07-19T08:05:01Z,1531987501,10C,40.0314427,44.672519,181.73,-0.1,0.8,332,457831.19,-27437.31,327,Air+FixedWing,Red,Allies,F-14B,Red F-14B #005,xu,<51>X-man,0.03125,0,9.19885528884307e-05,181.729995727539,1.72999572753906,0.03125,0,NaN,NaN,0,0,NaN,0.999940073498858,-0.00709016460710459,0.010491523020701,4.8828125e-05,178.216246260147,178.216295088272,,,112.399999856949,180,0.04340011172167,0.0466840657737763
2018-07-19T08:05:02Z,1531987502,10C,40.0314427,44.672519,181.73,-0.1,0.8,332,457831.22,-27437.31,327,Air+FixedWing,Red,Allies,F-14B,Red F-14B #005,xu,<51>X-man,0.03125,0,9.19885528884307e-05,181.729995727539,1.72999572753906,0.03125,0,NaN,NaN,0,0,NaN,0.999881369097823,0.000927502975427064,0.0156976766582646,4.8828125e-05,178.216246260147,178.216295088272,,,113.399999856949,180,0.04340011172167,0.0466840657737763
2018-07-19T08:05:03Z,1531987503,10C,40.0314427,44.672519,181.73,-0.1,0.8,332,457831.22,-27437.31,327,Air+FixedWing,Red,Allies,F-14B,Red F-14B #005,xu,<51>X-man,0,0,0,181.729995727539,1.72999572753906,0,0,NaN,NaN,0,0,NaN,0.999881369097823,0.000927502975427064,0.0156976766582646,0,178.216246260147,178.216246260147,,,114.399999856949,180,0.04340011172167,0.0466840657737763
2018-07-19T08:05:04Z,1531987504,10C,40.0314427,44.672519,181.73,-0.1,0.8,332,457831.19,-27437.31,327,Air+FixedWing,Red,Allies,F-14B,Red F-14B #005,xu,<51>X-man,0.03125,0,9.19885528884307e-05,181.729995727539,1.72999572753906,0.03125,0,NaN,NaN,0,0,NaN,0.999940073498858,-0.00709016460710459,0.010491523020701,4.8828125e-05,178.216246260147,178.216295088272,,,115.399999856949,180,0.04340011172167,0.0466840657737763
2018-07-19T08:05:05Z,1531987505,10C,40.0314427,44.672519,181.73,-0.1,0.8,332,457831.22,-27437.31,327,Air+FixedWing,Red,Allies,F-14B,Red F-14B #005,xu,<51>X-man,0.03125,0,9.19885528884307e-05,181.729995727539,1.72999572753906,0.03125,0,NaN,NaN,0,0,NaN,0.999861800964144,0.00360005883627095,0.0174330612041191,4.8828125e-05,178.216246260147,178.216295088272,,,116.399999856949,180,0.04340011172167,0.0466840657737763
2018-07-19T08:05:06Z,1531987506,10C,40.0314427,44.672519,181.73,-0.1,0.8,332,457831.19,-27437.31,327,Air+FixedWing,Red,Allies,F-14B,Red F-14B #005,xu,<51>X-man,0.03125,0,9.19885528884307e-05,181.729995727539,1.72999572753906,0.03125,0,NaN,NaN,0,0,NaN,0.99992050536518,-0.00441760874626071,0.0122269075665555,4.8828125e-05,178.216246260147,178.216295088272,,,117.399999856949,180,0.04340011172167,0.0466840657737763
2018-07-19T08:05:07Z,1531987507,10C,40.0314427,44.672519,181.73,-0.1,0.8,332,457831.19,-27437.31,327,Air+FixedWing,Red,Allies,F-14B,Red F-14B #005,xu,<51>X-man,0,0,0,181.729995727539,1.72999572753906,0,0,NaN,NaN,0,0,NaN,0.99992050536518,-0.00441760874626071,0.0122269075665555,0,178.216246260147,178.216246260147,,,118.399999856949,180,0.04340011172167,0.0466840657737763
2018-07-19T08:05:08Z,1531987508,10C,40.0314427,44.672519,181.73,-0.1,0.8,332,457831.22,-27437.31,327,Air+FixedWing,Red,Allies,F-14B,Red F-14B #005,xu,<51>X-man,0.03125,0,9.19885528884307e-05,181.729995727539,1.72999572753906,0.03125,0,NaN,NaN,0,0,NaN,0.999881369097823,0.000927502975427064,0.0156976766582646,4.8828125e-05,178.216246260147,178.216295088272,,,119.399999856949,180,0.04340011172167,0.0466840657737763
2018-07-19T08:05:09Z,1531987509,10C,40.0314427,44.672519,181.73,-0.1,0.8,332,457831.22,-27437.31,327,Air+FixedWing,Red,Allies,F-14B,Red F-14B #005,xu,<51>X-man,0,0,0,181.729995727539,1.72999572753906,0,0,NaN,NaN,0,0,NaN,0.999881369097823,0.000927502975427064,0.0156976766582646,0,178.216246260147,178.216246260147,,,120.399999856949,180,0.04340011172167,0.0466840657737763
2018-07-19T08:05:10Z,1531987510,10C,40.0314427,44.672519,181.73,-0.1,0.8,332,457831.19,-27437.31,327,Air+FixedWing,Red,Allies,F-14B,Red F-14B #005,xu,<51>X-man,0.03125,0,9.19885528884307e-05,181.729995727539,1.72999572753906,0.03125,0,NaN,NaN,0,0,NaN,0.999940073498858,-0.00709016460710459,0.010491523020701,4.8828125e-05,178.216246260147,178.216295088272,,,121.399999856949,180,0.04340011172167,0.0466840657737763
2018-07-19T08:05:11Z,1531987511,10C,40.0314427,44.672519,181.73,-0.1,0.8,332,457831.22,-27437.31,327,Air+FixedWing,Red,Allies,F-14B,Red F-14B #005,xu,<51>X-man,0.03125,0,9.19885528884307e-05,181.729995727539,1.72999572753906,0.03125,0,NaN,NaN,0,0,NaN,0.999861800964144,0.00360005883627095,0.0174330612041191,4.8828125e-05,178.216246260147,178.216295088272,,,122.399999856949,180,0.04340011172167,0.0466840657737763
2018-07-19T08:05:12Z,1531987512,10C,40.0314427,44.672519,181.73,-0.1,0.8,332,457831.19,-27437.31,327,Air+FixedWing,Red,Allies,F-14B,Red F-14B #005,xu,<51>X-man,0.03125,0,9.19885528884307e-05,181.729995727539,1.72999572753906,0.03125,0,NaN,NaN,0,0,NaN,0.999940073498858,-0.00709016460710459,0.010491523020701,4.8828125e-05,178.216246260147,178.216295088272,,,123.399999856949,180,0.04340011172167,0.0466840657737763
2018-07-19T08:05:13Z,1531987513,10C,40.0314427,44.672519,181.73,-0.1,0.8,332,457831.22,-27437.31,327,Air+FixedWing,Red,Allies,F-14B,Red F-14B #005,xu,<51>X-man,0.03125,0,9.19885528884307e-05,181.729995727539,1.72999572753906,0.03125,0,NaN,NaN,0,0,NaN,0.999861800964144,0.00360005883627095,0.0174330612041191,4.8828125e-05,178.216246260147,178.216295088272,,,124.399999856949,180,0.04340011172167,0.0466840657737763
2018-07-19T08:05:14Z,1531987514,10C,40.0314427,44.672519,181.73,-0.1,0.8,332,457831.19,-27437.31,327,Air+FixedWing,Red,Allies,F-14B,Red F-14B #005,xu,<51>X-man,0.03125,0,9.19885528884307e-05,181.729995727539,1.72999572753906,0.03125,0,NaN,NaN,0,0,NaN,0.99992050536518,-0.00441760874626071,0.0122269075665555,4.8828125e-05,178.216246260147,178.216295088272,,,125.399999856949,180,0.04340011172167,0.0466840657737763
2018-07-19T08:05:15Z,1531987515,10C,40.0314427,44.672519,181.73,-0.1,0.8,332,457831.19,-27437.31,327,Air+FixedWing,Red,Allies,F-14B,Red F-14B #005,xu,<51>X-man,0,0,0,181.729995727539,1.72999572753906,0,0,NaN,NaN,0,0,NaN,0.99992050536518,-0.00441760874626071,0.0122269075665555,0,178.216246260147,178.216246260147,,,126.399999856949,180,0.04340011172167,0.0466840657737763
2018-07-19T08:05:16Z,1531987516,10C,40.0314427,44.672519,181.73,-0.1,0.8,332,457831.22,-27437.31,327,Air+FixedWing,Red,Allies,F-14B,Red F-14B #005,xu,<51>X-man,0.03125,0,9.19885528884307e-05,181.729995727539,1.72999572753906,0.03125,0,NaN,NaN,0,0,NaN,0.999861800964144,0.00360005883627095,0.0174330612041191,4.8828125e-05,178.216246260147,178.216295088272,,,127.399999856949,180,0.04340011172167,0.0466840657737763
2018-07-19T08:05:17Z,1531987517,10C,40.0314427,44.672519,181.73,-0.1,0.8,332,457831.19,-27437.31,327,Air+FixedWing,Red,Allies,F-14B,Red F-14B #005,xu,<51>X-man,0.03125,0,9.19885528884307e-05,181.729995727539,1.72999572753906,0.03125,0,NaN,NaN,0,0,NaN,0.99992050536518,-0.00441760874626071,0.0122269075665555,4.8828125e-05,178.216246260147,178.216295088272,,,128.399999856949,180,0.04340011172167,0.0466840657737763
2018-07-19T08:05:18Z,1531987518,10C,40.0314427,44.672519,181.73,0,0.8,332,457831.19,-27437.31,327,Air+FixedWing,Red,Allies,F-14B,Red F-14B #005,xu,<51>X-man,0,0,0,181.729995727539,1.72999572753906,0,0,NaN,NaN,0,0,NaN,0.999902427202315,0,0.0139622921124101,0,178.216246260147,178.216246260147,,,129.399999856949,180,0.043930204487635,0.0472141737064045
2018-07-19T08:05:19Z,1531987519,10C,40.0314427,44.672519,181.73,0,0.8,332,457831.19,-27437.31,327,Air+FixedWing,Red,Allies,F-14B,Red F-14B #005,xu,<51>X-man,0,0,0,181.729995727539,1.72999572753906,0,0,NaN,NaN,0,0,NaN,0.999926659510415,-0.00267251737717283,0.0122269075665555,0,178.216246260147,178.216246260147,,,130.399999856949,180,0.0444602972536,0.0477442816390327
2018-07-19T08:05:20Z,1531987520,10C,40.0314427,44.672519,181.73,-0.1,0.8,332,457831.22,-27437.31,327,Air+FixedWing,Red,Allies,F-14B,Red F-14B #005,xu,<51>X-man,0.03125,0,9.19885528884307e-05,181.729995727539,1.72999572753906,0.03125,0,NaN,NaN,0.161411030465741,0,NaN,0.999861800964144,0.00360005883627095,0.0174330612041191,4.8828125e-05,178.216246260147,178.216295088272,,,131.399999856949,180,0.0444602972536,0.0477442816390327
2018-07-19T08:05:21Z,1531987521,10C,40.0314427,44.672519,181.73,-0.1,0.8,332,457831.19,-27437.31,327,Air+FixedWing,Red,Allies,F-14B,Red F-14B #005,xu,<51>X-man,0.03125,0,9.19885528884307e-05,181.729995727539,1.72999572753906,0.03125,0,NaN,NaN,0,0,NaN,0.999940073498858,-0.00709016460710459,0.010491523020701,4.8828125e-05,178.216246260147,178.216295088272,,,132.399999856949,180,0.0444602972536,0.0477442816390327
2018-07-19T08:05:22Z,1531987522,10C,40.0314427,44.672519,181.73,-0.1,0.8,332,457831.22,-27437.31,327,Air+FixedWing,Red,Allies,F-14B,Red F-14B #005,xu,<51>X-man,0.03125,0,9.19885528884307e-05,181.729995727539,1.72999572753906,0.03125,0,NaN,NaN,0,0,NaN,0.999881369097823,0.000927502975427064,0.0156976766582646,4.8828125e-05,178.216246260147,178.216295088272,,,133.399999856949,180,0.0444602972536,0.0477442816390327
2018-07-19T08:05:23Z,1531987523,10C,40.0314427,44.672519,181.73,-0.1,0.8,332,457831.22,-27437.31,327,Air+FixedWing,Red,Allies,F-14B,Red F-14B #005,xu,<51>X-man,0,0,0,181.729995727539,1.72999572753906,0,0,NaN,NaN,0,0,NaN,0.999900937231501,-0.00174505288541682,0.0139622921124101,0,178.216246260147,178.216246260147,,,134.399999856949,180,0.0444602972536,0.0477442816390327
2018-07-19T08:05:24Z,1531987524,10C,40.0314427,44.672519,181.73,-0.1,0.8,332,457831.22,-27437.31,327,Air+FixedWing,Red,Allies,F-14B,Red F-14B #005,xu,<51>X-man,0,0,0,181.729995727539,1.72999572753906,0,0,NaN,NaN,0,0,NaN,0.999881369097823,0.000927502975427064,0.0156976766582646,0,178.216246260147,178.216246260147,,,135.399999856949,180,0.0444602972536,0.0477442816390327
2018-07-19T08:05:25Z,1531987525,10C,40.0314427,44.672519,181.73,-0.1,0.8,332,457831.19,-27437.31,327,Air+FixedWing,Red,Allies,F-14B,Red F-14B #005,xu,<51>X-man,0.03125,0,9.19885528884307e-05,181.729995727539,1.72999572753906,0.03125,0,NaN,NaN,0,0,NaN,0.999338632751572,-0.00441659324725383,0.0122187824869993,4.8828125e-05,178.216246260147,178.216295088272,,,136.399999856949,180,0.0444602972536,0.0477442816390327
2018-07-19T08:05:26Z,1531987526,10C,40.0314427,44.672519,181.72,-0.1,0.8,332,457831.19,-27437.31,327,Air+FixedWing,Red,Allies,F-14B,Red F-14B #005,xu,<51>X-man,0.005706787109375,0,1.67986897267015e-05,181.72428894043,1.72428894042969,0,-0.005706787109375,NaN,NaN,0,0,NaN,1.0010842505924,-0.00441963974427445,0.0122431577256681,1.62837095558643e-06,178.210649813766,178.210651442137,,,137.399999856949,180,0.0444602972536,0.0534510687517585
2018-07-19T08:05:27Z,1531987527,10C,40.0314427,44.672519,181.73,-0.1,0.8,332,457831.22,-27437.31,327,Air+FixedWing,Red,Allies,F-14B,Red F-14B #005,xu,<51>X-man,0.0317668053022605,0,9.35098383885912e-05,181.729995727539,1.72999572753906,0.03125,0.005706787109375,NaN,NaN,0,0,NaN,0.999299496484215,0.000928518474433935,0.0156895515787083,5.04564959555864e-05,178.216246260147,178.216296716643,,,138.399999856949,180,0.0444602972536,0.0591578558644842
2018-07-19T08:05:28Z,1531987528,10C,40.0314427,44.672519,181.73,-0.1,0.8,332,457831.22,-27437.31,327,Air+FixedWing,Red,Allies,F-14B,Red F-14B #005,xu,<51>X-man,0,0,0,181.729995727539,1.72999572753906,0,0,NaN,NaN,0,0,NaN,0.999881369097823,0.000927502975427064,0.0156976766582646,0,178.216246260147,178.216246260147,,,139.399999856949,180,0.0444602972536,0.0591578558644842
2018-07-19T08:05:29Z,1531987529,10C,40.0314427,44.672519,181.73,-0.1,0.8,332,457831.19,-27437.31,327,Air+FixedWing,Red,Allies,F-14B,Red F-14B #005,xu,<51>X-man,0.03125,0,9.19885528884307e-05,181.729995727539,1.72999572753906,0.03125,0,NaN,NaN,0,0,NaN,0.99992050536518,-0.00441760874626071,0.0122269075665555,4.8828125e-05,178.216246260147,178.216295088272,,,140.399999856949,180,0.0444602972536,0.0591578558644842
2018-07-19T08:05:30Z,1531987530,10C,40.0314427,44.672519,181.73,-0.1,0.8,332,457831.19,-27437.31,327,Air+FixedWing,Red,Allies,F-14B,Red F-14B #005,xu,<51>X-man,0,0,0,181.729995727539,1.72999572753906,0,0,NaN,NaN,0,0,NaN,0.99992050536518,-0.00441760874626071,0.0122269075665555,0,178.216246260147,178.216246260147,,,141.399999856949,180,0.0444602972536,0.0591578558644842
2018-07-19T08:05:31Z,1531987531,10C,40.0314427,44.672519,181.73,-0.1,0.8,332,457831.22,-27437.31,327,Air+FixedWing,Red,Allies,F-14B,Red F-14B #005,xu,<51>X-man,0.03125,0,9.19885528884307e-05,181.729995727539,1.72999572753906,0.03125,0,NaN,NaN,0,0,NaN,0.999881369097823,0.000927502975427064,0.0156976766582646,4.8828125e-05,178.216246260147,178.216295088272,,,142.399999856949,180,0.0444602972536,0.0591578558644842
2018-07-19T08:05:32Z,1531987532,10C,40.0314427,44.672519,181.73,-0.1,0.8,332,457831.22,-27437.31,327,Air+FixedWing,Red,Allies,F-14B,Red F-14B #005,xu,<51>X-man,0,0,0,181.729995727539,1.72999572753906,0,0,NaN,NaN,0,0,NaN,0.999881369097823,0.000927502975427064,0.0156976766582646,0,178.216246260147,178.216246260147,,,143.399999856949,180,0.0444602972536,0.0591578558644842
2018-07-19T08:05:33Z,1531987533,10C,40.0314427,44.672519,181.73,-0.1,0.8,332,457831.19,-27437.31,327,Air+FixedWing,Red,Allies,F-14B,Red F-14B #005,xu,<51>X-man,0.03125,0,9.19885528884307e-05,181.729995727539,1.72999572753906,0.03125,0,NaN,NaN,0,0,NaN,0.99992050536518,-0.00441760874626071,0.0122269075665555,4.8828125e-05,178.216246260147,178.216295088272,,,144.399999856949,180,0.0444602972536,0.0591578558644842
2018-07-19T08:05:34Z,1531987534,10C,40.0314427,44.672519,181.73,-0.1,0.8,332,457831.19,-27437.31,327,Air+FixedWing,Red,Allies,F-14B,Red F-14B #005,xu,<51>X-man,0,0,0,181.729995727539,1.72999572753906,0,0,NaN,NaN,0,0,NaN,0.99992050536518,-0.00441760874626071,0.0122269075665555,0,178.216246260147,178.216246260147,,,145.399999856949,180,0.0444602972536,0.0591578558644842
2018-07-19T08:05:35Z,1531987535,10C,40.0314427,44.672519,181.73,-0.1,0.8,332,457831.22,-27437.31,327,Air+FixedWing,Red,Allies,F-14B,Red F-14B #005,xu,<51>X-man,0.03125,0,9.19885528884307e-05,181.729995727539,1.72999572753906,0.03125,0,NaN,NaN,0,0,NaN,0.999881369097823,0.000927502975427064,0.0156976766582646,4.8828125e-05,178.216246260147,178.216295088272,,,146.399999856949,180,0.0444602972536,0.0591578558644842
2018-07-19T08:05:36Z,1531987536,10C,40.0314427,44.672519,181.73,-0.1,0.8,332,457831.22,-27437.31,327,Air+FixedWing,Red,Allies,F-14B,Red F-14B #005,xu,<51>X-man,0,0,0,181.729995727539,1.72999572753906,0,0,NaN,NaN,0,0,NaN,0.999900937231501,-0.00174505288541682,0.0139622921124101,0,178.216246260147,178.216246260147,,,147.399999856949,180,0.0444602972536,0.0591578558644842
2018-07-19T08:05:37Z,1531987537,10C,40.0314427,44.672519,181.73,-0.1,0.8,332,457831.22,-27437.31,327,Air+FixedWing,Red,Allies,F-14B,Red F-14B #005,xu,<51>X-man,0,0,0,181.729995727539,1.72999572753906,0,0,NaN,NaN,0,0,NaN,0.999881369097823,0.000927502975427064,0.0156976766582646,0,178.216246260147,178.216246260147,,,148.399999856949,180,0.0444602972536,0.0591578558644842
