ISOTime,UnixTime,Id,Longitude,Latitude,Altitude,Roll,Pitch,Yaw,U,V,Heading,Type,Color,Coalition,Name,Group,Country,Pilot,TAS,CAS,M,ASL,AGL,GS,VS,AOA,AOS,RRT,TRT,TRD,G,LatG,LonG,Ek,Ep,Em,FFW,FFV,RelativeTime,Elev,GroundDistance,AirDistance
2018-07-19T08:02:27Z,1531987347,10D,40.0281225,44.6684476,182.31,0.1,-0.4,342.2,457607.22,-27912.42,337.2,Air+FixedWing,Red,Allies,J-11A,Red J-11A #004,xu,<51>Rage,0.33890334986671,0.37154546380043,0.000997613834670018,182.307601928711,2.30760192871094,NaN,NaN,NaN,NaN,NaN,NaN,NaN,NaN,NaN,NaN,NaN,178.782684445419,NaN,,,0.0699999332427979,180,NaN,NaN
2018-07-19T08:02:28Z,1531987348,10D,40.0281226,44.6684475,182.25,0,-0.3,342.3,457607.22,-27912.43,337.3,Air+FixedWing,Red,Allies,J-11A,Red J-11A #004,xu,<51>Rage,0.0573770744857962,0,0.000168898085454095,182.251434326172,2.25143432617188,0.01171875,-0.0561676025390625,NaN,NaN,0,NaN,NaN,1.0055731063302,-0.000461149806608158,-0.00416278858930639,0.00016460643382743,178.727602843475,178.727767449909,,,1.0699999332428,180,0.0141152132260358,0.0579141621192756
2018-07-19T08:02:29Z,1531987349,10D,40.0281226,44.6684474,182.25,-0,-0.3,342.3,457607.22,-27912.43,337.3,Air+FixedWing,Red,Allies,J-11A,Red J-11A #004,xu,<51>Rage,0.001434326171875,0,4.22215567085742e-06,182.25,2.25,0,-0.001434326171875,NaN,NaN,0.0251350961456469,0,NaN,1.00013248986768,-0.000219374168329922,-0.00523673024729722,1.0286457836628e-07,178.72619625,178.726196352865,,,2.0699999332428,180,0.0252471628029032,0.0691384512949773
2018-07-19T08:02:30Z,1531987350,10D,40.0281226,44.6684474,182.25,-0,-0.3,342.3,457607.22,-27912.43,337.3,Air+FixedWing,Red,Allies,J-11A,Red J-11A #004,xu,<51>Rage,0,0,0,182.25,2.25,0,0,NaN,NaN,0.027320756680051,0,NaN,0.99998599291176,-0.000696172607263981,-0.00523596443235874,0,178.72619625,178.72619625,,,3.0699999332428,180,0.0252471628029032,0.0691384512949773
2018-07-19T08:02:31Z,1531987351,10D,40.0281226,44.6684474,182.25,-0.1,-0.3,342.3,457607.22,-27912.43,337.3,Air+FixedWing,Red,Allies,J-11A,Red J-11A #004,xu,<51>Rage,0,0,0,182.25,2.25,0,0,NaN,NaN,0.027320756680051,0,NaN,0.999985516081168,-0.00117300302543165,-0.00523596443235874,0,178.72619625,178.72619625,,,4.0699999332428,180,0.0252471628029032,0.0691384512949773
2018-07-19T08:02:32Z,1531987352,10D,40.0281226,44.6684474,182.25,-0.1,-0.3,342.3,457607.22,-27912.43,337.3,Air+FixedWing,Red,Allies,J-11A,Red J-11A #004,xu,<51>Rage,0,0,0,182.25,2.25,0,0,NaN,NaN,0.027320756680051,0,NaN,0.999984800835279,-0.00164983315256502,-0.00523596443235874,0,178.72619625,178.72619625,,,5.0699999332428,180,0.0252471628029032,0.0691384512949773
2018-07-19T08:02:33Z,1531987353,10D,40.0281226,44.6684474,182.25,-0,-0.3,342.3,457607.22,-27912.43,337.3,Air+FixedWing,Red,Allies,J-11A,Red J-11A #004,xu,<51>Rage,0,0,0,182.25,2.25,0,0,NaN,NaN,0.0925870295005045,0,NaN,0.99997216824625,-0.000452452782708242,-0.00523589110965187,0,178.72619625,178.72619625,,,6.0699999332428,180,0.0252471628029032,0.0691384512949773
2018-07-19T08:02:34Z,1531987354,10D,40.0281226,44.6684474,182.25,0,-0.3,342.3,457607.22,-27912.43,337.3,Air+FixedWing,Red,Allies,J-11A,Red J-11A #004,xu,<51>Rage,0.0001373291015625,0,4.04248946582027e-07,182.249862670898,2.24986267089844,0,-0.0001373291015625,NaN,NaN,0,0,NaN,0.999979947956959,0,-0.00523593184448902,9.42964106798172e-10,178.726061576157,178.7260615771,,,7.0699999332428,180,0.0252471628029032,0.0692757807183813
2018-07-19T08:02:35Z,1531987355,10D,40.0281226,44.6684474,182.25,0,-0.3,342.3,457607.22,-27912.43,337.3,Air+FixedWing,Red,Allies,J-11A,Red J-11A #004,xu,<51>Rage,0.0001983642578125,0,5.83915143753228e-07,182.249664306641,2.24966430664062,0,-0.0001983642578125,NaN,NaN,0,0,NaN,0.999986171723233,0,-0.00523596443235874,1.9674189388752e-09,178.725867047272,178.725867049239,,,8.0699999332428,180,0.0252471628029032,0.0694741447400579
2018-07-19T08:02:36Z,1531987356,10D,40.0281226,44.6684474,182.25,0,-0.3,342.3,457607.22,-27912.43,337.3,Air+FixedWing,Red,Allies,J-11A,Red J-11A #004,xu,<51>Rage,0.0001983642578125,0,5.83915142443527e-07,182.249465942383,2.24946594238281,0,-0.0001983642578125,NaN,NaN,0,0,NaN,0.999987727664801,0,-0.00523597257932617,1.9674189388752e-09,178.725672518387,178.725672520354,,,9.0699999332428,180,0.0252471628029032,0.0696725090153225
2018-07-19T08:02:37Z,1531987357,10D,40.0281226,44.6684474,182.25,0,-0.3,342.3,457607.22,-27912.43,337.3,Air+FixedWing,Red,Allies,J-11A,Red J-11A #004,xu,<51>Rage,0.00018310546875,0,5.38998591908837e-07,182.249282836914,2.24928283691406,0,-0.00018310546875,NaN,NaN,0,0,NaN,0.999984615781664,0,-0.00523595628539131,1.67638063430786e-09,178.725492953262,178.725492954939,,,10.0699999332428,180,0.0252471628029032,0.0698556145040772
2018-07-19T08:02:38Z,1531987358,10D,40.0281226,44.6684474,182.25,0,-0.3,342.3,457607.22,-27912.43,337.3,Air+FixedWing,Red,Allies,J-11A,Red J-11A #004,xu,<51>Rage,0.0001983642578125,0,5.83915139924873e-07,182.249084472656,2.24908447265625,0,-0.0001983642578125,NaN,NaN,0,0,NaN,0.999986171723233,0,-0.00523596443235874,1.9674189388752e-09,178.725298424377,178.725298426345,,,11.0699999332428,180,0.0252471628029032,0.0700539787793417
2018-07-19T08:02:39Z,1531987359,10D,40.0281226,44.6684474,182.25,0,-0.3,342.3,457607.22,-27912.43,337.3,Air+FixedWing,Red,Allies,J-11A,Red J-11A #004,xu,<51>Rage,0.0001983642578125,0,5.83915138615172e-07,182.248886108398,2.24888610839844,0,-0.0001983642578125,NaN,NaN,0,0,NaN,0.999987727664801,0,-0.00523597257932617,1.9674189388752e-09,178.725103895493,178.72510389746,,,12.0699999332428,180,0.0252471628029032,0.0702523428010183
2018-07-19T08:02:40Z,1531987360,10D,40.0281226,44.6684474,182.25,0,-0.3,342.3,457607.22,-27912.43,337.3,Air+FixedWing,Red,Allies,J-11A,Red J-11A #004,xu,<51>Rage,0.00018310546875,0,5.3899858837497e-07,182.24870300293,2.24870300292969,0,-0.00018310546875,NaN,NaN,0,0,NaN,0.999984615781664,0,-0.00523595628539131,1.67638063430786e-09,178.724924330368,178.724924332044,,,13.0699999332428,180,0.0252471628029032,0.0704354482897731
2018-07-19T08:02:41Z,1531987361,10D,40.0281226,44.6684474,182.25,0,-0.3,342.3,457607.22,-27912.43,337.3,Air+FixedWing,Red,Allies,J-11A,Red J-11A #004,xu,<51>Rage,0.0001983642578125,0,5.83915136096518e-07,182.248504638672,2.24850463867188,0,-0.0001983642578125,NaN,NaN,0,0,NaN,0.999986171723233,0,-0.00523596443235874,1.9674189388752e-09,178.724729801483,178.724729803451,,,14.0699999332428,180,0.0252471628029032,0.0706338125650376
2018-07-19T08:02:42Z,1531987362,10D,40.0281226,44.6684474,182.25,0,-0.3,342.3,457607.22,-27912.43,337.3,Air+FixedWing,Red,Allies,J-11A,Red J-11A #004,xu,<51>Rage,0.0001983642578125,0,5.83915134786817e-07,182.248306274414,2.24830627441406,0,-0.0001983642578125,NaN,NaN,0,0,NaN,0.999987727664801,0,-0.00523597257932617,1.9674189388752e-09,178.724535272598,178.724535274566,,,15.0699999332428,180,0.0252471628029032,0.0708321773068887
2018-07-19T08:02:43Z,1531987363,10D,40.0281226,44.6684474,182.25,0,-0.3,342.3,457607.22,-27912.43,337.3,Air+FixedWing,Red,Allies,J-11A,Red J-11A #004,xu,<51>Rage,0.00018310546875,0,5.38998584841105e-07,182.248123168945,2.24812316894531,0,-0.00018310546875,NaN,NaN,0,0,NaN,0.999984615781664,0,-0.00523595628539131,1.67638063430786e-09,178.724355707474,178.72435570915,,,16.0699999332428,180,0.0252471628029032,0.0710152825826457
2018-07-19T08:02:44Z,1531987364,10D,40.0281226,44.6684474,182.25,0,-0.3,342.3,457607.22,-27912.43,337.3,Air+FixedWing,Red,Allies,J-11A,Red J-11A #004,xu,<51>Rage,0.0001983642578125,0,5.83915132268163e-07,182.247924804688,2.2479248046875,0,-0.0001983642578125,NaN,NaN,0,0,NaN,0.999986171723233,0,-0.00523596443235874,1.9674189388752e-09,178.724161178589,178.724161180556,,,17.0699999332428,180,0.0252471628029032,0.0712136468579102
2018-07-19T08:02:45Z,1531987365,10D,40.0281226,44.6684474,182.25,0,-0.3,342.3,457607.22,-27912.43,337.3,Air+FixedWing,Red,Allies,J-11A,Red J-11A #004,xu,<51>Rage,0.0001983642578125,0,5.83915130958463e-07,182.24772644043,2.24772644042969,0,-0.0001983642578125,NaN,NaN,0,0,NaN,0.999987727664801,0,-0.00523597257932617,1.9674189388752e-09,178.723966649704,178.723966651671,,,18.0699999332428,180,0.0252471628029032,0.0714120115343112
2018-07-19T08:02:46Z,1531987366,10D,40.0281226,44.6684474,182.25,0,-0.3,342.3,457607.22,-27912.43,337.3,Air+FixedWing,Red,Allies,J-11A,Red J-11A #004,xu,<51>Rage,0.00018310546875,0,5.38998581307239e-07,182.247543334961,2.24754333496094,0,-0.00018310546875,NaN,NaN,0,0,NaN,0.999984615781664,0,-0.00523595628539131,1.67638063430786e-09,178.723787084579,178.723787086256,,,19.0699999332428,180,0.0252471628029032,0.071595117023066
2018-07-19T08:02:47Z,1531987367,10D,40.0281226,44.6684474,182.25,0,-0.3,342.3,457607.22,-27912.43,337.3,Air+FixedWing,Red,Allies,J-11A,Red J-11A #004,xu,<51>Rage,0.0001983642578125,0,5.83915128439808e-07,182.247344970703,2.24734497070312,0,-0.0001983642578125,NaN,NaN,0,0,NaN,0.999986171723233,0,-0.00523596443235874,1.9674189388752e-09,178.723592555695,178.723592557662,,,20.0699999332428,180,0.0252471628029032,0.0717934812983305
2018-07-19T08:02:48Z,1531987368,10D,40.0281226,44.6684474,182.25,0,-0.3,342.3,457607.22,-27912.43,337.3,Air+FixedWing,Red,Allies,J-11A,Red J-11A #004,xu,<51>Rage,0.0001983642578125,0,5.83915127130108e-07,182.247146606445,2.24714660644531,0,-0.0001983642578125,NaN,NaN,0,0,NaN,0.999987727664801,0,-0.00523597257932617,1.9674189388752e-09,178.72339802681,178.723398028777,,,21.0699999332428,180,0.0252471628029032,0.071991845573595
2018-07-19T08:02:49Z,1531987369,10D,40.0281226,44.6684474,182.25,0,-0.3,342.3,457607.22,-27912.43,337.3,Air+FixedWing,Red,Allies,J-11A,Red J-11A #004,xu,<51>Rage,0.00018310546875,0,5.38998577773373e-07,182.246963500977,2.24696350097656,0,-0.00018310546875,NaN,NaN,0,0,NaN,0.999984615781664,0,-0.00523595628539131,1.67638063430786e-09,178.723218461685,178.723218463362,,,22.0699999332428,180,0.0252471628029032,0.0721749510623498
2018-07-19T08:02:50Z,1531987370,10D,40.0281226,44.6684474,182.25,0,-0.3,342.3,457607.22,-27912.43,337.3,Air+FixedWing,Red,Allies,J-11A,Red J-11A #004,xu,<51>Rage,0.0001983642578125,0,5.83915124611454e-07,182.246765136719,2.24676513671875,0,-0.0001983642578125,NaN,NaN,0,0,NaN,0.999986171723233,0,-0.00523596443235874,1.9674189388752e-09,178.7230239328,178.723023934768,,,23.0699999332428,180,0.0252471628029032,0.0723733150840263
2018-07-19T08:02:51Z,1531987371,10D,40.0281226,44.6684474,182.25,0,-0.3,342.3,457607.22,-27912.43,337.3,Air+FixedWing,Red,Allies,J-11A,Red J-11A #004,xu,<51>Rage,0.0001983642578125,0,5.83915123301753e-07,182.246566772461,2.24656677246094,0,-0.0001983642578125,NaN,NaN,0,0,NaN,0.999987727664801,0,-0.00523597257932617,1.9674189388752e-09,178.722829403915,178.722829405883,,,24.0699999332428,180,0.0252471628029032,0.0725716793592909
2018-07-19T08:02:52Z,1531987372,10D,40.0281226,44.6684474,182.25,0,-0.3,342.3,457607.22,-27912.43,337.3,Air+FixedWing,Red,Allies,J-11A,Red J-11A #004,xu,<51>Rage,0.00018310546875,0,5.38998574239507e-07,182.246383666992,2.24638366699219,0,-0.00018310546875,NaN,NaN,0,0,NaN,0.999984615781664,0,-0.00523595628539131,1.67638063430786e-09,178.722649838791,178.722649840467,,,25.0699999332428,180,0.0252471628029032,0.0727547846350479
2018-07-19T08:02:53Z,1531987373,10D,40.0281226,44.6684474,182.25,0,-0.3,342.3,457607.22,-27912.43,337.3,Air+FixedWing,Red,Allies,J-11A,Red J-11A #004,xu,<51>Rage,0.0001983642578125,0,5.83915120783099e-07,182.246185302734,2.24618530273438,0,-0.0001983642578125,NaN,NaN,0,0,NaN,0.999986171723233,0,-0.00523596443235874,1.9674189388752e-09,178.722455309906,178.722455311873,,,26.0699999332428,180,0.0252471628029032,0.0729531489103124
2018-07-19T08:02:54Z,1531987374,10D,40.0281226,44.6684474,182.25,0,-0.3,342.3,457607.22,-27912.43,337.3,Air+FixedWing,Red,Allies,J-11A,Red J-11A #004,xu,<51>Rage,0.0001983642578125,0,5.83915119473399e-07,182.245986938477,2.24598693847656,0,-0.0001983642578125,NaN,NaN,0,0,NaN,0.999986171723233,0,-0.00523596443235874,1.9674189388752e-09,178.722260781021,178.722260782989,,,27.0699999332428,180,0.0252471628029032,0.073151512931989
2018-07-19T08:02:55Z,1531987375,10D,40.0281226,44.6684474,182.25,0,-0.3,342.3,457607.22,-27912.43,337.3,Air+FixedWing,Red,Allies,J-11A,Red J-11A #004,xu,<51>Rage,0.0001983642578125,0,5.83915118163699e-07,182.245788574219,2.24578857421875,0,-0.0001983642578125,NaN,NaN,0,0,NaN,0.999987727664801,0,-0.00523597257932617,1.9674189388752e-09,178.722066252136,178.722066254104,,,28.0699999332428,180,0.0252471628029032,0.0733498772072535
2018-07-19T08:02:56Z,1531987376,10D,40.0281226,44.6684474,182.25,0,-0.3,342.3,457607.22,-27912.43,337.3,Air+FixedWing,Red,Allies,J-11A,Red J-11A #004,xu,<51>Rage,0.00018310546875,0,5.38998569496687e-07,182.24560546875,2.24560546875,0,-0.00018310546875,NaN,NaN,0,0,NaN,0.999984615781664,0,-0.00523595628539131,1.67638063430786e-09,178.721886687012,178.721886688688,,,29.0699999332428,180,0.0252471628029032,0.0735329826960083
2018-07-19T08:02:57Z,1531987377,10D,40.0281226,44.6684474,182.25,0,-0.3,342.3,457607.22,-27912.43,337.3,Air+FixedWing,Red,Allies,J-11A,Red J-11A #004,xu,<51>Rage,0.0001983642578125,0,5.83915115645044e-07,182.245407104492,2.24540710449219,0,-0.0001983642578125,NaN,NaN,0,0,NaN,0.999986171723233,0,-0.00523596443235874,1.9674189388752e-09,178.721692158127,178.721692160094,,,30.0699999332428,180,0.0252471628029032,0.0737313469712728
2018-07-19T08:02:58Z,1531987378,10D,40.0281226,44.6684474,182.25,0,-0.3,342.3,457607.22,-27912.43,337.3,Air+FixedWing,Red,Allies,J-11A,Red J-11A #004,xu,<51>Rage,0.0001983642578125,0,5.83915114335344e-07,182.245208740234,2.24520874023438,0,-0.0001983642578125,NaN,NaN,0,0,NaN,0.999987727664801,0,-0.00523597257932617,1.9674189388752e-09,178.721497629242,178.721497631209,,,31.0699999332428,180,0.0252471628029032,0.0739297109929494
2018-07-19T08:02:59Z,1531987379,10D,40.0281226,44.6684474,182.25,0,-0.3,342.3,457607.22,-27912.43,337.3,Air+FixedWing,Red,Allies,J-11A,Red J-11A #004,xu,<51>Rage,0.00018310546875,0,5.38998565962822e-07,182.245025634766,2.24502563476562,0,-0.00018310546875,NaN,NaN,0,0,NaN,0.999984615781664,0,-0.00523595628539131,1.67638063430786e-09,178.721318064117,178.721318065794,,,32.0699999332428,180,0.0252471628029032,0.0741128162687064
2018-07-19T08:03:00Z,1531987380,10D,40.0281226,44.6684474,182.24,0,-0.3,342.3,457607.22,-27912.43,337.3,Air+FixedWing,Red,Allies,J-11A,Red J-11A #004,xu,<51>Rage,0.0001983642578125,0,5.8391511181669e-07,182.244827270508,2.24482727050781,0,-0.0001983642578125,NaN,NaN,0,0,NaN,0.999986171723233,0,-0.00523596443235874,1.9674189388752e-09,178.721123535233,178.7211235372,,,33.0699999332428,180,0.0252471628029032,0.0743111812235563
2018-07-19T08:03:01Z,1531987381,10D,40.0281226,44.6684474,182.24,0,-0.3,342.3,457607.22,-27912.43,337.3,Air+FixedWing,Red,Allies,J-11A,Red J-11A #004,xu,<51>Rage,0.0001983642578125,0,5.8391511050699e-07,182.24462890625,2.24462890625,0,-0.0001983642578125,NaN,NaN,0,0,NaN,0.999987727664801,0,-0.00523597257932617,1.9674189388752e-09,178.720929006348,178.720929008315,,,34.0699999332428,180,0.0252471628029032,0.0745095454988208
2018-07-19T08:03:02Z,1531987382,10D,40.0281226,44.6684474,182.24,0,-0.3,342.3,457607.22,-27912.43,337.3,Air+FixedWing,Red,Allies,J-11A,Red J-11A #004,xu,<51>Rage,0.00018310546875,0,5.38998562428956e-07,182.244445800781,2.24444580078125,0,-0.00018310546875,NaN,NaN,0,0,NaN,0.999984615781664,0,-0.00523595628539131,1.67638063430786e-09,178.720749441223,178.7207494429,,,35.0699999332428,180,0.0252471628029032,0.0746926507745778
2018-07-19T08:03:03Z,1531987383,10D,40.0281226,44.6684474,182.24,0,-0.3,342.3,457607.22,-27912.43,337.3,Air+FixedWing,Red,Allies,J-11A,Red J-11A #004,xu,<51>Rage,0.0001983642578125,0,5.83915107988336e-07,182.244247436523,2.24424743652344,0,-0.0001983642578125,NaN,NaN,0,0,NaN,0.999986171723233,0,-0.00523596443235874,1.9674189388752e-09,178.720554912338,178.720554914306,,,36.0699999332428,180,0.0252471628029032,0.0748910150498424
2018-07-19T08:03:04Z,1531987384,10D,40.0281226,44.6684474,182.24,0,-0.3,342.3,457607.22,-27912.43,337.3,Air+FixedWing,Red,Allies,J-11A,Red J-11A #004,xu,<51>Rage,0.0001983642578125,0,5.83915106678635e-07,182.244049072266,2.24404907226562,0,-0.0001983642578125,NaN,NaN,0,0,NaN,0.999987727664801,0,-0.00523597257932617,1.9674189388752e-09,178.720360383453,178.720360385421,,,37.0699999332428,180,0.0252471628029032,0.075089379071519
2018-07-19T08:03:05Z,1531987385,10D,40.0281226,44.6684474,182.24,0,-0.3,342.3,457607.22,-27912.43,337.3,Air+FixedWing,Red,Allies,J-11A,Red J-11A #004,xu,<51>Rage,0.00018310546875,0,5.38998558895091e-07,182.243865966797,2.24386596679688,0,-0.00018310546875,NaN,NaN,0,0,NaN,0.999984615781664,0,-0.00523595628539131,1.67638063430786e-09,178.720180818329,178.720180820005,,,38.0699999332428,180,0.0252471628029032,0.0752724845602737
2018-07-19T08:03:06Z,1531987386,10D,40.0281226,44.6684474,182.24,0,-0.3,342.3,457607.22,-27912.43,337.3,Air+FixedWing,Red,Allies,J-11A,Red J-11A #004,xu,<51>Rage,0.0001983642578125,0,5.83915104159981e-07,182.243667602539,2.24366760253906,0,-0.0001983642578125,NaN,NaN,0,0,NaN,0.999986171723233,0,-0.00523596443235874,1.9674189388752e-09,178.719986289444,178.719986291411,,,39.0699999332428,180,0.0252471628029032,0.0754708494902618
2018-07-19T08:03:07Z,1531987387,10D,40.0281226,44.6684474,182.24,0,-0.3,342.3,457607.22,-27912.43,337.3,Air+FixedWing,Red,Allies,J-11A,Red J-11A #004,xu,<51>Rage,0.0001983642578125,0,5.83915102850281e-07,182.243469238281,2.24346923828125,0,-0.0001983642578125,NaN,NaN,0,0,NaN,0.999987727664801,0,-0.00523597257932617,1.9674189388752e-09,178.719791760559,178.719791762526,,,40.0699999332428,180,0.0252471628029032,0.0756692137655263
2018-07-19T08:03:08Z,1531987388,10D,40.0281226,44.6684474,182.24,0,-0.3,342.3,457607.22,-27912.43,337.3,Air+FixedWing,Red,Allies,J-11A,Red J-11A #004,xu,<51>Rage,0.00018310546875,0,5.38998555361225e-07,182.243286132812,2.2432861328125,0,-0.00018310546875,NaN,NaN,0,0,NaN,0.999984615781664,0,-0.00523595628539131,1.67638063430786e-09,178.719612195435,178.719612197111,,,41.0699999332428,180,0.0252471628029032,0.075852319254281
2018-07-19T08:03:09Z,1531987389,10D,40.0281226,44.6684474,182.24,0,-0.3,342.3,457607.22,-27912.43,337.3,Air+FixedWing,Red,Allies,J-11A,Red J-11A #004,xu,<51>Rage,0.0001983642578125,0,5.83915100331627e-07,182.243087768555,2.24308776855469,0,-0.0001983642578125,NaN,NaN,0,0,NaN,0.999986171723233,0,-0.00523596443235874,1.9674189388752e-09,178.71941766655,178.719417668517,,,42.0699999332428,180,0.0252471628029032,0.0760506832759576
2018-07-19T08:03:10Z,1531987390,10D,40.0281226,44.6684474,182.24,0,-0.3,342.3,457607.22,-27912.43,337.3,Air+FixedWing,Red,Allies,J-11A,Red J-11A #004,xu,<51>Rage,0.0001983642578125,0,5.83915099021927e-07,182.242889404297,2.24288940429688,0,-0.0001983642578125,NaN,NaN,0,0,NaN,0.999986171723233,0,-0.00523596443235874,1.9674189388752e-09,178.719223137665,178.719223139632,,,43.0699999332428,180,0.0252471628029032,0.0762490475512221
2018-07-19T08:03:11Z,1531987391,10D,40.0281226,44.6684474,182.24,0,-0.3,342.3,457607.22,-27912.43,337.3,Air+FixedWing,Red,Allies,J-11A,Red J-11A #004,xu,<51>Rage,0.0001983642578125,0,5.83915097712227e-07,182.242691040039,2.24269104003906,0,-0.0001983642578125,NaN,NaN,0,0,NaN,0.999987727664801,0,-0.00523597257932617,1.9674189388752e-09,178.71902860878,178.719028610747,,,44.0699999332428,180,0.0252471628029032,0.0764474116134893
2018-07-19T08:03:12Z,1531987392,10D,40.0281226,44.6684474,182.24,0,-0.3,342.3,457607.22,-27912.43,337.3,Air+FixedWing,Red,Allies,J-11A,Red J-11A #004,xu,<51>Rage,0.00018310546875,0,5.38998550618406e-07,182.24250793457,2.24250793457031,0,-0.00018310546875,NaN,NaN,0,0,NaN,0.999984615781664,0,-0.00523595628539131,1.67638063430786e-09,178.718849043655,178.718849045332,,,45.0699999332428,180,0.0252471628029032,0.0766305171022441
2018-07-19T08:03:13Z,1531987393,10D,40.0281226,44.6684474,182.24,0,-0.3,342.3,457607.22,-27912.43,337.3,Air+FixedWing,Red,Allies,J-11A,Red J-11A #004,xu,<51>Rage,0.0001983642578125,0,5.83915095193573e-07,182.242309570312,2.2423095703125,0,-0.0001983642578125,NaN,NaN,0,0,NaN,0.999986171723233,0,-0.00523596443235874,1.9674189388752e-09,178.71865451477,178.718654516738,,,46.0699999332428,180,0.0252471628029032,0.0768288811239207
2018-07-19T08:03:14Z,1531987394,10D,40.0281226,44.6684474,182.24,0,-0.3,342.3,457607.22,-27912.43,337.3,Air+FixedWing,Red,Allies,J-11A,Red J-11A #004,xu,<51>Rage,0.0001983642578125,0,5.83915093883873e-07,182.242111206055,2.24211120605469,0,-0.0001983642578125,NaN,NaN,0,0,NaN,0.999987727664801,0,-0.00523597257932617,1.9674189388752e-09,178.718459985886,178.718459987853,,,47.0699999332428,180,0.0252471628029032,0.0770272453991852
2018-07-19T08:03:15Z,1531987395,10D,40.0281226,44.6684474,182.24,0,-0.3,342.3,457607.22,-27912.43,337.3,Air+FixedWing,Red,Allies,J-11A,Red J-11A #004,xu,<51>Rage,0.00018310546875,0,5.38998547084541e-07,182.241928100586,2.24192810058594,0,-0.00018310546875,NaN,NaN,0,0,NaN,0.999984615781664,0,-0.00523595628539131,1.67638063430786e-09,178.718280420761,178.718280422437,,,48.0699999332428,180,0.0252471628029032,0.0772103508879399
2018-07-19T08:03:16Z,1531987396,10D,40.0281226,44.6684474,182.24,0,-0.3,342.3,457607.22,-27912.43,337.3,Air+FixedWing,Red,Allies,J-11A,Red J-11A #004,xu,<51>Rage,0.0001983642578125,0,5.83915091365219e-07,182.241729736328,2.24172973632812,0,-0.0001983642578125,NaN,NaN,0,0,NaN,0.999986171723233,0,-0.00523596443235874,1.9674189388752e-09,178.718085891876,178.718085893844,,,49.0699999332428,180,0.0252471628029032,0.0774087151632045
2018-07-19T08:03:17Z,1531987397,10D,40.0281226,44.6684474,182.24,0,-0.3,342.3,457607.22,-27912.43,337.3,Air+FixedWing,Red,Allies,J-11A,Red J-11A #004,xu,<51>Rage,0.0001983642578125,0,5.83915090055519e-07,182.24153137207,2.24153137207031,0,-0.0001983642578125,NaN,NaN,0,0,NaN,0.999987727664801,0,-0.00523597257932617,1.9674189388752e-09,178.717891362991,178.717891364959,,,50.0699999332428,180,0.0252471628029032,0.0776070799050556
2018-07-19T08:03:18Z,1531987398,10D,40.0281226,44.6684474,182.24,0,-0.3,342.3,457607.22,-27912.43,337.3,Air+FixedWing,Red,Allies,J-11A,Red J-11A #004,xu,<51>Rage,0.00018310546875,0,5.38998543550676e-07,182.241348266602,2.24134826660156,0,-0.00018310546875,NaN,NaN,0,0,NaN,0.999984615781664,0,-0.00523595628539131,1.67638063430786e-09,178.717711797867,178.717711799543,,,51.0699999332428,180,0.0252471628029032,0.0777901853938103
2018-07-19T08:03:19Z,1531987399,10D,40.0281226,44.6684474,182.24,0,-0.3,342.3,457607.22,-27912.43,337.3,Air+FixedWing,Red,Allies,J-11A,Red J-11A #004,xu,<51>Rage,0.0001983642578125,0,5.83915087536865e-07,182.241149902344,2.24114990234375,0,-0.0001983642578125,NaN,NaN,0,0,NaN,0.999986171723233,0,-0.00523596443235874,1.9674189388752e-09,178.717517268982,178.717517270949,,,52.0699999332428,180,0.0252471628029032,0.0779885494154869
2018-07-19T08:03:20Z,1531987400,10D,40.0281226,44.6684474,182.24,0,-0.3,342.3,457607.22,-27912.43,337.3,Air+FixedWing,Red,Allies,J-11A,Red J-11A #004,xu,<51>Rage,0.0001983642578125,0,5.83915086227165e-07,182.240951538086,2.24095153808594,0,-0.0001983642578125,NaN,NaN,0,0,NaN,0.999987727664801,0,-0.00523597257932617,1.9674189388752e-09,178.717322740097,178.717322742064,,,53.0699999332428,180,0.0252471628029032,0.0781869136907514
2018-07-19T08:03:21Z,1531987401,10D,40.0281226,44.6684474,182.24,0,-0.3,342.3,457607.22,-27912.43,337.3,Air+FixedWing,Red,Allies,J-11A,Red J-11A #004,xu,<51>Rage,0.00018310546875,0,5.38998540016811e-07,182.240768432617,2.24076843261719,0,-0.00018310546875,NaN,NaN,0,0,NaN,0.999984615781664,0,-0.00523595628539131,1.67638063430786e-09,178.717143174973,178.717143176649,,,54.0699999332428,180,0.0252471628029032,0.0783700189665085
2018-07-19T08:03:22Z,1531987402,10D,40.0281226,44.6684474,182.24,0,-0.3,342.3,457607.22,-27912.43,337.3,Air+FixedWing,Red,Allies,J-11A,Red J-11A #004,xu,<51>Rage,0.0001983642578125,0,5.83915083708511e-07,182.240570068359,2.24057006835938,0,-0.0001983642578125,NaN,NaN,0,0,NaN,0.999986171723233,0,-0.00523596443235874,1.9674189388752e-09,178.716948646088,178.716948648055,,,55.0699999332428,180,0.0252471628029032,0.078568383241773
2018-07-19T08:03:23Z,1531987403,10D,40.0281226,44.6684474,182.24,0,-0.3,342.3,457607.22,-27912.43,337.3,Air+FixedWing,Red,Allies,J-11A,Red J-11A #004,xu,<51>Rage,0.0001983642578125,0,5.83915082398811e-07,182.240371704102,2.24037170410156,0,-0.0001983642578125,NaN,NaN,0,0,NaN,0.999987727664801,0,-0.00523597257932617,1.9674189388752e-09,178.716754117203,178.71675411917,,,56.0699999332428,180,0.0252471628029032,0.0787667472634496
2018-07-19T08:03:24Z,1531987404,10D,40.0281226,44.6684474,182.24,0,-0.3,342.3,457607.22,-27912.43,337.3,Air+FixedWing,Red,Allies,J-11A,Red J-11A #004,xu,<51>Rage,0.00018310546875,0,5.38998536482946e-07,182.240188598633,2.24018859863281,0,-0.00018310546875,NaN,NaN,0,0,NaN,1.00000639896362,0,-0.00523607034293534,1.67638063430786e-09,178.716574552078,178.716574553755,,,57.0699999332428,180,0.0252471628029032,0.0789498527522043
2018-07-19T08:03:25Z,1531987405,10D,40.0281226,44.6684474,182.24,0,-0.3,342.3,457607.22,-27912.43,337.3,Air+FixedWing,Red,Allies,J-11A,Red J-11A #004,xu,<51>Rage,1.52587890625e-05,0,4.49165447146618e-08,182.240203857422,2.24020385742188,0,1.52587890625e-05,NaN,NaN,0,0,NaN,1.00098353026858,0,-0.00524118663848176,1.16415321826935e-11,178.716589515839,178.71658951585,,,58.0699999332428,180,0.0252471628029032,0.0789651112851282
2018-07-19T08:03:26Z,1531987406,10D,40.0281226,44.6684474,182.25,0,-0.3,342.3,457607.22,-27912.43,337.3,Air+FixedWing,Red,Allies,J-11A,Red J-11A #004,xu,<51>Rage,0.009796142578125,0,2.88364249009624e-05,182.25,2.25,0,0.009796142578125,NaN,NaN,0.0119760488548731,0,NaN,0.998987257223119,0.000114845383882116,-0.0052307340792683,4.79822047054768e-06,178.72619625,178.72620104822,,,59.0699999332428,180,0.0252471628029032,0.0887612542094224
2018-07-19T08:03:27Z,1531987407,10D,40.0281226,44.6684474,182.25,0,-0.3,342.3,457607.22,-27912.43,337.3,Air+FixedWing,Red,Allies,J-11A,Red J-11A #004,xu,<51>Rage,0,0,0,182.25,2.25,0,0,NaN,NaN,0.0119760480211097,0,NaN,0.999986112119409,0.000323978826851654,-0.00523596443235874,0,178.72619625,178.72619625,,,60.0699999332428,180,0.0252471628029032,0.0887612542094224
2018-07-19T08:03:28Z,1531987408,10D,40.0281226,44.6684474,182.25,0,-0.3,342.3,457607.22,-27912.43,337.3,Air+FixedWing,Red,Allies,J-11A,Red J-11A #004,xu,<51>Rage,0,0,0,182.25,2.25,0,0,NaN,NaN,0.0119760463535831,0,NaN,0.999986052515585,0.000532997418248721,-0.00523596443235874,0,178.72619625,178.72619625,,,61.0699999332428,180,0.0252471628029032,0.0887612542094224
2018-07-19T08:03:29Z,1531987409,10D,40.0281226,44.6684474,182.25,0,-0.3,342.3,457607.22,-27912.43,337.3,Air+FixedWing,Red,Allies,J-11A,Red J-11A #004,xu,<51>Rage,0,0,0,182.25,2.25,0,0,NaN,NaN,0.0119760496886364,0,NaN,0.999985933307936,0.000742015980542358,-0.00523596443235874,0,178.72619625,178.72619625,,,62.0699999332428,180,0.0252471628029032,0.0887612542094224
2018-07-19T08:03:30Z,1531987410,10D,40.0281226,44.6684474,182.25,0.1,-0.3,342.3,457607.22,-27912.43,337.3,Air+FixedWing,Red,Allies,J-11A,Red J-11A #004,xu,<51>Rage,0,0,0,182.25,2.25,0,0,NaN,NaN,0.0119760496886364,0,NaN,0.999985754496464,0.000951034542835995,-0.00523596443235874,0,178.72619625,178.72619625,,,63.0699999332428,180,0.0252471628029032,0.0887612542094224
2018-07-19T08:03:31Z,1531987411,10D,40.0281226,44.6684474,182.25,0.1,-0.3,342.3,457607.22,-27912.43,337.3,Air+FixedWing,Red,Allies,J-11A,Red J-11A #004,xu,<51>Rage,0,0,0,182.25,2.25,0,0,NaN,NaN,0.0119760296783166,0,NaN,0.999985516081168,0.00116005293050905,-0.00523596443235874,0,178.72619625,178.72619625,,,64.0699999332428,180,0.0252471628029032,0.0887612542094224
2018-07-19T08:03:32Z,1531987412,10D,40.0281226,44.6684474,182.25,0.1,-0.3,342.3,457607.22,-27912.43,337.3,Air+FixedWing,Red,Allies,J-11A,Red J-11A #004,xu,<51>Rage,0,0,0,182.25,2.25,0,0,NaN,NaN,0.011976056358743,0,NaN,0.999985277665871,0.00136907143459583,-0.00523596443235874,0,178.72619625,178.72619625,,,65.0699999332428,180,0.0252471628029032,0.0887612542094224
2018-07-19T08:03:33Z,1531987413,10D,40.0281226,44.6684474,182.25,0.1,-0.3,342.3,457607.22,-27912.43,337.3,Air+FixedWing,Red,Allies,J-11A,Red J-11A #004,xu,<51>Rage,0,0,0,182.25,2.25,0,0,NaN,NaN,0.0119760430185298,0,NaN,0.999984920042927,0.00157808970585517,-0.00523596443235874,0,178.72619625,178.72619625,,,66.0699999332428,180,0.0252471628029032,0.0887612542094224
2018-07-19T08:03:34Z,1531987414,10D,40.0281227,44.6684474,182.25,0.1,-0.3,342.3,457607.22,-27912.43,337.3,Air+FixedWing,Red,Allies,J-11A,Red J-11A #004,xu,<51>Rage,0,0,0,182.25,2.25,0,0,NaN,NaN,0.00718562581111787,0,NaN,1.00071286124458,0.00174657530727623,-0.00523977721311626,0,178.72619625,178.72619625,,,67.0699999332428,180,0.032787062262215,0.0963013691445287
2018-07-19T08:03:35Z,1531987415,10D,40.0281226,44.6684474,182.26,0.1,-0.3,342.3,457607.22,-27912.43,337.3,Air+FixedWing,Red,Allies,J-11A,Red J-11A #004,xu,<51>Rage,0.00714111328125,0,2.10209469522791e-05,182.257141113281,2.25714111328125,0,0.00714111328125,NaN,NaN,0.0571550229746667,0,NaN,0.997965786273669,0.00124412856707106,-0.00522538966863382,2.54977494478226e-06,178.733199289856,178.733201839631,,,68.0699999332428,180,0.0403269617215268,0.106686398965776
2018-07-19T08:03:36Z,1531987416,10D,40.0281227,44.6684474,182.24,0.1,-0.3,342.3,457607.22,-27912.43,337.3,Air+FixedWing,Red,Allies,J-11A,Red J-11A #004,xu,<51>Rage,0.012664794921875,0,3.72807339142006e-05,182.244476318359,2.24447631835938,0,-0.012664794921875,NaN,NaN,0,0,NaN,1.00081318424484,0.00213104253296145,-0.00615899705292313,8.01985152065754e-06,178.720779368744,178.720787388595,,,69.0699999332428,180,0.0482438561801937,0.121622189462507
2018-07-19T08:03:37Z,1531987417,10D,40.0281226,44.6684474,182.24,-0.1,-0.2,342.3,457607.22,-27912.44,337.3,Air+FixedWing,Red,Allies,J-11A,Red J-11A #004,xu,<51>Rage,0.0107467381635309,0,3.16346429664802e-05,182.239990234375,2.239990234375,0.009765625,-0.004486083984375,NaN,NaN,0.276212850035316,0,NaN,1.00147285921194,-0.00196563138825837,-0.0027437010475446,5.77461905777454e-06,178.716380023193,178.716385797812,,,70.0699999332428,180,0.0561607506388607,0.130721956192419
2018-07-19T08:03:38Z,1531987418,10D,40.0281226,44.6684474,182.25,0,-0.3,342.3,457607.22,-27912.44,337.3,Air+FixedWing,Red,Allies,J-11A,Red J-11A #004,xu,<51>Rage,0.010009765625,0,2.9465256596622e-05,182.25,2.25,0,0.010009765625,NaN,NaN,0.199987938897973,0,NaN,0.998959035217134,-0.00293977101649648,-0.00646033597763145,5.00977039337158e-06,178.72619625,178.72620125977,,,71.0699999332428,180,0.0571107769236521,0.140776706102416
2018-07-19T08:03:39Z,1531987419,10D,40.0281227,44.6684474,182.25,0,-0.3,342.3,457607.25,-27912.44,337.3,Air+FixedWing,Red,Allies,J-11A,Red J-11A #004,xu,<51>Rage,0.03125,0,9.19890937650638e-05,182.25,2.25,0.03125,0,NaN,NaN,0,0.0328053018670254,NaN,0.999992610560462,0.00293977101649648,-0.00400624847645156,4.8828125e-05,178.72619625,178.726245078125,,,72.0699999332428,180,0.0659776976671101,0.149643880359406
2018-07-19T08:03:40Z,1531987420,10D,40.0281227,44.6684474,182.25,0,-0.2,342.3,457607.25,-27912.44,337.3,Air+FixedWing,Red,Allies,J-11A,Red J-11A #004,xu,<51>Rage,0,0,0,182.25,2.25,0,0,NaN,NaN,0,0.0484566469995765,NaN,0.999998034081214,0.00293977101649648,-0.00226092657234225,0,178.72619625,178.72619625,,,73.0699999332428,180,0.0659776976671101,0.149643880359406
2018-07-19T08:03:41Z,1531987421,10D,40.0281226,44.6684474,182.25,0,-0.2,342.3,457607.22,-27912.44,337.3,Air+FixedWing,Red,Allies,J-11A,Red J-11A #004,xu,<51>Rage,0.03125,0,9.19890937650638e-05,182.25,2.25,0.03125,0,NaN,NaN,0,0.00989117029631303,NaN,0.999989448944122,-0.00293977101649648,-0.00472037687737789,4.8828125e-05,178.72619625,178.726245078125,,,74.0699999332428,180,0.0710671294167276,0.154733457528089
2018-07-19T08:03:42Z,1531987422,10D,40.0281227,44.6684474,182.25,0,-0.2,342.3,457607.22,-27912.44,337.3,Air+FixedWing,Red,Allies,J-11A,Red J-11A #004,xu,<51>Rage,0,0,0,182.25,2.25,0,0,NaN,NaN,0,0,NaN,0.999993741512668,0,-0.00349065172486007,0,178.72619625,178.72619625,,,75.0699999332428,180,0.0746818446684616,0.158348275568684
2018-07-19T08:03:43Z,1531987423,10D,40.0281225,44.6684474,182.25,0,-0.2,342.3,457607.22,-27912.44,337.3,Air+FixedWing,Red,Allies,J-11A,Red J-11A #004,xu,<51>Rage,0,0,0,182.25,2.25,0,0,NaN,NaN,0,0,NaN,0.999993741512668,0,-0.00349065172486007,0,178.72619625,178.72619625,,,76.0699999332428,180,0.0861087314983021,0.169775488593053
2018-07-19T08:03:44Z,1531987424,10D,40.0281227,44.6684474,182.25,0,-0.2,342.3,457607.22,-27912.44,337.3,Air+FixedWing,Red,Allies,J-11A,Red J-11A #004,xu,<51>Rage,0,0,0,182.25,2.25,0,0,NaN,NaN,0,0,NaN,0.999993741512668,0,-0.00349065172486007,0,178.72619625,178.72619625,,,77.0699999332428,180,0.0964656190438916,0.18013267228238
2018-07-19T08:03:45Z,1531987425,10D,40.0281227,44.6684474,182.25,0,-0.2,342.3,457607.22,-27912.44,337.3,Air+FixedWing,Red,Allies,J-11A,Red J-11A #004,xu,<51>Rage,0,0,0,182.25,2.25,0,0,NaN,NaN,0.0552486231288129,0,NaN,0.999993562699842,0.000703912987118693,-0.00349065172486007,0,178.72619625,178.72619625,,,78.0699999332428,180,0.0990103348260263,0.182677460745511
2018-07-19T08:03:46Z,1531987426,10D,40.0281227,44.6684474,182.25,0.1,-0.2,342.3,457607.22,-27912.44,337.3,Air+FixedWing,Red,Allies,J-11A,Red J-11A #004,xu,<51>Rage,0,0,0,182.25,2.25,0,0,NaN,NaN,0.0552486264638662,0,NaN,0.999992311010061,0.00166817663381574,-0.00349065172486007,0,178.72619625,178.72619625,,,79.0699999332428,180,0.0990103348260263,0.182677460745511
2018-07-19T08:03:47Z,1531987427,10D,40.0281227,44.6684474,182.25,0,-0.2,342.3,457607.22,-27912.44,337.3,Air+FixedWing,Red,Allies,J-11A,Red J-11A #004,xu,<51>Rage,0,0,0,182.25,2.25,0,0,NaN,NaN,0,0,NaN,0.999993741512668,0,-0.00349065172486007,0,178.72619625,178.72619625,,,80.0699999332428,180,0.101180603152327,0.184847791198667
2018-07-19T08:03:48Z,1531987428,10D,40.0281226,44.6684474,182.25,0,-0.2,342.3,457607.22,-27912.44,337.3,Air+FixedWing,Red,Allies,J-11A,Red J-11A #004,xu,<51>Rage,0,0,0,182.25,2.25,0,0,NaN,NaN,0,0,NaN,0.999993741512668,0,-0.00349065172486007,0,178.72619625,178.72619625,,,81.0699999332428,180,0.104237318723819,0.187904594355339
2018-07-19T08:03:49Z,1531987429,10D,40.0281226,44.6684474,182.25,-0.1,-0.2,342.3,457607.22,-27912.44,337.3,Air+FixedWing,Red,Allies,J-11A,Red J-11A #004,xu,<51>Rage,0,0,0,182.25,2.25,0,0,NaN,NaN,0.114255404435973,0,NaN,0.999993829386879,-0.00107412353192845,-0.00330691718158037,0,178.72619625,178.72619625,,,82.0699999332428,180,0.106927229284694,0.190594581590683
2018-07-19T08:03:50Z,1531987430,10D,40.0281227,44.6684474,182.25,0,-0.2,342.3,457607.22,-27912.44,337.3,Air+FixedWing,Red,Allies,J-11A,Red J-11A #004,xu,<51>Rage,0.001953125,0,5.74931836031649e-06,182.25,2.25,0.001953125,0,NaN,NaN,0,0,NaN,0.999992458798202,0.000153716602202719,-0.00385812081141947,1.9073486328125e-07,178.72619625,178.726196440735,,,83.0699999332428,180,0.114844123743361,0.198511702435855
2018-07-19T08:03:51Z,1531987431,10D,40.0281226,44.6684474,182.25,0,-0.2,342.3,457607.22,-27912.44,337.3,Air+FixedWing,Red,Allies,J-11A,Red J-11A #004,xu,<51>Rage,0.001953125,0,5.74931836031649e-06,182.25,2.25,0.001953125,0,NaN,NaN,0,0,NaN,0.999994382869901,-7.68583011013596e-05,-0.00330691718158037,1.9073486328125e-07,178.72619625,178.726196440735,,,84.0699999332428,180,0.121691166533338,0.205358940548909
2018-07-19T08:03:52Z,1531987432,10D,40.0281227,44.6684474,182.25,-0,-0.2,342.3,457607.22,-27912.44,337.3,Air+FixedWing,Red,Allies,J-11A,Red J-11A #004,xu,<51>Rage,0,0,0,182.25,2.25,0,0,NaN,NaN,0.00136603783400255,0,NaN,0.999993741512668,-1.20985201093144e-05,-0.00349065172486007,0,178.72619625,178.72619625,,,85.0699999332428,180,0.128538209323315,0.212206178661963
2018-07-19T08:03:53Z,1531987433,10D,40.0281227,44.6684474,182.25,-0,-0.2,342.3,457607.22,-27912.44,337.3,Air+FixedWing,Red,Allies,J-11A,Red J-11A #004,xu,<51>Rage,0,0,0,182.25,2.25,0,0,NaN,NaN,0.00868800062425622,0,NaN,0.999993801116943,-0.000163330164265528,-0.00349065172486007,0,178.72619625,178.72619625,,,86.0699999332428,180,0.128538209323315,0.212206178661963
2018-07-19T08:03:54Z,1531987434,10D,40.0281227,44.6684474,182.25,-0,-0.2,342.3,457607.22,-27912.44,337.3,Air+FixedWing,Red,Allies,J-11A,Red J-11A #004,xu,<51>Rage,0,0,0,182.25,2.25,0,0,NaN,NaN,0.00868800062425622,0,NaN,0.999993741512668,-0.000314561795688895,-0.00349065172486007,0,178.72619625,178.72619625,,,87.0699999332428,180,0.128538209323315,0.212206178661963
2018-07-19T08:03:55Z,1531987435,10D,40.0281227,44.6684474,182.25,-0,-0.2,342.3,457607.22,-27912.44,337.3,Air+FixedWing,Red,Allies,J-11A,Red J-11A #004,xu,<51>Rage,0,0,0,182.25,2.25,0,0,NaN,NaN,0.00868800062425622,0,NaN,0.999993681908393,-0.000465793412560436,-0.00349065172486007,0,178.72619625,178.72619625,,,88.0699999332428,180,0.128538209323315,0.212206178661963
2018-07-19T08:03:56Z,1531987436,10D,40.0281227,44.6684474,182.25,-0,-0.2,342.3,457607.22,-27912.44,337.3,Air+FixedWing,Red,Allies,J-11A,Red J-11A #004,xu,<51>Rage,0,0,0,182.25,2.25,0,0,NaN,NaN,0.00868800062425622,0,NaN,0.999993622304117,-0.000617025029431978,-0.00349065172486007,0,178.72619625,178.72619625,,,89.0699999332428,180,0.128538209323315,0.212206178661963
2018-07-19T08:03:57Z,1531987437,10D,40.0281227,44.6684474,182.25,-0,-0.2,342.3,457607.22,-27912.44,337.3,Air+FixedWing,Red,Allies,J-11A,Red J-11A #004,xu,<51>Rage,0,0,0,182.25,2.25,0,0,NaN,NaN,0.00868800062425622,0,NaN,0.999993443491292,-0.00076825667540717,-0.00349065172486007,0,178.72619625,178.72619625,,,90.0699999332428,180,0.128538209323315,0.212206178661963
2018-07-19T08:03:58Z,1531987438,10D,40.0281227,44.6684474,182.25,-0.1,-0.2,342.3,457607.22,-27912.44,337.3,Air+FixedWing,Red,Allies,J-11A,Red J-11A #004,xu,<51>Rage,0,0,0,182.25,2.25,0,0,NaN,NaN,0.00868800062425622,0,NaN,0.999993383887016,-0.000919488321382361,-0.00349065172486007,0,178.72619625,178.72619625,,,91.0699999332428,180,0.128538209323315,0.212206178661963
2018-07-19T08:03:59Z,1531987439,10D,40.0281227,44.6684474,182.25,-0.1,-0.2,342.3,457607.22,-27912.44,337.3,Air+FixedWing,Red,Allies,J-11A,Red J-11A #004,xu,<51>Rage,0,0,0,182.25,2.25,0,0,NaN,NaN,0.00868800062425622,0,NaN,0.999993205074191,-0.00107071979273565,-0.00349065172486007,0,178.72619625,178.72619625,,,92.0699999332428,180,0.128538209323315,0.212206178661963
2018-07-19T08:04:00Z,1531987440,10D,40.0281227,44.6684474,182.25,-0.1,-0.2,342.3,457607.22,-27912.44,337.3,Air+FixedWing,Red,Allies,J-11A,Red J-11A #004,xu,<51>Rage,0,0,0,182.25,2.25,0,0,NaN,NaN,0.00868800062425622,0,NaN,0.999993026261365,-0.00122195132229624,-0.00349065172486007,0,178.72619625,178.72619625,,,93.0699999332428,180,0.128538209323315,0.212206178661963
2018-07-19T08:04:01Z,1531987441,10D,40.0281227,44.6684474,182.25,-0.1,-0.2,342.3,457607.22,-27912.44,337.3,Air+FixedWing,Red,Allies,J-11A,Red J-11A #004,xu,<51>Rage,0,0,0,182.25,2.25,0,0,NaN,NaN,0.00868800062425622,0,NaN,0.999992787844263,-0.00137318285185684,-0.00349065172486007,0,178.72619625,178.72619625,,,94.0699999332428,180,0.128538209323315,0.212206178661963
2018-07-19T08:04:02Z,1531987442,10D,40.0281227,44.6684474,182.25,-0.1,-0.2,342.3,457607.22,-27912.44,337.3,Air+FixedWing,Red,Allies,J-11A,Red J-11A #004,xu,<51>Rage,0,0,0,182.25,2.25,0,0,NaN,NaN,0.00868800062425622,0,NaN,0.999992549427162,-0.00152441438141743,-0.00349065172486007,0,178.72619625,178.72619625,,,95.0699999332428,180,0.128538209323315,0.212206178661963
2018-07-19T08:04:03Z,1531987443,10D,40.0281227,44.6684474,182.25,-0.1,-0.2,342.3,457607.22,-27912.44,337.3,Air+FixedWing,Red,Allies,J-11A,Red J-11A #004,xu,<51>Rage,0,0,0,182.25,2.25,0,0,NaN,NaN,0.00868800062425622,0,NaN,0.999992430218612,-0.00167564579456342,-0.00349065172486007,0,178.72619625,178.72619625,,,96.0699999332428,180,0.128538209323315,0.212206178661963
2018-07-19T08:04:04Z,1531987444,10D,40.0281227,44.6684474,182.25,-0,-0.2,342.3,457607.22,-27912.44,337.3,Air+FixedWing,Red,Allies,J-11A,Red J-11A #004,xu,<51>Rage,0,0,0,182.25,2.25,0,0,NaN,NaN,0.160136559855299,0,NaN,0.999993741512668,-1.53455961551087e-05,-0.00349065172486007,0,178.72619625,178.72619625,,,97.0699999332428,180,0.128538209323315,0.212206178661963
2018-07-19T08:04:05Z,1531987445,10D,40.0281227,44.6684474,182.25,-0,-0.2,342.3,457607.22,-27912.44,337.3,Air+FixedWing,Red,Allies,J-11A,Red J-11A #004,xu,<51>Rage,0,0,0,182.25,2.25,0,0,NaN,NaN,0.002677434154645,0,NaN,0.999993741512668,-6.18474100167743e-05,-0.00349065172486007,0,178.72619625,178.72619625,,,98.0699999332428,180,0.128538209323315,0.212206178661963
2018-07-19T08:04:06Z,1531987446,10D,40.0281227,44.6684474,182.25,-0,-0.2,342.3,457607.22,-27912.44,337.3,Air+FixedWing,Red,Allies,J-11A,Red J-11A #004,xu,<51>Rage,0,0,0,182.25,2.25,0,0,NaN,NaN,0.002677434154645,0,NaN,0.999993741512668,-0.000108349229335374,-0.00349065172486007,0,178.72619625,178.72619625,,,99.0699999332428,180,0.128538209323315,0.212206178661963
2018-07-19T08:04:07Z,1531987447,10D,40.0281227,44.6684474,182.25,-0,-0.2,342.3,457607.22,-27912.44,337.3,Air+FixedWing,Red,Allies,J-11A,Red J-11A #004,xu,<51>Rage,0,0,0,182.25,2.25,0,0,NaN,NaN,0.002677434154645,0,NaN,0.999993741512668,-0.000154851048653974,-0.00349065172486007,0,178.72619625,178.72619625,,,100.069999933243,180,0.128538209323315,0.212206178661963
2018-07-19T08:04:08Z,1531987448,10D,40.0281227,44.6684474,182.25,-0,-0.2,342.3,457607.22,-27912.44,337.3,Air+FixedWing,Red,Allies,J-11A,Red J-11A #004,xu,<51>Rage,0,0,0,182.25,2.25,0,0,NaN,NaN,0.002677434154645,0,NaN,0.999993801116943,-0.000201352860696662,-0.00349065172486007,0,178.72619625,178.72619625,,,101.069999933243,180,0.128538209323315,0.212206178661963
2018-07-19T08:04:09Z,1531987449,10D,40.0281227,44.6684474,182.25,-0,-0.2,342.3,457607.22,-27912.44,337.3,Air+FixedWing,Red,Allies,J-11A,Red J-11A #004,xu,<51>Rage,0,0,0,182.25,2.25,0,0,NaN,NaN,0.002677434154645,0,NaN,0.999993741512668,-0.000247854687291174,-0.00349065172486007,0,178.72619625,178.72619625,,,102.069999933243,180,0.128538209323315,0.212206178661963
2018-07-19T08:04:10Z,1531987450,10D,40.0281227,44.6684474,182.25,-0,-0.2,342.3,457607.22,-27912.44,337.3,Air+FixedWing,Red,Allies,J-11A,Red J-11A #004,xu,<51>Rage,0,0,0,182.25,2.25,0,0,NaN,NaN,0.002677434154645,0,NaN,0.999993681908393,-0.000294356499333862,-0.00349065172486007,0,178.72619625,178.72619625,,,103.069999933243,180,0.128538209323315,0.212206178661963
2018-07-19T08:04:11Z,1531987451,10D,40.0281227,44.6684474,182.25,-0,-0.2,342.3,457607.22,-27912.44,337.3,Air+FixedWing,Red,Allies,J-11A,Red J-11A #004,xu,<51>Rage,0,0,0,182.25,2.25,0,0,NaN,NaN,0.002677434154645,0,NaN,0.999993741512668,-0.000340858311376549,-0.00349065172486007,0,178.72619625,178.72619625,,,104.069999933243,180,0.128538209323315,0.212206178661963
2018-07-19T08:04:12Z,1531987452,10D,40.0281227,44.6684474,182.25,-0,-0.2,342.3,457607.22,-27912.44,337.3,Air+FixedWing,Red,Allies,J-11A,Red J-11A #004,xu,<51>Rage,0,0,0,182.25,2.25,0,0,NaN,NaN,0.002677434154645,0,NaN,0.999993681908393,-0.000387360123419236,-0.00349065172486007,0,178.72619625,178.72619625,,,105.069999933243,180,0.128538209323315,0.212206178661963
2018-07-19T08:04:13Z,1531987453,10D,40.0281227,44.6684474,182.25,-0,-0.2,342.3,457607.22,-27912.44,337.3,Air+FixedWing,Red,Allies,J-11A,Red J-11A #004,xu,<51>Rage,0,0,0,182.25,2.25,0,0,NaN,NaN,0.002677434154645,0,NaN,0.999993741512668,-0.000433861964565574,-0.00349065172486007,0,178.72619625,178.72619625,,,106.069999933243,180,0.128538209323315,0.212206178661963
2018-07-19T08:04:14Z,1531987454,10D,40.0281227,44.6684474,182.25,-0,-0.2,342.3,457607.22,-27912.44,337.3,Air+FixedWing,Red,Allies,J-11A,Red J-11A #004,xu,<51>Rage,0,0,0,182.25,2.25,0,0,NaN,NaN,0.002677434154645,0,NaN,0.999993681908393,-0.000480363747504611,-0.00349065172486007,0,178.72619625,178.72619625,,,107.069999933243,180,0.128538209323315,0.212206178661963
2018-07-19T08:04:15Z,1531987455,10D,40.0281227,44.6684474,182.25,-0,-0.2,342.3,457607.22,-27912.44,337.3,Air+FixedWing,Red,Allies,J-11A,Red J-11A #004,xu,<51>Rage,0,0,0,182.25,2.25,0,0,NaN,NaN,0.002677434154645,0,NaN,0.999993622304117,-0.000526865530443649,-0.00349065172486007,0,178.72619625,178.72619625,,,108.069999933243,180,0.128538209323315,0.212206178661963
2018-07-19T08:04:16Z,1531987456,10D,40.0281227,44.6684474,182.25,-0,-0.2,342.3,457607.22,-27912.44,337.3,Air+FixedWing,Red,Allies,J-11A,Red J-11A #004,xu,<51>Rage,0,0,0,182.25,2.25,0,0,NaN,NaN,0.002677434154645,0,NaN,0.999993622304117,-0.000573367342486336,-0.00349065172486007,0,178.72619625,178.72619625,,,109.069999933243,180,0.128538209323315,0.212206178661963
2018-07-19T08:04:17Z,1531987457,10D,40.0281227,44.6684474,182.25,-0,-0.2,342.3,457607.22,-27912.44,337.3,Air+FixedWing,Red,Allies,J-11A,Red J-11A #004,xu,<51>Rage,0,0,0,182.25,2.25,0,0,NaN,NaN,0.002677434154645,0,NaN,0.999993503095567,-0.000619869154529024,-0.00349065172486007,0,178.72619625,178.72619625,,,110.069999933243,180,0.128538209323315,0.212206178661963
2018-07-19T08:04:18Z,1531987458,10D,40.0281227,44.6684474,182.25,-0,-0.2,342.3,457607.22,-27912.44,337.3,Air+FixedWing,Red,Allies,J-11A,Red J-11A #004,xu,<51>Rage,0,0,0,182.25,2.25,0,0,NaN,NaN,0.002677434154645,0,NaN,0.999993562699842,-0.000666370966571711,-0.00349065172486007,0,178.72619625,178.72619625,,,111.069999933243,180,0.128538209323315,0.212206178661963
2018-07-19T08:04:19Z,1531987459,10D,40.0281227,44.6684474,182.25,-0,-0.2,342.3,457607.22,-27912.44,337.3,Air+FixedWing,Red,Allies,J-11A,Red J-11A #004,xu,<51>Rage,0,0,0,182.25,2.25,0,0,NaN,NaN,0.002677434154645,0,NaN,0.999993503095567,-0.000712872778614398,-0.00349065172486007,0,178.72619625,178.72619625,,,112.069999933243,180,0.128538209323315,0.212206178661963
2018-07-19T08:04:20Z,1531987460,10D,40.0281227,44.6684474,182.25,-0,-0.2,342.3,457607.22,-27912.44,337.3,Air+FixedWing,Red,Allies,J-11A,Red J-11A #004,xu,<51>Rage,0,0,0,182.25,2.25,0,0,NaN,NaN,0.002677434154645,0,NaN,0.999993503095567,-0.000759374590657086,-0.00349065172486007,0,178.72619625,178.72619625,,,113.069999933243,180,0.128538209323315,0.212206178661963
2018-07-19T08:04:21Z,1531987461,10D,40.0281227,44.6684474,182.25,-0,-0.2,342.3,457607.22,-27912.44,337.3,Air+FixedWing,Red,Allies,J-11A,Red J-11A #004,xu,<51>Rage,0,0,0,182.25,2.25,0,0,NaN,NaN,0.002677434154645,0,NaN,0.999993443491292,-0.000805876402699773,-0.00349065172486007,0,178.72619625,178.72619625,,,114.069999933243,180,0.128538209323315,0.212206178661963
2018-07-19T08:04:22Z,1531987462,10D,40.0281227,44.6684474,182.25,-0,-0.2,342.3,457607.22,-27912.44,337.3,Air+FixedWing,Red,Allies,J-11A,Red J-11A #004,xu,<51>Rage,0,0,0,182.25,2.25,0,0,NaN,NaN,0.002677434154645,0,NaN,0.999993383887016,-0.000852378214742461,-0.00349065172486007,0,178.72619625,178.72619625,,,115.069999933243,180,0.128538209323315,0.212206178661963
2018-07-19T08:04:23Z,1531987463,10D,40.0281227,44.6684474,182.25,-0.1,-0.2,342.3,457607.22,-27912.44,337.3,Air+FixedWing,Red,Allies,J-11A,Red J-11A #004,xu,<51>Rage,0,0,0,182.25,2.25,0,0,NaN,NaN,0.002677434154645,0,NaN,0.999993324282741,-0.000898880026785148,-0.00349065172486007,0,178.72619625,178.72619625,,,116.069999933243,180,0.128538209323315,0.212206178661963
2018-07-19T08:04:24Z,1531987464,10D,40.0281227,44.6684474,182.25,-0.1,-0.2,342.3,457607.22,-27912.44,337.3,Air+FixedWing,Red,Allies,J-11A,Red J-11A #004,xu,<51>Rage,0,0,0,182.25,2.25,0,0,NaN,NaN,0.002677434154645,0,NaN,0.999993324282741,-0.000945381780620535,-0.00349065172486007,0,178.72619625,178.72619625,,,117.069999933243,180,0.128538209323315,0.212206178661963
2018-07-19T08:04:25Z,1531987465,10D,40.0281227,44.6684474,182.25,-0.1,-0.2,342.3,457607.22,-27912.44,337.3,Air+FixedWing,Red,Allies,J-11A,Red J-11A #004,xu,<51>Rage,0,0,0,182.25,2.25,0,0,NaN,NaN,0.002677434154645,0,NaN,0.999993264678466,-0.000991883592663223,-0.00349065172486007,0,178.72619625,178.72619625,,,118.069999933243,180,0.128538209323315,0.212206178661963
2018-07-19T08:04:26Z,1531987466,10D,40.0281227,44.6684474,182.25,-0.1,-0.2,342.3,457607.22,-27912.44,337.3,Air+FixedWing,Red,Allies,J-11A,Red J-11A #004,xu,<51>Rage,0,0,0,182.25,2.25,0,0,NaN,NaN,0.002677434154645,0,NaN,0.999993264678466,-0.00103838528829131,-0.00349065172486007,0,178.72619625,178.72619625,,,119.069999933243,180,0.128538209323315,0.212206178661963
2018-07-19T08:04:27Z,1531987467,10D,40.0281227,44.6684474,182.25,-0.1,-0.2,342.3,457607.22,-27912.44,337.3,Air+FixedWing,Red,Allies,J-11A,Red J-11A #004,xu,<51>Rage,0,0,0,182.25,2.25,0,0,NaN,NaN,0.002677434154645,0,NaN,0.999993205074191,-0.0010848872167486,-0.00349065172486007,0,178.72619625,178.72619625,,,120.069999933243,180,0.128538209323315,0.212206178661963
2018-07-19T08:04:28Z,1531987468,10D,40.0281227,44.6684474,182.25,-0.1,-0.2,342.3,457607.22,-27912.44,337.3,Air+FixedWing,Red,Allies,J-11A,Red J-11A #004,xu,<51>Rage,0,0,0,182.25,2.25,0,0,NaN,NaN,0.002677434154645,0,NaN,0.999993145469915,-0.00113138902879129,-0.00349065172486007,0,178.72619625,178.72619625,,,121.069999933243,180,0.128538209323315,0.212206178661963
2018-07-19T08:04:29Z,1531987469,10D,40.0281227,44.6684474,182.25,-0.1,-0.2,342.3,457607.22,-27912.44,337.3,Air+FixedWing,Red,Allies,J-11A,Red J-11A #004,xu,<51>Rage,0,0,0,182.25,2.25,0,0,NaN,NaN,0.002677434154645,0,NaN,0.99999308586564,-0.00117789072441937,-0.00349065172486007,0,178.72619625,178.72619625,,,122.069999933243,180,0.128538209323315,0.212206178661963
2018-07-19T08:04:30Z,1531987470,10D,40.0281227,44.6684474,182.25,-0.1,-0.2,342.3,457607.22,-27912.44,337.3,Air+FixedWing,Red,Allies,J-11A,Red J-11A #004,xu,<51>Rage,0,0,0,182.25,2.25,0,0,NaN,NaN,0.002677434154645,0,NaN,0.99999308586564,-0.00122439242004746,-0.00349065172486007,0,178.72619625,178.72619625,,,123.069999933243,180,0.128538209323315,0.212206178661963
2018-07-19T08:04:31Z,1531987471,10D,40.0281227,44.6684474,182.25,-0.1,-0.2,342.3,457607.22,-27912.44,337.3,Air+FixedWing,Red,Allies,J-11A,Red J-11A #004,xu,<51>Rage,0,0,0,182.25,2.25,0,0,NaN,NaN,0.002677434154645,0,NaN,0.999992966657089,-0.00127089434850475,-0.00349065172486007,0,178.72619625,178.72619625,,,124.069999933243,180,0.128538209323315,0.212206178661963
2018-07-19T08:04:32Z,1531987472,10D,40.0281227,44.6684474,182.25,-0.1,-0.2,342.3,457607.22,-27912.44,337.3,Air+FixedWing,Red,Allies,J-11A,Red J-11A #004,xu,<51>Rage,0,0,0,182.25,2.25,0,0,NaN,NaN,0.002677434154645,0,NaN,0.999992847448539,-0.00131739616054743,-0.00349065172486007,0,178.72619625,178.72619625,,,125.069999933243,180,0.128538209323315,0.212206178661963
2018-07-19T08:04:33Z,1531987473,10D,40.0281227,44.6684474,182.25,-0.1,-0.2,342.3,457607.22,-27912.44,337.3,Air+FixedWing,Red,Allies,J-11A,Red J-11A #004,xu,<51>Rage,0,0,0,182.25,2.25,0,0,NaN,NaN,0.002677434154645,0,NaN,0.999992847448539,-0.00136389785617552,-0.00349065172486007,0,178.72619625,178.72619625,,,126.069999933243,180,0.128538209323315,0.212206178661963
2018-07-19T08:04:34Z,1531987474,10D,40.0281227,44.6684474,182.25,-0.1,-0.2,342.3,457607.22,-27912.44,337.3,Air+FixedWing,Red,Allies,J-11A,Red J-11A #004,xu,<51>Rage,0,0,0,182.25,2.25,0,0,NaN,NaN,0.002677434154645,0,NaN,0.999992728239988,-0.00141039955180361,-0.00349065172486007,0,178.72619625,178.72619625,,,127.069999933243,180,0.128538209323315,0.212206178661963
2018-07-19T08:04:35Z,1531987475,10D,40.0281227,44.6684474,182.25,-0.1,-0.2,342.3,457607.22,-27912.44,337.3,Air+FixedWing,Red,Allies,J-11A,Red J-11A #004,xu,<51>Rage,0,0,0,182.25,2.25,0,0,NaN,NaN,0.002677434154645,0,NaN,0.999992668635713,-0.0014569014802609,-0.00349065172486007,0,178.72619625,178.72619625,,,128.069999933243,180,0.128538209323315,0.212206178661963
2018-07-19T08:04:36Z,1531987476,10D,40.0281227,44.6684474,182.25,-0.1,-0.2,342.3,457607.22,-27912.44,337.3,Air+FixedWing,Red,Allies,J-11A,Red J-11A #004,xu,<51>Rage,0,0,0,182.25,2.25,0,0,NaN,NaN,0.002677434154645,0,NaN,0.999992609031438,-0.00150340317588898,-0.00349065172486007,0,178.72619625,178.72619625,,,129.069999933243,180,0.128538209323315,0.212206178661963
2018-07-19T08:04:37Z,1531987477,10D,40.0281227,44.6684474,182.25,-0.1,-0.2,342.3,457607.22,-27912.44,337.3,Air+FixedWing,Red,Allies,J-11A,Red J-11A #004,xu,<51>Rage,0,0,0,182.25,2.25,0,0,NaN,NaN,0.002677434154645,0,NaN,0.999992609031438,-0.00154990498793167,-0.00349065172486007,0,178.72619625,178.72619625,,,130.069999933243,180,0.128538209323315,0.212206178661963
2018-07-19T08:04:38Z,1531987478,10D,40.0281227,44.6684474,182.25,-0.1,-0.2,342.3,457607.22,-27912.44,337.3,Air+FixedWing,Red,Allies,J-11A,Red J-11A #004,xu,<51>Rage,0,0,0,182.25,2.25,0,0,NaN,NaN,0.002677434154645,0,NaN,0.999992489822887,-0.00159640668355976,-0.00349065172486007,0,178.72619625,178.72619625,,,131.069999933243,180,0.128538209323315,0.212206178661963
2018-07-19T08:04:39Z,1531987479,10D,40.0281227,44.6684474,182.25,-0.1,-0.2,342.3,457607.22,-27912.44,337.3,Air+FixedWing,Red,Allies,J-11A,Red J-11A #004,xu,<51>Rage,0,0,0,182.25,2.25,0,0,NaN,NaN,0.002677434154645,0,NaN,0.999992430218612,-0.00164290849560245,-0.00349065172486007,0,178.72619625,178.72619625,,,132.069999933243,180,0.128538209323315,0.212206178661963
2018-07-19T08:04:40Z,1531987480,10D,40.0281227,44.6684474,182.25,-0.1,-0.2,342.3,457607.22,-27912.44,337.3,Air+FixedWing,Red,Allies,J-11A,Red J-11A #004,xu,<51>Rage,0,0,0,182.25,2.25,0,0,NaN,NaN,0.002677434154645,0,NaN,0.999992311010061,-0.00168941019123053,-0.00349065172486007,0,178.72619625,178.72619625,,,133.069999933243,180,0.128538209323315,0.212206178661963
2018-07-19T08:04:41Z,1531987481,10D,40.0281227,44.6684474,182.25,-0.1,-0.2,342.3,457607.22,-27912.44,337.3,Air+FixedWing,Red,Allies,J-11A,Red J-11A #004,xu,<51>Rage,0,0,0,182.25,2.25,0,0,NaN,NaN,0.002677434154645,0,NaN,0.999992311010061,-0.00173591200327322,-0.00349065172486007,0,178.72619625,178.72619625,,,134.069999933243,180,0.128538209323315,0.212206178661963
2018-07-19T08:04:42Z,1531987482,10D,40.0281227,44.6684474,182.25,-0,-0.2,342.3,457607.22,-27912.44,337.3,Air+FixedWing,Red,Allies,J-11A,Red J-11A #004,xu,<51>Rage,0,0,0,182.25,2.25,0,0,NaN,NaN,0.0325269716583474,0,NaN,0.999993801116943,-7.01914010191231e-06,-0.00349065172486007,0,178.72619625,178.72619625,,,135.069999933243,180,0.128538209323315,0.212206178661963
2018-07-19T08:04:43Z,1531987483,10D,40.0281227,44.6684474,182.25,-0,-0.2,342.3,457607.22,-27912.44,337.3,Air+FixedWing,Red,Allies,J-11A,Red J-11A #004,xu,<51>Rage,0,0,0,182.25,2.25,0,0,NaN,NaN,0.000928905727121734,0,NaN,0.999993741512668,-2.29717274393042e-05,-0.00349065172486007,0,178.72619625,178.72619625,,,136.069999933243,180,0.128538209323315,0.212206178661963
2018-07-19T08:04:44Z,1531987484,10D,40.0281227,44.6684474,182.25,-0,-0.2,342.3,457607.22,-27912.44,337.3,Air+FixedWing,Red,Allies,J-11A,Red J-11A #004,xu,<51>Rage,0,0,0,182.25,2.25,0,0,NaN,NaN,0.000928905727121734,0,NaN,0.999993741512668,-3.89243165956742e-05,-0.00349065172486007,0,178.72619625,178.72619625,,,137.069999933243,180,0.128538209323315,0.212206178661963
2018-07-19T08:04:45Z,1531987485,10D,40.0281227,44.6684474,182.25,-0,-0.2,342.3,457607.22,-27912.44,337.3,Air+FixedWing,Red,Allies,J-11A,Red J-11A #004,xu,<51>Rage,0,0,0,182.25,2.25,0,0,NaN,NaN,0.000928905727121734,0,NaN,0.999993741512668,-5.48769039330661e-05,-0.00349065172486007,0,178.72619625,178.72619625,,,138.069999933243,180,0.128538209323315,0.212206178661963
2018-07-19T08:04:46Z,1531987486,10D,40.0281227,44.6684474,182.25,-0,-0.2,342.3,457607.22,-27912.44,337.3,Air+FixedWing,Red,Allies,J-11A,Red J-11A #004,xu,<51>Rage,0,0,0,182.25,2.25,0,0,NaN,NaN,0.000928905727121734,0,NaN,0.999993741512668,-7.08294949084143e-05,-0.00349065172486007,0,178.72619625,178.72619625,,,139.069999933243,180,0.128538209323315,0.212206178661963
2018-07-19T08:04:47Z,1531987487,10D,40.0281227,44.6684474,182.25,-0,-0.2,342.3,457607.22,-27912.44,337.3,Air+FixedWing,Red,Allies,J-11A,Red J-11A #004,xu,<51>Rage,0,0,0,182.25,2.25,0,0,NaN,NaN,0.000928905727121734,0,NaN,0.999993741512668,-8.67820858837624e-05,-0.00349065172486007,0,178.72619625,178.72619625,,,140.069999933243,180,0.128538209323315,0.212206178661963
2018-07-19T08:04:48Z,1531987488,10D,40.0281227,44.6684474,182.25,-0,-0.2,342.3,457607.22,-27912.44,337.3,Air+FixedWing,Red,Allies,J-11A,Red J-11A #004,xu,<51>Rage,0,0,0,182.25,2.25,0,0,NaN,NaN,0.000928905727121734,0,NaN,0.999993741512668,-0.000102734669583198,-0.00349065172486007,0,178.72619625,178.72619625,,,141.069999933243,180,0.128538209323315,0.212206178661963
2018-07-19T08:04:49Z,1531987489,10D,40.0281227,44.6684474,182.25,-0,-0.2,342.3,457607.22,-27912.44,337.3,Air+FixedWing,Red,Allies,J-11A,Red J-11A #004,xu,<51>Rage,0,0,0,182.25,2.25,0,0,NaN,NaN,0.000928905727121734,0,NaN,0.999993741512668,-0.000118687260558546,-0.00349065172486007,0,178.72619625,178.72619625,,,142.069999933243,180,0.128538209323315,0.212206178661963
2018-07-19T08:04:50Z,1531987490,10D,40.0281227,44.6684474,182.25,-0,-0.2,342.3,457607.22,-27912.44,337.3,Air+FixedWing,Red,Allies,J-11A,Red J-11A #004,xu,<51>Rage,0,0,0,182.25,2.25,0,0,NaN,NaN,0.000928905727121734,0,NaN,0.999993801116943,-0.000134639844257982,-0.00349065172486007,0,178.72619625,178.72619625,,,143.069999933243,180,0.128538209323315,0.212206178661963
2018-07-19T08:04:51Z,1531987491,10D,40.0281227,44.6684474,182.25,-0,-0.2,342.3,457607.22,-27912.44,337.3,Air+FixedWing,Red,Allies,J-11A,Red J-11A #004,xu,<51>Rage,0,0,0,182.25,2.25,0,0,NaN,NaN,0.000928905727121734,0,NaN,0.999993801116943,-0.000150592427957418,-0.00349065172486007,0,178.72619625,178.72619625,,,144.069999933243,180,0.128538209323315,0.212206178661963
2018-07-19T08:04:52Z,1531987492,10D,40.0281227,44.6684474,182.25,-0,-0.2,342.3,457607.22,-27912.44,337.3,Air+FixedWing,Red,Allies,J-11A,Red J-11A #004,xu,<51>Rage,0,0,0,182.25,2.25,0,0,NaN,NaN,0.000928905727121734,0,NaN,0.999993741512668,-0.000166545026208678,-0.00349065172486007,0,178.72619625,178.72619625,,,145.069999933243,180,0.128538209323315,0.212206178661963
2018-07-19T08:04:53Z,1531987493,10D,40.0281227,44.6684474,182.25,-0,-0.2,342.3,457607.22,-27912.44,337.3,Air+FixedWing,Red,Allies,J-11A,Red J-11A #004,xu,<51>Rage,0,0,0,182.25,2.25,0,0,NaN,NaN,0.000928905727121734,0,NaN,0.999993741512668,-0.000182497609908114,-0.00349065172486007,0,178.72619625,178.72619625,,,146.069999933243,180,0.128538209323315,0.212206178661963
2018-07-19T08:04:54Z,1531987494,10D,40.0281227,44.6684474,182.25,-0,-0.2,342.3,457607.22,-27912.44,337.3,Air+FixedWing,Red,Allies,J-11A,Red J-11A #004,xu,<51>Rage,0,0,0,182.25,2.25,0,0,NaN,NaN,0.000928905727121734,0,NaN,0.999993741512668,-0.000198450193607549,-0.00349065172486007,0,178.72619625,178.72619625,,,147.069999933243,180,0.128538209323315,0.212206178661963
2018-07-19T08:04:55Z,1531987495,10D,40.0281227,44.6684474,182.25,-0,-0.2,342.3,457607.22,-27912.44,337.3,Air+FixedWing,Red,Allies,J-11A,Red J-11A #004,xu,<51>Rage,0,0,0,182.25,2.25,0,0,NaN,NaN,0.000928905727121734,0,NaN,0.999993741512668,-0.00021440279185881,-0.00349065172486007,0,178.72619625,178.72619625,,,148.069999933243,180,0.128538209323315,0.212206178661963
2018-07-19T08:04:56Z,1531987496,10D,40.0281227,44.6684474,182.25,-0,-0.2,342.3,457607.22,-27912.44,337.3,Air+FixedWing,Red,Allies,J-11A,Red J-11A #004,xu,<51>Rage,0,0,0,182.25,2.25,0,0,NaN,NaN,0.000928905727121734,0,NaN,0.999993681908393,-0.000230355375558246,-0.00349065172486007,0,178.72619625,178.72619625,,,149.069999933243,180,0.128538209323315,0.212206178661963
2018-07-19T08:04:57Z,1531987497,10D,40.0281227,44.6684474,182.25,-0,-0.2,342.3,457607.22,-27912.44,337.3,Air+FixedWing,Red,Allies,J-11A,Red J-11A #004,xu,<51>Rage,0,0,0,182.25,2.25,0,0,NaN,NaN,0.000928905727121734,0,NaN,0.999993741512668,-0.000246307973809506,-0.00349065172486007,0,178.72619625,178.72619625,,,150.069999933243,180,0.128538209323315,0.212206178661963
2018-07-19T08:04:58Z,1531987498,10D,40.0281227,44.6684474,182.25,-0,-0.2,342.3,457607.22,-27912.44,337.3,Air+FixedWing,Red,Allies,J-11A,Red J-11A #004,xu,<51>Rage,0,0,0,182.25,2.25,0,0,NaN,NaN,0.000928905727121734,0,NaN,0.999993741512668,-0.000262260557508942,-0.00349065172486007,0,178.72619625,178.72619625,,,151.069999933243,180,0.128538209323315,0.212206178661963
