ISOTime,UnixTime,Id,Longitude,Latitude,Altitude,Roll,Pitch,Yaw,U,V,Heading,Type,Color,Coalition,Name,Group,Country,Pilot,TAS,CAS,M,ASL,AGL,GS,VS,AOA,AOS,RRT,TRT,TRD,G,LatG,LonG,Ek,Ep,Em,FFW,FFV,RelativeTime,Elev,GroundDistance,AirDistance
2018-07-19T08:02:57Z,1531987377,10E,40.0266821,44.6681292,182.3,0.1,-0.6,342.2,457496.09,-27957.68,337.2,Air+FixedWing,Red,Allies,J-11A,Red J-11A #002,xu,<51P>Maximus,0.0870277256179975,0,0.000256179410219243,182.304763793945,2.30476379394531,NaN,NaN,NaN,NaN,NaN,NaN,NaN,NaN,NaN,NaN,NaN,178.779901185989,NaN,,,0.289999961853027,180,NaN,NaN
2018-07-19T08:02:58Z,1531987378,10E,40.0266822,44.668129,182.23,0,-0.5,342.2,457496.09,-27957.71,337.2,Air+FixedWing,Red,Allies,J-11A,Red J-11A #002,xu,<51P>Maximus,0.0755986767883634,0,0.000222536081015916,182.234283447266,2.23428344726562,0.02734375,-0.0704803466796875,NaN,NaN,0,NaN,NaN,1.01297779361346,-0.0025469020756875,-0.00303362553602581,0.000285757996607572,178.710783576813,178.711069334809,,,1.28999996185303,180,0.0221376723975919,0.0738754626739657
2018-07-19T08:02:59Z,1531987379,10E,40.0266821,44.6681293,182.29,0,-0.6,342.2,457496.09,-27957.67,337.2,Air+FixedWing,Red,Allies,J-11A,Red J-11A #002,xu,<51P>Maximus,0.0677273569601707,0,0.000199365794364885,182.290939331055,2.29093933105469,0.037109375,0.0566558837890625,NaN,NaN,0,0.0139882274201861,NaN,0.989931030975276,0.00262408092646591,-0.0164451245560337,0.000229349744040519,178.766344019089,178.766573368833,,,2.28999996185303,180,0.0549137639372589,0.139329437922051
2018-07-19T08:03:00Z,1531987380,10E,40.0266822,44.668129,182.25,0,-0.5,342.2,457496.09,-27957.7,337.2,Air+FixedWing,Red,Allies,J-11A,Red J-11A #002,xu,<51P>Maximus,0.0503421862057154,0,0.000148189826790908,182.25,2.25,0.029296875,-0.0409393310546875,NaN,NaN,0,0,NaN,1.00416037620845,-0.00115768276167614,-0.0060090514559554,0.000126716785598546,178.72619625,178.726322966786,,,3.28999996185303,180,0.0857995396968517,0.19061310514945
2018-07-19T08:03:01Z,1531987381,10E,40.0266822,44.6681291,182.25,0,-0.4,342.2,457496.09,-27957.7,337.2,Air+FixedWing,Red,Allies,J-11A,Red J-11A #002,xu,<51P>Maximus,0,0,0,182.25,2.25,0,0,NaN,NaN,0,0.136340500952092,NaN,0.99998197093977,-0.000385894253892046,-0.00606327633010403,0,178.72619625,178.72619625,,,4.28999996185303,180,0.0933895071273958,0.198203288287937
2018-07-19T08:03:02Z,1531987382,10E,40.0266821,44.6681291,182.25,0,-0.4,342.2,457496.09,-27957.69,337.2,Air+FixedWing,Red,Allies,J-11A,Red J-11A #002,xu,<51P>Maximus,0.009765625,0,2.87465918015824e-05,182.25,2.25,0.009765625,0,NaN,NaN,0,0.0513960362511687,NaN,0.999955053800537,0.00123486161245455,-0.00991881030097028,4.76837158203125e-06,178.72619625,178.726201018372,,,5.28999996185303,180,0.0975063189296403,0.202320217783234
2018-07-19T08:03:03Z,1531987383,10E,40.0266822,44.668129,182.25,0,-0.4,342.2,457496.09,-27957.71,337.2,Air+FixedWing,Red,Allies,J-11A,Red J-11A #002,xu,<51P>Maximus,0.021484375,0,6.32425019634814e-05,182.25,2.25,0.021484375,0,NaN,NaN,0,0.0171320104161963,NaN,0.999997352162189,-0.00131204046323296,-0.00386011406103761,2.30789184570313e-05,178.72619625,178.726219328918,,,6.28999996185303,180,0.10937511875273,0.214189356101145
2018-07-19T08:03:04Z,1531987384,10E,40.0266822,44.6681291,182.25,0,-0.4,342.2,457496.09,-27957.7,337.2,Air+FixedWing,Red,Allies,J-11A,Red J-11A #002,xu,<51P>Maximus,0.01171875,0,3.44959101618989e-05,182.25,2.25,0.01171875,0,NaN,NaN,0,0.0171320104161963,NaN,0.999967871485886,0.000463073104670455,-0.00808284174341492,6.866455078125e-06,178.72619625,178.726203116455,,,7.28999996185303,180,0.119381365184759,0.224195888378494
2018-07-19T08:03:05Z,1531987385,10E,40.0266822,44.668129,182.25,0,-0.4,342.2,457496.09,-27957.7,337.2,Air+FixedWing,Red,Allies,J-11A,Red J-11A #002,xu,<51P>Maximus,0,0,0,182.25,2.25,0,0,NaN,NaN,0,0.0197823405926261,NaN,0.999975562097095,0,-0.00698126060888171,0,178.72619625,178.72619625,,,8.28999996185303,180,0.125759420927248,0.230574126756685
2018-07-19T08:03:06Z,1531987386,10E,40.0266822,44.668129,182.25,0,-0.4,342.2,457496.09,-27957.7,337.2,Air+FixedWing,Red,Allies,J-11A,Red J-11A #002,xu,<51P>Maximus,0,0,0,182.25,2.25,0,0,NaN,NaN,0,0.0370093733476075,NaN,0.999979734421981,0,-0.00635478412732482,0,178.72619625,178.72619625,,,9.28999996185303,180,0.129387611616787,0.234202420655844
2018-07-19T08:03:07Z,1531987387,10E,40.0266822,44.668129,182.25,0,-0.3,342.2,457496.09,-27957.7,337.2,Air+FixedWing,Red,Allies,J-11A,Red J-11A #002,xu,<51P>Maximus,0,0,0,182.25,2.25,0,0,NaN,NaN,0,0.0171320104161963,NaN,0.999986231327874,0,-0.00523606967180967,0,178.72619625,178.72619625,,,10.289999961853,180,0.129387611616787,0.234202420655844
2018-07-19T08:03:08Z,1531987388,10E,40.0266822,44.668129,182.25,0,-0.3,342.2,457496.09,-27957.7,337.2,Air+FixedWing,Red,Allies,J-11A,Red J-11A #002,xu,<51P>Maximus,0,0,0,182.25,2.25,0,0,NaN,NaN,0,0.0171320104161963,NaN,0.999985337258256,0,-0.00539654772728682,0,178.72619625,178.72619625,,,11.289999961853,180,0.129387611616787,0.234202420655844
2018-07-19T08:03:09Z,1531987389,10E,40.0266822,44.668129,182.25,0,-0.3,342.2,457496.09,-27957.7,337.2,Air+FixedWing,Red,Allies,J-11A,Red J-11A #002,xu,<51P>Maximus,0,0,0,182.25,2.25,0,0,NaN,NaN,0.00597371538122855,0.0328053018670254,NaN,0.999986231327057,9.59188145159009e-05,-0.00523596443235874,0,178.72619625,178.72619625,,,12.289999961853,180,0.129387611616787,0.234202420655844
2018-07-19T08:03:10Z,1531987390,10E,40.0266822,44.668129,182.25,0,-0.3,342.2,457496.09,-27957.7,337.2,Air+FixedWing,Red,Allies,J-11A,Red J-11A #002,xu,<51P>Maximus,0,0,0,182.25,2.25,0,0,NaN,NaN,0.00597371579811022,0,NaN,0.999986171723233,0.000200178395511445,-0.00523596443235874,0,178.72619625,178.72619625,,,13.289999961853,180,0.129387611616787,0.234202420655844
2018-07-19T08:03:11Z,1531987391,10E,40.0266822,44.668129,182.25,0,-0.3,342.2,457496.09,-27957.7,337.2,Air+FixedWing,Red,Allies,J-11A,Red J-11A #002,xu,<51P>Maximus,0,0,0,182.25,2.25,0,0,NaN,NaN,0.00597371413058356,0,NaN,0.999986171723233,0.000304437969231132,-0.00523596443235874,0,178.72619625,178.72619625,,,14.289999961853,180,0.129387611616787,0.234202420655844
2018-07-19T08:03:12Z,1531987392,10E,40.0266822,44.668129,182.25,0,-0.3,342.2,457496.09,-27957.7,337.2,Air+FixedWing,Red,Allies,J-11A,Red J-11A #002,xu,<51P>Maximus,0,0,0,182.25,2.25,0,0,NaN,NaN,0.00597372080069018,0,NaN,0.999986112119409,0.000408697572054249,-0.00523596443235874,0,178.72619625,178.72619625,,,15.289999961853,180,0.129387611616787,0.234202420655844
2018-07-19T08:03:13Z,1531987393,10E,40.0266822,44.668129,182.25,0,-0.3,342.2,457496.09,-27957.7,337.2,Air+FixedWing,Red,Allies,J-11A,Red J-11A #002,xu,<51P>Maximus,0,0,0,182.25,2.25,0,0,NaN,NaN,0.00597371079553026,0,NaN,0.999986052515585,0.000512957087567077,-0.00523596443235874,0,178.72619625,178.72619625,,,16.289999961853,180,0.129387611616787,0.234202420655844
2018-07-19T08:03:14Z,1531987394,10E,40.0266822,44.668129,182.25,0,-0.3,342.2,457496.09,-27957.7,337.2,Air+FixedWing,Red,Allies,J-11A,Red J-11A #002,xu,<51P>Maximus,0,0,0,182.25,2.25,0,0,NaN,NaN,0.00597372080069018,0,NaN,0.99998599291176,0.000617216690390193,-0.00523596443235874,0,178.72619625,178.72619625,,,17.289999961853,180,0.129387611616787,0.234202420655844
2018-07-19T08:03:15Z,1531987395,10E,40.0266822,44.668129,182.25,0,-0.3,342.2,457496.09,-27957.7,337.2,Air+FixedWing,Red,Allies,J-11A,Red J-11A #002,xu,<51P>Maximus,0,0,0,182.25,2.25,0,0,NaN,NaN,0.00597371413058356,0,NaN,0.999985933307936,0.00072147623500645,-0.00523596443235874,0,178.72619625,178.72619625,,,18.289999961853,180,0.129387611616787,0.234202420655844
2018-07-19T08:03:16Z,1531987396,10E,40.0266822,44.668129,182.25,0,-0.3,342.2,457496.09,-27957.7,337.2,Air+FixedWing,Red,Allies,J-11A,Red J-11A #002,xu,<51P>Maximus,0,0,0,182.25,2.25,0,0,NaN,NaN,0.00597371413058356,0,NaN,0.999985873704112,0.000825735721415848,-0.00523596443235874,0,178.72619625,178.72619625,,,19.289999961853,180,0.129387611616787,0.234202420655844
2018-07-19T08:03:17Z,1531987397,10E,40.0266822,44.668129,182.25,0.1,-0.3,342.2,457496.09,-27957.7,337.2,Air+FixedWing,Red,Allies,J-11A,Red J-11A #002,xu,<51P>Maximus,0,0,0,182.25,2.25,0,0,NaN,NaN,0.00597372080069018,0,NaN,0.999985754496464,0.000929995324238965,-0.00523596443235874,0,178.72619625,178.72619625,,,20.289999961853,180,0.129387611616787,0.234202420655844
2018-07-19T08:03:18Z,1531987398,10E,40.0266822,44.668129,182.25,0.1,-0.3,342.2,457496.09,-27957.7,337.2,Air+FixedWing,Red,Allies,J-11A,Red J-11A #002,xu,<51P>Maximus,0,0,0,182.25,2.25,0,0,NaN,NaN,0.00597372080069018,0,NaN,0.999985635288816,0.0010342547524415,-0.00523596443235874,0,178.72619625,178.72619625,,,21.289999961853,180,0.129387611616787,0.234202420655844
2018-07-19T08:03:19Z,1531987399,10E,40.0266822,44.668129,182.25,0.1,-0.3,342.2,457496.09,-27957.7,337.2,Air+FixedWing,Red,Allies,J-11A,Red J-11A #002,xu,<51P>Maximus,0,0,0,182.25,2.25,0,0,NaN,NaN,0.00597370746047695,0,NaN,0.999985575684992,0.00113851429705776,-0.00523596443235874,0,178.72619625,178.72619625,,,22.289999961853,180,0.129387611616787,0.234202420655844
2018-07-19T08:03:20Z,1531987400,10E,40.0266822,44.668129,182.25,0.1,-0.3,342.2,457496.09,-27957.7,337.2,Air+FixedWing,Red,Allies,J-11A,Red J-11A #002,xu,<51P>Maximus,0,0,0,182.25,2.25,0,0,NaN,NaN,0.00597370746047695,0,NaN,0.999985456477344,0.0012427737252603,-0.00523596443235874,0,178.72619625,178.72619625,,,23.289999961853,180,0.129387611616787,0.234202420655844
2018-07-19T08:03:21Z,1531987401,10E,40.0266822,44.668129,182.25,0.1,-0.3,342.2,457496.09,-27957.7,337.2,Air+FixedWing,Red,Allies,J-11A,Red J-11A #002,xu,<51P>Maximus,0,0,0,182.25,2.25,0,0,NaN,NaN,0.00597372080069018,0,NaN,0.999985277665871,0.00134703350270399,-0.00523596443235874,0,178.72619625,178.72619625,,,24.289999961853,180,0.129387611616787,0.234202420655844
2018-07-19T08:03:22Z,1531987402,10E,40.0266822,44.668129,182.25,0.1,-0.3,342.2,457496.09,-27957.7,337.2,Air+FixedWing,Red,Allies,J-11A,Red J-11A #002,xu,<51P>Maximus,0,0,0,182.25,2.25,0,0,NaN,NaN,0.00597372080069018,0,NaN,0.999985158458223,0.00145129293090653,-0.00523596443235874,0,178.72619625,178.72619625,,,25.289999961853,180,0.129387611616787,0.234202420655844
2018-07-19T08:03:23Z,1531987403,10E,40.0266822,44.668129,182.25,0.1,-0.3,342.2,457496.09,-27957.7,337.2,Air+FixedWing,Red,Allies,J-11A,Red J-11A #002,xu,<51P>Maximus,0,0,0,182.25,2.25,0,0,NaN,NaN,0.00597372080069018,0,NaN,0.999984920042927,0.00155555235910907,-0.00523596443235874,0,178.72619625,178.72619625,,,26.289999961853,180,0.129387611616787,0.234202420655844
2018-07-19T08:03:24Z,1531987404,10E,40.0266822,44.668129,182.25,0.1,-0.3,342.2,457496.09,-27957.7,337.2,Air+FixedWing,Red,Allies,J-11A,Red J-11A #002,xu,<51P>Maximus,0,0,0,182.25,2.25,0,0,NaN,NaN,0.00597372080069018,0,NaN,0.999984800835279,0.00165981167089789,-0.00523596443235874,0,178.72619625,178.72619625,,,27.289999961853,180,0.129387611616787,0.234202420655844
2018-07-19T08:03:25Z,1531987405,10E,40.0266822,44.668129,182.25,0.1,-0.3,342.2,457496.09,-27957.7,337.2,Air+FixedWing,Red,Allies,J-11A,Red J-11A #002,xu,<51P>Maximus,0,0,0,182.25,2.25,0,0,NaN,NaN,0.0779734395648656,0,NaN,0.99998569489264,0.00103135942683769,-0.00523596443235874,0,178.72619625,178.72619625,,,28.289999961853,180,0.129387611616787,0.234202420655844
2018-07-19T08:03:26Z,1531987406,10E,40.0266822,44.668129,182.25,0,-0.3,342.2,457496.09,-27957.7,337.2,Air+FixedWing,Red,Allies,J-11A,Red J-11A #002,xu,<51P>Maximus,0,0,0,182.25,2.25,0,0,NaN,NaN,0.0458715571359122,0,NaN,0.999986052515585,0.000592442977896349,-0.00523596443235874,0,178.72619625,178.72619625,,,29.289999961853,180,0.129387611616787,0.234202420655844
2018-07-19T08:03:27Z,1531987407,10E,40.0266822,44.668129,182.25,0.1,-0.3,342.2,457496.09,-27957.7,337.2,Air+FixedWing,Red,Allies,J-11A,Red J-11A #002,xu,<51P>Maximus,0,0,0,182.25,2.25,0,0,NaN,NaN,0.0458715638060189,0,NaN,0.999985158458223,0.00139304136856724,-0.00523596443235874,0,178.72619625,178.72619625,,,30.289999961853,180,0.129387611616787,0.234202420655844
2018-07-19T08:03:28Z,1531987408,10E,40.0266822,44.668129,182.25,0,-0.3,342.2,457496.09,-27957.7,337.2,Air+FixedWing,Red,Allies,J-11A,Red J-11A #002,xu,<51P>Maximus,0,0,0,182.25,2.25,0,0,NaN,NaN,0.138898726961379,0.00989117029631303,NaN,0.999986171723233,0.000387927763906282,-0.00523596443235874,0,178.72619625,178.72619625,,,31.289999961853,180,0.129387611616787,0.234202420655844
2018-07-19T08:03:29Z,1531987409,10E,40.0266822,44.668129,182.25,0,-0.3,342.2,457496.09,-27957.7,337.2,Air+FixedWing,Red,Allies,J-11A,Red J-11A #002,xu,<51P>Maximus,0,0,0,182.25,2.25,0,0,NaN,NaN,0,0.0197823405926261,NaN,0.999986171723233,0,-0.00523596443235874,0,178.72619625,178.72619625,,,32.289999961853,180,0.129387611616787,0.234202420655844
2018-07-19T08:03:30Z,1531987410,10E,40.0266822,44.668129,182.25,0,-0.3,342.2,457496.09,-27957.7,337.3,Air+FixedWing,Red,Allies,J-11A,Red J-11A #002,xu,<51P>Maximus,0,0,0,182.25,2.25,0,0,NaN,NaN,0,0.0328053018670254,NaN,0.999986171723233,0,-0.00523596443235874,0,178.72619625,178.72619625,,,33.289999961853,180,0.129387611616787,0.234202420655844
2018-07-19T08:03:31Z,1531987411,10E,40.0266822,44.668129,182.25,0,-0.3,342.2,457496.09,-27957.7,337.3,Air+FixedWing,Red,Allies,J-11A,Red J-11A #002,xu,<51P>Maximus,0,0,0,182.25,2.25,0,0,NaN,NaN,0,0.0139882274201861,NaN,0.999986171723233,0,-0.00523596443235874,0,178.72619625,178.72619625,,,34.289999961853,180,0.129387611616787,0.234202420655844
2018-07-19T08:03:32Z,1531987412,10E,40.0266822,44.668129,182.25,0,-0.3,342.2,457496.09,-27957.7,337.2,Air+FixedWing,Red,Allies,J-11A,Red J-11A #002,xu,<51P>Maximus,0,0,0,182.25,2.25,0,0,NaN,NaN,0,0.0370093733476075,NaN,0.999986171723233,0,-0.00523596443235874,0,178.72619625,178.72619625,,,35.289999961853,180,0.129387611616787,0.234202420655844
2018-07-19T08:03:33Z,1531987413,10E,40.0266822,44.668129,182.25,0,-0.3,342.2,457496.09,-27957.7,337.2,Air+FixedWing,Red,Allies,J-11A,Red J-11A #002,xu,<51P>Maximus,0,0,0,182.25,2.25,0,0,NaN,NaN,0,0.0407823424976854,NaN,0.999984979630408,0,-0.00545486668124795,0,178.72619625,178.72619625,,,36.289999961853,180,0.129387611616787,0.234202420655844
2018-07-19T08:03:34Z,1531987414,10E,40.0266822,44.668129,182.25,0,-0.3,342.2,457496.09,-27957.7,337.2,Air+FixedWing,Red,Allies,J-11A,Red J-11A #002,xu,<51P>Maximus,0,0,0,182.25,2.25,0,0,NaN,NaN,0,0.0197823405926261,NaN,0.999983370305095,0,-0.00575068080797791,0,178.72619625,178.72619625,,,37.289999961853,180,0.129387611616787,0.234202420655844
2018-07-19T08:03:35Z,1531987415,10E,40.0266822,44.668129,182.25,0,-0.3,342.2,457496.09,-27957.7,337.2,Air+FixedWing,Red,Allies,J-11A,Red J-11A #002,xu,<51P>Maximus,0,0,0,182.25,2.25,0,0,NaN,NaN,0,0.0242283218322616,NaN,0.999981582165859,0,-0.00604649400338531,0,178.72619625,178.72619625,,,38.289999961853,180,0.129387611616787,0.234202420655844
2018-07-19T08:03:36Z,1531987416,10E,40.0266822,44.668129,182.25,0,-0.4,342.2,457496.09,-27957.7,337.2,Air+FixedWing,Red,Allies,J-11A,Red J-11A #002,xu,<51P>Maximus,0,0,0,182.25,2.25,0,0,NaN,NaN,0,0.0221173298063182,NaN,0.999979734421981,0,-0.0063423071987927,0,178.72619625,178.72619625,,,39.289999961853,180,0.129387611616787,0.234202420655844
2018-07-19T08:03:37Z,1531987417,10E,40.0266822,44.668129,182.25,0,-0.4,342.2,457496.09,-27957.7,337.2,Air+FixedWing,Red,Allies,J-11A,Red J-11A #002,xu,<51P>Maximus,0,0,0,182.25,2.25,0,0,NaN,NaN,0,0.0242283218322616,NaN,0.999977886678103,0,-0.00663811899721622,0,178.72619625,178.72619625,,,40.289999961853,180,0.129387611616787,0.234202420655844
2018-07-19T08:03:38Z,1531987418,10E,40.0266822,44.668129,182.25,0,-0.4,342.2,457496.09,-27957.7,337.2,Air+FixedWing,Red,Allies,J-11A,Red J-11A #002,xu,<51P>Maximus,0,0,0,182.25,2.25,0,0,NaN,NaN,0,0.0171320104161963,NaN,0.999975860120301,0,-0.00693393079563975,0,178.72619625,178.72619625,,,41.289999961853,180,0.129387611616787,0.234202420655844
2018-07-19T08:03:39Z,1531987419,10E,40.0266822,44.668129,182.25,0,-0.4,342.2,457496.09,-27957.7,337.2,Air+FixedWing,Red,Allies,J-11A,Red J-11A #002,xu,<51P>Maximus,0,0,0,182.25,2.25,0,0,NaN,NaN,0,0.0242283218322616,NaN,0.999978959561645,0,-0.00646868906915188,0,178.72619625,178.72619625,,,42.289999961853,180,0.129387611616787,0.234202420655844
2018-07-19T08:03:40Z,1531987420,10E,40.0266822,44.668129,182.25,0,-0.3,342.2,457496.09,-27957.7,337.2,Air+FixedWing,Red,Allies,J-11A,Red J-11A #002,xu,<51P>Maximus,0,0,0,182.25,2.25,0,0,NaN,NaN,0,0.0383083399245797,NaN,0.999982774258683,0,-0.00585848232731223,0,178.72619625,178.72619625,,,43.289999961853,180,0.129387611616787,0.234202420655844
2018-07-19T08:03:41Z,1531987421,10E,40.0266822,44.668129,182.25,0,-0.3,342.2,457496.09,-27957.7,337.2,Air+FixedWing,Red,Allies,J-11A,Red J-11A #002,xu,<51P>Maximus,0,0,0,182.25,2.25,0,0,NaN,NaN,0,0.0279764548403722,NaN,0.999986112118592,0,-0.00524827372282743,0,178.72619625,178.72619625,,,44.289999961853,180,0.129387611616787,0.234202420655844
2018-07-19T08:03:42Z,1531987422,10E,40.0266822,44.668129,182.25,0,-0.3,342.2,457496.09,-27957.7,337.2,Air+FixedWing,Red,Allies,J-11A,Red J-11A #002,xu,<51P>Maximus,0,0,0,182.25,2.25,0,0,NaN,NaN,0,0.0171320104161963,NaN,0.999986171723233,0,-0.00523596443235874,0,178.72619625,178.72619625,,,45.289999961853,180,0.129764608071357,0.234579428021125
2018-07-19T08:03:43Z,1531987423,10E,40.0266821,44.668129,182.25,0,-0.3,342.2,457496.09,-27957.7,337.2,Air+FixedWing,Red,Allies,J-11A,Red J-11A #002,xu,<51P>Maximus,0,0,0,182.25,2.25,0,0,NaN,NaN,0,0,NaN,0.999986171723233,0,-0.00523596443235874,0,178.72619625,178.72619625,,,46.289999961853,180,0.134281718136626,0.239096666633069
2018-07-19T08:03:44Z,1531987424,10E,40.0266823,44.668129,182.25,0,-0.3,342.2,457496.09,-27957.7,337.2,Air+FixedWing,Red,Allies,J-11A,Red J-11A #002,xu,<51P>Maximus,0,0,0,182.25,2.25,0,0,NaN,NaN,0,0,NaN,0.999981365074306,0.000385894253892046,-0.00615395835553126,0,178.72619625,178.72619625,,,47.289999961853,180,0.145808936322515,0.25062421369483
2018-07-19T08:03:45Z,1531987425,10E,40.0266822,44.668129,182.25,0.1,-0.3,342.2,457496.09,-27957.71,337.2,Air+FixedWing,Red,Allies,J-11A,Red J-11A #002,xu,<51P>Maximus,0.009765625,0,2.87465918015824e-05,182.25,2.25,0.009765625,0,NaN,NaN,0,0,NaN,0.999995641936238,0.000973533762454681,-0.00339997658601371,4.76837158203125e-06,178.72619625,178.726201018372,,,48.289999961853,180,0.152442047988566,0.257257514779368
2018-07-19T08:03:46Z,1531987426,10E,40.0266822,44.668129,182.25,0.1,-0.3,342.2,457496.09,-27957.7,337.2,Air+FixedWing,Red,Allies,J-11A,Red J-11A #002,xu,<51P>Maximus,0.009765625,0,2.87465918015824e-05,182.25,2.25,0.009765625,0,NaN,NaN,0,0,NaN,0.999973721319023,0.00251707502296707,-0.00707195227870377,4.76837158203125e-06,178.72619625,178.726201018372,,,49.289999961853,180,0.156771139897361,0.261586729809289
2018-07-19T08:03:47Z,1531987427,10E,40.0266822,44.668129,182.25,0.1,-0.3,342.2,457496.09,-27957.71,337.2,Air+FixedWing,Red,Allies,J-11A,Red J-11A #002,xu,<51P>Maximus,0.009765625,0,2.87465918015824e-05,182.25,2.25,0.009765625,0,NaN,NaN,0,0,NaN,0.998971657628435,0.00120328349846496,-0.00394542852876811,4.76837158203125e-06,178.72619625,178.726201018372,,,50.289999961853,180,0.161100231806155,0.26591594483921
2018-07-19T08:03:48Z,1531987428,10E,40.0266822,44.668129,182.24,0,-0.3,342.2,457496.09,-27957.71,337.2,Air+FixedWing,Red,Allies,J-11A,Red J-11A #002,xu,<51P>Maximus,0.0107449614671218,0,3.16294129929099e-05,182.239990234375,2.239990234375,0.00390625,-0.010009765625,NaN,NaN,0,0,NaN,1.00202852839076,-7.71788507784092e-05,-0.00506305447002245,5.77270984649658e-06,178.716380023193,178.716385795903,,,51.289999961853,180,0.161100231806155,0.275925710141909
2018-07-19T08:03:49Z,1531987429,10E,40.0266822,44.668129,182.25,0,-0.3,342.2,457496.09,-27957.7,337.2,Air+FixedWing,Red,Allies,J-11A,Red J-11A #002,xu,<51P>Maximus,0.0115986069533396,0,3.4142250962396e-05,182.25,2.25,0.005859375,0.010009765625,NaN,NaN,0,0,NaN,0.998962590065005,0.000231536552335227,-0.00578141637511314,6.72638416290283e-06,178.72619625,178.726202976384,,,52.289999961853,180,0.164530905724165,0.286507090427675
2018-07-19T08:03:50Z,1531987430,10E,40.0266822,44.668129,182.25,0.1,-0.3,342.2,457496.09,-27957.7,337.2,Air+FixedWing,Red,Allies,J-11A,Red J-11A #002,xu,<51P>Maximus,0,0,0,182.25,2.25,0,0,NaN,NaN,0.0285696807821716,0,NaN,0.99998468162763,0.00174530439271087,-0.00523596443235874,0,178.72619625,178.72619625,,,53.289999961853,180,0.167961579642174,0.289937862484997
2018-07-19T08:03:51Z,1531987431,10E,40.0266822,44.668129,182.25,0.2,-0.3,342.2,457496.09,-27957.7,337.2,Air+FixedWing,Red,Allies,J-11A,Red J-11A #002,xu,<51P>Maximus,0,0,0,182.25,2.25,0,0,NaN,NaN,0.00950762332465775,0,NaN,0.999983994181507,0.000469872853328783,-0.00647080911277102,0,178.72619625,178.72619625,,,54.289999961853,180,0.167961579642174,0.289937862484997
2018-07-19T08:03:52Z,1531987432,10E,40.0266823,44.668129,182.25,0.1,-0.3,342.2,457496.12,-27957.7,337.2,Air+FixedWing,Red,Allies,J-11A,Red J-11A #002,xu,<51P>Maximus,0.03125,0,9.19890937650638e-05,182.25,2.25,0.03125,0,NaN,NaN,0,0,NaN,0.999986262733466,0.00769773732568546,-0.00294987385616869,4.8828125e-05,178.72619625,178.726245078125,,,55.289999961853,180,0.175878517568208,0.297855026854622
2018-07-19T08:03:53Z,1531987433,10E,40.0266822,44.668129,182.25,0.1,-0.3,342.2,457496.09,-27957.7,337.2,Air+FixedWing,Red,Allies,J-11A,Red J-11A #002,xu,<51P>Maximus,0.0313109756677371,0,9.21685848504032e-05,182.25,2.25,0.0313109756677371,0,NaN,NaN,0,0.0221173298063182,NaN,0.999983343059282,-0.00119232354226361,-0.00647080911277102,4.90188598632813e-05,178.72619625,178.72624526886,,,56.289999961853,180,0.183795455494242,0.305772191224247
2018-07-19T08:03:54Z,1531987434,10E,40.0266822,44.668129,182.25,0,-0.3,342.2,457496.09,-27957.7,337.2,Air+FixedWing,Red,Allies,J-11A,Red J-11A #002,xu,<51P>Maximus,0.001953125,0,5.74931836031649e-06,182.25,2.25,0.001953125,0,NaN,NaN,0,0,NaN,0.999989055712589,-0.000231536552335227,-0.00468516807845523,1.9073486328125e-07,178.72619625,178.726196440735,,,57.289999961853,180,0.183795455494242,0.305772191224247
2018-07-19T08:03:55Z,1531987435,10E,40.0266822,44.668129,182.25,0.1,-0.3,342.2,457496.09,-27957.7,337.2,Air+FixedWing,Red,Allies,J-11A,Red J-11A #002,xu,<51P>Maximus,0.00390625,0,1.1498636720633e-05,182.25,2.25,0.00390625,0,NaN,NaN,0.0934579519908539,0.0221173298063182,NaN,0.999982954630425,0.00158974546345193,-0.00560316200162775,7.62939453125e-07,178.72619625,178.726197012939,,,58.289999961853,180,0.183795455494242,0.305772191224247
2018-07-19T08:03:56Z,1531987436,10E,40.0266822,44.668129,182.25,0.1,-0.3,342.2,457496.09,-27957.7,337.2,Air+FixedWing,Red,Allies,J-11A,Red J-11A #002,xu,<51P>Maximus,0,0,0,182.25,2.25,0,0,NaN,NaN,0.101906929344693,0.0504352774299245,NaN,0.999695694017229,0.00148307980590643,-0.00523444909627073,0,178.72619625,178.72619625,,,59.289999961853,180,0.183795455494242,0.305772191224247
2018-07-19T08:03:57Z,1531987437,10E,40.0266822,44.668129,182.25,0.1,-0.2,342.2,457496.09,-27957.7,337.2,Air+FixedWing,Red,Allies,J-11A,Red J-11A #002,xu,<51P>Maximus,0.002838134765625,0,8.35447797422607e-06,182.247161865234,2.24716186523438,0,-0.002838134765625,NaN,NaN,0,0.0504352774299245,NaN,0.999886446738548,0.00174513294026457,-0.00349028239474011,4.02750447392464e-07,178.72341299057,178.723413393321,,,60.289999961853,180,0.183795455494242,0.308610325357767
2018-07-19T08:03:58Z,1531987438,10E,40.0266822,44.668129,182.24,0.1,-0.2,342.2,457496.09,-27957.7,337.2,Air+FixedWing,Red,Allies,J-11A,Red J-11A #002,xu,<51P>Maximus,0.003875732421875,0,1.14088027551459e-05,182.243286132812,2.2432861328125,0,-0.003875732421875,NaN,NaN,0,0.0139882274201861,NaN,1.00005137754336,0.00174542079918913,-0.00349085811522123,7.51065090298653e-07,178.719612195435,178.7196129465,,,61.289999961853,180,0.183795455494242,0.312486057505249
2018-07-19T08:03:59Z,1531987439,10E,40.0266822,44.668129,182.24,0.1,-0.2,342.2,457496.09,-27957.7,337.2,Air+FixedWing,Red,Allies,J-11A,Red J-11A #002,xu,<51P>Maximus,0.0032958984375,0,9.70197363493185e-06,182.239990234375,2.239990234375,0,-0.0032958984375,NaN,NaN,0.085732534462,0.0139882274201861,NaN,1.00032935042424,0.000997705649912987,-0.00349182489112348,5.43147325515747e-07,178.716380023193,178.716380566341,,,62.289999961853,180,0.183795455494242,0.315781956526946
2018-07-19T08:04:00Z,1531987440,10E,40.0266822,44.668129,182.24,0,-0.2,342.2,457496.09,-27957.7,337.2,Air+FixedWing,Red,Allies,J-11A,Red J-11A #002,xu,<51P>Maximus,0,0,0,182.239990234375,2.239990234375,0,0,NaN,NaN,0.0340136083549363,0.0139882274201861,NaN,0.999993681908393,0.000474916533740197,-0.00349065172486007,0,178.716380023193,178.716380023193,,,63.289999961853,180,0.183795455494242,0.315781956526946
2018-07-19T08:04:01Z,1531987441,10E,40.0266822,44.668129,182.24,0.1,-0.2,342.2,457496.09,-27957.7,337.2,Air+FixedWing,Red,Allies,J-11A,Red J-11A #002,xu,<51P>Maximus,0,0,0,182.239990234375,2.239990234375,0,0,NaN,NaN,0.0340136016848296,0.0139882274201861,NaN,0.999993264678466,0.00106856204812128,-0.00349065172486007,0,178.716380023193,178.716380023193,,,64.289999961853,180,0.183795455494242,0.315781956526946
2018-07-19T08:04:02Z,1531987442,10E,40.0266822,44.668129,182.24,0.1,-0.2,342.2,457496.09,-27957.7,337.2,Air+FixedWing,Red,Allies,J-11A,Red J-11A #002,xu,<51P>Maximus,0,0,0,182.239990234375,2.239990234375,0,0,NaN,NaN,0.0340136083549363,0.0139882274201861,NaN,0.999992430218612,0.00166220724236221,-0.00349065172486007,0,178.716380023193,178.716380023193,,,65.289999961853,180,0.183795455494242,0.315781956526946
2018-07-19T08:04:03Z,1531987443,10E,40.0266823,44.668129,182.24,0.1,-0.2,342.2,457496.09,-27957.7,337.2,Air+FixedWing,Red,Allies,J-11A,Red J-11A #002,xu,<51P>Maximus,0,0,0,182.239990234375,2.239990234375,0,0,NaN,NaN,0,0.0139882274201861,NaN,0.999992251405786,0.00174531760448032,-0.00349065172486007,0,178.716380023193,178.716380023193,,,66.289999961853,180,0.191712393420277,0.323699120896571
2018-07-19T08:04:04Z,1531987444,10E,40.0266822,44.668129,182.24,0.1,-0.2,342.2,457496.09,-27957.7,337.2,Air+FixedWing,Red,Allies,J-11A,Red J-11A #002,xu,<51P>Maximus,0,0,0,182.239990234375,2.239990234375,0,0,NaN,NaN,0.0571550229746667,0.0139882274201861,NaN,0.99999308586564,0.00119682276518857,-0.00349065172486007,0,178.716380023193,178.716380023193,,,67.289999961853,180,0.199629331346311,0.331616285266195
2018-07-19T08:04:05Z,1531987445,10E,40.0266822,44.668129,182.24,0,-0.2,342.2,457496.09,-27957.7,337.2,Air+FixedWing,Red,Allies,J-11A,Red J-11A #002,xu,<51P>Maximus,0,0,0,182.239990234375,2.239990234375,0,0,NaN,NaN,0.0571550229746667,0.0139882274201861,NaN,0.999993741512668,0.000199558373290332,-0.00349065172486007,0,178.716380023193,178.716380023193,,,68.289999961853,180,0.199629331346311,0.331616285266195
2018-07-19T08:04:06Z,1531987446,10E,40.0266822,44.668129,182.24,0,-0.2,342.2,457496.09,-27957.7,337.2,Air+FixedWing,Red,Allies,J-11A,Red J-11A #002,xu,<51P>Maximus,0,0,0,182.239990234375,2.239990234375,0,0,NaN,NaN,0,0.0139882274201861,NaN,0.999993741512668,0,-0.00349065172486007,0,178.716380023193,178.716380023193,,,69.289999961853,180,0.199629331346311,0.331616285266195
2018-07-19T08:04:07Z,1531987447,10E,40.0266822,44.668129,182.24,0,-0.2,342.2,457496.09,-27957.7,337.2,Air+FixedWing,Red,Allies,J-11A,Red J-11A #002,xu,<51P>Maximus,0,0,0,182.239990234375,2.239990234375,0,0,NaN,NaN,0,0.0139882274201861,NaN,0.999993100624593,7.71788507784092e-05,-0.00367425188256521,0,178.716380023193,178.716380023193,,,70.289999961853,180,0.199629331346311,0.331616285266195
2018-07-19T08:04:08Z,1531987448,10E,40.0266822,44.668129,182.24,0,-0.2,342.2,457496.09,-27957.7,337.2,Air+FixedWing,Red,Allies,J-11A,Red J-11A #002,xu,<51P>Maximus,0.001953125,0,5.74931770958925e-06,182.239990234375,2.239990234375,0.001953125,0,NaN,NaN,0,0.0139882274201861,NaN,0.999994382400743,-7.71788507784092e-05,-0.00330705156715494,1.9073486328125e-07,178.716380023193,178.716380213928,,,71.289999961853,180,0.199629331346311,0.331616285266195
2018-07-19T08:04:09Z,1531987449,10E,40.0266822,44.668129,182.24,0,-0.2,342.2,457496.09,-27957.7,337.2,Air+FixedWing,Red,Allies,J-11A,Red J-11A #002,xu,<51P>Maximus,0,0,0,182.239990234375,2.239990234375,0,0,NaN,NaN,0,0.0139882274201861,NaN,0.999993741512668,0,-0.00349065172486007,0,178.716380023193,178.716380023193,,,72.289999961853,180,0.199629331346311,0.331616285266195
2018-07-19T08:04:10Z,1531987450,10E,40.0266822,44.668129,182.24,0,-0.2,342.2,457496.09,-27957.7,337.2,Air+FixedWing,Red,Allies,J-11A,Red J-11A #002,xu,<51P>Maximus,0,0,0,182.239990234375,2.239990234375,0,0,NaN,NaN,0,0.0139882274201861,NaN,0.999993741512668,0,-0.00349065172486007,0,178.716380023193,178.716380023193,,,73.289999961853,180,0.199629331346311,0.331616285266195
2018-07-19T08:04:11Z,1531987451,10E,40.0266822,44.668129,182.24,0,-0.2,342.2,457496.09,-27957.7,337.2,Air+FixedWing,Red,Allies,J-11A,Red J-11A #002,xu,<51P>Maximus,0,0,0,182.239990234375,2.239990234375,0,0,NaN,NaN,0,0.0139882274201861,NaN,0.999993100624593,7.71788507784092e-05,-0.00367425188256521,0,178.716380023193,178.716380023193,,,74.289999961853,180,0.199629331346311,0.331616285266195
2018-07-19T08:04:12Z,1531987452,10E,40.0266822,44.668129,182.24,0,-0.2,342.2,457496.09,-27957.7,337.2,Air+FixedWing,Red,Allies,J-11A,Red J-11A #002,xu,<51P>Maximus,0.001953125,0,5.74931770958925e-06,182.239990234375,2.239990234375,0.001953125,0,NaN,NaN,0,0.0139882274201861,NaN,0.999994382400743,-7.71788507784092e-05,-0.00330705156715494,1.9073486328125e-07,178.716380023193,178.716380213928,,,75.289999961853,180,0.199629331346311,0.331616285266195
2018-07-19T08:04:13Z,1531987453,10E,40.0266822,44.668129,182.24,0,-0.2,342.2,457496.09,-27957.7,337.2,Air+FixedWing,Red,Allies,J-11A,Red J-11A #002,xu,<51P>Maximus,0,0,0,182.239990234375,2.239990234375,0,0,NaN,NaN,0,0.0139882274201861,NaN,0.999993741512668,0,-0.00349065172486007,0,178.716380023193,178.716380023193,,,76.289999961853,180,0.199629331346311,0.331616285266195
2018-07-19T08:04:14Z,1531987454,10E,40.0266822,44.668129,182.24,0,-0.2,342.2,457496.09,-27957.7,337.2,Air+FixedWing,Red,Allies,J-11A,Red J-11A #002,xu,<51P>Maximus,0,0,0,182.239990234375,2.239990234375,0,0,NaN,NaN,0,0.0139882274201861,NaN,0.999993741512668,0,-0.00349065172486007,0,178.716380023193,178.716380023193,,,77.289999961853,180,0.199629331346311,0.331616285266195
2018-07-19T08:04:15Z,1531987455,10E,40.0266822,44.668129,182.24,0,-0.2,342.2,457496.09,-27957.7,337.2,Air+FixedWing,Red,Allies,J-11A,Red J-11A #002,xu,<51P>Maximus,0,0,0,182.239990234375,2.239990234375,0,0,NaN,NaN,0,0.0139882274201861,NaN,0.999993741512668,0,-0.00349065172486007,0,178.716380023193,178.716380023193,,,78.289999961853,180,0.199629331346311,0.331616285266195
2018-07-19T08:04:16Z,1531987456,10E,40.0266822,44.668129,182.24,0,-0.2,342.2,457496.09,-27957.7,337.2,Air+FixedWing,Red,Allies,J-11A,Red J-11A #002,xu,<51P>Maximus,0,0,0,182.239990234375,2.239990234375,0,0,NaN,NaN,0,0.0139882274201861,NaN,0.999993100624593,7.71788507784092e-05,-0.00367425188256521,0,178.716380023193,178.716380023193,,,79.289999961853,180,0.199629331346311,0.331616285266195
2018-07-19T08:04:17Z,1531987457,10E,40.0266822,44.668129,182.24,0,-0.2,342.2,457496.09,-27957.71,337.2,Air+FixedWing,Red,Allies,J-11A,Red J-11A #002,xu,<51P>Maximus,0.001953125,0,5.74931770958925e-06,182.239990234375,2.239990234375,0.001953125,0,NaN,NaN,0,0.0139882274201861,NaN,0.999994382400743,-7.71788507784092e-05,-0.00330705156715494,1.9073486328125e-07,178.716380023193,178.716380213928,,,80.289999961853,180,0.199629331346311,0.331616285266195
2018-07-19T08:04:18Z,1531987458,10E,40.0266822,44.668129,182.24,0,-0.2,342.2,457496.09,-27957.71,337.2,Air+FixedWing,Red,Allies,J-11A,Red J-11A #002,xu,<51P>Maximus,0,0,0,182.239990234375,2.239990234375,0,0,NaN,NaN,0,0.0139882274201861,NaN,0.999993741512668,0,-0.00349065172486007,0,178.716380023193,178.716380023193,,,81.289999961853,180,0.199629331346311,0.331616285266195
2018-07-19T08:04:19Z,1531987459,10E,40.0266822,44.668129,182.24,0,-0.2,342.2,457496.09,-27957.71,337.2,Air+FixedWing,Red,Allies,J-11A,Red J-11A #002,xu,<51P>Maximus,0,0,0,182.239990234375,2.239990234375,0,0,NaN,NaN,0,0.0139882274201861,NaN,0.999993741512668,0,-0.00349065172486007,0,178.716380023193,178.716380023193,,,82.289999961853,180,0.199629331346311,0.331616285266195
2018-07-19T08:04:20Z,1531987460,10E,40.0266822,44.668129,182.24,0,-0.2,342.2,457496.09,-27957.71,337.2,Air+FixedWing,Red,Allies,J-11A,Red J-11A #002,xu,<51P>Maximus,0,0,0,182.239990234375,2.239990234375,0,0,NaN,NaN,0,0.0139882274201861,NaN,0.999993100624593,7.71788507784092e-05,-0.00367425188256521,0,178.716380023193,178.716380023193,,,83.289999961853,180,0.199629331346311,0.331616285266195
2018-07-19T08:04:21Z,1531987461,10E,40.0266822,44.668129,182.24,0,-0.2,342.2,457496.09,-27957.71,337.2,Air+FixedWing,Red,Allies,J-11A,Red J-11A #002,xu,<51P>Maximus,0.001953125,0,5.74931770958925e-06,182.239990234375,2.239990234375,0.001953125,0,NaN,NaN,0,0.0139882274201861,NaN,0.999994382400743,-7.71788507784092e-05,-0.00330705156715494,1.9073486328125e-07,178.716380023193,178.716380213928,,,84.289999961853,180,0.199629331346311,0.331616285266195
2018-07-19T08:04:22Z,1531987462,10E,40.0266822,44.668129,182.24,0,-0.2,342.2,457496.09,-27957.71,337.2,Air+FixedWing,Red,Allies,J-11A,Red J-11A #002,xu,<51P>Maximus,0,0,0,182.239990234375,2.239990234375,0,0,NaN,NaN,0,0.0139882274201861,NaN,0.999993741512668,0,-0.00349065172486007,0,178.716380023193,178.716380023193,,,85.289999961853,180,0.199629331346311,0.331616285266195
2018-07-19T08:04:23Z,1531987463,10E,40.0266822,44.668129,182.24,0,-0.2,342.2,457496.09,-27957.71,337.2,Air+FixedWing,Red,Allies,J-11A,Red J-11A #002,xu,<51P>Maximus,0,0,0,182.239990234375,2.239990234375,0,0,NaN,NaN,0,0.0139882274201861,NaN,0.999993741512668,0,-0.00349065172486007,0,178.716380023193,178.716380023193,,,86.289999961853,180,0.199629331346311,0.331616285266195
2018-07-19T08:04:24Z,1531987464,10E,40.0266822,44.668129,182.24,0,-0.2,342.2,457496.09,-27957.71,337.2,Air+FixedWing,Red,Allies,J-11A,Red J-11A #002,xu,<51P>Maximus,0,0,0,182.239990234375,2.239990234375,0,0,NaN,NaN,0,0.0139882274201861,NaN,0.999993100624593,7.71788507784092e-05,-0.00367425188256521,0,178.716380023193,178.716380023193,,,87.289999961853,180,0.199629331346311,0.331616285266195
2018-07-19T08:04:25Z,1531987465,10E,40.0266822,44.668129,182.24,0,-0.2,342.2,457496.09,-27957.71,337.2,Air+FixedWing,Red,Allies,J-11A,Red J-11A #002,xu,<51P>Maximus,0.001953125,0,5.74931770958925e-06,182.239990234375,2.239990234375,0.001953125,0,NaN,NaN,0,0.0139882274201861,NaN,0.999994382400743,-7.71788507784092e-05,-0.00330705156715494,1.9073486328125e-07,178.716380023193,178.716380213928,,,88.289999961853,180,0.199629331346311,0.331616285266195
2018-07-19T08:04:26Z,1531987466,10E,40.0266822,44.668129,182.24,0,-0.2,342.2,457496.09,-27957.71,337.2,Air+FixedWing,Red,Allies,J-11A,Red J-11A #002,xu,<51P>Maximus,0,0,0,182.239990234375,2.239990234375,0,0,NaN,NaN,0,0.0139882274201861,NaN,0.999993741512668,0,-0.00349065172486007,0,178.716380023193,178.716380023193,,,89.289999961853,180,0.199629331346311,0.331616285266195
2018-07-19T08:04:27Z,1531987467,10E,40.0266822,44.668129,182.24,0,-0.2,342.2,457496.09,-27957.71,337.2,Air+FixedWing,Red,Allies,J-11A,Red J-11A #002,xu,<51P>Maximus,0,0,0,182.239990234375,2.239990234375,0,0,NaN,NaN,0,0.0139882274201861,NaN,0.999993741512668,0,-0.00349065172486007,0,178.716380023193,178.716380023193,,,90.289999961853,180,0.199629331346311,0.331616285266195
2018-07-19T08:04:28Z,1531987468,10E,40.0266822,44.668129,182.24,0,-0.2,342.2,457496.09,-27957.71,337.2,Air+FixedWing,Red,Allies,J-11A,Red J-11A #002,xu,<51P>Maximus,0,0,0,182.239990234375,2.239990234375,0,0,NaN,NaN,0,0.0139882274201861,NaN,0.999993741512668,0,-0.00349065172486007,0,178.716380023193,178.716380023193,,,91.289999961853,180,0.199629331346311,0.331616285266195
2018-07-19T08:04:29Z,1531987469,10E,40.0266822,44.668129,182.24,0,-0.2,342.2,457496.09,-27957.71,337.2,Air+FixedWing,Red,Allies,J-11A,Red J-11A #002,xu,<51P>Maximus,0,0,0,182.239990234375,2.239990234375,0,0,NaN,NaN,0,0.0139882274201861,NaN,0.999993100624593,7.71788507784092e-05,-0.00367425188256521,0,178.716380023193,178.716380023193,,,92.289999961853,180,0.199629331346311,0.331616285266195
2018-07-19T08:04:30Z,1531987470,10E,40.0266822,44.668129,182.24,0,-0.2,342.2,457496.09,-27957.71,337.2,Air+FixedWing,Red,Allies,J-11A,Red J-11A #002,xu,<51P>Maximus,0.001953125,0,5.74931770958925e-06,182.239990234375,2.239990234375,0.001953125,0,NaN,NaN,0,0.0139882274201861,NaN,0.999994382400743,-7.71788507784092e-05,-0.00330705156715494,1.9073486328125e-07,178.716380023193,178.716380213928,,,93.289999961853,180,0.199629331346311,0.331616285266195
2018-07-19T08:04:31Z,1531987471,10E,40.0266822,44.668129,182.24,0,-0.2,342.2,457496.09,-27957.71,337.2,Air+FixedWing,Red,Allies,J-11A,Red J-11A #002,xu,<51P>Maximus,0,0,0,182.239990234375,2.239990234375,0,0,NaN,NaN,0,0.0139882274201861,NaN,0.999993741512668,0,-0.00349065172486007,0,178.716380023193,178.716380023193,,,94.289999961853,180,0.199629331346311,0.331616285266195
2018-07-19T08:04:32Z,1531987472,10E,40.0266822,44.6681289,182.24,0,-0.2,342.2,457496.09,-27957.71,337.2,Air+FixedWing,Red,Allies,J-11A,Red J-11A #002,xu,<51P>Maximus,0,0,0,182.239990234375,2.239990234375,0,0,NaN,NaN,0,0.0139882274201861,NaN,0.999993741512668,0,-0.00349065172486007,0,178.716380023193,178.716380023193,,,95.289999961853,180,0.206360278825111,0.338347424718939
2018-07-19T08:04:33Z,1531987473,10E,40.0266822,44.668129,182.24,0,-0.2,342.2,457496.09,-27957.71,337.2,Air+FixedWing,Red,Allies,J-11A,Red J-11A #002,xu,<51P>Maximus,0,0,0,182.239990234375,2.239990234375,0,0,NaN,NaN,0,0.0504352774299245,NaN,0.999993741512668,0,-0.00349065172486007,0,178.716380023193,178.716380023193,,,96.289999961853,180,0.213091226303911,0.345078564171683
2018-07-19T08:04:34Z,1531987474,10E,40.0266822,44.668129,182.24,0,-0.2,342.2,457496.09,-27957.71,337.3,Air+FixedWing,Red,Allies,J-11A,Red J-11A #002,xu,<51P>Maximus,0,0,0,182.239990234375,2.239990234375,0,0,NaN,NaN,0,0.0328053018670254,NaN,0.999993741512668,0,-0.00349065172486007,0,178.716380023193,178.716380023193,,,97.289999961853,180,0.213091226303911,0.345078564171683
2018-07-19T08:04:35Z,1531987475,10E,40.0266822,44.668129,182.24,0,-0.2,342.2,457496.09,-27957.71,337.2,Air+FixedWing,Red,Allies,J-11A,Red J-11A #002,xu,<51P>Maximus,0,0,0,182.239990234375,2.239990234375,0,0,NaN,NaN,0.00111420514494016,0.0504352774299245,NaN,0.999993801116943,9.72321388749376e-06,-0.00349065172486007,0,178.716380023193,178.716380023193,,,98.289999961853,180,0.213091226303911,0.345078564171683
2018-07-19T08:04:36Z,1531987476,10E,40.0266822,44.668129,182.24,0,-0.2,342.2,457496.09,-27957.71,337.2,Air+FixedWing,Red,Allies,J-11A,Red J-11A #002,xu,<51P>Maximus,0,0,0,182.239990234375,2.239990234375,0,0,NaN,NaN,0.0139275778082958,0.0328053018670254,NaN,0.999993741512668,0.00025280379208506,-0.00349065172486007,0,178.716380023193,178.716380023193,,,99.289999961853,180,0.213091226303911,0.345078564171683
2018-07-19T08:04:37Z,1531987477,10E,40.0266822,44.668129,182.24,0,-0.2,342.2,457496.09,-27957.71,337.2,Air+FixedWing,Red,Allies,J-11A,Red J-11A #002,xu,<51P>Maximus,0,0,0,182.239990234375,2.239990234375,0,0,NaN,NaN,0.0139275761407692,0.0139882274201861,NaN,0.999993622304117,0.000495884345726422,-0.00349065172486007,0,178.716380023193,178.716380023193,,,100.289999961853,180,0.213091226303911,0.345078564171683
2018-07-19T08:04:38Z,1531987478,10E,40.0266822,44.668129,182.24,0,-0.2,342.2,457496.09,-27957.71,337.2,Air+FixedWing,Red,Allies,J-11A,Red J-11A #002,xu,<51P>Maximus,0,0,0,182.239990234375,2.239990234375,0,0,NaN,NaN,0.0139275761407692,0.0139882274201861,NaN,0.999993503095567,0.000738964899367783,-0.00349065172486007,0,178.716380023193,178.716380023193,,,101.289999961853,180,0.213091226303911,0.345078564171683
2018-07-19T08:04:39Z,1531987479,10E,40.0266822,44.668129,182.24,0.1,-0.2,342.2,457496.09,-27957.71,337.2,Air+FixedWing,Red,Allies,J-11A,Red J-11A #002,xu,<51P>Maximus,0,0,0,182.239990234375,2.239990234375,0,0,NaN,NaN,0.0139275761407692,0.0139882274201861,NaN,0.999993324282741,0.000982045394801845,-0.00349065172486007,0,178.716380023193,178.716380023193,,,102.289999961853,180,0.213091226303911,0.345078564171683
2018-07-19T08:04:40Z,1531987480,10E,40.0266822,44.668129,182.24,0.1,-0.2,342.2,457496.09,-27957.71,337.2,Air+FixedWing,Red,Allies,J-11A,Red J-11A #002,xu,<51P>Maximus,0,0,0,182.239990234375,2.239990234375,0,0,NaN,NaN,0.0139275828108758,0.0139882274201861,NaN,0.999992966657089,0.00122512571561401,-0.00349065172486007,0,178.716380023193,178.716380023193,,,103.289999961853,180,0.213091226303911,0.345078564171683
2018-07-19T08:04:41Z,1531987481,10E,40.0266822,44.668129,182.24,0.1,-0.2,342.2,457496.09,-27957.71,337.2,Air+FixedWing,Red,Allies,J-11A,Red J-11A #002,xu,<51P>Maximus,0,0,0,182.239990234375,2.239990234375,0,0,NaN,NaN,0.0139275694706626,0.0139882274201861,NaN,0.999992668635713,0.00146820603642617,-0.00349065172486007,0,178.716380023193,178.716380023193,,,104.289999961853,180,0.213091226303911,0.345078564171683
2018-07-19T08:04:42Z,1531987482,10E,40.0266822,44.668129,182.24,0.1,-0.2,342.2,457496.09,-27957.71,337.2,Air+FixedWing,Red,Allies,J-11A,Red J-11A #002,xu,<51P>Maximus,0,0,0,182.239990234375,2.239990234375,0,0,NaN,NaN,0.0139275694706626,0.0139882274201861,NaN,0.999992311010061,0.00171128635723833,-0.00349065172486007,0,178.716380023193,178.716380023193,,,105.289999961853,180,0.213091226303911,0.345078564171683
2018-07-19T08:04:43Z,1531987483,10E,40.0266822,44.668129,182.24,0.1,-0.2,342.2,457496.09,-27957.71,337.2,Air+FixedWing,Red,Allies,J-11A,Red J-11A #002,xu,<51P>Maximus,0,0,0,182.239990234375,2.239990234375,0,0,NaN,NaN,0.0485216638637706,0.0139882274201861,NaN,0.999993264678466,0.00101673415170567,-0.00349065172486007,0,178.716380023193,178.716380023193,,,106.289999961853,180,0.213091226303911,0.345078564171683
2018-07-19T08:04:44Z,1531987484,10E,40.0266822,44.668129,182.24,0,-0.2,342.2,457496.09,-27957.71,337.2,Air+FixedWing,Red,Allies,J-11A,Red J-11A #002,xu,<51P>Maximus,0,0,0,182.239990234375,2.239990234375,0,0,NaN,NaN,0.0485216638637706,0.0139882274201861,NaN,0.999993801116943,0.000169543546169215,-0.00349065172486007,0,178.716380023193,178.716380023193,,,107.289999961853,180,0.213091226303911,0.345078564171683
2018-07-19T08:04:45Z,1531987485,10E,40.0266822,44.668129,182.24,0,-0.2,342.2,457496.09,-27957.71,337.2,Air+FixedWing,Red,Allies,J-11A,Red J-11A #002,xu,<51P>Maximus,0,0,0,182.239990234375,2.239990234375,0,0,NaN,NaN,0.0423728894501191,0.0139882274201861,NaN,0.999993622304117,0.000591633375327888,-0.00349065172486007,0,178.716380023193,178.716380023193,,,108.289999961853,180,0.213091226303911,0.345078564171683
2018-07-19T08:04:46Z,1531987486,10E,40.0266822,44.668129,182.24,0.1,-0.2,342.2,457496.09,-27957.71,337.2,Air+FixedWing,Red,Allies,J-11A,Red J-11A #002,xu,<51P>Maximus,0,0,0,182.239990234375,2.239990234375,0,0,NaN,NaN,0.0423728861150658,0.0139882274201861,NaN,0.999992847448539,0.00133117487621037,-0.00349065172486007,0,178.716380023193,178.716380023193,,,109.289999961853,180,0.213091226303911,0.345078564171683
2018-07-19T08:04:47Z,1531987487,10E,40.0266822,44.668129,182.24,0,-0.2,342.2,457496.09,-27957.71,337.2,Air+FixedWing,Red,Allies,J-11A,Red J-11A #002,xu,<51P>Maximus,0,0,0,182.239990234375,2.239990234375,0,0,NaN,NaN,0.118736008531502,0.0139882274201861,NaN,0.999993562699842,0.000664882431286484,-0.00349065172486007,0,178.716380023193,178.716380023193,,,110.289999961853,180,0.213091226303911,0.345078564171683
2018-07-19T08:04:48Z,1531987488,10E,40.0266822,44.668129,182.24,0,-0.2,342.2,457496.09,-27957.71,337.2,Air+FixedWing,Red,Allies,J-11A,Red J-11A #002,xu,<51P>Maximus,0,0,0,182.239990234375,2.239990234375,0,0,NaN,NaN,0.078738420751907,0.0139882274201861,NaN,0.999993562699842,0.000549779008746365,-0.00349065172486007,0,178.716380023193,178.716380023193,,,111.289999961853,180,0.213091226303911,0.345078564171683
2018-07-19T08:04:49Z,1531987489,10E,40.0266822,44.668129,182.24,0,-0.2,342.2,457496.09,-27957.71,337.2,Air+FixedWing,Red,Allies,J-11A,Red J-11A #002,xu,<51P>Maximus,0,0,0,182.239990234375,2.239990234375,0,0,NaN,NaN,0.026881723592786,0.0139882274201861,NaN,0.999993741512668,0.00028150295960222,-0.00349065172486007,0,178.716380023193,178.716380023193,,,112.289999961853,180,0.213091226303911,0.345078564171683
2018-07-19T08:04:50Z,1531987490,10E,40.0266822,44.668129,182.24,0,-0.2,342.2,457496.09,-27957.71,337.2,Air+FixedWing,Red,Allies,J-11A,Red J-11A #002,xu,<51P>Maximus,0,0,0,182.239990234375,2.239990234375,0,0,NaN,NaN,0.0268817169226793,0.0139882274201861,NaN,0.999993503095567,0.000750674520134387,-0.00349065172486007,0,178.716380023193,178.716380023193,,,113.289999961853,180,0.213091226303911,0.345078564171683
2018-07-19T08:04:51Z,1531987491,10E,40.0266822,44.668129,182.24,0.1,-0.2,342.2,457496.09,-27957.71,337.2,Air+FixedWing,Red,Allies,J-11A,Red J-11A #002,xu,<51P>Maximus,0,0,0,182.239990234375,2.239990234375,0,0,NaN,NaN,0.0268817302628926,0.0139882274201861,NaN,0.999993026261365,0.00121984596425195,-0.00349065172486007,0,178.716380023193,178.716380023193,,,114.289999961853,180,0.213091226303911,0.345078564171683
2018-07-19T08:04:52Z,1531987492,10E,40.0266822,44.668129,182.24,0.1,-0.2,342.2,457496.09,-27957.71,337.2,Air+FixedWing,Red,Allies,J-11A,Red J-11A #002,xu,<51P>Maximus,0,0,0,182.239990234375,2.239990234375,0,0,NaN,NaN,0.0268817169226793,0.0139882274201861,NaN,0.999992370614336,0.00168901705912572,-0.00349065172486007,0,178.716380023193,178.716380023193,,,115.289999961853,180,0.213091226303911,0.345078564171683
2018-07-19T08:04:53Z,1531987493,10E,40.0266822,44.668129,182.24,0,-0.2,342.2,457496.09,-27957.71,337.2,Air+FixedWing,Red,Allies,J-11A,Red J-11A #002,xu,<51P>Maximus,0,0,0,182.239990234375,2.239990234375,0,0,NaN,NaN,0.0847489872215182,0.0139882274201861,NaN,0.999993681908393,0.000443803625902864,-0.00349065172486007,0,178.716380023193,178.716380023193,,,116.289999961853,180,0.213091226303911,0.345078564171683
2018-07-19T08:04:54Z,1531987494,10E,40.0266822,44.668129,182.24,0,-0.2,342.2,457496.09,-27957.71,337.2,Air+FixedWing,Red,Allies,J-11A,Red J-11A #002,xu,<51P>Maximus,0,0,0,182.239990234375,2.239990234375,0,0,NaN,NaN,0.011160715866786,0.0139882274201861,NaN,0.999993741512668,0.00013635303061791,-0.00349065172486007,0,178.716380023193,178.716380023193,,,117.289999961853,180,0.213091226303911,0.345078564171683
2018-07-19T08:04:55Z,1531987495,10E,40.0266822,44.668129,182.24,0,-0.2,342.2,457496.09,-27957.71,337.2,Air+FixedWing,Red,Allies,J-11A,Red J-11A #002,xu,<51P>Maximus,0,0,0,182.239990234375,2.239990234375,0,0,NaN,NaN,0.011160715866786,0.0139882274201861,NaN,0.999993681908393,0.000331143047332963,-0.00349065172486007,0,178.716380023193,178.716380023193,,,118.289999961853,180,0.213091226303911,0.345078564171683
2018-07-19T08:04:56Z,1531987496,10E,40.0266822,44.668129,182.24,0,-0.2,342.2,457496.09,-27957.71,337.2,Air+FixedWing,Red,Allies,J-11A,Red J-11A #002,xu,<51P>Maximus,0,0,0,182.239990234375,2.239990234375,0,0,NaN,NaN,0.011160715866786,0.0139882274201861,NaN,0.999993622304117,0.000525933049496191,-0.00349065172486007,0,178.716380023193,178.716380023193,,,119.289999961853,180,0.213091226303911,0.345078564171683
2018-07-19T08:04:57Z,1531987497,10E,40.0266822,44.668129,182.24,0,-0.2,342.2,457496.09,-27957.71,337.2,Air+FixedWing,Red,Allies,J-11A,Red J-11A #002,xu,<51P>Maximus,0,0,0,182.239990234375,2.239990234375,0,0,NaN,NaN,0.011160715866786,0.0139882274201861,NaN,0.999993503095567,0.000720723022555769,-0.00349065172486007,0,178.716380023193,178.716380023193,,,120.289999961853,180,0.213091226303911,0.345078564171683
2018-07-19T08:04:58Z,1531987498,10E,40.0266822,44.668129,182.24,0.1,-0.2,342.2,457496.09,-27957.71,337.2,Air+FixedWing,Red,Allies,J-11A,Red J-11A #002,xu,<51P>Maximus,0,0,0,182.239990234375,2.239990234375,0,0,NaN,NaN,0.0111607225368926,0.0139882274201861,NaN,0.999993383887016,0.000915512995615347,-0.00349065172486007,0,178.716380023193,178.716380023193,,,121.289999961853,180,0.213091226303911,0.345078564171683
2018-07-19T08:04:59Z,1531987499,10E,40.0266822,44.668129,182.24,0.1,-0.2,342.2,457496.09,-27957.71,337.2,Air+FixedWing,Red,Allies,J-11A,Red J-11A #002,xu,<51P>Maximus,0,0,0,182.239990234375,2.239990234375,0,0,NaN,NaN,0.011160715866786,0.0139882274201861,NaN,0.999993145469915,0.00111030285226033,-0.00349065172486007,0,178.716380023193,178.716380023193,,,122.289999961853,180,0.213091226303911,0.345078564171683
2018-07-19T08:05:00Z,1531987500,10E,40.0266822,44.668129,182.24,0.1,-0.2,342.2,457496.09,-27957.71,337.2,Air+FixedWing,Red,Allies,J-11A,Red J-11A #002,xu,<51P>Maximus,0,0,0,182.239990234375,2.239990234375,0,0,NaN,NaN,0.011160715866786,0.0139882274201861,NaN,0.999992966657089,0.0013050927671126,-0.00349065172486007,0,178.716380023193,178.716380023193,,,123.289999961853,180,0.213091226303911,0.345078564171683
2018-07-19T08:05:01Z,1531987501,10E,40.0266822,44.668129,182.24,0.1,-0.2,342.2,457496.09,-27957.71,337.2,Air+FixedWing,Red,Allies,J-11A,Red J-11A #002,xu,<51P>Maximus,0,0,0,182.239990234375,2.239990234375,0,0,NaN,NaN,0.0111607292069992,0.0139882274201861,NaN,0.999992609031438,0.00149988256555028,-0.00349065172486007,0,178.716380023193,178.716380023193,,,124.289999961853,180,0.213091226303911,0.345078564171683
2018-07-19T08:05:02Z,1531987502,10E,40.0266822,44.668129,182.24,0.1,-0.2,342.2,457496.09,-27957.71,337.2,Air+FixedWing,Red,Allies,J-11A,Red J-11A #002,xu,<51P>Maximus,0,0,0,182.239990234375,2.239990234375,0,0,NaN,NaN,0.0111607025265727,0.0139882274201861,NaN,0.999992311010061,0.00169467224757336,-0.00349065172486007,0,178.716380023193,178.716380023193,,,125.289999961853,180,0.213091226303911,0.345078564171683
2018-07-19T08:05:03Z,1531987503,10E,40.0266822,44.668129,182.24,0,-0.2,342.2,457496.09,-27957.71,337.2,Air+FixedWing,Red,Allies,J-11A,Red J-11A #002,xu,<51P>Maximus,0,0,0,182.239990234375,2.239990234375,0,0,NaN,NaN,0.0892842328304067,0.0139882274201861,NaN,0.999993562699842,0.000592231280714423,-0.00349065172486007,0,178.716380023193,178.716380023193,,,126.289999961853,180,0.213091226303911,0.345078564171683
2018-07-19T08:05:04Z,1531987504,10E,40.0266822,44.668129,182.24,0,-0.2,342.2,457496.09,-27957.71,337.2,Air+FixedWing,Red,Allies,J-11A,Red J-11A #002,xu,<51P>Maximus,0,0,0,182.239990234375,2.239990234375,0,0,NaN,NaN,0.0239234479343238,0.0139882274201861,NaN,0.999993741512668,0.0002588749590028,-0.00349065172486007,0,178.716380023193,178.716380023193,,,127.289999961853,180,0.213091226303911,0.345078564171683
2018-07-19T08:05:05Z,1531987505,10E,40.0266822,44.668129,182.24,0,-0.2,342.2,457496.09,-27957.71,337.2,Air+FixedWing,Red,Allies,J-11A,Red J-11A #002,xu,<51P>Maximus,0,0,0,182.239990234375,2.239990234375,0,0,NaN,NaN,0.0239234412642172,0.0139882274201861,NaN,0.999993562699842,0.000676415218275411,-0.00349065172486007,0,178.716380023193,178.716380023193,,,128.289999961853,180,0.213091226303911,0.345078564171683
2018-07-19T08:05:06Z,1531987506,10E,40.0266822,44.668129,182.24,0.1,-0.2,342.2,457496.09,-27957.71,337.2,Air+FixedWing,Red,Allies,J-11A,Red J-11A #002,xu,<51P>Maximus,0,0,0,182.239990234375,2.239990234375,0,0,NaN,NaN,0.0239234445992705,0.0139882274201861,NaN,0.999993145469915,0.00109395544844437,-0.00349065172486007,0,178.716380023193,178.716380023193,,,129.289999961853,180,0.213091226303911,0.345078564171683
2018-07-19T08:05:07Z,1531987507,10E,40.0266822,44.668129,182.24,0.1,-0.2,342.2,457496.09,-27957.71,337.2,Air+FixedWing,Red,Allies,J-11A,Red J-11A #002,xu,<51P>Maximus,0,0,0,182.239990234375,2.239990234375,0,0,NaN,NaN,0.0239234445992705,0.0139882274201861,NaN,0.999992668635713,0.00151149538757683,-0.00349065172486007,0,178.716380023193,178.716380023193,,,130.289999961853,180,0.213091226303911,0.345078564171683
2018-07-19T08:05:08Z,1531987508,10E,40.0266822,44.668129,182.24,0.1,-0.2,342.2,457496.09,-27957.71,337.2,Air+FixedWing,Red,Allies,J-11A,Red J-11A #002,xu,<51P>Maximus,0,0,0,182.239990234375,2.239990234375,0,0,NaN,NaN,0.0801591000992696,0.0139882274201861,NaN,0.999993264678466,0.00102089015293216,-0.00349065172486007,0,178.716380023193,178.716380023193,,,131.289999961853,180,0.213091226303911,0.345078564171683
2018-07-19T08:05:09Z,1531987509,10E,40.0266822,44.668129,182.24,0,-0.2,342.2,457496.09,-27957.71,337.2,Air+FixedWing,Red,Allies,J-11A,Red J-11A #002,xu,<51P>Maximus,0,0,0,182.239990234375,2.239990234375,0,0,NaN,NaN,0.0149717746606679,0.0139882274201861,NaN,0.999993741512668,6.68569412640672e-05,-0.00349065172486007,0,178.716380023193,178.716380023193,,,132.289999961853,180,0.213091226303911,0.345078564171683
2018-07-19T08:05:10Z,1531987510,10E,40.0266822,44.668129,182.24,0,-0.2,342.2,457496.09,-27957.71,337.2,Air+FixedWing,Red,Allies,J-11A,Red J-11A #002,xu,<51P>Maximus,0,0,0,182.239990234375,2.239990234375,0,0,NaN,NaN,0.0100806438460048,0.0139882274201861,NaN,0.999993741512668,0.000242796298291367,-0.00349065172486007,0,178.716380023193,178.716380023193,,,133.289999961853,180,0.213091226303911,0.345078564171683
2018-07-19T08:05:11Z,1531987511,10E,40.0266822,44.668129,182.24,0,-0.2,342.2,457496.09,-27957.71,337.2,Air+FixedWing,Red,Allies,J-11A,Red J-11A #002,xu,<51P>Maximus,0,0,0,182.239990234375,2.239990234375,0,0,NaN,NaN,0.0100806488485847,0.0139882274201861,NaN,0.999993681908393,0.00041873569169823,-0.00349065172486007,0,178.716380023193,178.716380023193,,,134.289999961853,180,0.213091226303911,0.345078564171683
2018-07-19T08:05:12Z,1531987512,10E,40.0266822,44.668129,182.24,0,-0.2,342.2,457496.09,-27957.71,337.2,Air+FixedWing,Red,Allies,J-11A,Red J-11A #002,xu,<51P>Maximus,0,0,0,182.239990234375,2.239990234375,0,0,NaN,NaN,0.0100806455135314,0.0139882274201861,NaN,0.999993562699842,0.000594674997794142,-0.00349065172486007,0,178.716380023193,178.716380023193,,,135.289999961853,180,0.213091226303911,0.345078564171683
2018-07-19T08:05:13Z,1531987513,10E,40.0266822,44.668129,182.24,0,-0.2,342.2,457496.09,-27957.71,337.2,Air+FixedWing,Red,Allies,J-11A,Red J-11A #002,xu,<51P>Maximus,0,0,0,182.239990234375,2.239990234375,0,0,NaN,NaN,0.0100806455135314,0.0139882274201861,NaN,0.999993503095567,0.000770614362097355,-0.00349065172486007,0,178.716380023193,178.716380023193,,,136.289999961853,180,0.213091226303911,0.345078564171683
2018-07-19T08:05:14Z,1531987514,10E,40.0266822,44.668129,182.24,0.1,-0.2,342.2,457496.09,-27957.71,337.2,Air+FixedWing,Red,Allies,J-11A,Red J-11A #002,xu,<51P>Maximus,0,0,0,182.239990234375,2.239990234375,0,0,NaN,NaN,0.0100806455135314,0.0139882274201861,NaN,0.999993264678466,0.000946553726400567,-0.00349065172486007,0,178.716380023193,178.716380023193,,,137.289999961853,180,0.213091226303911,0.345078564171683
2018-07-19T08:05:15Z,1531987515,10E,40.0266822,44.668129,182.24,0.1,-0.2,342.2,457496.09,-27957.71,337.2,Air+FixedWing,Red,Allies,J-11A,Red J-11A #002,xu,<51P>Maximus,0,0,0,182.239990234375,2.239990234375,0,0,NaN,NaN,0.0100806388434248,0.0139882274201861,NaN,0.999993145469915,0.00112249285787458,-0.00349065172486007,0,178.716380023193,178.716380023193,,,138.289999961853,180,0.213091226303911,0.345078564171683
2018-07-19T08:05:16Z,1531987516,10E,40.0266822,44.668129,182.24,0.1,-0.2,342.2,457496.09,-27957.71,337.2,Air+FixedWing,Red,Allies,J-11A,Red J-11A #002,xu,<51P>Maximus,0,0,0,182.239990234375,2.239990234375,0,0,NaN,NaN,0.010080652183638,0.0139882274201861,NaN,0.999992907052814,0.00129843222217779,-0.00349065172486007,0,178.716380023193,178.716380023193,,,139.289999961853,180,0.213091226303911,0.345078564171683
2018-07-19T08:05:17Z,1531987517,10E,40.0266822,44.668129,182.24,0.1,-0.2,342.2,457496.09,-27957.71,337.2,Air+FixedWing,Red,Allies,J-11A,Red J-11A #002,xu,<51P>Maximus,0,0,0,182.239990234375,2.239990234375,0,0,NaN,NaN,0.0100806388434248,0.0139882274201861,NaN,0.999992728239988,0.0014743713536518,-0.00349065172486007,0,178.716380023193,178.716380023193,,,140.289999961853,180,0.213091226303911,0.345078564171683
2018-07-19T08:05:18Z,1531987518,10E,40.0266822,44.668129,182.24,0.1,-0.2,342.2,457496.09,-27957.71,337.2,Air+FixedWing,Red,Allies,J-11A,Red J-11A #002,xu,<51P>Maximus,0,0,0,182.239990234375,2.239990234375,0,0,NaN,NaN,0.010080652183638,0.0139882274201861,NaN,0.999992430218612,0.00165031060154042,-0.00349065172486007,0,178.716380023193,178.716380023193,,,141.289999961853,180,0.213091226303911,0.345078564171683
2018-07-19T08:05:19Z,1531987519,10E,40.0266822,44.668129,182.24,0,-0.2,342.2,457496.09,-27957.71,337.2,Air+FixedWing,Red,Allies,J-11A,Red J-11A #002,xu,<51P>Maximus,0,0,0,182.239990234375,2.239990234375,0,0,NaN,NaN,0.111359404227888,0.0139882274201861,NaN,0.999993443491292,0.000766296602783906,-0.00349065172486007,0,178.716380023193,178.716380023193,,,142.289999961853,180,0.213091226303911,0.345078564171683
2018-07-19T08:05:20Z,1531987520,10E,40.0266822,44.668129,182.24,0.1,-0.2,342.2,457496.09,-27957.71,337.2,Air+FixedWing,Red,Allies,J-11A,Red J-11A #002,xu,<51P>Maximus,0,0,0,182.239990234375,2.239990234375,0,0,NaN,NaN,0.135135132646144,0.0139882274201861,NaN,0.999992609031438,0.00150946371997446,-0.00349065172486007,0,178.716380023193,178.716380023193,,,143.289999961853,180,0.213091226303911,0.345078564171683
2018-07-19T08:05:21Z,1531987521,10E,40.0266822,44.668129,182.24,0,-0.2,342.2,457496.09,-27957.71,337.2,Air+FixedWing,Red,Allies,J-11A,Red J-11A #002,xu,<51P>Maximus,0,0,0,182.239990234375,2.239990234375,0,0,NaN,NaN,0.0640944951713997,0.0139882274201861,NaN,0.999993503095567,0.000738464782245402,-0.00349065172486007,0,178.716380023193,178.716380023193,,,144.289999961853,180,0.213091226303911,0.345078564171683
2018-07-19T08:05:22Z,1531987522,10E,40.0266822,44.668129,182.24,0,-0.2,342.2,457496.09,-27957.71,337.2,Air+FixedWing,Red,Allies,J-11A,Red J-11A #002,xu,<51P>Maximus,0,0,0,182.239990234375,2.239990234375,0,0,NaN,NaN,0.0111468687254608,0.0139882274201861,NaN,0.999993801116943,8.17366552841384e-05,-0.00349065172486007,0,178.716380023193,178.716380023193,,,145.289999961853,180,0.213091226303911,0.345078564171683
2018-07-19T08:05:23Z,1531987523,10E,40.0266822,44.668129,182.24,0,-0.2,342.2,457496.09,-27957.71,337.2,Air+FixedWing,Red,Allies,J-11A,Red J-11A #002,xu,<51P>Maximus,0,0,0,182.239990234375,2.239990234375,0,0,NaN,NaN,0.0137741069928022,0.0139882274201861,NaN,0.999993681908393,0.000322138669045388,-0.00349065172486007,0,178.716380023193,178.716380023193,,,146.289999961853,180,0.213091226303911,0.345078564171683
2018-07-19T08:05:24Z,1531987524,10E,40.0266822,44.668129,182.24,0,-0.2,342.2,457496.09,-27957.71,337.2,Air+FixedWing,Red,Allies,J-11A,Red J-11A #002,xu,<51P>Maximus,0,0,0,182.239990234375,2.239990234375,0,0,NaN,NaN,0.0137741069928022,0.0139882274201861,NaN,0.999993562699842,0.000562540610047513,-0.00349065172486007,0,178.716380023193,178.716380023193,,,147.289999961853,180,0.213091226303911,0.345078564171683
2018-07-19T08:05:25Z,1531987525,10E,40.0266822,44.668129,182.24,0,-0.2,342.2,457496.09,-27957.71,337.2,Air+FixedWing,Red,Allies,J-11A,Red J-11A #002,xu,<51P>Maximus,0,0,0,182.239990234375,2.239990234375,0,0,NaN,NaN,0.0137741036577489,0.0139882274201861,NaN,0.999993443491292,0.000802942580153287,-0.00349065172486007,0,178.716380023193,178.716380023193,,,148.289999961853,180,0.213091226303911,0.345078564171683
2018-07-19T08:05:26Z,1531987526,10E,40.0266822,44.668129,182.24,0.1,-0.2,342.2,457496.09,-27957.71,337.2,Air+FixedWing,Red,Allies,J-11A,Red J-11A #002,xu,<51P>Maximus,0,0,0,182.239990234375,2.239990234375,0,0,NaN,NaN,0.0137741103278555,0.0139882274201861,NaN,0.999993205074191,0.00104334443384446,-0.00349065172486007,0,178.716380023193,178.716380023193,,,149.289999961853,180,0.213091226303911,0.345078564171683
2018-07-19T08:05:27Z,1531987527,10E,40.0266822,44.668129,182.24,0.1,-0.2,342.2,457496.09,-27957.71,337.2,Air+FixedWing,Red,Allies,J-11A,Red J-11A #002,xu,<51P>Maximus,0,0,0,182.239990234375,2.239990234375,0,0,NaN,NaN,0.0137741036577489,0.0139882274201861,NaN,0.999992907052814,0.00128374628753564,-0.00349065172486007,0,178.716380023193,178.716380023193,,,150.289999961853,180,0.213091226303911,0.345078564171683
