ISOTime,UnixTime,Id,Longitude,Latitude,Altitude,Roll,Pitch,Yaw,U,V,Heading,Type,Color,Coalition,Name,Group,Country,Pilot,TAS,CAS,M,ASL,AGL,GS,VS,AOA,AOS,RRT,TRT,TRD,G,LatG,LonG,Ek,Ep,Em,FFW,FFV,RelativeTime,Elev,GroundDistance,AirDistance
2018-07-19T08:06:23Z,1531987583,104,43.0839432,44.2225464,322.29,-0.1,0.2,34.2,706027,-51822.28,27.1,Air+FixedWing,Blue,Enemies,J-11A,Blue J-11A #003,cn,=UVAF=GregOzby[430],0.059123681,0,0.000174316,322.2947388,2.29473877,NaN,NaN,NaN,NaN,0,NaN,NaN,NaN,NaN,NaN,NaN,316.06317,NaN,,,0.940000057,320,NaN,NaN
2018-07-19T08:06:24Z,1531987584,104,43.0839434,44.2225466,322.31,0,-0.2,34.2,706027,-51822.25,27.1,Air+FixedWing,Blue,Enemies,J-11A,Blue J-11A #003,cn,=UVAF=GregOzby[430],0.03022473,0,8.91e-05,322.3076172,2.307617188,0.02734375,0.012878418,NaN,NaN,0.199987939,0.02211733,NaN,0.992791622,-0.001996012,-0.007366084,4.57e-05,316.0757994,316.0758451,,,1.940000057,320,0.020869063,0.024523773
2018-07-19T08:06:25Z,1531987585,104,43.0839433,44.2225465,322.25,-0.1,-0.3,34.2,706027,-51822.27,27.1,Air+FixedWing,Blue,Enemies,J-11A,Blue J-11A #003,cn,=UVAF=GregOzby[430],0.059698249,0,0.00017601,322.25,2.25,0.015625,-0.057617188,NaN,NaN,0.07617027,0.056820457,NaN,1.005977579,-0.001029834,-0.003849041,0.000178194,316.0192963,316.0194744,,,2.940000057,320,0.034564381,0.083746411
2018-07-19T08:06:26Z,1531987586,104,43.0839433,44.2225465,322.25,0,-0.3,34.2,706027,-51822.27,27.1,Air+FixedWing,Blue,Enemies,J-11A,Blue J-11A #003,cn,=UVAF=GregOzby[430],0.001068115,0,3.15e-06,322.2510681,2.251068115,0,0.001068115,NaN,NaN,0.102850936,0.052339163,NaN,1.000736136,0,-0.005239891,5.7e-08,316.0203437,316.0203438,,,3.940000057,320,0.034564381,0.084814526
2018-07-19T08:06:27Z,1531987587,104,43.0839433,44.2225465,322.26,0,-0.3,34.2,706027,-51822.27,27.1,Air+FixedWing,Blue,Enemies,J-11A,Blue J-11A #003,cn,=UVAF=GregOzby[430],0.008422852,0,2.48e-05,322.259491,2.259490967,0,0.008422852,NaN,NaN,0,0.00989117,NaN,0.998436454,0,-0.00522785,3.55e-06,316.0286037,316.0286073,,,4.940000057,320,0.034564381,0.093237377
2018-07-19T08:06:28Z,1531987588,104,43.0839433,44.2225465,322.25,0,-0.3,34.2,706027,-51822.27,27.1,Air+FixedWing,Blue,Enemies,J-11A,Blue J-11A #003,cn,=UVAF=GregOzby[430],0.006774902,0,2e-05,322.2527161,2.252716064,0,-0.006774902,NaN,NaN,0,0.00989117,NaN,1.000400052,0,-0.005238132,2.29e-06,316.0219598,316.0219621,,,5.940000057,320,0.034564381,0.10001228
2018-07-19T08:06:29Z,1531987589,104,43.0839433,44.2225465,322.25,0.1,-0.3,34.2,706027,-51822.27,27.1,Air+FixedWing,Blue,Enemies,J-11A,Blue J-11A #003,cn,=UVAF=GregOzby[430],0.002716064,0,8.01e-06,322.25,2.25,0,-0.002716064,NaN,NaN,0.070340023,0.00989117,NaN,1.000262593,0.001010764,-0.005237415,3.69e-07,316.0192963,316.0192966,,,6.940000057,320,0.034564381,0.102728344
2018-07-19T08:06:30Z,1531987590,104,43.0839433,44.2225465,322.25,0.1,-0.3,34.2,706027,-51822.27,27.1,Air+FixedWing,Blue,Enemies,J-11A,Blue J-11A #003,cn,=UVAF=GregOzby[430],0,0,0,322.25,2.25,0,0,NaN,NaN,0.040156116,0.013988227,NaN,0.999985576,0.001090856,-0.005235964,0,316.0192963,316.0192963,,,7.940000057,320,0.034564381,0.102728344
2018-07-19T08:06:31Z,1531987591,104,43.0839433,44.2225465,322.25,0,-0.3,34.2,706027,-51822.27,27.1,Air+FixedWing,Blue,Enemies,J-11A,Blue J-11A #003,cn,=UVAF=GregOzby[430],0,0,0,322.25,2.25,0,0,NaN,NaN,0,0.00989117,NaN,0.999986053,0,-0.005265914,0,316.0192963,316.0192963,,,8.940000057,320,0.034564381,0.102728344
2018-07-19T08:06:32Z,1531987592,104,43.0839433,44.2225465,322.25,0,-0.3,34.2,706027,-51822.27,27.1,Air+FixedWing,Blue,Enemies,J-11A,Blue J-11A #003,cn,=UVAF=GregOzby[430],0,0,0,322.25,2.25,0,0,NaN,NaN,0,0.013988227,NaN,0.999985874,0,-0.005303351,0,316.0192963,316.0192963,,,9.940000057,320,0.034564381,0.102728344
2018-07-19T08:06:33Z,1531987593,104,43.0839433,44.2225465,322.25,0,-0.3,34.2,706027,-51822.27,27.1,Air+FixedWing,Blue,Enemies,J-11A,Blue J-11A #003,cn,=UVAF=GregOzby[430],0,0,0,322.25,2.25,0,0,NaN,NaN,0,0.013988227,NaN,0.999985635,0,-0.005340787,0,316.0192963,316.0192963,,,10.94000006,320,0.034564381,0.102728344
2018-07-19T08:06:34Z,1531987594,104,43.0839433,44.2225465,322.25,0,-0.3,34.2,706027,-51822.27,27.1,Air+FixedWing,Blue,Enemies,J-11A,Blue J-11A #003,cn,=UVAF=GregOzby[430],0,0,0,322.25,2.25,0,0,NaN,NaN,0,0.013988227,NaN,0.999985456,0,-0.005378224,0,316.0192963,316.0192963,,,11.94000006,320,0.034564381,0.102728344
2018-07-19T08:06:35Z,1531987595,104,43.0839433,44.2225465,322.25,0,-0.3,34.2,706027,-51822.27,27.1,Air+FixedWing,Blue,Enemies,J-11A,Blue J-11A #003,cn,=UVAF=GregOzby[430],0,0,0,322.25,2.25,0,0,NaN,NaN,0,0.00989117,NaN,0.999985158,0,-0.005415661,0,316.0192963,316.0192963,,,12.94000006,320,0.034564381,0.102728344
2018-07-19T08:06:36Z,1531987596,104,43.0839433,44.2225465,322.25,0,-0.3,34.2,706027,-51822.27,27.1,Air+FixedWing,Blue,Enemies,J-11A,Blue J-11A #003,cn,=UVAF=GregOzby[430],0,0,0,322.25,2.25,0,0,NaN,NaN,0,0.01713201,NaN,0.999985039,0,-0.005453098,0,316.0192963,316.0192963,,,13.94000006,320,0.034564381,0.102728344
2018-07-19T08:06:37Z,1531987597,104,43.0839433,44.2225465,322.25,0,-0.3,34.2,706027,-51822.27,27.1,Air+FixedWing,Blue,Enemies,J-11A,Blue J-11A #003,cn,=UVAF=GregOzby[430],0,0,0,322.25,2.25,0,0,NaN,NaN,0,0.013988227,NaN,0.999984801,0,-0.005490534,0,316.0192963,316.0192963,,,14.94000006,320,0.034564381,0.102728344
2018-07-19T08:06:38Z,1531987598,104,43.0839433,44.2225465,322.25,0,-0.3,34.2,706027,-51822.27,27.1,Air+FixedWing,Blue,Enemies,J-11A,Blue J-11A #003,cn,=UVAF=GregOzby[430],0,0,0,322.25,2.25,0,0,NaN,NaN,0,0.013988227,NaN,0.999984622,0,-0.005527972,0,316.0192963,316.0192963,,,15.94000006,320,0.034564381,0.102728344
2018-07-19T08:06:39Z,1531987599,104,43.0839433,44.2225465,322.25,0,-0.3,34.2,706027,-51822.27,27.1,Air+FixedWing,Blue,Enemies,J-11A,Blue J-11A #003,cn,=UVAF=GregOzby[430],0,0,0,322.25,2.25,0,0,NaN,NaN,0,0.013988227,NaN,0.999984384,0,-0.005565408,0,316.0192963,316.0192963,,,16.94000006,320,0.034564381,0.102728344
2018-07-19T08:06:40Z,1531987600,104,43.0839433,44.2225465,322.25,0,-0.3,34.2,706027,-51822.27,27.1,Air+FixedWing,Blue,Enemies,J-11A,Blue J-11A #003,cn,=UVAF=GregOzby[430],0,0,0,322.25,2.25,0,0,NaN,NaN,0,0.013988227,NaN,0.999984205,0,-0.005602845,0,316.0192963,316.0192963,,,17.94000006,320,0.034564381,0.102728344
2018-07-19T08:06:41Z,1531987601,104,43.0839433,44.2225465,322.25,0,-0.3,34.2,706027,-51822.27,27.1,Air+FixedWing,Blue,Enemies,J-11A,Blue J-11A #003,cn,=UVAF=GregOzby[430],0,0,0,322.25,2.25,0,0,NaN,NaN,0,0,NaN,0.999983966,0,-0.005640282,0,316.0192963,316.0192963,,,18.94000006,320,0.034564381,0.102728344
2018-07-19T08:06:42Z,1531987602,104,43.0839433,44.2225465,322.25,0,-0.3,34.2,706027,-51822.27,27.1,Air+FixedWing,Blue,Enemies,J-11A,Blue J-11A #003,cn,=UVAF=GregOzby[430],0,0,0,322.25,2.25,0,0,NaN,NaN,0,0.013988227,NaN,0.999983728,0,-0.005677718,0,316.0192963,316.0192963,,,19.94000006,320,0.034564381,0.102728344
2018-07-19T08:06:43Z,1531987603,104,43.0839433,44.2225465,322.25,0,-0.3,34.2,706027,-51822.27,27.1,Air+FixedWing,Blue,Enemies,J-11A,Blue J-11A #003,cn,=UVAF=GregOzby[430],0,0,0,322.25,2.25,0,0,NaN,NaN,0,0,NaN,0.999983549,0,-0.005715155,0,316.0192963,316.0192963,,,20.94000006,320,0.034564381,0.102728344
2018-07-19T08:06:44Z,1531987604,104,43.0839433,44.2225465,322.25,0,-0.3,34.2,706027,-51822.27,27.1,Air+FixedWing,Blue,Enemies,J-11A,Blue J-11A #003,cn,=UVAF=GregOzby[430],0,0,0,322.25,2.25,0,0,NaN,NaN,0,0,NaN,0.999983311,0,-0.005752592,0,316.0192963,316.0192963,,,21.94000006,320,0.034564381,0.102728344
2018-07-19T08:06:45Z,1531987605,104,43.0839433,44.2225465,322.25,0,-0.3,34.2,706027,-51822.27,27.1,Air+FixedWing,Blue,Enemies,J-11A,Blue J-11A #003,cn,=UVAF=GregOzby[430],0,0,0,322.25,2.25,0,0,NaN,NaN,0,0.013988227,NaN,0.999983191,0,-0.005790029,0,316.0192963,316.0192963,,,22.94000006,320,0.034564381,0.102728344
2018-07-19T08:06:46Z,1531987606,104,43.0839433,44.2225465,322.25,0,-0.3,34.2,706027,-51822.27,27.1,Air+FixedWing,Blue,Enemies,J-11A,Blue J-11A #003,cn,=UVAF=GregOzby[430],0,0,0,322.25,2.25,0,0,NaN,NaN,0,0,NaN,0.999982893,0,-0.005827465,0,316.0192963,316.0192963,,,23.94000006,320,0.034564381,0.102728344
2018-07-19T08:06:47Z,1531987607,104,43.0839433,44.2225465,322.25,0,-0.3,34.2,706027,-51822.27,27.1,Air+FixedWing,Blue,Enemies,J-11A,Blue J-11A #003,cn,=UVAF=GregOzby[430],0,0,0,322.25,2.25,0,0,NaN,NaN,0,0.013988227,NaN,0.999982655,0,-0.005864902,0,316.0192963,316.0192963,,,24.94000006,320,0.034564381,0.102728344
2018-07-19T08:06:48Z,1531987608,104,43.0839433,44.2225465,322.25,0,-0.3,34.2,706027,-51822.27,27.1,Air+FixedWing,Blue,Enemies,J-11A,Blue J-11A #003,cn,=UVAF=GregOzby[430],0,0,0,322.25,2.25,0,0,NaN,NaN,0,0.013988227,NaN,0.999982536,0,-0.005902339,0,316.0192963,316.0192963,,,25.94000006,320,0.034564381,0.102728344
2018-07-19T08:06:49Z,1531987609,104,43.0839433,44.2225465,322.25,0,-0.3,34.2,706027,-51822.27,27.1,Air+FixedWing,Blue,Enemies,J-11A,Blue J-11A #003,cn,=UVAF=GregOzby[430],0,0,0,322.25,2.25,0,0,NaN,NaN,0,0.013988227,NaN,0.999982297,0,-0.005939776,0,316.0192963,316.0192963,,,26.94000006,320,0.034564381,0.102728344
2018-07-19T08:06:50Z,1531987610,104,43.0839433,44.2225465,322.25,0,-0.3,34.2,706027,-51822.27,27.1,Air+FixedWing,Blue,Enemies,J-11A,Blue J-11A #003,cn,=UVAF=GregOzby[430],0,0,0,322.25,2.25,0,0,NaN,NaN,0,0.013988227,NaN,0.999982059,0,-0.005977212,0,316.0192963,316.0192963,,,27.94000006,320,0.034564381,0.102728344
2018-07-19T08:06:51Z,1531987611,104,43.0839433,44.2225465,322.25,0,-0.3,34.2,706027,-51822.27,27.1,Air+FixedWing,Blue,Enemies,J-11A,Blue J-11A #003,cn,=UVAF=GregOzby[430],0,0,0,322.25,2.25,0,0,NaN,NaN,0,0.00989117,NaN,0.999981821,0,-0.006014649,0,316.0192963,316.0192963,,,28.94000006,320,0.034564381,0.102728344
2018-07-19T08:06:52Z,1531987612,104,43.0839433,44.2225465,322.25,0,-0.3,34.2,706027,-51822.27,27.1,Air+FixedWing,Blue,Enemies,J-11A,Blue J-11A #003,cn,=UVAF=GregOzby[430],0,0,0,322.25,2.25,0,0,NaN,NaN,0,0.00989117,NaN,0.999981582,0,-0.006052086,0,316.0192963,316.0192963,,,29.94000006,320,0.034564381,0.102728344
2018-07-19T08:06:53Z,1531987613,104,43.0839433,44.2225465,322.25,0,-0.3,34.2,706027,-51822.27,27.1,Air+FixedWing,Blue,Enemies,J-11A,Blue J-11A #003,cn,=UVAF=GregOzby[430],0,0,0,322.25,2.25,0,0,NaN,NaN,0,0.013988227,NaN,0.999981403,0,-0.006089522,0,316.0192963,316.0192963,,,30.94000006,320,0.034564381,0.102728344
2018-07-19T08:06:54Z,1531987614,104,43.0839433,44.2225465,322.25,0,-0.4,34.2,706027,-51822.27,27.1,Air+FixedWing,Blue,Enemies,J-11A,Blue J-11A #003,cn,=UVAF=GregOzby[430],0,0,0,322.25,2.25,0,0,NaN,NaN,0,0.013988227,NaN,0.999981165,0,-0.006126959,0,316.0192963,316.0192963,,,31.94000006,320,0.034564381,0.102728344
2018-07-19T08:06:55Z,1531987615,104,43.0839433,44.2225465,322.25,0,-0.4,34.2,706027,-51822.27,27.1,Air+FixedWing,Blue,Enemies,J-11A,Blue J-11A #003,cn,=UVAF=GregOzby[430],0,0,0,322.25,2.25,0,0,NaN,NaN,0,0.01713201,NaN,0.999980927,0,-0.006164395,0,316.0192963,316.0192963,,,32.94000006,320,0.034564381,0.102728344
2018-07-19T08:06:56Z,1531987616,104,43.0839433,44.2225465,322.25,0,-0.4,34.2,706027,-51822.27,27.1,Air+FixedWing,Blue,Enemies,J-11A,Blue J-11A #003,cn,=UVAF=GregOzby[430],0,0,0,322.25,2.25,0,0,NaN,NaN,0,0.00989117,NaN,0.999980688,0,-0.006201832,0,316.0192963,316.0192963,,,33.94000006,320,0.034564381,0.102728344
2018-07-19T08:06:57Z,1531987617,104,43.0839433,44.2225465,322.25,0,-0.4,34.2,706027,-51822.27,27.1,Air+FixedWing,Blue,Enemies,J-11A,Blue J-11A #003,cn,=UVAF=GregOzby[430],0,0,0,322.25,2.25,0,0,NaN,NaN,0,0.01713201,NaN,0.99998045,0,-0.006239268,0,316.0192963,316.0192963,,,34.94000006,320,0.034564381,0.102728344
2018-07-19T08:06:58Z,1531987618,104,43.0839433,44.2225465,322.25,0,-0.4,34.2,706027,-51822.27,27.1,Air+FixedWing,Blue,Enemies,J-11A,Blue J-11A #003,cn,=UVAF=GregOzby[430],0,0,0,322.25,2.25,0,0,NaN,NaN,0,0,NaN,0.999980211,0,-0.006276705,0,316.0192963,316.0192963,,,35.94000006,320,0.034564381,0.102728344
2018-07-19T08:06:59Z,1531987619,104,43.0839433,44.2225465,322.25,0,-0.4,34.2,706027,-51822.27,27.1,Air+FixedWing,Blue,Enemies,J-11A,Blue J-11A #003,cn,=UVAF=GregOzby[430],0,0,0,322.25,2.25,0,0,NaN,NaN,0,0.00989117,NaN,0.999979973,0,-0.006314142,0,316.0192963,316.0192963,,,36.94000006,320,0.034564381,0.102728344
2018-07-19T08:07:00Z,1531987620,104,43.0839433,44.2225465,322.25,0,-0.4,34.2,706027,-51822.27,27.1,Air+FixedWing,Blue,Enemies,J-11A,Blue J-11A #003,cn,=UVAF=GregOzby[430],0,0,0,322.25,2.25,0,0,NaN,NaN,0,0.00989117,NaN,0.999979734,0,-0.006351579,0,316.0192963,316.0192963,,,37.94000006,320,0.034564381,0.102728344
2018-07-19T08:07:01Z,1531987621,104,43.0839433,44.2225465,322.25,0,-0.4,34.2,706027,-51822.27,27.1,Air+FixedWing,Blue,Enemies,J-11A,Blue J-11A #003,cn,=UVAF=GregOzby[430],0,0,0,322.25,2.25,0,0,NaN,NaN,0,0.013988227,NaN,0.999979496,0,-0.006389015,0,316.0192963,316.0192963,,,38.94000006,320,0.034564381,0.102728344
2018-07-19T08:07:02Z,1531987622,104,43.0839433,44.2225465,322.25,0,-0.4,34.2,706027,-51822.27,27.1,Air+FixedWing,Blue,Enemies,J-11A,Blue J-11A #003,cn,=UVAF=GregOzby[430],0,0,0,322.25,2.25,0,0,NaN,NaN,0,0.00989117,NaN,0.999979258,0,-0.006426452,0,316.0192963,316.0192963,,,39.94000006,320,0.034564381,0.102728344
2018-07-19T08:07:03Z,1531987623,104,43.0839433,44.2225465,322.25,0,-0.4,34.2,706027,-51822.27,27.1,Air+FixedWing,Blue,Enemies,J-11A,Blue J-11A #003,cn,=UVAF=GregOzby[430],0,0,0,322.25,2.25,0,0,NaN,NaN,0,0.00989117,NaN,0.99997896,0,-0.006463888,0,316.0192963,316.0192963,,,40.94000006,320,0.034564381,0.102728344
2018-07-19T08:07:04Z,1531987624,104,43.0839433,44.2225465,322.25,0,-0.4,34.2,706027,-51822.27,27.1,Air+FixedWing,Blue,Enemies,J-11A,Blue J-11A #003,cn,=UVAF=GregOzby[430],0,0,0,322.25,2.25,0,0,NaN,NaN,0,0.013988227,NaN,0.999978721,0,-0.006501325,0,316.0192963,316.0192963,,,41.94000006,320,0.034564381,0.102728344
2018-07-19T08:07:05Z,1531987625,104,43.0839433,44.2225465,322.25,0,-0.4,34.2,706027,-51822.27,27.1,Air+FixedWing,Blue,Enemies,J-11A,Blue J-11A #003,cn,=UVAF=GregOzby[430],0,0,0,322.25,2.25,0,0,NaN,NaN,0,0.00989117,NaN,0.999978602,0,-0.006538761,0,316.0192963,316.0192963,,,42.94000006,320,0.034564381,0.102728344
2018-07-19T08:07:06Z,1531987626,104,43.0839433,44.2225465,322.25,0,-0.4,34.2,706027,-51822.27,27.1,Air+FixedWing,Blue,Enemies,J-11A,Blue J-11A #003,cn,=UVAF=GregOzby[430],0,0,0,322.25,2.25,0,0,NaN,NaN,0,0.00989117,NaN,0.999978244,0,-0.006576198,0,316.0192963,316.0192963,,,43.94000006,320,0.034564381,0.102728344
2018-07-19T08:07:07Z,1531987627,104,43.0839433,44.2225465,322.25,0,-0.4,34.2,706027,-51822.27,27.1,Air+FixedWing,Blue,Enemies,J-11A,Blue J-11A #003,cn,=UVAF=GregOzby[430],0,0,0,322.25,2.25,0,0,NaN,NaN,0,0.00989117,NaN,0.999978006,0,-0.006613634,0,316.0192963,316.0192963,,,44.94000006,320,0.034564381,0.102728344
2018-07-19T08:07:08Z,1531987628,104,43.0839433,44.2225465,322.25,0,-0.4,34.2,706027,-51822.27,27.1,Air+FixedWing,Blue,Enemies,J-11A,Blue J-11A #003,cn,=UVAF=GregOzby[430],0,0,0,322.25,2.25,0,0,NaN,NaN,0,0.013988227,NaN,0.999977827,0,-0.006651071,0,316.0192963,316.0192963,,,45.94000006,320,0.034564381,0.102728344
2018-07-19T08:07:09Z,1531987629,104,43.0839433,44.2225465,322.25,0,-0.4,34.2,706027,-51822.27,27.1,Air+FixedWing,Blue,Enemies,J-11A,Blue J-11A #003,cn,=UVAF=GregOzby[430],0,0,0,322.25,2.25,0,0,NaN,NaN,0,0.00989117,NaN,0.999977589,0,-0.006688508,0,316.0192963,316.0192963,,,46.94000006,320,0.034564381,0.102728344
2018-07-19T08:07:10Z,1531987630,104,43.0839433,44.2225465,322.25,0,-0.4,34.2,706027,-51822.27,27.1,Air+FixedWing,Blue,Enemies,J-11A,Blue J-11A #003,cn,=UVAF=GregOzby[430],0,0,0,322.25,2.25,0,0,NaN,NaN,0,0.00989117,NaN,0.999977291,0,-0.006725944,0,316.0192963,316.0192963,,,47.94000006,320,0.034564381,0.102728344
2018-07-19T08:07:11Z,1531987631,104,43.0839433,44.2225465,322.25,0,-0.4,34.2,706027,-51822.27,27.1,Air+FixedWing,Blue,Enemies,J-11A,Blue J-11A #003,cn,=UVAF=GregOzby[430],0,0,0,322.25,2.25,0,0,NaN,NaN,0,0.013988227,NaN,0.999976993,0,-0.00676338,0,316.0192963,316.0192963,,,48.94000006,320,0.034564381,0.102728344
2018-07-19T08:07:12Z,1531987632,104,43.0839433,44.2225465,322.25,0,-0.4,34.2,706027,-51822.27,27.1,Air+FixedWing,Blue,Enemies,J-11A,Blue J-11A #003,cn,=UVAF=GregOzby[430],0,0,0,322.25,2.25,0,0,NaN,NaN,0,0.013988227,NaN,0.999976814,0,-0.006800817,0,316.0192963,316.0192963,,,49.94000006,320,0.034564381,0.102728344
2018-07-19T08:07:13Z,1531987633,104,43.0839433,44.2225465,322.25,0,-0.4,34.2,706027,-51822.27,27.1,Air+FixedWing,Blue,Enemies,J-11A,Blue J-11A #003,cn,=UVAF=GregOzby[430],0,0,0,322.25,2.25,0,0,NaN,NaN,0,0.019782341,NaN,0.999976575,0,-0.006838254,0,316.0192963,316.0192963,,,50.94000006,320,0.034564381,0.102728344
2018-07-19T08:07:14Z,1531987634,104,43.0839433,44.2225465,322.25,0,-0.4,34.2,706027,-51822.27,27.1,Air+FixedWing,Blue,Enemies,J-11A,Blue J-11A #003,cn,=UVAF=GregOzby[430],0,0,0,322.25,2.25,0,0,NaN,NaN,0,0.00989117,NaN,0.999976218,0,-0.00687569,0,316.0192963,316.0192963,,,51.94000006,320,0.034564381,0.102728344
2018-07-19T08:07:15Z,1531987635,104,43.0839433,44.2225465,322.25,0,-0.4,34.2,706027,-51822.27,27.1,Air+FixedWing,Blue,Enemies,J-11A,Blue J-11A #003,cn,=UVAF=GregOzby[430],0,0,0,322.25,2.25,0,0,NaN,NaN,0,0.019782341,NaN,0.999975979,0,-0.006913126,0,316.0192963,316.0192963,,,52.94000006,320,0.034564381,0.102728344
2018-07-19T08:07:16Z,1531987636,104,43.0839433,44.2225465,322.25,0,-0.4,34.2,706027,-51822.27,27.1,Air+FixedWing,Blue,Enemies,J-11A,Blue J-11A #003,cn,=UVAF=GregOzby[430],0,0,0,322.25,2.25,0,0,NaN,NaN,0,0,NaN,0.999975741,0,-0.006950563,0,316.0192963,316.0192963,,,53.94000006,320,0.034564381,0.102728344
2018-07-19T08:07:17Z,1531987637,104,43.0839433,44.2225465,322.25,0,-0.4,34.2,706027,-51822.27,27.1,Air+FixedWing,Blue,Enemies,J-11A,Blue J-11A #003,cn,=UVAF=GregOzby[430],0,0,0,322.25,2.25,0,0,NaN,NaN,0,0.01713201,NaN,0.999976337,0,-0.006870651,0,316.0192963,316.0192963,,,54.94000006,320,0.034564381,0.102728344
2018-07-19T08:07:18Z,1531987638,104,43.0839433,44.2225465,322.25,0,-0.4,34.2,706027,-51822.27,27.1,Air+FixedWing,Blue,Enemies,J-11A,Blue J-11A #003,cn,=UVAF=GregOzby[430],0,0,0,322.25,2.25,0,0,NaN,NaN,0,0.029673513,NaN,0.99998033,0,-0.006256148,0,316.0192963,316.0192963,,,55.94000006,320,0.034564381,0.102728344
2018-07-19T08:07:19Z,1531987639,104,43.0839433,44.2225465,322.25,0,-0.3,34.2,706027,-51822.27,27.1,Air+FixedWing,Blue,Enemies,J-11A,Blue J-11A #003,cn,=UVAF=GregOzby[430],0,0,0,322.25,2.25,0,0,NaN,NaN,0,0.037009373,NaN,0.999875051,0,-0.005641029,0,316.0192963,316.0192963,,,56.94000006,320,0.034564381,0.102728344
2018-07-19T08:07:20Z,1531987640,104,43.0839433,44.2225465,322.25,0,-0.3,34.2,706027,-51822.27,27.1,Air+FixedWing,Blue,Enemies,J-11A,Blue J-11A #003,cn,=UVAF=GregOzby[430],0.001068115,0,3.15e-06,322.2489319,2.248931885,0,-0.001068115,NaN,NaN,0,0.02211733,NaN,0.999771452,0,-0.00523484,5.7e-08,316.0182488,316.0182488,,,57.94000006,320,0.034564381,0.103796459
2018-07-19T08:07:21Z,1531987641,104,43.0839433,44.2225465,322.25,0,-0.3,34.2,706027,-51822.27,27.1,Air+FixedWing,Blue,Enemies,J-11A,Blue J-11A #003,cn,=UVAF=GregOzby[430],0.003173828,0,9.36e-06,322.2457581,2.245758057,0,-0.003173828,NaN,NaN,0,0.00989117,NaN,0.999986172,0,-0.005235964,5.04e-07,316.0151363,316.0151368,,,58.94000006,320,0.034564381,0.106970288
2018-07-19T08:07:22Z,1531987642,104,43.0839433,44.2225465,322.24,0,-0.3,34.2,706027,-51822.27,27.1,Air+FixedWing,Blue,Enemies,J-11A,Blue J-11A #003,cn,=UVAF=GregOzby[430],0.003173828,0,9.36e-06,322.2425842,2.242584229,0,-0.003173828,NaN,NaN,0,0.00989117,NaN,1.000045298,0,-0.005236274,5.04e-07,316.0120239,316.0120244,,,59.94000006,320,0.034564381,0.110144116
2018-07-19T08:07:23Z,1531987643,104,43.0839434,44.2225465,322.24,0,-0.3,34.2,706027,-51822.27,27.1,Air+FixedWing,Blue,Enemies,J-11A,Blue J-11A #003,cn,=UVAF=GregOzby[430],0.002593994,0,7.65e-06,322.2399902,2.239990234,0,-0.002593994,NaN,NaN,0,0.00989117,NaN,1.001787952,0,-0.005245399,3.36e-07,316.00948,316.0094804,,,60.94000006,320,0.041402289,0.117457837
2018-07-19T08:07:24Z,1531987644,104,43.0839434,44.2225465,322.26,0,-0.3,34.2,706027,-51822.27,27.1,Air+FixedWing,Blue,Enemies,J-11A,Blue J-11A #003,cn,=UVAF=GregOzby[430],0.015075684,0,4.44e-05,322.2550659,2.255065918,0,0.015075684,NaN,NaN,0,0.00989117,NaN,0.998433342,0,-0.005227834,1.14e-05,316.0242642,316.0242756,,,61.94000006,320,0.042541939,0.132576538
2018-07-19T08:07:25Z,1531987645,104,43.0839434,44.2225465,322.25,0,-0.3,34.2,706027,-51822.27,27.1,Air+FixedWing,Blue,Enemies,J-11A,Blue J-11A #003,cn,=UVAF=GregOzby[430],0.000152588,0,4.5e-07,322.2549133,2.25491333,0,-0.000152588,NaN,NaN,0,0.00989117,NaN,0.999500718,0,-0.005233423,1.16e-09,316.0241146,316.0241146,,,62.94000006,320,0.042541939,0.132729126
2018-07-19T08:07:26Z,1531987646,104,43.0839433,44.2225465,322.25,0,-0.3,34.2,706027,-51822.27,27.1,Air+FixedWing,Blue,Enemies,J-11A,Blue J-11A #003,cn,=UVAF=GregOzby[430],0.00491333,0,1.45e-05,322.25,2.25,0,-0.00491333,NaN,NaN,0,0.00989117,NaN,1.000487185,0,-0.005238588,1.21e-06,316.0192963,316.0192975,,,63.94000006,320,0.050019162,0.14167649
2018-07-19T08:07:27Z,1531987647,104,43.0839433,44.2225465,322.25,0,-0.3,34.2,706027,-51822.27,27.1,Air+FixedWing,Blue,Enemies,J-11A,Blue J-11A #003,cn,=UVAF=GregOzby[430],0,0,0,322.25,2.25,0,0,NaN,NaN,0,0.00989117,NaN,0.999986172,0,-0.005235964,0,316.0192963,316.0192963,,,64.94000006,320,0.052798799,0.144456267
2018-07-19T08:07:28Z,1531987648,104,43.0839434,44.2225465,322.25,0,-0.3,34.2,706027,-51822.27,27.1,Air+FixedWing,Blue,Enemies,J-11A,Blue J-11A #003,cn,=UVAF=GregOzby[430],0,0,0,322.25,2.25,0,0,NaN,NaN,0,0.00989117,NaN,0.999986172,0,-0.005235964,0,316.0192963,316.0192963,,,65.94000006,320,0.055578436,0.147236044
2018-07-19T08:07:29Z,1531987649,104,43.0839434,44.2225465,322.25,0.1,-0.3,34.2,706027,-51822.27,27.1,Air+FixedWing,Blue,Enemies,J-11A,Blue J-11A #003,cn,=UVAF=GregOzby[430],0,0,0,322.25,2.25,0,0,NaN,NaN,0.295238022,0.00989117,NaN,0.999982894,0.0025764,-0.005235964,0,316.0192963,316.0192963,,,66.94000006,320,0.057496386,0.149154091
2018-07-19T08:07:30Z,1531987650,104,43.0839433,44.2225465,322.25,0.1,-0.3,34.2,706027,-51822.27,27.1,Air+FixedWing,Blue,Enemies,J-11A,Blue J-11A #003,cn,=UVAF=GregOzby[430],0,0,0,322.25,2.25,0,0,NaN,NaN,0.199987939,0.00989117,NaN,0.999984682,0.001745304,-0.005235964,0,316.0192963,316.0192963,,,67.94000006,320,0.062686605,0.154344572
2018-07-19T08:07:31Z,1531987651,104,43.0839434,44.2225465,322.25,0.1,-0.3,34.2,706027,-51822.27,27.1,Air+FixedWing,Blue,Enemies,J-11A,Blue J-11A #003,cn,=UVAF=GregOzby[430],0,0,0,322.25,2.25,0,0,NaN,NaN,0,0.00989117,NaN,0.999984682,0.001745304,-0.005235964,0,316.0192963,316.0192963,,,68.94000006,320,0.06500989,0.156667974
2018-07-19T08:07:32Z,1531987652,104,43.0839433,44.2225465,322.25,0,-0.3,34.2,706027,-51822.27,27.1,Air+FixedWing,Blue,Enemies,J-11A,Blue J-11A #003,cn,=UVAF=GregOzby[430],0,0,0,322.25,2.25,0,0,NaN,NaN,0.171410427,0.00989117,NaN,0.999986172,0.000249419,-0.005235964,0,316.0192963,316.0192963,,,69.94000006,320,0.070120513,0.161778856
2018-07-19T08:07:33Z,1531987653,104,43.0839433,44.2225465,322.25,0,-0.3,34.2,706027,-51822.27,27.1,Air+FixedWing,Blue,Enemies,J-11A,Blue J-11A #003,cn,=UVAF=GregOzby[430],0,0,0,322.25,2.25,0,0,NaN,NaN,0,0.00989117,NaN,0.999986172,0,-0.005235964,0,316.0192963,316.0192963,,,70.94000006,320,0.070212513,0.161870862
2018-07-19T08:07:34Z,1531987654,104,43.0839433,44.2225466,322.25,0,-0.3,34.2,706027,-51822.27,27.1,Air+FixedWing,Blue,Enemies,J-11A,Blue J-11A #003,cn,=UVAF=GregOzby[430],0,0,0,322.25,2.25,0,0,NaN,NaN,0,0.00989117,NaN,0.999986172,0,-0.005235964,0,316.0192963,316.0192963,,,71.94000006,320,0.079412469,0.171071282
2018-07-19T08:07:35Z,1531987655,104,43.0839433,44.2225465,322.25,0.1,-0.3,34.2,706027,-51822.27,27.1,Air+FixedWing,Blue,Enemies,J-11A,Blue J-11A #003,cn,=UVAF=GregOzby[430],0,0,0,322.25,2.25,0,0,NaN,NaN,0.200000012,0.00989117,NaN,0.999984682,0.001745304,-0.005235964,0,316.0192963,316.0192963,,,72.94000006,320,0.088979896,0.180639192
2018-07-19T08:07:36Z,1531987656,104,43.0839433,44.2225465,322.25,0,-0.3,34.2,706027,-51822.27,27.1,Air+FixedWing,Blue,Enemies,J-11A,Blue J-11A #003,cn,=UVAF=GregOzby[430],0,0,0,322.25,2.25,0,0,NaN,NaN,0.106660234,0.00989117,NaN,0.999986172,0,-0.005235964,0,316.0192963,316.0192963,,,73.94000006,320,0.09277873,0.184438217
2018-07-19T08:07:37Z,1531987657,104,43.0839434,44.2225465,322.25,0,-0.3,34.2,706027,-51822.27,27.1,Air+FixedWing,Blue,Enemies,J-11A,Blue J-11A #003,cn,=UVAF=GregOzby[430],0,0,0,322.25,2.25,0,0,NaN,NaN,0.035680908,0.00989117,NaN,0.999986053,0.000581768,-0.005235964,0,316.0192963,316.0192963,,,74.94000006,320,0.102275821,0.193935788
2018-07-19T08:07:38Z,1531987658,104,43.0839433,44.2225465,322.25,0,-0.2,34.2,706027,-51822.27,27.1,Air+FixedWing,Blue,Enemies,J-11A,Blue J-11A #003,cn,=UVAF=GregOzby[430],0,0,0,322.25,2.25,0,0,NaN,NaN,0.199987939,0.00989117,NaN,0.99999094,0,-0.004238705,0,316.0192963,316.0192963,,,75.94000006,320,0.11025338,0.201913749
2018-07-19T08:07:39Z,1531987659,104,43.0839433,44.2225465,322.25,0,-0.3,34.2,706027,-51822.27,27.1,Air+FixedWing,Blue,Enemies,J-11A,Blue J-11A #003,cn,=UVAF=GregOzby[430],0,0,0,322.25,2.25,0,0,NaN,NaN,0.045871564,0.00989117,NaN,0.999986112,0.000416311,-0.005235964,0,316.0192963,316.0192963,,,76.94000006,320,0.11025338,0.201913749
2018-07-19T08:07:40Z,1531987660,104,43.0839433,44.2225465,322.25,0.1,-0.3,34.2,706027,-51822.27,27.1,Air+FixedWing,Blue,Enemies,J-11A,Blue J-11A #003,cn,=UVAF=GregOzby[430],0,0,0,322.25,2.25,0,0,NaN,NaN,0.045871564,0.00989117,NaN,0.999985456,0.00121691,-0.005235964,0,316.0192963,316.0192963,,,77.94000006,320,0.11025338,0.201913749
2018-07-19T08:07:41Z,1531987661,104,43.0839434,44.2225465,322.25,0.1,-0.3,34.2,706027,-51822.27,27.1,Air+FixedWing,Blue,Enemies,J-11A,Blue J-11A #003,cn,=UVAF=GregOzby[430],0,0,0,322.25,2.25,0,0,NaN,NaN,0.014678904,0.052339163,NaN,0.999988318,0.001745311,-0.004488021,0,316.0192963,316.0192963,,,78.94000006,320,0.118230938,0.20989171
2018-07-19T08:07:42Z,1531987662,104,43.0839433,44.2225465,322.25,0.1,-0.2,34.2,706027,-51822.27,27.1,Air+FixedWing,Blue,Enemies,J-11A,Blue J-11A #003,cn,=UVAF=GregOzby[430],0,0,0,322.25,2.25,0,0,NaN,NaN,0,0.052339163,NaN,0.999992251,0.001745318,-0.003490652,0,316.0192963,316.0192963,,,79.94000006,320,0.122219718,0.21388069
2018-07-19T08:07:43Z,1531987663,104,43.0839433,44.2225465,322.25,0.1,-0.2,34.2,706027,-51822.27,27.1,Air+FixedWing,Blue,Enemies,J-11A,Blue J-11A #003,cn,=UVAF=GregOzby[430],0,0,0,322.25,2.25,0,0,NaN,NaN,0,0.013988227,NaN,0.999992251,0.001745318,-0.003490652,0,316.0192963,316.0192963,,,80.94000006,320,0.122393143,0.214054124
2018-07-19T08:07:44Z,1531987664,104,43.0839432,44.2225465,322.25,0,-0.2,34.2,706027,-51822.27,27.1,Air+FixedWing,Blue,Enemies,J-11A,Blue J-11A #003,cn,=UVAF=GregOzby[430],0,0,0,322.25,2.25,0,0,NaN,NaN,0.199987939,0.013988227,NaN,0.999993742,0,-0.003490652,0,316.0192963,316.0192963,,,81.94000006,320,0.133521257,0.225182801
2018-07-19T08:07:45Z,1531987665,104,43.0839433,44.2225465,322.25,0,-0.2,34.2,706027,-51822.27,27.1,Air+FixedWing,Blue,Enemies,J-11A,Blue J-11A #003,cn,=UVAF=GregOzby[430],0,0,0,322.25,2.25,0,0,NaN,NaN,0,0.013988227,NaN,0.999993742,0,-0.003490652,0,316.0192963,316.0192963,,,82.94000006,320,0.140834018,0.232495932
2018-07-19T08:07:46Z,1531987666,104,43.0839433,44.2225465,322.25,0,-0.2,34.2,706027,-51822.27,27.1,Air+FixedWing,Blue,Enemies,J-11A,Blue J-11A #003,cn,=UVAF=GregOzby[430],0,0,0,322.25,2.25,0,0,NaN,NaN,0,0.013988227,NaN,0.999993742,0,-0.003490652,0,316.0192963,316.0192963,,,83.94000006,320,0.140834018,0.232495932
2018-07-19T08:07:47Z,1531987667,104,43.0839433,44.2225465,322.25,0,-0.2,34.2,706027,-51822.27,27.1,Air+FixedWing,Blue,Enemies,J-11A,Blue J-11A #003,cn,=UVAF=GregOzby[430],0,0,0,322.25,2.25,0,0,NaN,NaN,0,0.013988227,NaN,0.999993742,0,-0.003490652,0,316.0192963,316.0192963,,,84.94000006,320,0.140834018,0.232495932
2018-07-19T08:07:48Z,1531987668,104,43.0839433,44.2225465,322.25,0,-0.2,34.2,706027,-51822.27,27.1,Air+FixedWing,Blue,Enemies,J-11A,Blue J-11A #003,cn,=UVAF=GregOzby[430],0,0,0,322.25,2.25,0,0,NaN,NaN,0,0.013988227,NaN,0.999993742,0,-0.003490652,0,316.0192963,316.0192963,,,85.94000006,320,0.140834018,0.232495932
2018-07-19T08:07:49Z,1531987669,104,43.0839433,44.2225465,322.25,0,-0.2,34.2,706027,-51822.27,27.1,Air+FixedWing,Blue,Enemies,J-11A,Blue J-11A #003,cn,=UVAF=GregOzby[430],0,0,0,322.25,2.25,0,0,NaN,NaN,0,0.013988227,NaN,0.999993742,0,-0.003490652,0,316.0192963,316.0192963,,,86.94000006,320,0.140834018,0.232495932
2018-07-19T08:07:50Z,1531987670,104,43.0839433,44.2225465,322.25,0,-0.2,34.2,706027,-51822.27,27.1,Air+FixedWing,Blue,Enemies,J-11A,Blue J-11A #003,cn,=UVAF=GregOzby[430],0,0,0,322.25,2.25,0,0,NaN,NaN,0,0.013988227,NaN,0.999993742,0,-0.003490652,0,316.0192963,316.0192963,,,87.94000006,320,0.140834018,0.232495932
2018-07-19T08:07:51Z,1531987671,104,43.0839433,44.2225465,322.25,0,-0.2,34.2,706027,-51822.27,27.1,Air+FixedWing,Blue,Enemies,J-11A,Blue J-11A #003,cn,=UVAF=GregOzby[430],0,0,0,322.25,2.25,0,0,NaN,NaN,0,0.013988227,NaN,0.999993742,0,-0.003490652,0,316.0192963,316.0192963,,,88.94000006,320,0.140834018,0.232495932
2018-07-19T08:07:52Z,1531987672,104,43.0839433,44.2225465,322.25,0,-0.2,34.2,706027,-51822.27,27.1,Air+FixedWing,Blue,Enemies,J-11A,Blue J-11A #003,cn,=UVAF=GregOzby[430],0,0,0,322.25,2.25,0,0,NaN,NaN,0,0.013988227,NaN,0.999993742,0,-0.003490652,0,316.0192963,316.0192963,,,89.94000006,320,0.140834018,0.232495932
2018-07-19T08:07:53Z,1531987673,104,43.0839433,44.2225465,322.25,0,-0.2,34.2,706027,-51822.27,27.1,Air+FixedWing,Blue,Enemies,J-11A,Blue J-11A #003,cn,=UVAF=GregOzby[430],0,0,0,322.25,2.25,0,0,NaN,NaN,0,0.013988227,NaN,0.999993742,0,-0.003490652,0,316.0192963,316.0192963,,,90.94000006,320,0.140834018,0.232495932
2018-07-19T08:07:54Z,1531987674,104,43.0839433,44.2225465,322.25,0,-0.2,34.2,706027,-51822.27,27.1,Air+FixedWing,Blue,Enemies,J-11A,Blue J-11A #003,cn,=UVAF=GregOzby[430],0,0,0,322.25,2.25,0,0,NaN,NaN,0,0.013988227,NaN,0.999993742,0,-0.003490652,0,316.0192963,316.0192963,,,91.94000006,320,0.140834018,0.232495932
2018-07-19T08:07:55Z,1531987675,104,43.0839433,44.2225465,322.25,0,-0.2,34.2,706027,-51822.27,27.1,Air+FixedWing,Blue,Enemies,J-11A,Blue J-11A #003,cn,=UVAF=GregOzby[430],0,0,0,322.25,2.25,0,0,NaN,NaN,0,0.013988227,NaN,0.999993742,0,-0.003490652,0,316.0192963,316.0192963,,,92.94000006,320,0.140834018,0.232495932
2018-07-19T08:07:56Z,1531987676,104,43.0839433,44.2225465,322.25,0,-0.2,34.2,706027,-51822.27,27.1,Air+FixedWing,Blue,Enemies,J-11A,Blue J-11A #003,cn,=UVAF=GregOzby[430],0,0,0,322.25,2.25,0,0,NaN,NaN,0,0.013988227,NaN,0.999993742,0,-0.003490652,0,316.0192963,316.0192963,,,93.94000006,320,0.140834018,0.232495932
2018-07-19T08:07:57Z,1531987677,104,43.0839433,44.2225465,322.25,0,-0.2,34.2,706027,-51822.27,27.1,Air+FixedWing,Blue,Enemies,J-11A,Blue J-11A #003,cn,=UVAF=GregOzby[430],0,0,0,322.25,2.25,0,0,NaN,NaN,0,0.013988227,NaN,0.999993742,0,-0.003490652,0,316.0192963,316.0192963,,,94.94000006,320,0.140834018,0.232495932
2018-07-19T08:07:58Z,1531987678,104,43.0839433,44.2225465,322.25,0,-0.2,34.2,706027,-51822.27,27.1,Air+FixedWing,Blue,Enemies,J-11A,Blue J-11A #003,cn,=UVAF=GregOzby[430],0,0,0,322.25,2.25,0,0,NaN,NaN,0,0.013988227,NaN,0.999993742,0,-0.003490652,0,316.0192963,316.0192963,,,95.94000006,320,0.140834018,0.232495932
2018-07-19T08:07:59Z,1531987679,104,43.0839433,44.2225465,322.25,0,-0.2,34.2,706027,-51822.27,27.1,Air+FixedWing,Blue,Enemies,J-11A,Blue J-11A #003,cn,=UVAF=GregOzby[430],0,0,0,322.25,2.25,0,0,NaN,NaN,0,0.013988227,NaN,0.999993742,0,-0.003490652,0,316.0192963,316.0192963,,,96.94000006,320,0.140834018,0.232495932
2018-07-19T08:08:00Z,1531987680,104,43.0839433,44.2225465,322.25,0,-0.2,34.2,706027,-51822.27,27.1,Air+FixedWing,Blue,Enemies,J-11A,Blue J-11A #003,cn,=UVAF=GregOzby[430],0,0,0,322.25,2.25,0,0,NaN,NaN,0,0.013988227,NaN,0.999993742,0,-0.003490652,0,316.0192963,316.0192963,,,97.94000006,320,0.140834018,0.232495932
2018-07-19T08:08:01Z,1531987681,104,43.0839433,44.2225465,322.25,0,-0.2,34.2,706027,-51822.27,27.1,Air+FixedWing,Blue,Enemies,J-11A,Blue J-11A #003,cn,=UVAF=GregOzby[430],0,0,0,322.25,2.25,0,0,NaN,NaN,0,0.013988227,NaN,0.999993742,0,-0.003490652,0,316.0192963,316.0192963,,,98.94000006,320,0.140834018,0.232495932
2018-07-19T08:08:02Z,1531987682,104,43.0839433,44.2225465,322.25,0,-0.2,34.2,706027,-51822.27,27.1,Air+FixedWing,Blue,Enemies,J-11A,Blue J-11A #003,cn,=UVAF=GregOzby[430],0,0,0,322.25,2.25,0,0,NaN,NaN,0,0.013988227,NaN,0.999993742,0,-0.003490652,0,316.0192963,316.0192963,,,99.94000006,320,0.140834018,0.232495932
2018-07-19T08:08:03Z,1531987683,104,43.0839433,44.2225465,322.25,0,-0.2,34.2,706027,-51822.27,27.1,Air+FixedWing,Blue,Enemies,J-11A,Blue J-11A #003,cn,=UVAF=GregOzby[430],0,0,0,322.25,2.25,0,0,NaN,NaN,0,0.013988227,NaN,0.999993742,0,-0.003490652,0,316.0192963,316.0192963,,,100.9400001,320,0.140834018,0.232495932
2018-07-19T08:08:04Z,1531987684,104,43.0839433,44.2225465,322.25,0,-0.2,34.2,706027,-51822.27,27.1,Air+FixedWing,Blue,Enemies,J-11A,Blue J-11A #003,cn,=UVAF=GregOzby[430],0,0,0,322.25,2.25,0,0,NaN,NaN,0,0.013988227,NaN,0.999993742,0,-0.003490652,0,316.0192963,316.0192963,,,101.9400001,320,0.140834018,0.232495932
2018-07-19T08:08:05Z,1531987685,104,43.0839433,44.2225465,322.25,0,-0.2,34.2,706027,-51822.27,27.1,Air+FixedWing,Blue,Enemies,J-11A,Blue J-11A #003,cn,=UVAF=GregOzby[430],0,0,0,322.25,2.25,0,0,NaN,NaN,0,0.013988227,NaN,0.999993742,0,-0.003490652,0,316.0192963,316.0192963,,,102.9400001,320,0.140834018,0.232495932
2018-07-19T08:08:06Z,1531987686,104,43.0839433,44.2225465,322.25,0,-0.2,34.2,706027,-51822.27,27.1,Air+FixedWing,Blue,Enemies,J-11A,Blue J-11A #003,cn,=UVAF=GregOzby[430],0,0,0,322.25,2.25,0,0,NaN,NaN,0,0.013988227,NaN,0.999993742,0,-0.003490652,0,316.0192963,316.0192963,,,103.9400001,320,0.140834018,0.232495932
2018-07-19T08:08:07Z,1531987687,104,43.0839433,44.2225465,322.25,0,-0.2,34.2,706027,-51822.27,27.1,Air+FixedWing,Blue,Enemies,J-11A,Blue J-11A #003,cn,=UVAF=GregOzby[430],0,0,0,322.25,2.25,0,0,NaN,NaN,0,0.013988227,NaN,0.999993742,0,-0.003490652,0,316.0192963,316.0192963,,,104.9400001,320,0.140834018,0.232495932
2018-07-19T08:08:08Z,1531987688,104,43.0839433,44.2225465,322.25,0,-0.2,34.2,706027,-51822.27,27.1,Air+FixedWing,Blue,Enemies,J-11A,Blue J-11A #003,cn,=UVAF=GregOzby[430],0,0,0,322.25,2.25,0,0,NaN,NaN,0,0.013988227,NaN,0.999993742,0,-0.003490652,0,316.0192963,316.0192963,,,105.9400001,320,0.140834018,0.232495932
2018-07-19T08:08:09Z,1531987689,104,43.0839433,44.2225465,322.25,0,-0.2,34.2,706027,-51822.27,27.1,Air+FixedWing,Blue,Enemies,J-11A,Blue J-11A #003,cn,=UVAF=GregOzby[430],0,0,0,322.25,2.25,0,0,NaN,NaN,0,0.013988227,NaN,0.999993742,0,-0.003490652,0,316.0192963,316.0192963,,,106.9400001,320,0.140834018,0.232495932
2018-07-19T08:08:10Z,1531987690,104,43.0839433,44.2225465,322.25,0,-0.2,34.2,706027,-51822.27,27.1,Air+FixedWing,Blue,Enemies,J-11A,Blue J-11A #003,cn,=UVAF=GregOzby[430],0,0,0,322.25,2.25,0,0,NaN,NaN,0,0.013988227,NaN,0.999993742,0,-0.003490652,0,316.0192963,316.0192963,,,107.9400001,320,0.140834018,0.232495932
2018-07-19T08:08:11Z,1531987691,104,43.0839433,44.2225465,322.25,0,-0.2,34.2,706027,-51822.27,27.1,Air+FixedWing,Blue,Enemies,J-11A,Blue J-11A #003,cn,=UVAF=GregOzby[430],0,0,0,322.25,2.25,0,0,NaN,NaN,0,0.013988227,NaN,0.999993742,0,-0.003490652,0,316.0192963,316.0192963,,,108.9400001,320,0.140834018,0.232495932
2018-07-19T08:08:12Z,1531987692,104,43.0839433,44.2225465,322.25,0,-0.2,34.2,706027,-51822.27,27.1,Air+FixedWing,Blue,Enemies,J-11A,Blue J-11A #003,cn,=UVAF=GregOzby[430],0,0,0,322.25,2.25,0,0,NaN,NaN,0,0.013988227,NaN,0.999993742,0,-0.003490652,0,316.0192963,316.0192963,,,109.9400001,320,0.140834018,0.232495932
2018-07-19T08:08:13Z,1531987693,104,43.0839433,44.2225465,322.25,0,-0.2,34.2,706027,-51822.27,27.1,Air+FixedWing,Blue,Enemies,J-11A,Blue J-11A #003,cn,=UVAF=GregOzby[430],0,0,0,322.25,2.25,0,0,NaN,NaN,0,0.013988227,NaN,0.999993742,0,-0.003490652,0,316.0192963,316.0192963,,,110.9400001,320,0.140834018,0.232495932
2018-07-19T08:08:14Z,1531987694,104,43.0839433,44.2225465,322.25,0,-0.2,34.2,706027,-51822.27,27.1,Air+FixedWing,Blue,Enemies,J-11A,Blue J-11A #003,cn,=UVAF=GregOzby[430],0,0,0,322.25,2.25,0,0,NaN,NaN,0,0.013988227,NaN,0.999993742,0,-0.003490652,0,316.0192963,316.0192963,,,111.9400001,320,0.140834018,0.232495932
2018-07-19T08:08:15Z,1531987695,104,43.0839433,44.2225465,322.25,0,-0.2,34.2,706027,-51822.27,27.1,Air+FixedWing,Blue,Enemies,J-11A,Blue J-11A #003,cn,=UVAF=GregOzby[430],0,0,0,322.25,2.25,0,0,NaN,NaN,0,0.013988227,NaN,0.999993742,0,-0.003490652,0,316.0192963,316.0192963,,,112.9400001,320,0.140834018,0.232495932
2018-07-19T08:08:16Z,1531987696,104,43.0839433,44.2225465,322.25,0,-0.2,34.2,706027,-51822.27,27.1,Air+FixedWing,Blue,Enemies,J-11A,Blue J-11A #003,cn,=UVAF=GregOzby[430],0,0,0,322.25,2.25,0,0,NaN,NaN,0,0.013988227,NaN,0.999993742,0,-0.003490652,0,316.0192963,316.0192963,,,113.9400001,320,0.140834018,0.232495932
2018-07-19T08:08:17Z,1531987697,104,43.0839433,44.2225465,322.25,0,-0.2,34.2,706027,-51822.27,27.1,Air+FixedWing,Blue,Enemies,J-11A,Blue J-11A #003,cn,=UVAF=GregOzby[430],0,0,0,322.25,2.25,0,0,NaN,NaN,0,0.013988227,NaN,0.999993742,0,-0.003490652,0,316.0192963,316.0192963,,,114.9400001,320,0.140834018,0.232495932
2018-07-19T08:08:18Z,1531987698,104,43.0839433,44.2225465,322.25,0,-0.2,34.2,706027,-51822.27,27.1,Air+FixedWing,Blue,Enemies,J-11A,Blue J-11A #003,cn,=UVAF=GregOzby[430],0,0,0,322.25,2.25,0,0,NaN,NaN,0,0.013988227,NaN,0.999993742,0,-0.003490652,0,316.0192963,316.0192963,,,115.9400001,320,0.140834018,0.232495932
2018-07-19T08:08:19Z,1531987699,104,43.0839433,44.2225465,322.25,0,-0.2,34.2,706027,-51822.27,27.1,Air+FixedWing,Blue,Enemies,J-11A,Blue J-11A #003,cn,=UVAF=GregOzby[430],0,0,0,322.25,2.25,0,0,NaN,NaN,0,0.013988227,NaN,0.999993742,0,-0.003490652,0,316.0192963,316.0192963,,,116.9400001,320,0.140834018,0.232495932
2018-07-19T08:08:20Z,1531987700,104,43.0839433,44.2225465,322.25,0,-0.2,34.2,706027,-51822.27,27.1,Air+FixedWing,Blue,Enemies,J-11A,Blue J-11A #003,cn,=UVAF=GregOzby[430],0,0,0,322.25,2.25,0,0,NaN,NaN,0,0.013988227,NaN,0.999993742,0,-0.003490652,0,316.0192963,316.0192963,,,117.9400001,320,0.140834018,0.232495932
2018-07-19T08:08:21Z,1531987701,104,43.0839433,44.2225465,322.25,0,-0.2,34.2,706027,-51822.27,27.1,Air+FixedWing,Blue,Enemies,J-11A,Blue J-11A #003,cn,=UVAF=GregOzby[430],0,0,0,322.25,2.25,0,0,NaN,NaN,0,0.013988227,NaN,0.999993742,0,-0.003490652,0,316.0192963,316.0192963,,,118.9400001,320,0.140834018,0.232495932
2018-07-19T08:08:22Z,1531987702,104,43.0839433,44.2225465,322.25,0,-0.2,34.2,706027,-51822.27,27.1,Air+FixedWing,Blue,Enemies,J-11A,Blue J-11A #003,cn,=UVAF=GregOzby[430],0,0,0,322.25,2.25,0,0,NaN,NaN,0,0.013988227,NaN,0.999993742,0,-0.003490652,0,316.0192963,316.0192963,,,119.9400001,320,0.140834018,0.232495932
2018-07-19T08:08:23Z,1531987703,104,43.0839433,44.2225465,322.25,0,-0.2,34.2,706027,-51822.27,27.1,Air+FixedWing,Blue,Enemies,J-11A,Blue J-11A #003,cn,=UVAF=GregOzby[430],0,0,0,322.25,2.25,0,0,NaN,NaN,0,0.013988227,NaN,0.999993742,0,-0.003490652,0,316.0192963,316.0192963,,,120.9400001,320,0.140834018,0.232495932
2018-07-19T08:08:24Z,1531987704,104,43.0839433,44.2225465,322.25,0,-0.2,34.2,706027,-51822.27,27.1,Air+FixedWing,Blue,Enemies,J-11A,Blue J-11A #003,cn,=UVAF=GregOzby[430],0,0,0,322.25,2.25,0,0,NaN,NaN,0,0.013988227,NaN,0.999993742,0,-0.003490652,0,316.0192963,316.0192963,,,121.9400001,320,0.140834018,0.232495932
2018-07-19T08:08:25Z,1531987705,104,43.0839433,44.2225465,322.25,0,-0.2,34.2,706027,-51822.27,27.1,Air+FixedWing,Blue,Enemies,J-11A,Blue J-11A #003,cn,=UVAF=GregOzby[430],0,0,0,322.25,2.25,0,0,NaN,NaN,0,0.013988227,NaN,0.999993742,0,-0.003490652,0,316.0192963,316.0192963,,,122.9400001,320,0.140834018,0.232495932
2018-07-19T08:08:26Z,1531987706,104,43.0839433,44.2225465,322.25,0,-0.2,34.2,706027,-51822.27,27.1,Air+FixedWing,Blue,Enemies,J-11A,Blue J-11A #003,cn,=UVAF=GregOzby[430],0,0,0,322.25,2.25,0,0,NaN,NaN,0,0.013988227,NaN,0.999993742,0,-0.003490652,0,316.0192963,316.0192963,,,123.9400001,320,0.140834018,0.232495932
2018-07-19T08:08:27Z,1531987707,104,43.0839433,44.2225465,322.25,0,-0.2,34.2,706027,-51822.27,27.1,Air+FixedWing,Blue,Enemies,J-11A,Blue J-11A #003,cn,=UVAF=GregOzby[430],0,0,0,322.25,2.25,0,0,NaN,NaN,0,0.013988227,NaN,0.999993742,0,-0.003490652,0,316.0192963,316.0192963,,,124.9400001,320,0.140834018,0.232495932
2018-07-19T08:08:28Z,1531987708,104,43.0839433,44.2225465,322.25,0,-0.2,34.2,706027,-51822.27,27.1,Air+FixedWing,Blue,Enemies,J-11A,Blue J-11A #003,cn,=UVAF=GregOzby[430],0,0,0,322.25,2.25,0,0,NaN,NaN,0,0.013988227,NaN,0.999993742,0,-0.003490652,0,316.0192963,316.0192963,,,125.9400001,320,0.140834018,0.232495932
2018-07-19T08:08:29Z,1531987709,104,43.0839433,44.2225465,322.25,0,-0.2,34.2,706027,-51822.27,27.1,Air+FixedWing,Blue,Enemies,J-11A,Blue J-11A #003,cn,=UVAF=GregOzby[430],0,0,0,322.25,2.25,0,0,NaN,NaN,0,0.013988227,NaN,0.999993742,0,-0.003490652,0,316.0192963,316.0192963,,,126.9400001,320,0.140834018,0.232495932
2018-07-19T08:08:30Z,1531987710,104,43.0839433,44.2225465,322.25,0,-0.2,34.2,706027,-51822.27,27.1,Air+FixedWing,Blue,Enemies,J-11A,Blue J-11A #003,cn,=UVAF=GregOzby[430],0,0,0,322.25,2.25,0,0,NaN,NaN,0,0.013988227,NaN,0.999993742,0,-0.003490652,0,316.0192963,316.0192963,,,127.9400001,320,0.140834018,0.232495932
2018-07-19T08:08:31Z,1531987711,104,43.0839433,44.2225465,322.25,0,-0.2,34.2,706027,-51822.27,27.1,Air+FixedWing,Blue,Enemies,J-11A,Blue J-11A #003,cn,=UVAF=GregOzby[430],0,0,0,322.25,2.25,0,0,NaN,NaN,0,0.013988227,NaN,0.999993742,0,-0.003490652,0,316.0192963,316.0192963,,,128.9400001,320,0.140834018,0.232495932
2018-07-19T08:08:32Z,1531987712,104,43.0839433,44.2225465,322.25,0,-0.2,34.2,706027,-51822.27,27.1,Air+FixedWing,Blue,Enemies,J-11A,Blue J-11A #003,cn,=UVAF=GregOzby[430],0,0,0,322.25,2.25,0,0,NaN,NaN,0,0.013988227,NaN,0.999993742,0,-0.003490652,0,316.0192963,316.0192963,,,129.9400001,320,0.140834018,0.232495932
2018-07-19T08:08:33Z,1531987713,104,43.0839433,44.2225465,322.25,0,-0.2,34.2,706027,-51822.27,27.1,Air+FixedWing,Blue,Enemies,J-11A,Blue J-11A #003,cn,=UVAF=GregOzby[430],0,0,0,322.25,2.25,0,0,NaN,NaN,0,0.013988227,NaN,0.999993742,0,-0.003490652,0,316.0192963,316.0192963,,,130.9400001,320,0.140834018,0.232495932
2018-07-19T08:08:34Z,1531987714,104,43.0839433,44.2225465,322.25,0,-0.2,34.2,706027,-51822.27,27.1,Air+FixedWing,Blue,Enemies,J-11A,Blue J-11A #003,cn,=UVAF=GregOzby[430],0,0,0,322.25,2.25,0,0,NaN,NaN,0,0.013988227,NaN,0.999993742,0,-0.003490652,0,316.0192963,316.0192963,,,131.9400001,320,0.140834018,0.232495932
2018-07-19T08:08:35Z,1531987715,104,43.0839433,44.2225465,322.25,0,-0.2,34.2,706027,-51822.27,27.1,Air+FixedWing,Blue,Enemies,J-11A,Blue J-11A #003,cn,=UVAF=GregOzby[430],0,0,0,322.25,2.25,0,0,NaN,NaN,0,0.013988227,NaN,0.999993742,0,-0.003490652,0,316.0192963,316.0192963,,,132.9400001,320,0.140834018,0.232495932
2018-07-19T08:08:36Z,1531987716,104,43.0839433,44.2225465,322.25,0,-0.2,34.2,706027,-51822.27,27.1,Air+FixedWing,Blue,Enemies,J-11A,Blue J-11A #003,cn,=UVAF=GregOzby[430],0,0,0,322.25,2.25,0,0,NaN,NaN,0,0.013988227,NaN,0.999993742,0,-0.003490652,0,316.0192963,316.0192963,,,133.9400001,320,0.140834018,0.232495932
2018-07-19T08:08:37Z,1531987717,104,43.0839433,44.2225465,322.25,0,-0.2,34.2,706027,-51822.27,27.1,Air+FixedWing,Blue,Enemies,J-11A,Blue J-11A #003,cn,=UVAF=GregOzby[430],0,0,0,322.25,2.25,0,0,NaN,NaN,0,0.013988227,NaN,0.999993742,0,-0.003490652,0,316.0192963,316.0192963,,,134.9400001,320,0.140834018,0.232495932
2018-07-19T08:08:38Z,1531987718,104,43.0839433,44.2225465,322.25,0,-0.2,34.2,706027,-51822.27,27.1,Air+FixedWing,Blue,Enemies,J-11A,Blue J-11A #003,cn,=UVAF=GregOzby[430],0,0,0,322.25,2.25,0,0,NaN,NaN,0,0.013988227,NaN,0.999993742,0,-0.003490652,0,316.0192963,316.0192963,,,135.9400001,320,0.140834018,0.232495932
2018-07-19T08:08:39Z,1531987719,104,43.0839433,44.2225465,322.25,0,-0.2,34.2,706027,-51822.27,27.1,Air+FixedWing,Blue,Enemies,J-11A,Blue J-11A #003,cn,=UVAF=GregOzby[430],0,0,0,322.25,2.25,0,0,NaN,NaN,0,0.013988227,NaN,0.999993742,0,-0.003490652,0,316.0192963,316.0192963,,,136.9400001,320,0.140834018,0.232495932
2018-07-19T08:08:40Z,1531987720,104,43.0839433,44.2225465,322.25,0,-0.2,34.2,706027,-51822.27,27.1,Air+FixedWing,Blue,Enemies,J-11A,Blue J-11A #003,cn,=UVAF=GregOzby[430],0,0,0,322.25,2.25,0,0,NaN,NaN,0,0.013988227,NaN,0.999993742,0,-0.003490652,0,316.0192963,316.0192963,,,137.9400001,320,0.140834018,0.232495932
2018-07-19T08:08:41Z,1531987721,104,43.0839433,44.2225465,322.25,0,-0.2,34.2,706027,-51822.27,27.1,Air+FixedWing,Blue,Enemies,J-11A,Blue J-11A #003,cn,=UVAF=GregOzby[430],0,0,0,322.25,2.25,0,0,NaN,NaN,0,0.013988227,NaN,0.999993742,0,-0.003490652,0,316.0192963,316.0192963,,,138.9400001,320,0.140834018,0.232495932
2018-07-19T08:08:42Z,1531987722,104,43.0839433,44.2225465,322.25,0,-0.2,34.2,706027,-51822.27,27.1,Air+FixedWing,Blue,Enemies,J-11A,Blue J-11A #003,cn,=UVAF=GregOzby[430],0,0,0,322.25,2.25,0,0,NaN,NaN,0,0.013988227,NaN,0.999993742,0,-0.003490652,0,316.0192963,316.0192963,,,139.9400001,320,0.140834018,0.232495932
2018-07-19T08:08:43Z,1531987723,104,43.0839433,44.2225465,322.25,0,-0.2,34.2,706027,-51822.27,27.1,Air+FixedWing,Blue,Enemies,J-11A,Blue J-11A #003,cn,=UVAF=GregOzby[430],0,0,0,322.25,2.25,0,0,NaN,NaN,0,0.013988227,NaN,0.999993742,0,-0.003490652,0,316.0192963,316.0192963,,,140.9400001,320,0.140834018,0.232495932
2018-07-19T08:08:44Z,1531987724,104,43.0839433,44.2225465,322.25,0,-0.2,34.2,706027,-51822.27,27.1,Air+FixedWing,Blue,Enemies,J-11A,Blue J-11A #003,cn,=UVAF=GregOzby[430],0,0,0,322.25,2.25,0,0,NaN,NaN,0,0.013988227,NaN,0.999993742,0,-0.003490652,0,316.0192963,316.0192963,,,141.9400001,320,0.140834018,0.232495932
2018-07-19T08:08:45Z,1531987725,104,43.0839433,44.2225465,322.25,0,-0.2,34.2,706027,-51822.27,27.1,Air+FixedWing,Blue,Enemies,J-11A,Blue J-11A #003,cn,=UVAF=GregOzby[430],0,0,0,322.25,2.25,0,0,NaN,NaN,0,0.013988227,NaN,0.999993742,0,-0.003490652,0,316.0192963,316.0192963,,,142.9400001,320,0.140834018,0.232495932
2018-07-19T08:08:46Z,1531987726,104,43.0839433,44.2225465,322.25,0,-0.2,34.2,706027,-51822.27,27.1,Air+FixedWing,Blue,Enemies,J-11A,Blue J-11A #003,cn,=UVAF=GregOzby[430],0,0,0,322.25,2.25,0,0,NaN,NaN,0,0.013988227,NaN,0.999993742,0,-0.003490652,0,316.0192963,316.0192963,,,143.9400001,320,0.140834018,0.232495932
2018-07-19T08:08:47Z,1531987727,104,43.0839433,44.2225465,322.25,0,-0.2,34.2,706027,-51822.27,27.1,Air+FixedWing,Blue,Enemies,J-11A,Blue J-11A #003,cn,=UVAF=GregOzby[430],0,0,0,322.25,2.25,0,0,NaN,NaN,0,0.013988227,NaN,0.999993742,0,-0.003490652,0,316.0192963,316.0192963,,,144.9400001,320,0.140834018,0.232495932
2018-07-19T08:08:48Z,1531987728,104,43.0839433,44.2225465,322.25,0,-0.2,34.2,706027,-51822.27,27.1,Air+FixedWing,Blue,Enemies,J-11A,Blue J-11A #003,cn,=UVAF=GregOzby[430],0,0,0,322.25,2.25,0,0,NaN,NaN,0,0.013988227,NaN,0.999993742,0,-0.003490652,0,316.0192963,316.0192963,,,145.9400001,320,0.140834018,0.232495932
2018-07-19T08:08:49Z,1531987729,104,43.0839433,44.2225465,322.25,0,-0.2,34.2,706027,-51822.27,27.1,Air+FixedWing,Blue,Enemies,J-11A,Blue J-11A #003,cn,=UVAF=GregOzby[430],0,0,0,322.25,2.25,0,0,NaN,NaN,0,0.013988227,NaN,0.999993742,0,-0.003490652,0,316.0192963,316.0192963,,,146.9400001,320,0.140834018,0.232495932
2018-07-19T08:08:50Z,1531987730,104,43.0839433,44.2225465,322.25,0,-0.2,34.2,706027,-51822.27,27.1,Air+FixedWing,Blue,Enemies,J-11A,Blue J-11A #003,cn,=UVAF=GregOzby[430],0,0,0,322.25,2.25,0,0,NaN,NaN,0,0.013988227,NaN,0.999993742,0,-0.003490652,0,316.0192963,316.0192963,,,147.9400001,320,0.140834018,0.232495932
2018-07-19T08:08:51Z,1531987731,104,43.0839433,44.2225465,322.25,0,-0.2,34.2,706027,-51822.27,27.1,Air+FixedWing,Blue,Enemies,J-11A,Blue J-11A #003,cn,=UVAF=GregOzby[430],0,0,0,322.25,2.25,0,0,NaN,NaN,0,0.013988227,NaN,0.999993742,0,-0.003490652,0,316.0192963,316.0192963,,,148.9400001,320,0.140834018,0.232495932
2018-07-19T08:08:52Z,1531987732,104,43.0839433,44.2225465,322.25,0,-0.2,34.2,706027,-51822.27,27.1,Air+FixedWing,Blue,Enemies,J-11A,Blue J-11A #003,cn,=UVAF=GregOzby[430],0,0,0,322.25,2.25,0,0,NaN,NaN,0,0.013988227,NaN,0.999993742,0,-0.003490652,0,316.0192963,316.0192963,,,149.9400001,320,0.140834018,0.232495932
2018-07-19T08:08:53Z,1531987733,104,43.0839433,44.2225465,322.25,0,-0.2,34.2,706027,-51822.27,27.1,Air+FixedWing,Blue,Enemies,J-11A,Blue J-11A #003,cn,=UVAF=GregOzby[430],0,0,0,322.25,2.25,0,0,NaN,NaN,0,0.013988227,NaN,0.999993742,0,-0.003490652,0,316.0192963,316.0192963,,,150.9400001,320,0.140834018,0.232495932
2018-07-19T08:08:54Z,1531987734,104,43.0839433,44.2225465,322.25,0,-0.2,34.2,706027,-51822.27,27.1,Air+FixedWing,Blue,Enemies,J-11A,Blue J-11A #003,cn,=UVAF=GregOzby[430],0,0,0,322.25,2.25,0,0,NaN,NaN,0,0.013988227,NaN,0.999992504,-0.000181456,-0.003845245,0,316.0192963,316.0192963,,,151.9400001,320,0.140834018,0.232495932
2018-07-19T08:08:55Z,1531987735,104,43.0839433,44.2225465,322.25,0,-0.2,34.2,706027,-51822.27,27.1,Air+FixedWing,Blue,Enemies,J-11A,Blue J-11A #003,cn,=UVAF=GregOzby[430],0.00390625,0,1.15e-05,322.25,2.25,0.00390625,0,NaN,NaN,0,0.013988227,NaN,0.999994979,0.000181456,-0.003136059,7.63e-07,316.0192963,316.019297,,,152.9400001,320,0.140834018,0.232495932
2018-07-19T08:08:56Z,1531987736,104,43.0839433,44.2225465,322.25,0,-0.2,34.2,706027,-51822.27,27.1,Air+FixedWing,Blue,Enemies,J-11A,Blue J-11A #003,cn,=UVAF=GregOzby[430],0,0,0,322.25,2.25,0,0,NaN,NaN,0,0.013988227,NaN,0.999993742,0,-0.003490652,0,316.0192963,316.0192963,,,153.9400001,320,0.140834018,0.232495932
2018-07-19T08:08:57Z,1531987737,104,43.0839433,44.2225465,322.25,0,-0.2,34.2,706027,-51822.27,27.1,Air+FixedWing,Blue,Enemies,J-11A,Blue J-11A #003,cn,=UVAF=GregOzby[430],0,0,0,322.25,2.25,0,0,NaN,NaN,0,0.013988227,NaN,0.999993742,0,-0.003490652,0,316.0192963,316.0192963,,,154.9400001,320,0.140834018,0.232495932
2018-07-19T08:08:58Z,1531987738,104,43.0839433,44.2225465,322.25,0,-0.2,34.2,706027,-51822.27,27.1,Air+FixedWing,Blue,Enemies,J-11A,Blue J-11A #003,cn,=UVAF=GregOzby[430],0,0,0,322.25,2.25,0,0,NaN,NaN,0,0.013988227,NaN,0.999993742,0,-0.003490652,0,316.0192963,316.0192963,,,155.9400001,320,0.140834018,0.232495932
2018-07-19T08:08:59Z,1531987739,104,43.0839433,44.2225465,322.25,0,-0.2,34.2,706027,-51822.27,27.1,Air+FixedWing,Blue,Enemies,J-11A,Blue J-11A #003,cn,=UVAF=GregOzby[430],0,0,0,322.25,2.25,0,0,NaN,NaN,0,0.013988227,NaN,0.999993742,0,-0.003490652,0,316.0192963,316.0192963,,,156.9400001,320,0.140834018,0.232495932
2018-07-19T08:09:00Z,1531987740,104,43.0839433,44.2225465,322.25,0,-0.2,34.2,706027,-51822.27,27.1,Air+FixedWing,Blue,Enemies,J-11A,Blue J-11A #003,cn,=UVAF=GregOzby[430],0,0,0,322.25,2.25,0,0,NaN,NaN,0,0.013988227,NaN,0.999993742,0,-0.003490652,0,316.0192963,316.0192963,,,157.9400001,320,0.140834018,0.232495932
2018-07-19T08:09:01Z,1531987741,104,43.0839433,44.2225465,322.25,0,-0.2,34.2,706027,-51822.27,27.1,Air+FixedWing,Blue,Enemies,J-11A,Blue J-11A #003,cn,=UVAF=GregOzby[430],0,0,0,322.25,2.25,0,0,NaN,NaN,0,0.013988227,NaN,0.999993742,0,-0.003490652,0,316.0192963,316.0192963,,,158.9400001,320,0.140834018,0.232495932
2018-07-19T08:09:02Z,1531987742,104,43.0839433,44.2225465,322.25,0,-0.2,34.2,706027,-51822.27,27.1,Air+FixedWing,Blue,Enemies,J-11A,Blue J-11A #003,cn,=UVAF=GregOzby[430],0,0,0,322.25,2.25,0,0,NaN,NaN,0,0.013988227,NaN,0.999993742,0,-0.003490652,0,316.0192963,316.0192963,,,159.9400001,320,0.140834018,0.232495932
2018-07-19T08:09:03Z,1531987743,104,43.0839433,44.2225465,322.25,0,-0.2,34.2,706027,-51822.27,27.1,Air+FixedWing,Blue,Enemies,J-11A,Blue J-11A #003,cn,=UVAF=GregOzby[430],0,0,0,322.25,2.25,0,0,NaN,NaN,0,0.013988227,NaN,0.999993742,0,-0.003490652,0,316.0192963,316.0192963,,,160.9400001,320,0.140834018,0.232495932
2018-07-19T08:09:04Z,1531987744,104,43.0839433,44.2225465,322.25,0,-0.2,34.2,706027,-51822.27,27.1,Air+FixedWing,Blue,Enemies,J-11A,Blue J-11A #003,cn,=UVAF=GregOzby[430],0,0,0,322.25,2.25,0,0,NaN,NaN,0,0.013988227,NaN,0.999993742,0,-0.003490652,0,316.0192963,316.0192963,,,161.9400001,320,0.140834018,0.232495932
2018-07-19T08:09:05Z,1531987745,104,43.0839433,44.2225465,322.25,0,-0.2,34.2,706027,-51822.27,27.1,Air+FixedWing,Blue,Enemies,J-11A,Blue J-11A #003,cn,=UVAF=GregOzby[430],0,0,0,322.25,2.25,0,0,NaN,NaN,0,0.013988227,NaN,0.999993742,0,-0.003490652,0,316.0192963,316.0192963,,,162.9400001,320,0.140834018,0.232495932
2018-07-19T08:09:06Z,1531987746,104,43.0839433,44.2225465,322.25,0,-0.2,34.2,706027,-51822.27,27.1,Air+FixedWing,Blue,Enemies,J-11A,Blue J-11A #003,cn,=UVAF=GregOzby[430],0,0,0,322.25,2.25,0,0,NaN,NaN,0,0.013988227,NaN,0.999993742,0,-0.003490652,0,316.0192963,316.0192963,,,163.9400001,320,0.140834018,0.232495932
2018-07-19T08:09:07Z,1531987747,104,43.0839433,44.2225465,322.25,0,-0.2,34.2,706027,-51822.27,27.1,Air+FixedWing,Blue,Enemies,J-11A,Blue J-11A #003,cn,=UVAF=GregOzby[430],0,0,0,322.25,2.25,0,0,NaN,NaN,0,0.013988227,NaN,0.999993742,0,-0.003490652,0,316.0192963,316.0192963,,,164.9400001,320,0.140834018,0.232495932
2018-07-19T08:09:08Z,1531987748,104,43.0839433,44.2225465,322.25,0,-0.2,34.2,706027,-51822.27,27.1,Air+FixedWing,Blue,Enemies,J-11A,Blue J-11A #003,cn,=UVAF=GregOzby[430],0,0,0,322.25,2.25,0,0,NaN,NaN,0,0.013988227,NaN,0.999993742,0,-0.003490652,0,316.0192963,316.0192963,,,165.9400001,320,0.140834018,0.232495932
2018-07-19T08:09:09Z,1531987749,104,43.0839433,44.2225465,322.25,0,-0.2,34.2,706027,-51822.27,27.1,Air+FixedWing,Blue,Enemies,J-11A,Blue J-11A #003,cn,=UVAF=GregOzby[430],0,0,0,322.25,2.25,0,0,NaN,NaN,0,0.013988227,NaN,0.999993742,0,-0.003490652,0,316.0192963,316.0192963,,,166.9400001,320,0.140834018,0.232495932
2018-07-19T08:09:10Z,1531987750,104,43.0839433,44.2225465,322.25,0,-0.2,34.2,706027,-51822.27,27.1,Air+FixedWing,Blue,Enemies,J-11A,Blue J-11A #003,cn,=UVAF=GregOzby[430],0,0,0,322.25,2.25,0,0,NaN,NaN,0,0.013988227,NaN,0.999993742,0,-0.003490652,0,316.0192963,316.0192963,,,167.9400001,320,0.140834018,0.232495932
2018-07-19T08:09:11Z,1531987751,104,43.0839433,44.2225465,322.25,0,-0.2,34.2,706027,-51822.27,27.1,Air+FixedWing,Blue,Enemies,J-11A,Blue J-11A #003,cn,=UVAF=GregOzby[430],0,0,0,322.25,2.25,0,0,NaN,NaN,0,0.013988227,NaN,0.999993742,0,-0.003490652,0,316.0192963,316.0192963,,,168.9400001,320,0.140834018,0.232495932
2018-07-19T08:09:12Z,1531987752,104,43.0839433,44.2225465,322.25,0,-0.2,34.2,706027,-51822.27,27.1,Air+FixedWing,Blue,Enemies,J-11A,Blue J-11A #003,cn,=UVAF=GregOzby[430],0,0,0,322.25,2.25,0,0,NaN,NaN,0,0.013988227,NaN,0.999993742,0,-0.003490652,0,316.0192963,316.0192963,,,169.9400001,320,0.140834018,0.232495932
2018-07-19T08:09:13Z,1531987753,104,43.0839433,44.2225465,322.25,0,-0.2,34.2,706027,-51822.27,27.1,Air+FixedWing,Blue,Enemies,J-11A,Blue J-11A #003,cn,=UVAF=GregOzby[430],0,0,0,322.25,2.25,0,0,NaN,NaN,0,0.013988227,NaN,0.999993742,0,-0.003490652,0,316.0192963,316.0192963,,,170.9400001,320,0.140834018,0.232495932
2018-07-19T08:09:14Z,1531987754,104,43.0839433,44.2225465,322.25,0,-0.2,34.2,706027,-51822.27,27.1,Air+FixedWing,Blue,Enemies,J-11A,Blue J-11A #003,cn,=UVAF=GregOzby[430],0,0,0,322.25,2.25,0,0,NaN,NaN,0,0.013988227,NaN,0.999993742,0,-0.003490652,0,316.0192963,316.0192963,,,171.9400001,320,0.140834018,0.232495932
2018-07-19T08:09:15Z,1531987755,104,43.0839433,44.2225465,322.25,0,-0.2,34.2,706027,-51822.27,27.1,Air+FixedWing,Blue,Enemies,J-11A,Blue J-11A #003,cn,=UVAF=GregOzby[430],0,0,0,322.25,2.25,0,0,NaN,NaN,0,0.013988227,NaN,0.999993742,0,-0.003490652,0,316.0192963,316.0192963,,,172.9400001,320,0.140834018,0.232495932
2018-07-19T08:09:16Z,1531987756,104,43.0839433,44.2225465,322.25,0,-0.2,34.2,706027,-51822.27,27.1,Air+FixedWing,Blue,Enemies,J-11A,Blue J-11A #003,cn,=UVAF=GregOzby[430],0,0,0,322.25,2.25,0,0,NaN,NaN,0,0.013988227,NaN,0.999993742,0,-0.003490652,0,316.0192963,316.0192963,,,173.9400001,320,0.140834018,0.232495932
2018-07-19T08:09:17Z,1531987757,104,43.0839433,44.2225465,322.25,0,-0.2,34.2,706027,-51822.27,27.1,Air+FixedWing,Blue,Enemies,J-11A,Blue J-11A #003,cn,=UVAF=GregOzby[430],0,0,0,322.25,2.25,0,0,NaN,NaN,0,0.013988227,NaN,0.999993742,0,-0.003490652,0,316.0192963,316.0192963,,,174.9400001,320,0.140834018,0.232495932
2018-07-19T08:09:18Z,1531987758,104,43.0839433,44.2225465,322.25,0,-0.2,34.2,706027,-51822.27,27.1,Air+FixedWing,Blue,Enemies,J-11A,Blue J-11A #003,cn,=UVAF=GregOzby[430],0,0,0,322.25,2.25,0,0,NaN,NaN,0,0.013988227,NaN,0.999993742,0,-0.003490652,0,316.0192963,316.0192963,,,175.9400001,320,0.140834018,0.232495932
2018-07-19T08:09:19Z,1531987759,104,43.0839433,44.2225465,322.25,0,-0.2,34.2,706027,-51822.27,27.1,Air+FixedWing,Blue,Enemies,J-11A,Blue J-11A #003,cn,=UVAF=GregOzby[430],0,0,0,322.25,2.25,0,0,NaN,NaN,0,0.013988227,NaN,0.999993742,0,-0.003490652,0,316.0192963,316.0192963,,,176.9400001,320,0.140834018,0.232495932
2018-07-19T08:09:20Z,1531987760,104,43.0839433,44.2225465,322.25,0,-0.2,34.2,706027,-51822.27,27.1,Air+FixedWing,Blue,Enemies,J-11A,Blue J-11A #003,cn,=UVAF=GregOzby[430],0,0,0,322.25,2.25,0,0,NaN,NaN,0,0.013988227,NaN,0.999993742,0,-0.003490652,0,316.0192963,316.0192963,,,177.9400001,320,0.140834018,0.232495932
2018-07-19T08:09:21Z,1531987761,104,43.0839433,44.2225465,322.25,0,-0.2,34.2,706027,-51822.27,27.1,Air+FixedWing,Blue,Enemies,J-11A,Blue J-11A #003,cn,=UVAF=GregOzby[430],0,0,0,322.25,2.25,0,0,NaN,NaN,0,0.013988227,NaN,0.999993742,0,-0.003490652,0,316.0192963,316.0192963,,,178.9400001,320,0.140834018,0.232495932
2018-07-19T08:09:22Z,1531987762,104,43.0839433,44.2225465,322.25,0,-0.2,34.2,706027,-51822.27,27.1,Air+FixedWing,Blue,Enemies,J-11A,Blue J-11A #003,cn,=UVAF=GregOzby[430],0,0,0,322.25,2.25,0,0,NaN,NaN,0,0.013988227,NaN,0.999993742,0,-0.003490652,0,316.0192963,316.0192963,,,179.9400001,320,0.140834018,0.232495932
2018-07-19T08:09:23Z,1531987763,104,43.0839433,44.2225465,322.25,0,-0.2,34.2,706027,-51822.27,27.1,Air+FixedWing,Blue,Enemies,J-11A,Blue J-11A #003,cn,=UVAF=GregOzby[430],0,0,0,322.25,2.25,0,0,NaN,NaN,0,0.013988227,NaN,0.999993742,0,-0.003490652,0,316.0192963,316.0192963,,,180.9400001,320,0.140834018,0.232495932
2018-07-19T08:09:24Z,1531987764,104,43.0839433,44.2225465,322.25,0,-0.2,34.2,706027,-51822.27,27.1,Air+FixedWing,Blue,Enemies,J-11A,Blue J-11A #003,cn,=UVAF=GregOzby[430],0,0,0,322.25,2.25,0,0,NaN,NaN,0,0.013988227,NaN,0.999993742,0,-0.003490652,0,316.0192963,316.0192963,,,181.9400001,320,0.140834018,0.232495932
2018-07-19T08:09:25Z,1531987765,104,43.0839433,44.2225465,322.25,0,-0.2,34.2,706027,-51822.27,27.1,Air+FixedWing,Blue,Enemies,J-11A,Blue J-11A #003,cn,=UVAF=GregOzby[430],0,0,0,322.25,2.25,0,0,NaN,NaN,0,0.013988227,NaN,0.999993742,0,-0.003490652,0,316.0192963,316.0192963,,,182.9400001,320,0.140834018,0.232495932
2018-07-19T08:09:26Z,1531987766,104,43.0839433,44.2225465,322.25,0,-0.2,34.2,706027,-51822.27,27.1,Air+FixedWing,Blue,Enemies,J-11A,Blue J-11A #003,cn,=UVAF=GregOzby[430],0,0,0,322.25,2.25,0,0,NaN,NaN,0,0.013988227,NaN,0.999993742,0,-0.003490652,0,316.0192963,316.0192963,,,183.9400001,320,0.140834018,0.232495932
2018-07-19T08:09:27Z,1531987767,104,43.0839433,44.2225465,322.25,0,-0.2,34.2,706027,-51822.27,27.1,Air+FixedWing,Blue,Enemies,J-11A,Blue J-11A #003,cn,=UVAF=GregOzby[430],0,0,0,322.25,2.25,0,0,NaN,NaN,0,0.013988227,NaN,0.999993742,0,-0.003490652,0,316.0192963,316.0192963,,,184.9400001,320,0.140834018,0.232495932
2018-07-19T08:09:28Z,1531987768,104,43.0839433,44.2225465,322.25,0,-0.2,34.2,706027,-51822.27,27.1,Air+FixedWing,Blue,Enemies,J-11A,Blue J-11A #003,cn,=UVAF=GregOzby[430],0,0,0,322.25,2.25,0,0,NaN,NaN,0,0.013988227,NaN,0.999993742,0,-0.003490652,0,316.0192963,316.0192963,,,185.9400001,320,0.140834018,0.232495932
2018-07-19T08:09:29Z,1531987769,104,43.0839433,44.2225465,322.25,0,-0.2,34.2,706027,-51822.27,27.1,Air+FixedWing,Blue,Enemies,J-11A,Blue J-11A #003,cn,=UVAF=GregOzby[430],0,0,0,322.25,2.25,0,0,NaN,NaN,0,0.013988227,NaN,0.999993742,0,-0.003490652,0,316.0192963,316.0192963,,,186.9400001,320,0.140834018,0.232495932
