ISOTime,UnixTime,Id,Longitude,Latitude,Altitude,Roll,Pitch,Yaw,U,V,Heading,Type,Color,Coalition,Name,Group,Country,Pilot,TAS,CAS,M,ASL,AGL,GS,VS,AOA,AOS,RRT,TRT,TRD,G,LatG,LonG,Ek,Ep,Em,FFW,FFV,RelativeTime,Elev,GroundDistance,AirDistance
2018-07-19T08:05:59Z,1531987559,106,43.0858296,44.2216835,322.23,0,-0.1,34.2,706189.62,-51899.46,27.1,Air+FixedWing,Blue,Enemies,J-11A,Blue J-11A #004,cn,=UVAF= Recoba [440],0.191490756,0.262722313,0.000564576,322.2314148,2.231414795,NaN,NaN,NaN,NaN,0.199987939,NaN,NaN,NaN,NaN,NaN,NaN,316.0010704,NaN,,,0.569999933,320,NaN,NaN
2018-07-19T08:06:00Z,1531987560,106,43.0858299,44.2216838,322.28,0,-0.5,34.2,706189.62,-51899.42,27.1,Air+FixedWing,Blue,Enemies,J-11A,Blue J-11A #004,cn,=UVAF= Recoba [440],0.061960274,0,0.000182679,322.2795105,2.279510498,0.0390625,0.048095703,NaN,NaN,0,0.013988227,NaN,0.99574558,-0.002358924,-0.013299658,0.000191954,316.0482362,316.0484281,,,1.569999933,320,0.043694794,0.064981726
2018-07-19T08:06:01Z,1531987561,106,43.0858299,44.2216838,322.29,0,-0.4,34.2,706189.62,-51899.43,27.1,Air+FixedWing,Blue,Enemies,J-11A,Blue J-11A #004,cn,=UVAF= Recoba [440],0.013723141,0,4.05e-05,322.2866516,2.286651611,0.01171875,0.007141113,NaN,NaN,0,0.046393706,NaN,0.995505106,-0.000362911,-0.007659259,9.42e-06,316.0552392,316.0552486,,,2.569999933,320,0.054781522,0.07816973
2018-07-19T08:06:02Z,1531987562,106,43.0858298,44.2216836,322.25,0,-0.4,34.2,706189.62,-51899.45,27.1,Air+FixedWing,Blue,Enemies,J-11A,Blue J-11A #004,cn,=UVAF= Recoba [440],0.041530836,0,0.000122446,322.25,2.25,0.01953125,-0.036651611,NaN,NaN,0,0.084510231,NaN,1.003725272,0.000907278,-0.005234418,8.62e-05,316.0192963,316.0193825,,,3.569999933,320,0.074305049,0.119697399
2018-07-19T08:06:03Z,1531987563,106,43.0858298,44.2216836,322.25,0,-0.4,34.2,706189.62,-51899.45,27.1,Air+FixedWing,Blue,Enemies,J-11A,Blue J-11A #004,cn,=UVAF= Recoba [440],0,0,0,322.25,2.25,0,0,NaN,NaN,0,0.052339163,NaN,0.999980513,0.000362911,-0.006272087,0,316.0192963,316.0192963,,,4.569999933,320,0.075064825,0.120457214
2018-07-19T08:06:04Z,1531987564,106,43.0858298,44.2216837,322.25,0,-0.3,34.2,706189.62,-51899.44,27.1,Air+FixedWing,Blue,Enemies,J-11A,Blue J-11A #004,cn,=UVAF= Recoba [440],0.0078125,0,2.3e-05,322.25,2.25,0.0078125,0,NaN,NaN,0.002088062,0.019782341,NaN,0.999982525,-0.00034469,-0.005945146,3.05e-06,316.0192963,316.0192993,,,5.569999933,320,0.086196775,0.131589725
2018-07-19T08:06:05Z,1531987565,106,43.0858298,44.2216837,322.25,0,-0.3,34.2,706189.62,-51899.44,27.1,Air+FixedWing,Blue,Enemies,J-11A,Blue J-11A #004,cn,=UVAF= Recoba [440],0,0,0,322.25,2.25,0,0,NaN,NaN,0.004539265,0.00989117,NaN,0.999986172,9.74e-05,-0.005235964,0,316.0192963,316.0192963,,,6.569999933,320,0.086196775,0.131589725
2018-07-19T08:06:06Z,1531987566,106,43.0858298,44.2216837,322.25,0,-0.3,34.2,706189.62,-51899.44,27.1,Air+FixedWing,Blue,Enemies,J-11A,Blue J-11A #004,cn,=UVAF= Recoba [440],0,0,0,322.25,2.25,0,0,NaN,NaN,0.004539264,0.00989117,NaN,0.999986172,0.00017667,-0.005235964,0,316.0192963,316.0192963,,,7.569999933,320,0.086196775,0.131589725
2018-07-19T08:06:07Z,1531987567,106,43.0858298,44.2216837,322.25,0,-0.3,34.2,706189.62,-51899.44,27.1,Air+FixedWing,Blue,Enemies,J-11A,Blue J-11A #004,cn,=UVAF= Recoba [440],0,0,0,322.25,2.25,0,0,NaN,NaN,0.004539263,0.00989117,NaN,0.999986172,0.000255894,-0.005235964,0,316.0192963,316.0192963,,,8.569999933,320,0.086196775,0.131589725
2018-07-19T08:06:08Z,1531987568,106,43.0858298,44.2216837,322.25,0,-0.3,34.2,706189.62,-51899.44,27.1,Air+FixedWing,Blue,Enemies,J-11A,Blue J-11A #004,cn,=UVAF= Recoba [440],0,0,0,322.25,2.25,0,0,NaN,NaN,0.004539264,0.00989117,NaN,0.999986112,0.000335118,-0.005235964,0,316.0192963,316.0192963,,,9.569999933,320,0.086196775,0.131589725
2018-07-19T08:06:09Z,1531987569,106,43.0858298,44.2216837,322.25,0,-0.3,34.2,706189.62,-51899.44,27.1,Air+FixedWing,Blue,Enemies,J-11A,Blue J-11A #004,cn,=UVAF= Recoba [440],0,0,0,322.25,2.25,0,0,NaN,NaN,0.004539264,0.00989117,NaN,0.999986112,0.000414342,-0.005235964,0,316.0192963,316.0192963,,,10.56999993,320,0.086196775,0.131589725
2018-07-19T08:06:10Z,1531987570,106,43.0858298,44.2216837,322.25,0,-0.3,34.2,706189.62,-51899.44,27.1,Air+FixedWing,Blue,Enemies,J-11A,Blue J-11A #004,cn,=UVAF= Recoba [440],0,0,0,322.25,2.25,0,0,NaN,NaN,0.004539261,0.00989117,NaN,0.999986112,0.000493566,-0.005235964,0,316.0192963,316.0192963,,,11.56999993,320,0.086196775,0.131589725
2018-07-19T08:06:11Z,1531987571,106,43.0858298,44.2216837,322.25,0,-0.3,34.2,706189.62,-51899.44,27.1,Air+FixedWing,Blue,Enemies,J-11A,Blue J-11A #004,cn,=UVAF= Recoba [440],0,0,0,322.25,2.25,0,0,NaN,NaN,0.004539261,0.00989117,NaN,0.999985993,0.00057279,-0.005235964,0,316.0192963,316.0192963,,,12.56999993,320,0.086196775,0.131589725
2018-07-19T08:06:12Z,1531987572,106,43.0858298,44.2216837,322.25,0,-0.3,34.2,706189.62,-51899.44,27.1,Air+FixedWing,Blue,Enemies,J-11A,Blue J-11A #004,cn,=UVAF= Recoba [440],0,0,0,322.25,2.25,0,0,NaN,NaN,0.004539268,0.00989117,NaN,0.999985993,0.000652014,-0.005235964,0,316.0192963,316.0192963,,,13.56999993,320,0.086196775,0.131589725
2018-07-19T08:06:13Z,1531987573,106,43.0858298,44.2216837,322.25,0,-0.3,34.2,706189.62,-51899.44,27.1,Air+FixedWing,Blue,Enemies,J-11A,Blue J-11A #004,cn,=UVAF= Recoba [440],0,0,0,322.25,2.25,0,0,NaN,NaN,0.004539261,0.00989117,NaN,0.999985933,0.000731238,-0.005235964,0,316.0192963,316.0192963,,,14.56999993,320,0.086196775,0.131589725
2018-07-19T08:06:14Z,1531987574,106,43.0858298,44.2216837,322.25,0,-0.3,34.2,706189.62,-51899.44,27.1,Air+FixedWing,Blue,Enemies,J-11A,Blue J-11A #004,cn,=UVAF= Recoba [440],0,0,0,322.25,2.25,0,0,NaN,NaN,0.004539261,0.00989117,NaN,0.999985874,0.000810462,-0.005235964,0,316.0192963,316.0192963,,,15.56999993,320,0.086196775,0.131589725
2018-07-19T08:06:15Z,1531987575,106,43.0858298,44.2216837,322.25,0.1,-0.3,34.2,706189.62,-51899.44,27.1,Air+FixedWing,Blue,Enemies,J-11A,Blue J-11A #004,cn,=UVAF= Recoba [440],0,0,0,322.25,2.25,0,0,NaN,NaN,0.004539268,0.00989117,NaN,0.999985814,0.000889686,-0.005235964,0,316.0192963,316.0192963,,,16.56999993,320,0.086196775,0.131589725
2018-07-19T08:06:16Z,1531987576,106,43.0858298,44.2216837,322.25,0.1,-0.3,34.2,706189.62,-51899.44,27.1,Air+FixedWing,Blue,Enemies,J-11A,Blue J-11A #004,cn,=UVAF= Recoba [440],0,0,0,322.25,2.25,0,0,NaN,NaN,0.004539268,0.00989117,NaN,0.999985754,0.00096891,-0.005235964,0,316.0192963,316.0192963,,,17.56999993,320,0.086196775,0.131589725
2018-07-19T08:06:17Z,1531987577,106,43.0858298,44.2216837,322.25,0.1,-0.3,34.2,706189.62,-51899.44,27.1,Air+FixedWing,Blue,Enemies,J-11A,Blue J-11A #004,cn,=UVAF= Recoba [440],0,0,0,322.25,2.25,0,0,NaN,NaN,0.004539261,0.00989117,NaN,0.999985635,0.001048134,-0.005235964,0,316.0192963,316.0192963,,,18.56999993,320,0.086196775,0.131589725
2018-07-19T08:06:18Z,1531987578,106,43.0858298,44.2216837,322.25,0.1,-0.3,34.2,706189.62,-51899.44,27.1,Air+FixedWing,Blue,Enemies,J-11A,Blue J-11A #004,cn,=UVAF= Recoba [440],0,0,0,322.25,2.25,0,0,NaN,NaN,0.004539274,0.00989117,NaN,0.999985576,0.001127358,-0.005235964,0,316.0192963,316.0192963,,,19.56999993,320,0.086196775,0.131589725
2018-07-19T08:06:19Z,1531987579,106,43.0858298,44.2216837,322.25,0.1,-0.3,34.2,706189.62,-51899.44,27.1,Air+FixedWing,Blue,Enemies,J-11A,Blue J-11A #004,cn,=UVAF= Recoba [440],0,0,0,322.25,2.25,0,0,NaN,NaN,0.004539261,0.00989117,NaN,0.999985456,0.001206582,-0.005235964,0,316.0192963,316.0192963,,,20.56999993,320,0.086196775,0.131589725
2018-07-19T08:06:20Z,1531987580,106,43.0858298,44.2216837,322.25,0.1,-0.3,34.2,706189.62,-51899.44,27.1,Air+FixedWing,Blue,Enemies,J-11A,Blue J-11A #004,cn,=UVAF= Recoba [440],0,0,0,322.25,2.25,0,0,NaN,NaN,0.004539261,0.00989117,NaN,0.999985397,0.001285806,-0.005235964,0,316.0192963,316.0192963,,,21.56999993,320,0.086196775,0.131589725
2018-07-19T08:06:21Z,1531987581,106,43.0858298,44.2216837,322.25,0.1,-0.3,34.2,706189.62,-51899.44,27.1,Air+FixedWing,Blue,Enemies,J-11A,Blue J-11A #004,cn,=UVAF= Recoba [440],0,0,0,322.25,2.25,0,0,NaN,NaN,0.004539274,0.00989117,NaN,0.999985218,0.00136503,-0.005235964,0,316.0192963,316.0192963,,,22.56999993,320,0.086196775,0.131589725
2018-07-19T08:06:22Z,1531987582,106,43.0858298,44.2216837,322.25,0.1,-0.3,34.2,706189.62,-51899.44,27.1,Air+FixedWing,Blue,Enemies,J-11A,Blue J-11A #004,cn,=UVAF= Recoba [440],0,0,0,322.25,2.25,0,0,NaN,NaN,0.004539274,0.00989117,NaN,0.999985158,0.001444254,-0.005235964,0,316.0192963,316.0192963,,,23.56999993,320,0.086196775,0.131589725
2018-07-19T08:06:23Z,1531987583,106,43.0858298,44.2216837,322.25,0.1,-0.3,34.2,706189.62,-51899.44,27.1,Air+FixedWing,Blue,Enemies,J-11A,Blue J-11A #004,cn,=UVAF= Recoba [440],0,0,0,322.25,2.25,0,0,NaN,NaN,0.004539261,0.00989117,NaN,0.999985039,0.001523477,-0.005235964,0,316.0192963,316.0192963,,,24.56999993,320,0.086196775,0.131589725
2018-07-19T08:06:24Z,1531987584,106,43.0858298,44.2216837,322.25,0.1,-0.3,34.2,706189.62,-51899.44,27.1,Air+FixedWing,Blue,Enemies,J-11A,Blue J-11A #004,cn,=UVAF= Recoba [440],0,0,0,322.25,2.25,0,0,NaN,NaN,0.004539274,0.00989117,NaN,0.99998486,0.001602701,-0.005235964,0,316.0192963,316.0192963,,,25.56999993,320,0.086196775,0.131589725
2018-07-19T08:06:25Z,1531987585,106,43.0858298,44.2216837,322.25,0.1,-0.3,34.2,706189.62,-51899.44,27.1,Air+FixedWing,Blue,Enemies,J-11A,Blue J-11A #004,cn,=UVAF= Recoba [440],0,0,0,322.25,2.25,0,0,NaN,NaN,0.004539261,0.00989117,NaN,0.999984801,0.001681925,-0.005235964,0,316.0192963,316.0192963,,,26.56999993,320,0.086196775,0.131589725
2018-07-19T08:06:26Z,1531987586,106,43.0858298,44.2216837,322.25,0.1,-0.3,34.2,706189.62,-51899.44,27.1,Air+FixedWing,Blue,Enemies,J-11A,Blue J-11A #004,cn,=UVAF= Recoba [440],0,0,0,322.25,2.25,0,0,NaN,NaN,0.066225514,0.00989117,NaN,0.999985576,0.001143512,-0.005235964,0,316.0192963,316.0192963,,,27.56999993,320,0.086196775,0.131589725
2018-07-19T08:06:27Z,1531987587,106,43.0858298,44.2216837,322.25,0.1,-0.3,34.2,706189.62,-51899.44,27.1,Air+FixedWing,Blue,Enemies,J-11A,Blue J-11A #004,cn,=UVAF= Recoba [440],0,0,0,322.25,2.25,0,0,NaN,NaN,0.089285727,0.00989117,NaN,0.999985754,0.000966151,-0.005235964,0,316.0192963,316.0192963,,,28.56999993,320,0.086196775,0.131589725
2018-07-19T08:06:28Z,1531987588,106,43.0858298,44.2216837,322.25,0.1,-0.3,34.2,706189.62,-51899.44,27.1,Air+FixedWing,Blue,Enemies,J-11A,Blue J-11A #004,cn,=UVAF= Recoba [440],0,0,0,322.25,2.25,0,0,NaN,NaN,0.070432911,0.00989117,NaN,0.999985576,0.001130798,-0.005235964,0,316.0192963,316.0192963,,,29.56999993,320,0.086196775,0.131589725
2018-07-19T08:06:29Z,1531987589,106,43.0858298,44.2216837,322.25,0,-0.3,34.2,706189.62,-51899.44,27.1,Air+FixedWing,Blue,Enemies,J-11A,Blue J-11A #004,cn,=UVAF= Recoba [440],0,0,0,322.25,2.25,0,0,NaN,NaN,0.017026948,0.00989117,NaN,0.999985993,0.000664877,-0.005235964,0,316.0192963,316.0192963,,,30.56999993,320,0.086196775,0.131589725
2018-07-19T08:06:30Z,1531987590,106,43.0858298,44.2216837,322.25,0,-0.3,34.2,706189.62,-51899.44,27.1,Air+FixedWing,Blue,Enemies,J-11A,Blue J-11A #004,cn,=UVAF= Recoba [440],0,0,0,322.25,2.25,0,0,NaN,NaN,0.05595291,0.00989117,NaN,0.999986172,1.03e-05,-0.005235964,0,316.0192963,316.0192963,,,31.56999993,320,0.086196775,0.131589725
2018-07-19T08:06:31Z,1531987591,106,43.0858298,44.2216837,322.25,0,-0.3,34.2,706189.62,-51899.44,27.1,Air+FixedWing,Blue,Enemies,J-11A,Blue J-11A #004,cn,=UVAF= Recoba [440],0,0,0,322.25,2.25,0,0,NaN,NaN,0.004208754,0.00989117,NaN,0.999986172,8.37e-05,-0.005235964,0,316.0192963,316.0192963,,,32.56999993,320,0.086196775,0.131589725
2018-07-19T08:06:32Z,1531987592,106,43.0858298,44.2216837,322.25,0,-0.3,34.2,706189.62,-51899.44,27.1,Air+FixedWing,Blue,Enemies,J-11A,Blue J-11A #004,cn,=UVAF= Recoba [440],0,0,0,322.25,2.25,0,0,NaN,NaN,0.004208755,0.00989117,NaN,0.999986172,0.000157195,-0.005235964,0,316.0192963,316.0192963,,,33.56999993,320,0.086196775,0.131589725
2018-07-19T08:06:33Z,1531987593,106,43.0858298,44.2216837,322.25,0,-0.3,34.2,706189.62,-51899.44,27.1,Air+FixedWing,Blue,Enemies,J-11A,Blue J-11A #004,cn,=UVAF= Recoba [440],0,0,0,322.25,2.25,0,0,NaN,NaN,0.004208756,0.00989117,NaN,0.999986172,0.000230651,-0.005235964,0,316.0192963,316.0192963,,,34.56999993,320,0.086196775,0.131589725
2018-07-19T08:06:34Z,1531987594,106,43.0858298,44.2216837,322.25,0,-0.3,34.2,706189.62,-51899.44,27.1,Air+FixedWing,Blue,Enemies,J-11A,Blue J-11A #004,cn,=UVAF= Recoba [440],0,0,0,322.25,2.25,0,0,NaN,NaN,0.004208754,0.00989117,NaN,0.999986231,0.000304106,-0.005235964,0,316.0192963,316.0192963,,,35.56999993,320,0.086196775,0.131589725
2018-07-19T08:06:35Z,1531987595,106,43.0858298,44.2216837,322.25,0,-0.3,34.2,706189.62,-51899.44,27.1,Air+FixedWing,Blue,Enemies,J-11A,Blue J-11A #004,cn,=UVAF= Recoba [440],0,0,0,322.25,2.25,0,0,NaN,NaN,0.004208754,0.00989117,NaN,0.999986112,0.000377562,-0.005235964,0,316.0192963,316.0192963,,,36.56999993,320,0.086196775,0.131589725
2018-07-19T08:06:36Z,1531987596,106,43.0858298,44.2216837,322.25,0,-0.3,34.2,706189.62,-51899.44,27.1,Air+FixedWing,Blue,Enemies,J-11A,Blue J-11A #004,cn,=UVAF= Recoba [440],0,0,0,322.25,2.25,0,0,NaN,NaN,0.004208761,0.00989117,NaN,0.999986112,0.000451017,-0.005235964,0,316.0192963,316.0192963,,,37.56999993,320,0.086196775,0.131589725
2018-07-19T08:06:37Z,1531987597,106,43.0858298,44.2216837,322.25,0,-0.3,34.2,706189.62,-51899.44,27.1,Air+FixedWing,Blue,Enemies,J-11A,Blue J-11A #004,cn,=UVAF= Recoba [440],0,0,0,322.25,2.25,0,0,NaN,NaN,0.004208754,0.00989117,NaN,0.999986053,0.000524473,-0.005235964,0,316.0192963,316.0192963,,,38.56999993,320,0.086196775,0.131589725
2018-07-19T08:06:38Z,1531987598,106,43.0858298,44.2216837,322.25,0,-0.3,34.2,706189.62,-51899.44,27.1,Air+FixedWing,Blue,Enemies,J-11A,Blue J-11A #004,cn,=UVAF= Recoba [440],0,0,0,322.25,2.25,0,0,NaN,NaN,0.004208757,0.00989117,NaN,0.999986053,0.000597929,-0.005235964,0,316.0192963,316.0192963,,,39.56999993,320,0.086196775,0.131589725
2018-07-19T08:06:39Z,1531987599,106,43.0858298,44.2216837,322.25,0,-0.3,34.2,706189.62,-51899.44,27.1,Air+FixedWing,Blue,Enemies,J-11A,Blue J-11A #004,cn,=UVAF= Recoba [440],0,0,0,322.25,2.25,0,0,NaN,NaN,0.004208757,0.00989117,NaN,0.999985993,0.000671384,-0.005235964,0,316.0192963,316.0192963,,,40.56999993,320,0.086196775,0.131589725
2018-07-19T08:06:40Z,1531987600,106,43.0858298,44.2216837,322.25,0,-0.3,34.2,706189.62,-51899.44,27.1,Air+FixedWing,Blue,Enemies,J-11A,Blue J-11A #004,cn,=UVAF= Recoba [440],0,0,0,322.25,2.25,0,0,NaN,NaN,0.004208757,0.00989117,NaN,0.999985933,0.00074484,-0.005235964,0,316.0192963,316.0192963,,,41.56999993,320,0.086196775,0.131589725
2018-07-19T08:06:41Z,1531987601,106,43.0858298,44.2216837,322.25,0,-0.3,34.2,706189.62,-51899.44,27.1,Air+FixedWing,Blue,Enemies,J-11A,Blue J-11A #004,cn,=UVAF= Recoba [440],0,0,0,322.25,2.25,0,0,NaN,NaN,0.004208751,0.00989117,NaN,0.999985814,0.000818295,-0.005235964,0,316.0192963,316.0192963,,,42.56999993,320,0.086196775,0.131589725
2018-07-19T08:06:42Z,1531987602,106,43.0858298,44.2216837,322.25,0.1,-0.3,34.2,706189.62,-51899.44,27.1,Air+FixedWing,Blue,Enemies,J-11A,Blue J-11A #004,cn,=UVAF= Recoba [440],0,0,0,322.25,2.25,0,0,NaN,NaN,0.004208751,0.00989117,NaN,0.999985754,0.000891751,-0.005235964,0,316.0192963,316.0192963,,,43.56999993,320,0.086196775,0.131589725
2018-07-19T08:06:43Z,1531987603,106,43.0858298,44.2216837,322.25,0.1,-0.3,34.2,706189.62,-51899.44,27.1,Air+FixedWing,Blue,Enemies,J-11A,Blue J-11A #004,cn,=UVAF= Recoba [440],0,0,0,322.25,2.25,0,0,NaN,NaN,0.004208757,0.00989117,NaN,0.999985754,0.000965207,-0.005235964,0,316.0192963,316.0192963,,,44.56999993,320,0.086196775,0.131589725
2018-07-19T08:06:44Z,1531987604,106,43.0858298,44.2216837,322.25,0.1,-0.3,34.2,706189.62,-51899.44,27.1,Air+FixedWing,Blue,Enemies,J-11A,Blue J-11A #004,cn,=UVAF= Recoba [440],0,0,0,322.25,2.25,0,0,NaN,NaN,0.004208757,0.00989117,NaN,0.999985635,0.001038662,-0.005235964,0,316.0192963,316.0192963,,,45.56999993,320,0.086196775,0.131589725
2018-07-19T08:06:45Z,1531987605,106,43.0858298,44.2216837,322.25,0.1,-0.3,34.2,706189.62,-51899.44,27.1,Air+FixedWing,Blue,Enemies,J-11A,Blue J-11A #004,cn,=UVAF= Recoba [440],0,0,0,322.25,2.25,0,0,NaN,NaN,0.004208757,0.00989117,NaN,0.999985576,0.001112118,-0.005235964,0,316.0192963,316.0192963,,,46.56999993,320,0.086196775,0.131589725
2018-07-19T08:06:46Z,1531987606,106,43.0858298,44.2216837,322.25,0.1,-0.3,34.2,706189.62,-51899.44,27.1,Air+FixedWing,Blue,Enemies,J-11A,Blue J-11A #004,cn,=UVAF= Recoba [440],0,0,0,322.25,2.25,0,0,NaN,NaN,0.004208744,0.00989117,NaN,0.999985516,0.001185573,-0.005235964,0,316.0192963,316.0192963,,,47.56999993,320,0.086196775,0.131589725
2018-07-19T08:06:47Z,1531987607,106,43.0858298,44.2216837,322.25,0.1,-0.3,34.2,706189.62,-51899.44,27.1,Air+FixedWing,Blue,Enemies,J-11A,Blue J-11A #004,cn,=UVAF= Recoba [440],0,0,0,322.25,2.25,0,0,NaN,NaN,0.004208757,0.00989117,NaN,0.999985397,0.001259029,-0.005235964,0,316.0192963,316.0192963,,,48.56999993,320,0.086196775,0.131589725
2018-07-19T08:06:48Z,1531987608,106,43.0858298,44.2216837,322.25,0.1,-0.3,34.2,706189.62,-51899.44,27.1,Air+FixedWing,Blue,Enemies,J-11A,Blue J-11A #004,cn,=UVAF= Recoba [440],0,0,0,322.25,2.25,0,0,NaN,NaN,0.004208757,0.00989117,NaN,0.999985337,0.001332484,-0.005235964,0,316.0192963,316.0192963,,,49.56999993,320,0.086196775,0.131589725
2018-07-19T08:06:49Z,1531987609,106,43.0858298,44.2216837,322.25,0.1,-0.3,34.2,706189.62,-51899.44,27.1,Air+FixedWing,Blue,Enemies,J-11A,Blue J-11A #004,cn,=UVAF= Recoba [440],0,0,0,322.25,2.25,0,0,NaN,NaN,0.004208744,0.00989117,NaN,0.999985218,0.00140594,-0.005235964,0,316.0192963,316.0192963,,,50.56999993,320,0.086196775,0.131589725
2018-07-19T08:06:50Z,1531987610,106,43.0858298,44.2216837,322.25,0.1,-0.3,34.2,706189.62,-51899.44,27.1,Air+FixedWing,Blue,Enemies,J-11A,Blue J-11A #004,cn,=UVAF= Recoba [440],0,0,0,322.25,2.25,0,0,NaN,NaN,0.004208757,0.00989117,NaN,0.999985158,0.001479395,-0.005235964,0,316.0192963,316.0192963,,,51.56999993,320,0.086196775,0.131589725
2018-07-19T08:06:51Z,1531987611,106,43.0858298,44.2216837,322.25,0.1,-0.3,34.2,706189.62,-51899.44,27.1,Air+FixedWing,Blue,Enemies,J-11A,Blue J-11A #004,cn,=UVAF= Recoba [440],0,0,0,322.25,2.25,0,0,NaN,NaN,0.004208744,0.00989117,NaN,0.99998498,0.001552851,-0.005235964,0,316.0192963,316.0192963,,,52.56999993,320,0.086196775,0.131589725
2018-07-19T08:06:52Z,1531987612,106,43.0858298,44.2216837,322.25,0.1,-0.3,34.2,706189.62,-51899.44,27.1,Air+FixedWing,Blue,Enemies,J-11A,Blue J-11A #004,cn,=UVAF= Recoba [440],0,0,0,322.25,2.25,0,0,NaN,NaN,0.004208757,0.00989117,NaN,0.99998486,0.001626307,-0.005235964,0,316.0192963,316.0192963,,,53.56999993,320,0.086196775,0.131589725
2018-07-19T08:06:53Z,1531987613,106,43.0858298,44.2216837,322.25,0.1,-0.3,34.2,706189.62,-51899.44,27.1,Air+FixedWing,Blue,Enemies,J-11A,Blue J-11A #004,cn,=UVAF= Recoba [440],0,0,0,322.25,2.25,0,0,NaN,NaN,0.004208757,0.00989117,NaN,0.999984741,0.001699762,-0.005235964,0,316.0192963,316.0192963,,,54.56999993,320,0.086196775,0.131589725
2018-07-19T08:06:54Z,1531987614,106,43.0858298,44.2216837,322.25,0,-0.3,34.2,706189.62,-51899.44,27.1,Air+FixedWing,Blue,Enemies,J-11A,Blue J-11A #004,cn,=UVAF= Recoba [440],0,0,0,322.25,2.25,0,0,NaN,NaN,0.199004392,0.027976455,NaN,0.999987304,0,-0.00502555,0,316.0192963,316.0192963,,,55.56999993,320,0.086196775,0.131589725
2018-07-19T08:06:55Z,1531987615,106,43.0858298,44.2216837,322.25,0,-0.2,34.2,706189.62,-51899.44,27.1,Air+FixedWing,Blue,Enemies,J-11A,Blue J-11A #004,cn,=UVAF= Recoba [440],0,0,0,322.25,2.25,0,0,NaN,NaN,0,0.052339163,NaN,0.999992728,0,-0.003787814,0,316.0192963,316.0192963,,,56.56999993,320,0.086196775,0.131589725
2018-07-19T08:06:56Z,1531987616,106,43.0858298,44.2216837,322.25,0,-0.3,34.2,706189.62,-51899.44,27.1,Air+FixedWing,Blue,Enemies,J-11A,Blue J-11A #004,cn,=UVAF= Recoba [440],0,0,0,322.25,2.25,0,0,NaN,NaN,0.006763279,0.027976455,NaN,0.999986172,5.9e-05,-0.005235964,0,316.0192963,316.0192963,,,57.56999993,320,0.086196775,0.131589725
2018-07-19T08:06:57Z,1531987617,106,43.0858298,44.2216837,322.25,0.1,-0.3,34.2,706189.62,-51899.44,27.1,Air+FixedWing,Blue,Enemies,J-11A,Blue J-11A #004,cn,=UVAF= Recoba [440],0,0,0,322.25,2.25,0,0,NaN,NaN,0.048309178,0.052339163,NaN,0.999985754,0.000902162,-0.005235964,0,316.0192963,316.0192963,,,58.56999993,320,0.086196775,0.131589725
2018-07-19T08:06:58Z,1531987618,106,43.0858298,44.2216837,322.25,0.1,-0.3,34.2,706189.62,-51899.44,27.1,Air+FixedWing,Blue,Enemies,J-11A,Blue J-11A #004,cn,=UVAF= Recoba [440],0,0,0,322.25,2.25,0,0,NaN,NaN,0.048309181,0.00989117,NaN,0.999984682,0.001745304,-0.005235964,0,316.0192963,316.0192963,,,59.56999993,320,0.086196775,0.131589725
2018-07-19T08:06:59Z,1531987619,106,43.0858298,44.2216837,322.25,0.1,-0.3,34.2,706189.62,-51899.44,27.1,Air+FixedWing,Blue,Enemies,J-11A,Blue J-11A #004,cn,=UVAF= Recoba [440],0,0,0,322.25,2.25,0,0,NaN,NaN,0.037046946,0.00989117,NaN,0.999985576,0.001098935,-0.005235964,0,316.0192963,316.0192963,,,60.56999993,320,0.086196775,0.131589725
2018-07-19T08:07:00Z,1531987620,106,43.0858298,44.2216837,322.25,0,-0.3,34.2,706189.62,-51899.44,27.1,Air+FixedWing,Blue,Enemies,J-11A,Blue J-11A #004,cn,=UVAF= Recoba [440],0,0,0,322.25,2.25,0,0,NaN,NaN,0.037046946,0.00989117,NaN,0.999986112,0.000452565,-0.005235964,0,316.0192963,316.0192963,,,61.56999993,320,0.086196775,0.131589725
2018-07-19T08:07:01Z,1531987621,106,43.0858298,44.2216837,322.25,0,-0.3,34.2,706189.62,-51899.44,27.1,Air+FixedWing,Blue,Enemies,J-11A,Blue J-11A #004,cn,=UVAF= Recoba [440],0,0,0,322.25,2.25,0,0,NaN,NaN,0.01480785,0.00989117,NaN,0.999986172,0,-0.005235964,0,316.0192963,316.0192963,,,62.56999993,320,0.087243666,0.132636668
2018-07-19T08:07:02Z,1531987622,106,43.0858298,44.2216837,322.25,0,-0.3,34.2,706189.62,-51899.44,27.1,Air+FixedWing,Blue,Enemies,J-11A,Blue J-11A #004,cn,=UVAF= Recoba [440],0,0,0,322.25,2.25,0,0,NaN,NaN,0,0.00989117,NaN,0.999986172,0,-0.005235964,0,316.0192963,316.0192963,,,63.56999993,320,0.090733305,0.136126483
2018-07-19T08:07:03Z,1531987623,106,43.0858298,44.2216836,322.25,0,-0.3,34.2,706189.62,-51899.44,27.1,Air+FixedWing,Blue,Enemies,J-11A,Blue J-11A #004,cn,=UVAF= Recoba [440],0,0,0,322.25,2.25,0,0,NaN,NaN,0,0.00989117,NaN,0.999449071,-0.000181456,-0.005587752,0,316.0192963,316.0192963,,,64.56999993,320,0.094222944,0.139616299
2018-07-19T08:07:04Z,1531987624,106,43.0858298,44.2216836,322.24,0.1,-0.3,34.2,706189.62,-51899.45,27.1,Air+FixedWing,Blue,Enemies,J-11A,Blue J-11A #004,cn,=UVAF= Recoba [440],0.006543014,0,1.93e-05,322.244751,2.244750977,0.00390625,-0.005249023,NaN,NaN,0.104761795,0.047436394,NaN,1.000035604,0.000914252,-0.005236225,2.14e-06,316.0141487,316.0141509,,,65.56999993,320,0.097328724,0.145715404
2018-07-19T08:07:05Z,1531987625,106,43.0858298,44.2216836,322.24,0.1,-0.3,34.2,706189.62,-51899.45,27.1,Air+FixedWing,Blue,Enemies,J-11A,Blue J-11A #004,cn,=UVAF= Recoba [440],0.006158202,0,1.82e-05,322.2399902,2.239990234,0.00390625,-0.004760742,NaN,NaN,0.199987939,0.00989117,NaN,1.001492371,0.001929392,-0.00488926,1.9e-06,316.00948,316.0094819,,,66.56999993,320,0.099409855,0.150911192
2018-07-19T08:07:06Z,1531987626,106,43.0858299,44.2216836,322.25,0.1,-0.3,34.2,706189.62,-51899.45,27.1,Air+FixedWing,Blue,Enemies,J-11A,Blue J-11A #004,cn,=UVAF= Recoba [440],0.010009766,0,2.95e-05,322.25,2.25,0,0.010009766,NaN,NaN,0,0.03830834,NaN,0.998963985,0.001743523,-0.00523062,5.01e-06,316.0192963,316.0193013,,,67.56999993,320,0.102647174,0.161431492
2018-07-19T08:07:07Z,1531987627,106,43.0858298,44.2216836,322.25,0.1,-0.2,34.2,706189.62,-51899.45,27.1,Air+FixedWing,Blue,Enemies,J-11A,Blue J-11A #004,cn,=UVAF= Recoba [440],0,0,0,322.25,2.25,0,0,NaN,NaN,0,0.052339163,NaN,0.999992972,0.001926775,-0.003241934,0,316.0192963,316.0192963,,,68.56999993,320,0.107965624,0.166750211
2018-07-19T08:07:08Z,1531987628,106,43.0858299,44.2216836,322.25,0,-0.2,34.2,706189.62,-51899.45,27.1,Air+FixedWing,Blue,Enemies,J-11A,Blue J-11A #004,cn,=UVAF= Recoba [440],0.00390625,0,1.15e-05,322.25,2.25,0.00390625,0,NaN,NaN,0.16189504,0.041964686,NaN,0.999993742,0,-0.003490652,7.63e-07,316.0192963,316.019297,,,69.56999993,320,0.115943299,0.174728288
2018-07-19T08:07:09Z,1531987629,106,43.0858299,44.2216837,322.25,0,-0.2,34.2,706189.62,-51899.44,27.1,Air+FixedWing,Blue,Enemies,J-11A,Blue J-11A #004,cn,=UVAF= Recoba [440],0.00390625,0,1.15e-05,322.25,2.25,0.00390625,0,NaN,NaN,0.033333311,0.013988227,NaN,0.999990187,-0.000253482,-0.004554431,7.63e-07,316.0192963,316.019297,,,70.56999993,320,0.127075248,0.185860799
2018-07-19T08:07:10Z,1531987630,106,43.0858299,44.2216836,322.25,0,-0.2,34.2,706189.62,-51899.45,27.1,Air+FixedWing,Blue,Enemies,J-11A,Blue J-11A #004,cn,=UVAF= Recoba [440],0.0078125,0,2.3e-05,322.25,2.25,0.0078125,0,NaN,NaN,0,0.013988227,NaN,0.999996187,0.000446022,-0.002781465,3.05e-06,316.0192963,316.0192993,,,71.56999993,320,0.138207197,0.19699331
2018-07-19T08:07:11Z,1531987631,106,43.0858298,44.2216836,322.25,0,-0.2,34.2,706189.62,-51899.45,27.1,Air+FixedWing,Blue,Enemies,J-11A,Blue J-11A #004,cn,=UVAF= Recoba [440],0,0,0,322.25,2.25,0,0,NaN,NaN,0.127260085,0.013988227,NaN,0.999993563,0.000634661,-0.003490652,0,316.0192963,316.0192963,,,72.56999993,320,0.146184872,0.204971387
2018-07-19T08:07:12Z,1531987632,106,43.0858298,44.2216836,322.25,0.1,-0.2,34.2,706189.62,-51899.45,27.1,Air+FixedWing,Blue,Enemies,J-11A,Blue J-11A #004,cn,=UVAF= Recoba [440],0,0,0,322.25,2.25,0,0,NaN,NaN,0.058794268,0.013988227,NaN,0.999993205,0.001006169,-0.003490652,0,316.0192963,316.0192963,,,73.56999993,320,0.146184872,0.204971387
2018-07-19T08:07:13Z,1531987633,106,43.0858298,44.2216836,322.25,0,-0.2,34.2,706189.62,-51899.45,27.1,Air+FixedWing,Blue,Enemies,J-11A,Blue J-11A #004,cn,=UVAF= Recoba [440],0,0,0,322.25,2.25,0,0,NaN,NaN,0.056499325,0.013988227,NaN,0.999993742,0,-0.003490652,0,316.0192963,316.0192963,,,74.56999993,320,0.146944649,0.205731202
2018-07-19T08:07:14Z,1531987634,106,43.0858298,44.2216836,322.25,0,-0.2,34.2,706189.62,-51899.45,27.1,Air+FixedWing,Blue,Enemies,J-11A,Blue J-11A #004,cn,=UVAF= Recoba [440],0,0,0,322.25,2.25,0,0,NaN,NaN,0,0.013988227,NaN,0.999993742,0,-0.003490652,0,316.0192963,316.0192963,,,75.56999993,320,0.149524365,0.208311049
2018-07-19T08:07:15Z,1531987635,106,43.0858298,44.2216836,322.25,0,-0.2,34.2,706189.62,-51899.45,27.1,Air+FixedWing,Blue,Enemies,J-11A,Blue J-11A #004,cn,=UVAF= Recoba [440],0,0,0,322.25,2.25,0,0,NaN,NaN,0,0.013988227,NaN,0.999993742,0,-0.003490652,0,316.0192963,316.0192963,,,76.56999993,320,0.149826854,0.208613553
2018-07-19T08:07:16Z,1531987636,106,43.0858298,44.2216836,322.25,0.1,-0.2,34.2,706189.62,-51899.45,27.1,Air+FixedWing,Blue,Enemies,J-11A,Blue J-11A #004,cn,=UVAF= Recoba [440],0,0,0,322.25,2.25,0,0,NaN,NaN,0.145098004,0.013988227,NaN,0.999992907,0.001266211,-0.003490652,0,316.0192963,316.0192963,,,77.56999993,320,0.153468836,0.212255719
2018-07-19T08:07:17Z,1531987637,106,43.0858298,44.2216836,322.25,0,-0.2,34.2,706189.62,-51899.45,27.1,Air+FixedWing,Blue,Enemies,J-11A,Blue J-11A #004,cn,=UVAF= Recoba [440],0,0,0,322.25,2.25,0,0,NaN,NaN,0.161684238,0.013988227,NaN,0.999558015,0.000334064,-0.003489131,0,316.0192963,316.0192963,,,78.56999993,320,0.153468836,0.212255719
2018-07-19T08:07:18Z,1531987638,106,43.0858298,44.2216836,322.25,0.1,-0.2,34.2,706189.62,-51899.45,27.1,Air+FixedWing,Blue,Enemies,J-11A,Blue J-11A #004,cn,=UVAF= Recoba [440],0.004272461,0,1.26e-05,322.2457275,2.245727539,0,-0.004272461,NaN,NaN,0,0.013988227,NaN,0.99984288,0.001745057,-0.00349013,9.13e-07,316.0151064,316.0151073,,,79.56999993,320,0.153468836,0.216528179
2018-07-19T08:07:19Z,1531987639,106,43.0858298,44.2216836,322.24,0,-0.2,34.2,706189.62,-51899.45,27.1,Air+FixedWing,Blue,Enemies,J-11A,Blue J-11A #004,cn,=UVAF= Recoba [440],0.005737305,0,1.69e-05,322.2399902,2.239990234,0,-0.005737305,NaN,NaN,0.161902804,0.013988227,NaN,1.001599485,0.000333061,-0.003496257,1.65e-06,316.00948,316.0094817,,,80.56999993,320,0.153468836,0.222265484
2018-07-19T08:07:20Z,1531987640,106,43.0858297,44.2216836,322.25,0,-0.2,34.2,706189.62,-51899.45,27.1,Air+FixedWing,Blue,Enemies,J-11A,Blue J-11A #004,cn,=UVAF= Recoba [440],0.010009766,0,2.95e-05,322.25,2.25,0,0.010009766,NaN,NaN,0,0.013988227,NaN,0.997952331,0,-0.003483526,5.01e-06,316.0192963,316.0193013,,,81.56999993,320,0.159167175,0.23378372
2018-07-19T08:07:21Z,1531987641,106,43.0858296,44.2216836,322.24,0,-0.2,34.2,706189.62,-51899.45,27.1,Air+FixedWing,Blue,Enemies,J-11A,Blue J-11A #004,cn,=UVAF= Recoba [440],0.010009766,0,2.95e-05,322.2399902,2.239990234,0,-0.010009766,NaN,NaN,0,0.013988227,NaN,1.001014447,0,-0.003494215,5.01e-06,316.00948,316.009485,,,82.56999993,320,0.167483672,0.246797809
2018-07-19T08:07:22Z,1531987642,106,43.0858298,44.2216836,322.24,0,-0.2,34.2,706189.62,-51899.45,27.1,Air+FixedWing,Blue,Enemies,J-11A,Blue J-11A #004,cn,=UVAF= Recoba [440],0,0,0,322.2399902,2.239990234,0,0,NaN,NaN,0.000112737,0.013988227,NaN,0.999993801,9.84e-07,-0.003490652,0,316.00948,316.00948,,,83.56999993,320,0.181498507,0.260813353
2018-07-19T08:07:23Z,1531987643,106,43.0858298,44.2216836,322.24,0,-0.2,34.2,706189.62,-51899.45,27.1,Air+FixedWing,Blue,Enemies,J-11A,Blue J-11A #004,cn,=UVAF= Recoba [440],0,0,0,322.2399902,2.239990234,0,0,NaN,NaN,0.000225474,0.013988227,NaN,0.999993742,4.92e-06,-0.003490652,0,316.00948,316.00948,,,84.56999993,320,0.181498507,0.260813353
2018-07-19T08:07:24Z,1531987644,106,43.0858298,44.2216836,322.24,0,-0.2,34.2,706189.62,-51899.45,27.1,Air+FixedWing,Blue,Enemies,J-11A,Blue J-11A #004,cn,=UVAF= Recoba [440],0,0,0,322.2399902,2.239990234,0,0,NaN,NaN,0.000225474,0.013988227,NaN,0.999993742,8.85e-06,-0.003490652,0,316.00948,316.00948,,,85.56999993,320,0.181498507,0.260813353
2018-07-19T08:07:25Z,1531987645,106,43.0858298,44.2216836,322.24,0,-0.2,34.2,706189.62,-51899.45,27.1,Air+FixedWing,Blue,Enemies,J-11A,Blue J-11A #004,cn,=UVAF= Recoba [440],0,0,0,322.2399902,2.239990234,0,0,NaN,NaN,0.000225474,0.013988227,NaN,0.999993742,1.28e-05,-0.003490652,0,316.00948,316.00948,,,86.56999993,320,0.181498507,0.260813353
2018-07-19T08:07:26Z,1531987646,106,43.0858298,44.2216836,322.24,0,-0.2,34.2,706189.62,-51899.45,27.1,Air+FixedWing,Blue,Enemies,J-11A,Blue J-11A #004,cn,=UVAF= Recoba [440],0,0,0,322.2399902,2.239990234,0,0,NaN,NaN,0.000225474,0.013988227,NaN,0.999993742,1.67e-05,-0.003490652,0,316.00948,316.00948,,,87.56999993,320,0.181498507,0.260813353
2018-07-19T08:07:27Z,1531987647,106,43.0858298,44.2216836,322.24,0,-0.2,34.2,706189.62,-51899.45,27.1,Air+FixedWing,Blue,Enemies,J-11A,Blue J-11A #004,cn,=UVAF= Recoba [440],0,0,0,322.2399902,2.239990234,0,0,NaN,NaN,0.000225474,0.013988227,NaN,0.999993742,2.07e-05,-0.003490652,0,316.00948,316.00948,,,88.56999993,320,0.181498507,0.260813353
2018-07-19T08:07:28Z,1531987648,106,43.0858298,44.2216836,322.24,0,-0.2,34.2,706189.62,-51899.45,27.1,Air+FixedWing,Blue,Enemies,J-11A,Blue J-11A #004,cn,=UVAF= Recoba [440],0,0,0,322.2399902,2.239990234,0,0,NaN,NaN,0.000225474,0.013988227,NaN,0.999993801,2.46e-05,-0.003490652,0,316.00948,316.00948,,,89.56999993,320,0.181498507,0.260813353
2018-07-19T08:07:29Z,1531987649,106,43.0858298,44.2216836,322.24,0,-0.2,34.2,706189.62,-51899.45,27.1,Air+FixedWing,Blue,Enemies,J-11A,Blue J-11A #004,cn,=UVAF= Recoba [440],0,0,0,322.2399902,2.239990234,0,0,NaN,NaN,0.000225474,0.013988227,NaN,0.999993801,2.85e-05,-0.003490652,0,316.00948,316.00948,,,90.56999993,320,0.181498507,0.260813353
2018-07-19T08:07:30Z,1531987650,106,43.0858298,44.2216836,322.24,0,-0.2,34.2,706189.62,-51899.45,27.1,Air+FixedWing,Blue,Enemies,J-11A,Blue J-11A #004,cn,=UVAF= Recoba [440],0,0,0,322.2399902,2.239990234,0,0,NaN,NaN,0.000225474,0.013988227,NaN,0.999993801,3.25e-05,-0.003490652,0,316.00948,316.00948,,,91.56999993,320,0.181498507,0.260813353
2018-07-19T08:07:31Z,1531987651,106,43.0858298,44.2216836,322.24,0,-0.2,34.2,706189.62,-51899.45,27.1,Air+FixedWing,Blue,Enemies,J-11A,Blue J-11A #004,cn,=UVAF= Recoba [440],0,0,0,322.2399902,2.239990234,0,0,NaN,NaN,0.000225474,0.013988227,NaN,0.999993742,3.64e-05,-0.003490652,0,316.00948,316.00948,,,92.56999993,320,0.181498507,0.260813353
2018-07-19T08:07:32Z,1531987652,106,43.0858298,44.2216836,322.24,0,-0.2,34.2,706189.62,-51899.45,27.1,Air+FixedWing,Blue,Enemies,J-11A,Blue J-11A #004,cn,=UVAF= Recoba [440],0,0,0,322.2399902,2.239990234,0,0,NaN,NaN,0.000225475,0.013988227,NaN,0.999993742,4.03e-05,-0.003490652,0,316.00948,316.00948,,,93.56999993,320,0.181498507,0.260813353
2018-07-19T08:07:33Z,1531987653,106,43.0858298,44.2216836,322.24,0,-0.2,34.2,706189.62,-51899.45,27.1,Air+FixedWing,Blue,Enemies,J-11A,Blue J-11A #004,cn,=UVAF= Recoba [440],0,0,0,322.2399902,2.239990234,0,0,NaN,NaN,0.000225474,0.013988227,NaN,0.999993742,4.43e-05,-0.003490652,0,316.00948,316.00948,,,94.56999993,320,0.181498507,0.260813353
2018-07-19T08:07:34Z,1531987654,106,43.0858298,44.2216836,322.24,0,-0.2,34.2,706189.62,-51899.45,27.1,Air+FixedWing,Blue,Enemies,J-11A,Blue J-11A #004,cn,=UVAF= Recoba [440],0,0,0,322.2399902,2.239990234,0,0,NaN,NaN,0.000225474,0.013988227,NaN,0.999993801,4.82e-05,-0.003490652,0,316.00948,316.00948,,,95.56999993,320,0.181498507,0.260813353
2018-07-19T08:07:35Z,1531987655,106,43.0858298,44.2216836,322.24,0,-0.2,34.2,706189.62,-51899.45,27.1,Air+FixedWing,Blue,Enemies,J-11A,Blue J-11A #004,cn,=UVAF= Recoba [440],0,0,0,322.2399902,2.239990234,0,0,NaN,NaN,0.000225474,0.013988227,NaN,0.999993801,5.21e-05,-0.003490652,0,316.00948,316.00948,,,96.56999993,320,0.181498507,0.260813353
2018-07-19T08:07:36Z,1531987656,106,43.0858298,44.2216836,322.24,0,-0.2,34.2,706189.62,-51899.45,27.1,Air+FixedWing,Blue,Enemies,J-11A,Blue J-11A #004,cn,=UVAF= Recoba [440],0,0,0,322.2399902,2.239990234,0,0,NaN,NaN,0.000225475,0.013988227,NaN,0.999993801,5.61e-05,-0.003490652,0,316.00948,316.00948,,,97.56999993,320,0.181498507,0.260813353
2018-07-19T08:07:37Z,1531987657,106,43.0858298,44.2216836,322.24,0,-0.2,34.2,706189.62,-51899.45,27.1,Air+FixedWing,Blue,Enemies,J-11A,Blue J-11A #004,cn,=UVAF= Recoba [440],0,0,0,322.2399902,2.239990234,0,0,NaN,NaN,0.000225474,0.013988227,NaN,0.999993742,6e-05,-0.003490652,0,316.00948,316.00948,,,98.56999993,320,0.181498507,0.260813353
2018-07-19T08:07:38Z,1531987658,106,43.0858298,44.2216836,322.24,0,-0.2,34.2,706189.62,-51899.45,27.1,Air+FixedWing,Blue,Enemies,J-11A,Blue J-11A #004,cn,=UVAF= Recoba [440],0,0,0,322.2399902,2.239990234,0,0,NaN,NaN,0.000225475,0.013988227,NaN,0.999993742,6.39e-05,-0.003490652,0,316.00948,316.00948,,,99.56999993,320,0.181498507,0.260813353
2018-07-19T08:07:39Z,1531987659,106,43.0858298,44.2216836,322.24,0,-0.2,34.2,706189.62,-51899.45,27.1,Air+FixedWing,Blue,Enemies,J-11A,Blue J-11A #004,cn,=UVAF= Recoba [440],0,0,0,322.2399902,2.239990234,0,0,NaN,NaN,0.000225475,0.013988227,NaN,0.999993742,6.79e-05,-0.003490652,0,316.00948,316.00948,,,100.5699999,320,0.181498507,0.260813353
2018-07-19T08:07:40Z,1531987660,106,43.0858298,44.2216836,322.24,0,-0.2,34.2,706189.62,-51899.45,27.1,Air+FixedWing,Blue,Enemies,J-11A,Blue J-11A #004,cn,=UVAF= Recoba [440],0,0,0,322.2399902,2.239990234,0,0,NaN,NaN,0.000225474,0.013988227,NaN,0.999993801,7.18e-05,-0.003490652,0,316.00948,316.00948,,,101.5699999,320,0.181498507,0.260813353
2018-07-19T08:07:41Z,1531987661,106,43.0858298,44.2216836,322.24,0,-0.2,34.2,706189.62,-51899.45,27.1,Air+FixedWing,Blue,Enemies,J-11A,Blue J-11A #004,cn,=UVAF= Recoba [440],0,0,0,322.2399902,2.239990234,0,0,NaN,NaN,0.000225474,0.013988227,NaN,0.999993801,7.58e-05,-0.003490652,0,316.00948,316.00948,,,102.5699999,320,0.181498507,0.260813353
2018-07-19T08:07:42Z,1531987662,106,43.0858298,44.2216836,322.24,0,-0.2,34.2,706189.62,-51899.45,27.1,Air+FixedWing,Blue,Enemies,J-11A,Blue J-11A #004,cn,=UVAF= Recoba [440],0,0,0,322.2399902,2.239990234,0,0,NaN,NaN,0.000225474,0.013988227,NaN,0.999993742,7.97e-05,-0.003490652,0,316.00948,316.00948,,,103.5699999,320,0.181498507,0.260813353
2018-07-19T08:07:43Z,1531987663,106,43.0858298,44.2216836,322.24,0,-0.2,34.2,706189.62,-51899.45,27.1,Air+FixedWing,Blue,Enemies,J-11A,Blue J-11A #004,cn,=UVAF= Recoba [440],0,0,0,322.2399902,2.239990234,0,0,NaN,NaN,0.000225474,0.013988227,NaN,0.999993742,8.36e-05,-0.003490652,0,316.00948,316.00948,,,104.5699999,320,0.181498507,0.260813353
2018-07-19T08:07:44Z,1531987664,106,43.0858298,44.2216836,322.24,0,-0.2,34.2,706189.62,-51899.45,27.1,Air+FixedWing,Blue,Enemies,J-11A,Blue J-11A #004,cn,=UVAF= Recoba [440],0,0,0,322.2399902,2.239990234,0,0,NaN,NaN,0.000225474,0.013988227,NaN,0.999993742,8.76e-05,-0.003490652,0,316.00948,316.00948,,,105.5699999,320,0.181498507,0.260813353
2018-07-19T08:07:45Z,1531987665,106,43.0858298,44.2216836,322.24,0,-0.2,34.2,706189.62,-51899.45,27.1,Air+FixedWing,Blue,Enemies,J-11A,Blue J-11A #004,cn,=UVAF= Recoba [440],0,0,0,322.2399902,2.239990234,0,0,NaN,NaN,0.000225474,0.013988227,NaN,0.999993742,9.15e-05,-0.003490652,0,316.00948,316.00948,,,106.5699999,320,0.181498507,0.260813353
2018-07-19T08:07:46Z,1531987666,106,43.0858298,44.2216836,322.24,0,-0.2,34.2,706189.62,-51899.45,27.1,Air+FixedWing,Blue,Enemies,J-11A,Blue J-11A #004,cn,=UVAF= Recoba [440],0,0,0,322.2399902,2.239990234,0,0,NaN,NaN,0.000225475,0.013988227,NaN,0.999993742,9.54e-05,-0.003490652,0,316.00948,316.00948,,,107.5699999,320,0.181498507,0.260813353
2018-07-19T08:07:47Z,1531987667,106,43.0858298,44.2216836,322.24,0,-0.2,34.2,706189.62,-51899.45,27.1,Air+FixedWing,Blue,Enemies,J-11A,Blue J-11A #004,cn,=UVAF= Recoba [440],0,0,0,322.2399902,2.239990234,0,0,NaN,NaN,0.000225474,0.013988227,NaN,0.999993801,9.94e-05,-0.003490652,0,316.00948,316.00948,,,108.5699999,320,0.181498507,0.260813353
2018-07-19T08:07:48Z,1531987668,106,43.0858298,44.2216836,322.24,0,-0.2,34.2,706189.62,-51899.45,27.1,Air+FixedWing,Blue,Enemies,J-11A,Blue J-11A #004,cn,=UVAF= Recoba [440],0,0,0,322.2399902,2.239990234,0,0,NaN,NaN,0.000225474,0.013988227,NaN,0.999993742,0.0001033,-0.003490652,0,316.00948,316.00948,,,109.5699999,320,0.181498507,0.260813353
2018-07-19T08:07:49Z,1531987669,106,43.0858298,44.2216836,322.24,0,-0.2,34.2,706189.62,-51899.45,27.1,Air+FixedWing,Blue,Enemies,J-11A,Blue J-11A #004,cn,=UVAF= Recoba [440],0,0,0,322.2399902,2.239990234,0,0,NaN,NaN,0.000225474,0.013988227,NaN,0.999993801,0.000107235,-0.003490652,0,316.00948,316.00948,,,110.5699999,320,0.181498507,0.260813353
2018-07-19T08:07:50Z,1531987670,106,43.0858298,44.2216836,322.24,0,-0.2,34.2,706189.62,-51899.45,27.1,Air+FixedWing,Blue,Enemies,J-11A,Blue J-11A #004,cn,=UVAF= Recoba [440],0,0,0,322.2399902,2.239990234,0,0,NaN,NaN,0.000225474,0.013988227,NaN,0.999993742,0.000111171,-0.003490652,0,316.00948,316.00948,,,111.5699999,320,0.181498507,0.260813353
2018-07-19T08:07:51Z,1531987671,106,43.0858298,44.2216836,322.24,0,-0.2,34.2,706189.62,-51899.45,27.1,Air+FixedWing,Blue,Enemies,J-11A,Blue J-11A #004,cn,=UVAF= Recoba [440],0,0,0,322.2399902,2.239990234,0,0,NaN,NaN,0.000225475,0.013988227,NaN,0.999993742,0.000115106,-0.003490652,0,316.00948,316.00948,,,112.5699999,320,0.181498507,0.260813353
2018-07-19T08:07:52Z,1531987672,106,43.0858298,44.2216836,322.24,0,-0.2,34.2,706189.62,-51899.45,27.1,Air+FixedWing,Blue,Enemies,J-11A,Blue J-11A #004,cn,=UVAF= Recoba [440],0,0,0,322.2399902,2.239990234,0,0,NaN,NaN,0.000225474,0.013988227,NaN,0.999993742,0.000119041,-0.003490652,0,316.00948,316.00948,,,113.5699999,320,0.181498507,0.260813353
2018-07-19T08:07:53Z,1531987673,106,43.0858298,44.2216836,322.24,0,-0.2,34.2,706189.62,-51899.45,27.1,Air+FixedWing,Blue,Enemies,J-11A,Blue J-11A #004,cn,=UVAF= Recoba [440],0,0,0,322.2399902,2.239990234,0,0,NaN,NaN,0.000225475,0.013988227,NaN,0.999993742,0.000122976,-0.003490652,0,316.00948,316.00948,,,114.5699999,320,0.181498507,0.260813353
2018-07-19T08:07:54Z,1531987674,106,43.0858298,44.2216836,322.24,0,-0.2,34.2,706189.62,-51899.45,27.1,Air+FixedWing,Blue,Enemies,J-11A,Blue J-11A #004,cn,=UVAF= Recoba [440],0,0,0,322.2399902,2.239990234,0,0,NaN,NaN,0.000225475,0.013988227,NaN,0.999993742,0.000126912,-0.003490652,0,316.00948,316.00948,,,115.5699999,320,0.181498507,0.260813353
2018-07-19T08:07:55Z,1531987675,106,43.0858298,44.2216836,322.24,0,-0.2,34.2,706189.62,-51899.45,27.1,Air+FixedWing,Blue,Enemies,J-11A,Blue J-11A #004,cn,=UVAF= Recoba [440],0,0,0,322.2399902,2.239990234,0,0,NaN,NaN,0.000225475,0.013988227,NaN,0.999993801,0.000130847,-0.003490652,0,316.00948,316.00948,,,116.5699999,320,0.181498507,0.260813353
2018-07-19T08:07:56Z,1531987676,106,43.0858298,44.2216836,322.24,0,-0.2,34.2,706189.62,-51899.45,27.1,Air+FixedWing,Blue,Enemies,J-11A,Blue J-11A #004,cn,=UVAF= Recoba [440],0,0,0,322.2399902,2.239990234,0,0,NaN,NaN,0.000225473,0.013988227,NaN,0.999993801,0.000134782,-0.003490652,0,316.00948,316.00948,,,117.5699999,320,0.181498507,0.260813353
2018-07-19T08:07:57Z,1531987677,106,43.0858298,44.2216836,322.24,0,-0.2,34.2,706189.62,-51899.45,27.1,Air+FixedWing,Blue,Enemies,J-11A,Blue J-11A #004,cn,=UVAF= Recoba [440],0,0,0,322.2399902,2.239990234,0,0,NaN,NaN,0.000225473,0.013988227,NaN,0.999993801,0.000138717,-0.003490652,0,316.00948,316.00948,,,118.5699999,320,0.181498507,0.260813353
2018-07-19T08:07:58Z,1531987678,106,43.0858298,44.2216836,322.24,0,-0.2,34.2,706189.62,-51899.45,27.1,Air+FixedWing,Blue,Enemies,J-11A,Blue J-11A #004,cn,=UVAF= Recoba [440],0,0,0,322.2399902,2.239990234,0,0,NaN,NaN,0.000225475,0.013988227,NaN,0.999993682,0.000142652,-0.003490652,0,316.00948,316.00948,,,119.5699999,320,0.181498507,0.260813353
2018-07-19T08:07:59Z,1531987679,106,43.0858298,44.2216836,322.24,0,-0.2,34.2,706189.62,-51899.45,27.1,Air+FixedWing,Blue,Enemies,J-11A,Blue J-11A #004,cn,=UVAF= Recoba [440],0,0,0,322.2399902,2.239990234,0,0,NaN,NaN,0.000225475,0.013988227,NaN,0.999993742,0.000146588,-0.003490652,0,316.00948,316.00948,,,120.5699999,320,0.181498507,0.260813353
2018-07-19T08:08:00Z,1531987680,106,43.0858298,44.2216836,322.24,0,-0.2,34.2,706189.62,-51899.45,27.1,Air+FixedWing,Blue,Enemies,J-11A,Blue J-11A #004,cn,=UVAF= Recoba [440],0,0,0,322.2399902,2.239990234,0,0,NaN,NaN,0.000225475,0.013988227,NaN,0.999993742,0.000150523,-0.003490652,0,316.00948,316.00948,,,121.5699999,320,0.181498507,0.260813353
2018-07-19T08:08:01Z,1531987681,106,43.0858298,44.2216836,322.24,0,-0.2,34.2,706189.62,-51899.45,27.1,Air+FixedWing,Blue,Enemies,J-11A,Blue J-11A #004,cn,=UVAF= Recoba [440],0,0,0,322.2399902,2.239990234,0,0,NaN,NaN,0.000225473,0.013988227,NaN,0.999993801,0.000154458,-0.003490652,0,316.00948,316.00948,,,122.5699999,320,0.181498507,0.260813353
2018-07-19T08:08:02Z,1531987682,106,43.0858298,44.2216836,322.24,0,-0.2,34.2,706189.62,-51899.45,27.1,Air+FixedWing,Blue,Enemies,J-11A,Blue J-11A #004,cn,=UVAF= Recoba [440],0,0,0,322.2399902,2.239990234,0,0,NaN,NaN,0.000225473,0.013988227,NaN,0.999993801,0.000158393,-0.003490652,0,316.00948,316.00948,,,123.5699999,320,0.181498507,0.260813353
2018-07-19T08:08:03Z,1531987683,106,43.0858298,44.2216836,322.24,0,-0.2,34.2,706189.62,-51899.45,27.1,Air+FixedWing,Blue,Enemies,J-11A,Blue J-11A #004,cn,=UVAF= Recoba [440],0,0,0,322.2399902,2.239990234,0,0,NaN,NaN,0.000225475,0.013988227,NaN,0.999993742,0.000162329,-0.003490652,0,316.00948,316.00948,,,124.5699999,320,0.181498507,0.260813353
2018-07-19T08:08:04Z,1531987684,106,43.0858298,44.2216836,322.24,0,-0.2,34.2,706189.62,-51899.45,27.1,Air+FixedWing,Blue,Enemies,J-11A,Blue J-11A #004,cn,=UVAF= Recoba [440],0,0,0,322.2399902,2.239990234,0,0,NaN,NaN,0.000225475,0.013988227,NaN,0.999993742,0.000166264,-0.003490652,0,316.00948,316.00948,,,125.5699999,320,0.181498507,0.260813353
2018-07-19T08:08:05Z,1531987685,106,43.0858298,44.2216836,322.24,0,-0.2,34.2,706189.62,-51899.45,27.1,Air+FixedWing,Blue,Enemies,J-11A,Blue J-11A #004,cn,=UVAF= Recoba [440],0,0,0,322.2399902,2.239990234,0,0,NaN,NaN,0.000225475,0.013988227,NaN,0.999993742,0.000170199,-0.003490652,0,316.00948,316.00948,,,126.5699999,320,0.181498507,0.260813353
2018-07-19T08:08:06Z,1531987686,106,43.0858298,44.2216836,322.24,0,-0.2,34.2,706189.62,-51899.45,27.1,Air+FixedWing,Blue,Enemies,J-11A,Blue J-11A #004,cn,=UVAF= Recoba [440],0,0,0,322.2399902,2.239990234,0,0,NaN,NaN,0.000225475,0.013988227,NaN,0.999993742,0.000174134,-0.003490652,0,316.00948,316.00948,,,127.5699999,320,0.181498507,0.260813353
2018-07-19T08:08:07Z,1531987687,106,43.0858298,44.2216836,322.24,0,-0.2,34.2,706189.62,-51899.45,27.1,Air+FixedWing,Blue,Enemies,J-11A,Blue J-11A #004,cn,=UVAF= Recoba [440],0,0,0,322.2399902,2.239990234,0,0,NaN,NaN,0.000225473,0.013988227,NaN,0.999993801,0.00017807,-0.003490652,0,316.00948,316.00948,,,128.5699999,320,0.181498507,0.260813353
2018-07-19T08:08:08Z,1531987688,106,43.0858298,44.2216836,322.24,0,-0.2,34.2,706189.62,-51899.45,27.1,Air+FixedWing,Blue,Enemies,J-11A,Blue J-11A #004,cn,=UVAF= Recoba [440],0,0,0,322.2399902,2.239990234,0,0,NaN,NaN,0.000225473,0.013988227,NaN,0.999993801,0.000182005,-0.003490652,0,316.00948,316.00948,,,129.5699999,320,0.181498507,0.260813353
2018-07-19T08:08:09Z,1531987689,106,43.0858298,44.2216836,322.24,0,-0.2,34.2,706189.62,-51899.45,27.1,Air+FixedWing,Blue,Enemies,J-11A,Blue J-11A #004,cn,=UVAF= Recoba [440],0,0,0,322.2399902,2.239990234,0,0,NaN,NaN,0.000225475,0.013988227,NaN,0.999993742,0.00018594,-0.003490652,0,316.00948,316.00948,,,130.5699999,320,0.181498507,0.260813353
2018-07-19T08:08:10Z,1531987690,106,43.0858298,44.2216836,322.24,0,-0.2,34.2,706189.62,-51899.45,27.1,Air+FixedWing,Blue,Enemies,J-11A,Blue J-11A #004,cn,=UVAF= Recoba [440],0,0,0,322.2399902,2.239990234,0,0,NaN,NaN,0.000225475,0.013988227,NaN,0.999993742,0.000189875,-0.003490652,0,316.00948,316.00948,,,131.5699999,320,0.181498507,0.260813353
2018-07-19T08:08:11Z,1531987691,106,43.0858298,44.2216836,322.24,0,-0.2,34.2,706189.62,-51899.45,27.1,Air+FixedWing,Blue,Enemies,J-11A,Blue J-11A #004,cn,=UVAF= Recoba [440],0,0,0,322.2399902,2.239990234,0,0,NaN,NaN,0.000225475,0.013988227,NaN,0.999993801,0.000193811,-0.003490652,0,316.00948,316.00948,,,132.5699999,320,0.181498507,0.260813353
2018-07-19T08:08:12Z,1531987692,106,43.0858298,44.2216836,322.24,0,-0.2,34.2,706189.62,-51899.45,27.1,Air+FixedWing,Blue,Enemies,J-11A,Blue J-11A #004,cn,=UVAF= Recoba [440],0,0,0,322.2399902,2.239990234,0,0,NaN,NaN,0.000225475,0.013988227,NaN,0.999993801,0.000197746,-0.003490652,0,316.00948,316.00948,,,133.5699999,320,0.181498507,0.260813353
2018-07-19T08:08:13Z,1531987693,106,43.0858298,44.2216836,322.24,0,-0.2,34.2,706189.62,-51899.45,27.1,Air+FixedWing,Blue,Enemies,J-11A,Blue J-11A #004,cn,=UVAF= Recoba [440],0,0,0,322.2399902,2.239990234,0,0,NaN,NaN,0.000225473,0.013988227,NaN,0.999993742,0.000201681,-0.003490652,0,316.00948,316.00948,,,134.5699999,320,0.181498507,0.260813353
2018-07-19T08:08:14Z,1531987694,106,43.0858298,44.2216836,322.24,0,-0.2,34.2,706189.62,-51899.45,27.1,Air+FixedWing,Blue,Enemies,J-11A,Blue J-11A #004,cn,=UVAF= Recoba [440],0,0,0,322.2399902,2.239990234,0,0,NaN,NaN,0.000225475,0.013988227,NaN,0.999993742,0.000205616,-0.003490652,0,316.00948,316.00948,,,135.5699999,320,0.181498507,0.260813353
2018-07-19T08:08:15Z,1531987695,106,43.0858298,44.2216836,322.24,0,-0.2,34.2,706189.62,-51899.45,27.1,Air+FixedWing,Blue,Enemies,J-11A,Blue J-11A #004,cn,=UVAF= Recoba [440],0,0,0,322.2399902,2.239990234,0,0,NaN,NaN,0.000225475,0.013988227,NaN,0.999993742,0.000209552,-0.003490652,0,316.00948,316.00948,,,136.5699999,320,0.181498507,0.260813353
2018-07-19T08:08:16Z,1531987696,106,43.0858298,44.2216836,322.24,0,-0.2,34.2,706189.62,-51899.45,27.1,Air+FixedWing,Blue,Enemies,J-11A,Blue J-11A #004,cn,=UVAF= Recoba [440],0,0,0,322.2399902,2.239990234,0,0,NaN,NaN,0.000225475,0.013988227,NaN,0.999993742,0.000213487,-0.003490652,0,316.00948,316.00948,,,137.5699999,320,0.181498507,0.260813353
2018-07-19T08:08:17Z,1531987697,106,43.0858298,44.2216836,322.24,0,-0.2,34.2,706189.62,-51899.45,27.1,Air+FixedWing,Blue,Enemies,J-11A,Blue J-11A #004,cn,=UVAF= Recoba [440],0,0,0,322.2399902,2.239990234,0,0,NaN,NaN,0.000225473,0.013988227,NaN,0.999993801,0.000217422,-0.003490652,0,316.00948,316.00948,,,138.5699999,320,0.181498507,0.260813353
2018-07-19T08:08:18Z,1531987698,106,43.0858298,44.2216836,322.24,0,-0.2,34.2,706189.62,-51899.45,27.1,Air+FixedWing,Blue,Enemies,J-11A,Blue J-11A #004,cn,=UVAF= Recoba [440],0,0,0,322.2399902,2.239990234,0,0,NaN,NaN,0.000225475,0.013988227,NaN,0.999993682,0.000221357,-0.003490652,0,316.00948,316.00948,,,139.5699999,320,0.181498507,0.260813353
2018-07-19T08:08:19Z,1531987699,106,43.0858298,44.2216836,322.24,0,-0.2,34.2,706189.62,-51899.45,27.1,Air+FixedWing,Blue,Enemies,J-11A,Blue J-11A #004,cn,=UVAF= Recoba [440],0,0,0,322.2399902,2.239990234,0,0,NaN,NaN,0.000225475,0.013988227,NaN,0.999993742,0.000225293,-0.003490652,0,316.00948,316.00948,,,140.5699999,320,0.181498507,0.260813353
2018-07-19T08:08:20Z,1531987700,106,43.0858298,44.2216836,322.24,0,-0.2,34.2,706189.62,-51899.45,27.1,Air+FixedWing,Blue,Enemies,J-11A,Blue J-11A #004,cn,=UVAF= Recoba [440],0,0,0,322.2399902,2.239990234,0,0,NaN,NaN,0.000225476,0.013988227,NaN,0.999993742,0.000229228,-0.003490652,0,316.00948,316.00948,,,141.5699999,320,0.181498507,0.260813353
2018-07-19T08:08:21Z,1531987701,106,43.0858298,44.2216836,322.24,0,-0.2,34.2,706189.62,-51899.45,27.1,Air+FixedWing,Blue,Enemies,J-11A,Blue J-11A #004,cn,=UVAF= Recoba [440],0,0,0,322.2399902,2.239990234,0,0,NaN,NaN,0.000225476,0.013988227,NaN,0.999993742,0.000233163,-0.003490652,0,316.00948,316.00948,,,142.5699999,320,0.181498507,0.260813353
2018-07-19T08:08:22Z,1531987702,106,43.0858298,44.2216836,322.24,0,-0.2,34.2,706189.62,-51899.45,27.1,Air+FixedWing,Blue,Enemies,J-11A,Blue J-11A #004,cn,=UVAF= Recoba [440],0,0,0,322.2399902,2.239990234,0,0,NaN,NaN,0.000225473,0.013988227,NaN,0.999993742,0.000237098,-0.003490652,0,316.00948,316.00948,,,143.5699999,320,0.181498507,0.260813353
2018-07-19T08:08:23Z,1531987703,106,43.0858298,44.2216836,322.24,0,-0.2,34.2,706189.62,-51899.45,27.1,Air+FixedWing,Blue,Enemies,J-11A,Blue J-11A #004,cn,=UVAF= Recoba [440],0,0,0,322.2399902,2.239990234,0,0,NaN,NaN,0.000225471,0.013988227,NaN,0.999993742,0.000241033,-0.003490652,0,316.00948,316.00948,,,144.5699999,320,0.181498507,0.260813353
2018-07-19T08:08:24Z,1531987704,106,43.0858298,44.2216836,322.24,0,-0.2,34.2,706189.62,-51899.45,27.1,Air+FixedWing,Blue,Enemies,J-11A,Blue J-11A #004,cn,=UVAF= Recoba [440],0,0,0,322.2399902,2.239990234,0,0,NaN,NaN,0.000225471,0.013988227,NaN,0.999993742,0.000244969,-0.003490652,0,316.00948,316.00948,,,145.5699999,320,0.181498507,0.260813353
2018-07-19T08:08:25Z,1531987705,106,43.0858298,44.2216836,322.24,0,-0.2,34.2,706189.62,-51899.45,27.1,Air+FixedWing,Blue,Enemies,J-11A,Blue J-11A #004,cn,=UVAF= Recoba [440],0,0,0,322.2399902,2.239990234,0,0,NaN,NaN,0.000225473,0.013988227,NaN,0.999993742,0.000248904,-0.003490652,0,316.00948,316.00948,,,146.5699999,320,0.181498507,0.260813353
2018-07-19T08:08:26Z,1531987706,106,43.0858298,44.2216836,322.24,0,-0.2,34.2,706189.62,-51899.45,27.1,Air+FixedWing,Blue,Enemies,J-11A,Blue J-11A #004,cn,=UVAF= Recoba [440],0,0,0,322.2399902,2.239990234,0,0,NaN,NaN,0.00022547,0.013988227,NaN,0.999993742,0.000252839,-0.003490652,0,316.00948,316.00948,,,147.5699999,320,0.181498507,0.260813353
2018-07-19T08:08:27Z,1531987707,106,43.0858298,44.2216836,322.24,0,-0.2,34.2,706189.62,-51899.45,27.1,Air+FixedWing,Blue,Enemies,J-11A,Blue J-11A #004,cn,=UVAF= Recoba [440],0,0,0,322.2399902,2.239990234,0,0,NaN,NaN,0.000225473,0.013988227,NaN,0.999993742,0.000256774,-0.003490652,0,316.00948,316.00948,,,148.5699999,320,0.181498507,0.260813353
2018-07-19T08:08:28Z,1531987708,106,43.0858298,44.2216836,322.24,0,-0.2,34.2,706189.62,-51899.45,27.1,Air+FixedWing,Blue,Enemies,J-11A,Blue J-11A #004,cn,=UVAF= Recoba [440],0,0,0,322.2399902,2.239990234,0,0,NaN,NaN,0.000225476,0.013988227,NaN,0.999993682,0.00026071,-0.003490652,0,316.00948,316.00948,,,149.5699999,320,0.181498507,0.260813353
2018-07-19T08:08:29Z,1531987709,106,43.0858298,44.2216836,322.24,0,-0.2,34.2,706189.62,-51899.45,27.1,Air+FixedWing,Blue,Enemies,J-11A,Blue J-11A #004,cn,=UVAF= Recoba [440],0,0,0,322.2399902,2.239990234,0,0,NaN,NaN,0.000225476,0.013988227,NaN,0.999993742,0.000264645,-0.003490652,0,316.00948,316.00948,,,150.5699999,320,0.181498507,0.260813353
2018-07-19T08:08:30Z,1531987710,106,43.0858298,44.2216836,322.24,0,-0.2,34.2,706189.62,-51899.45,27.1,Air+FixedWing,Blue,Enemies,J-11A,Blue J-11A #004,cn,=UVAF= Recoba [440],0,0,0,322.2399902,2.239990234,0,0,NaN,NaN,0.000225476,0.013988227,NaN,0.999993742,0.00026858,-0.003490652,0,316.00948,316.00948,,,151.5699999,320,0.181498507,0.260813353
2018-07-19T08:08:31Z,1531987711,106,43.0858298,44.2216836,322.24,0,-0.2,34.2,706189.62,-51899.45,27.1,Air+FixedWing,Blue,Enemies,J-11A,Blue J-11A #004,cn,=UVAF= Recoba [440],0,0,0,322.2399902,2.239990234,0,0,NaN,NaN,0.000225473,0.013988227,NaN,0.999993742,0.000272515,-0.003490652,0,316.00948,316.00948,,,152.5699999,320,0.181498507,0.260813353
2018-07-19T08:08:32Z,1531987712,106,43.0858298,44.2216836,322.24,0,-0.2,34.2,706189.62,-51899.45,27.1,Air+FixedWing,Blue,Enemies,J-11A,Blue J-11A #004,cn,=UVAF= Recoba [440],0,0,0,322.2399902,2.239990234,0,0,NaN,NaN,0.000225476,0.013988227,NaN,0.999993742,0.000276451,-0.003490652,0,316.00948,316.00948,,,153.5699999,320,0.181498507,0.260813353
2018-07-19T08:08:33Z,1531987713,106,43.0858298,44.2216836,322.24,0,-0.2,34.2,706189.62,-51899.45,27.1,Air+FixedWing,Blue,Enemies,J-11A,Blue J-11A #004,cn,=UVAF= Recoba [440],0,0,0,322.2399902,2.239990234,0,0,NaN,NaN,0.000225476,0.013988227,NaN,0.999993682,0.000280386,-0.003490652,0,316.00948,316.00948,,,154.5699999,320,0.181498507,0.260813353
2018-07-19T08:08:34Z,1531987714,106,43.0858298,44.2216836,322.24,0,-0.2,34.2,706189.62,-51899.45,27.1,Air+FixedWing,Blue,Enemies,J-11A,Blue J-11A #004,cn,=UVAF= Recoba [440],0,0,0,322.2399902,2.239990234,0,0,NaN,NaN,0.000225476,0.013988227,NaN,0.999993682,0.000284321,-0.003490652,0,316.00948,316.00948,,,155.5699999,320,0.181498507,0.260813353
2018-07-19T08:08:35Z,1531987715,106,43.0858298,44.2216836,322.24,0,-0.2,34.2,706189.62,-51899.45,27.1,Air+FixedWing,Blue,Enemies,J-11A,Blue J-11A #004,cn,=UVAF= Recoba [440],0,0,0,322.2399902,2.239990234,0,0,NaN,NaN,0.000225473,0.013988227,NaN,0.999993742,0.000288256,-0.003490652,0,316.00948,316.00948,,,156.5699999,320,0.181498507,0.260813353
2018-07-19T08:08:36Z,1531987716,106,43.0858298,44.2216836,322.24,0,-0.2,34.2,706189.62,-51899.45,27.1,Air+FixedWing,Blue,Enemies,J-11A,Blue J-11A #004,cn,=UVAF= Recoba [440],0,0,0,322.2399902,2.239990234,0,0,NaN,NaN,0.00022547,0.013988227,NaN,0.999993742,0.000292192,-0.003490652,0,316.00948,316.00948,,,157.5699999,320,0.181498507,0.260813353
2018-07-19T08:08:37Z,1531987717,106,43.0858298,44.2216836,322.24,0,-0.2,34.2,706189.62,-51899.45,27.1,Air+FixedWing,Blue,Enemies,J-11A,Blue J-11A #004,cn,=UVAF= Recoba [440],0,0,0,322.2399902,2.239990234,0,0,NaN,NaN,0.000225473,0.013988227,NaN,0.999993742,0.000296127,-0.003490652,0,316.00948,316.00948,,,158.5699999,320,0.181498507,0.260813353
2018-07-19T08:08:38Z,1531987718,106,43.0858298,44.2216836,322.24,0,-0.2,34.2,706189.62,-51899.45,27.1,Air+FixedWing,Blue,Enemies,J-11A,Blue J-11A #004,cn,=UVAF= Recoba [440],0,0,0,322.2399902,2.239990234,0,0,NaN,NaN,0.000225473,0.013988227,NaN,0.999993742,0.000300062,-0.003490652,0,316.00948,316.00948,,,159.5699999,320,0.181498507,0.260813353
2018-07-19T08:08:39Z,1531987719,106,43.0858298,44.2216836,322.24,0,-0.2,34.2,706189.62,-51899.45,27.1,Air+FixedWing,Blue,Enemies,J-11A,Blue J-11A #004,cn,=UVAF= Recoba [440],0,0,0,322.2399902,2.239990234,0,0,NaN,NaN,0.000225473,0.013988227,NaN,0.999993682,0.000303997,-0.003490652,0,316.00948,316.00948,,,160.5699999,320,0.181498507,0.260813353
2018-07-19T08:08:40Z,1531987720,106,43.0858298,44.2216836,322.24,0,-0.2,34.2,706189.62,-51899.45,27.1,Air+FixedWing,Blue,Enemies,J-11A,Blue J-11A #004,cn,=UVAF= Recoba [440],0,0,0,322.2399902,2.239990234,0,0,NaN,NaN,0.000225473,0.013988227,NaN,0.999993742,0.000307933,-0.003490652,0,316.00948,316.00948,,,161.5699999,320,0.181498507,0.260813353
2018-07-19T08:08:41Z,1531987721,106,43.0858298,44.2216836,322.24,0,-0.2,34.2,706189.62,-51899.45,27.1,Air+FixedWing,Blue,Enemies,J-11A,Blue J-11A #004,cn,=UVAF= Recoba [440],0,0,0,322.2399902,2.239990234,0,0,NaN,NaN,0.000225473,0.013988227,NaN,0.999993682,0.000311868,-0.003490652,0,316.00948,316.00948,,,162.5699999,320,0.181498507,0.260813353
2018-07-19T08:08:42Z,1531987722,106,43.0858298,44.2216836,322.24,0,-0.2,34.2,706189.62,-51899.45,27.1,Air+FixedWing,Blue,Enemies,J-11A,Blue J-11A #004,cn,=UVAF= Recoba [440],0,0,0,322.2399902,2.239990234,0,0,NaN,NaN,0.000225476,0.013988227,NaN,0.999993742,0.000315803,-0.003490652,0,316.00948,316.00948,,,163.5699999,320,0.181498507,0.260813353
2018-07-19T08:08:43Z,1531987723,106,43.0858298,44.2216836,322.24,0,-0.2,34.2,706189.62,-51899.45,27.1,Air+FixedWing,Blue,Enemies,J-11A,Blue J-11A #004,cn,=UVAF= Recoba [440],0,0,0,322.2399902,2.239990234,0,0,NaN,NaN,0.000225473,0.013988227,NaN,0.999993742,0.000319738,-0.003490652,0,316.00948,316.00948,,,164.5699999,320,0.181498507,0.260813353
2018-07-19T08:08:44Z,1531987724,106,43.0858298,44.2216836,322.24,0,-0.2,34.2,706189.62,-51899.45,27.1,Air+FixedWing,Blue,Enemies,J-11A,Blue J-11A #004,cn,=UVAF= Recoba [440],0,0,0,322.2399902,2.239990234,0,0,NaN,NaN,0.000225476,0.013988227,NaN,0.999993682,0.000323674,-0.003490652,0,316.00948,316.00948,,,165.5699999,320,0.181498507,0.260813353
2018-07-19T08:08:45Z,1531987725,106,43.0858298,44.2216836,322.24,0,-0.2,34.2,706189.62,-51899.45,27.1,Air+FixedWing,Blue,Enemies,J-11A,Blue J-11A #004,cn,=UVAF= Recoba [440],0,0,0,322.2399902,2.239990234,0,0,NaN,NaN,0.000225476,0.013988227,NaN,0.999993682,0.000327609,-0.003490652,0,316.00948,316.00948,,,166.5699999,320,0.181498507,0.260813353
2018-07-19T08:08:46Z,1531987726,106,43.0858298,44.2216836,322.24,0,-0.2,34.2,706189.62,-51899.45,27.1,Air+FixedWing,Blue,Enemies,J-11A,Blue J-11A #004,cn,=UVAF= Recoba [440],0,0,0,322.2399902,2.239990234,0,0,NaN,NaN,0.000225473,0.013988227,NaN,0.999993742,0.000331544,-0.003490652,0,316.00948,316.00948,,,167.5699999,320,0.181498507,0.260813353
2018-07-19T08:08:47Z,1531987727,106,43.0858298,44.2216836,322.24,0,-0.2,34.2,706189.62,-51899.45,27.1,Air+FixedWing,Blue,Enemies,J-11A,Blue J-11A #004,cn,=UVAF= Recoba [440],0,0,0,322.2399902,2.239990234,0,0,NaN,NaN,0.000225473,0.013988227,NaN,0.999993742,0.000335479,-0.003490652,0,316.00948,316.00948,,,168.5699999,320,0.181498507,0.260813353
2018-07-19T08:08:48Z,1531987728,106,43.0858298,44.2216836,322.24,0,-0.2,34.2,706189.62,-51899.45,27.1,Air+FixedWing,Blue,Enemies,J-11A,Blue J-11A #004,cn,=UVAF= Recoba [440],0,0,0,322.2399902,2.239990234,0,0,NaN,NaN,0.000225473,0.013988227,NaN,0.999993742,0.000339415,-0.003490652,0,316.00948,316.00948,,,169.5699999,320,0.181498507,0.260813353
2018-07-19T08:08:49Z,1531987729,106,43.0858298,44.2216836,322.24,0,-0.2,34.2,706189.62,-51899.45,27.1,Air+FixedWing,Blue,Enemies,J-11A,Blue J-11A #004,cn,=UVAF= Recoba [440],0,0,0,322.2399902,2.239990234,0,0,NaN,NaN,0.000225473,0.013988227,NaN,0.999993682,0.00034335,-0.003490652,0,316.00948,316.00948,,,170.5699999,320,0.181498507,0.260813353
2018-07-19T08:08:50Z,1531987730,106,43.0858298,44.2216836,322.24,0,-0.2,34.2,706189.62,-51899.45,27.1,Air+FixedWing,Blue,Enemies,J-11A,Blue J-11A #004,cn,=UVAF= Recoba [440],0,0,0,322.2399902,2.239990234,0,0,NaN,NaN,0.000225473,0.013988227,NaN,0.999993682,0.000347285,-0.003490652,0,316.00948,316.00948,,,171.5699999,320,0.181498507,0.260813353
2018-07-19T08:08:51Z,1531987731,106,43.0858298,44.2216836,322.24,0,-0.2,34.2,706189.62,-51899.45,27.1,Air+FixedWing,Blue,Enemies,J-11A,Blue J-11A #004,cn,=UVAF= Recoba [440],0,0,0,322.2399902,2.239990234,0,0,NaN,NaN,0.000225473,0.013988227,NaN,0.999993682,0.00035122,-0.003490652,0,316.00948,316.00948,,,172.5699999,320,0.181498507,0.260813353
2018-07-19T08:08:52Z,1531987732,106,43.0858298,44.2216836,322.24,0,-0.2,34.2,706189.62,-51899.45,27.1,Air+FixedWing,Blue,Enemies,J-11A,Blue J-11A #004,cn,=UVAF= Recoba [440],0,0,0,322.2399902,2.239990234,0,0,NaN,NaN,0.000225473,0.013988227,NaN,0.999993742,0.000355155,-0.003490652,0,316.00948,316.00948,,,173.5699999,320,0.181498507,0.260813353
