ISOTime,UnixTime,Id,Longitude,Latitude,Altitude,Roll,Pitch,Yaw,U,V,Heading,Type,Color,Coalition,Name,Group,Country,Pilot,TAS,CAS,M,ASL,AGL,GS,VS,AOA,AOS,RRT,TRT,TRD,G,LatG,LonG,Ek,Ep,Em,FFW,FFV,RelativeTime,Elev,GroundDistance,AirDistance
2018-07-19T08:05:53Z,1531987553,109,43.0833124,44.2228328,322.13,0,0.1,34.3,705972.62,-51796.71,27.1,Air+FixedWing,Blue,Enemies,J-11A,Blue J-11A #005,cn,=UVAF= Backfire [456],0.250007576,0.262722313,0.000737102,322.1300049,2.130004883,NaN,NaN,NaN,NaN,0.199987939,NaN,NaN,NaN,NaN,NaN,NaN,315.9016212,NaN,,,0.899999857,320,NaN,NaN
2018-07-19T08:05:54Z,1531987554,109,43.083313,44.2228334,322.26,0,-0.3,34.3,705972.69,-51796.64,27.2,Air+FixedWing,Blue,Enemies,J-11A,Blue J-11A #005,cn,=UVAF= Backfire [456],0.158132729,0,0.000466226,322.2571106,2.257110596,0.094074958,0.127105713,NaN,NaN,0,0.064102126,NaN,0.986252095,0.002209039,-0.014644708,0.001250298,316.0262694,316.0275197,,,1.899999857,320,0.078910988,0.149610947
2018-07-19T08:05:55Z,1531987555,109,43.083313,44.2228334,322.25,0,-0.3,34.3,705972.69,-51796.64,27.2,Air+FixedWing,Blue,Enemies,J-11A,Blue J-11A #005,cn,=UVAF= Backfire [456],0.008112913,0,2.39e-05,322.25,2.25,0.00390625,-0.007110596,NaN,NaN,0,0.125114605,NaN,1.001717283,0.006032598,-0.007449691,3.29e-06,316.0192963,316.0192995,,,2.899999857,320,0.082171775,0.157433629
2018-07-19T08:05:56Z,1531987556,109,43.0833128,44.2228334,322.26,0,-0.3,34.3,705972.62,-51796.64,27.2,Air+FixedWing,Blue,Enemies,J-11A,Blue J-11A #005,cn,=UVAF= Backfire [456],0.063412098,0,0.000186959,322.2599792,2.259979248,0.062621951,0.009979248,NaN,NaN,0,0.05326559,NaN,0.998559719,-0.011701048,-0.000110606,0.000201055,316.0290825,316.0292836,,,3.899999857,320,0.095562406,0.174134302
2018-07-19T08:05:57Z,1531987557,109,43.0833129,44.2228333,322.26,0,-0.3,34.3,705972.69,-51796.64,27.2,Air+FixedWing,Blue,Enemies,J-11A,Blue J-11A #005,cn,=UVAF= Backfire [456],0.062767529,0,0.000185059,322.2557068,2.255706787,0.062621951,-0.004272461,NaN,NaN,0,0.013988227,NaN,0.99982466,0.00566845,-0.008148347,0.000196988,316.0248927,316.0250897,,,4.899999857,320,0.110091264,0.189279035
2018-07-19T08:05:58Z,1531987558,109,43.0833129,44.2228333,322.25,0,-0.3,34.3,705972.69,-51796.65,27.2,Air+FixedWing,Blue,Enemies,J-11A,Blue J-11A #005,cn,=UVAF= Backfire [456],0.00691565,0,2.04e-05,322.25,2.25,0.00390625,-0.005706787,NaN,NaN,0,0.013988227,NaN,1.000569949,0.000182074,-0.004884738,2.39e-06,316.0192963,316.0192986,,,5.899999857,320,0.112282885,0.195392227
2018-07-19T08:05:59Z,1531987559,109,43.0833129,44.2228333,322.25,0,-0.3,34.3,705972.69,-51796.65,27.2,Air+FixedWing,Blue,Enemies,J-11A,Blue J-11A #005,cn,=UVAF= Backfire [456],0,0,0,322.25,2.25,0,0,NaN,NaN,0,0.013988227,NaN,0.999986172,0,-0.005235964,0,316.0192963,316.0192963,,,6.899999857,320,0.113510196,0.1966196
2018-07-19T08:06:00Z,1531987560,109,43.0833129,44.2228333,322.25,0,-0.3,34.3,705972.69,-51796.65,27.2,Air+FixedWing,Blue,Enemies,J-11A,Blue J-11A #005,cn,=UVAF= Backfire [456],0,0,0,322.25,2.25,0,0,NaN,NaN,0,0.013988227,NaN,0.999986172,0,-0.005235964,0,316.0192963,316.0192963,,,7.899999857,320,0.113510196,0.1966196
2018-07-19T08:06:01Z,1531987561,109,43.0833129,44.2228333,322.25,0,-0.3,34.4,705972.69,-51796.65,27.2,Air+FixedWing,Blue,Enemies,J-11A,Blue J-11A #005,cn,=UVAF= Backfire [456],0,0,0,322.25,2.25,0,0,NaN,NaN,0,0.013988227,NaN,0.999986172,0,-0.005235964,0,316.0192963,316.0192963,,,8.899999857,320,0.113510196,0.1966196
2018-07-19T08:06:02Z,1531987562,109,43.0833129,44.2228333,322.25,0,-0.3,34.4,705972.69,-51796.65,27.2,Air+FixedWing,Blue,Enemies,J-11A,Blue J-11A #005,cn,=UVAF= Backfire [456],0,0,0,322.25,2.25,0,0,NaN,NaN,0,0.013988227,NaN,0.999986172,0,-0.005235964,0,316.0192963,316.0192963,,,9.899999857,320,0.113510196,0.1966196
2018-07-19T08:06:03Z,1531987563,109,43.0833129,44.2228333,322.25,0,-0.3,34.4,705972.69,-51796.65,27.2,Air+FixedWing,Blue,Enemies,J-11A,Blue J-11A #005,cn,=UVAF= Backfire [456],0,0,0,322.25,2.25,0,0,NaN,NaN,0,0.013988227,NaN,0.999986172,0,-0.005235964,0,316.0192963,316.0192963,,,10.89999986,320,0.113510196,0.1966196
2018-07-19T08:06:04Z,1531987564,109,43.0833129,44.2228333,322.25,0,-0.3,34.4,705972.69,-51796.65,27.2,Air+FixedWing,Blue,Enemies,J-11A,Blue J-11A #005,cn,=UVAF= Backfire [456],0,0,0,322.25,2.25,0,0,NaN,NaN,0,0.013988227,NaN,0.999986172,0,-0.005235964,0,316.0192963,316.0192963,,,11.89999986,320,0.113510196,0.1966196
2018-07-19T08:06:05Z,1531987565,109,43.0833129,44.2228333,322.25,0,-0.3,34.4,705972.69,-51796.65,27.2,Air+FixedWing,Blue,Enemies,J-11A,Blue J-11A #005,cn,=UVAF= Backfire [456],0,0,0,322.25,2.25,0,0,NaN,NaN,0,0.013988227,NaN,0.999986172,0,-0.005235964,0,316.0192963,316.0192963,,,12.89999986,320,0.113510196,0.1966196
2018-07-19T08:06:06Z,1531987566,109,43.0833129,44.2228333,322.25,0,-0.3,34.4,705972.69,-51796.65,27.2,Air+FixedWing,Blue,Enemies,J-11A,Blue J-11A #005,cn,=UVAF= Backfire [456],0,0,0,322.25,2.25,0,0,NaN,NaN,0,0.01713201,NaN,0.999986172,0,-0.005235964,0,316.0192963,316.0192963,,,13.89999986,320,0.113510196,0.1966196
2018-07-19T08:06:07Z,1531987567,109,43.0833129,44.2228333,322.25,0,-0.3,34.4,705972.69,-51796.65,27.2,Air+FixedWing,Blue,Enemies,J-11A,Blue J-11A #005,cn,=UVAF= Backfire [456],0,0,0,322.25,2.25,0,0,NaN,NaN,0,0.01713201,NaN,0.999986172,0,-0.005235964,0,316.0192963,316.0192963,,,14.89999986,320,0.113510196,0.1966196
2018-07-19T08:06:08Z,1531987568,109,43.0833129,44.2228333,322.25,0,-0.3,34.4,705972.69,-51796.65,27.2,Air+FixedWing,Blue,Enemies,J-11A,Blue J-11A #005,cn,=UVAF= Backfire [456],0,0,0,322.25,2.25,0,0,NaN,NaN,0,0.00989117,NaN,0.999986172,0,-0.005235964,0,316.0192963,316.0192963,,,15.89999986,320,0.113510196,0.1966196
2018-07-19T08:06:09Z,1531987569,109,43.0833129,44.2228333,322.25,0,-0.3,34.4,705972.69,-51796.65,27.2,Air+FixedWing,Blue,Enemies,J-11A,Blue J-11A #005,cn,=UVAF= Backfire [456],0,0,0,322.25,2.25,0,0,NaN,NaN,0,0.013988227,NaN,0.999986172,0,-0.005235964,0,316.0192963,316.0192963,,,16.89999986,320,0.113510196,0.1966196
2018-07-19T08:06:10Z,1531987570,109,43.0833129,44.2228333,322.25,0,-0.3,34.4,705972.69,-51796.65,27.2,Air+FixedWing,Blue,Enemies,J-11A,Blue J-11A #005,cn,=UVAF= Backfire [456],0,0,0,322.25,2.25,0,0,NaN,NaN,0,0.013988227,NaN,0.999986172,0,-0.005235964,0,316.0192963,316.0192963,,,17.89999986,320,0.113510196,0.1966196
2018-07-19T08:06:11Z,1531987571,109,43.0833129,44.2228333,322.25,0,-0.3,34.4,705972.69,-51796.65,27.2,Air+FixedWing,Blue,Enemies,J-11A,Blue J-11A #005,cn,=UVAF= Backfire [456],0,0,0,322.25,2.25,0,0,NaN,NaN,0,0.013988227,NaN,0.999986172,0,-0.005235964,0,316.0192963,316.0192963,,,18.89999986,320,0.113510196,0.1966196
2018-07-19T08:06:12Z,1531987572,109,43.0833129,44.2228333,322.25,0,-0.3,34.4,705972.69,-51796.65,27.2,Air+FixedWing,Blue,Enemies,J-11A,Blue J-11A #005,cn,=UVAF= Backfire [456],0,0,0,322.25,2.25,0,0,NaN,NaN,0,0.01713201,NaN,0.999986172,0,-0.005235964,0,316.0192963,316.0192963,,,19.89999986,320,0.113510196,0.1966196
2018-07-19T08:06:13Z,1531987573,109,43.0833129,44.2228333,322.25,0,-0.3,34.4,705972.69,-51796.65,27.2,Air+FixedWing,Blue,Enemies,J-11A,Blue J-11A #005,cn,=UVAF= Backfire [456],0,0,0,322.25,2.25,0,0,NaN,NaN,0,0.013988227,NaN,0.999986172,0,-0.005235964,0,316.0192963,316.0192963,,,20.89999986,320,0.113510196,0.1966196
2018-07-19T08:06:14Z,1531987574,109,43.0833129,44.2228333,322.25,0,-0.3,34.4,705972.69,-51796.65,27.2,Air+FixedWing,Blue,Enemies,J-11A,Blue J-11A #005,cn,=UVAF= Backfire [456],0,0,0,322.25,2.25,0,0,NaN,NaN,0,0.013988227,NaN,0.999986172,0,-0.005235964,0,316.0192963,316.0192963,,,21.89999986,320,0.113510196,0.1966196
2018-07-19T08:06:15Z,1531987575,109,43.0833129,44.2228333,322.25,0,-0.3,34.4,705972.69,-51796.65,27.2,Air+FixedWing,Blue,Enemies,J-11A,Blue J-11A #005,cn,=UVAF= Backfire [456],0,0,0,322.25,2.25,0,0,NaN,NaN,0,0.013988227,NaN,0.999986172,0,-0.005235964,0,316.0192963,316.0192963,,,22.89999986,320,0.113510196,0.1966196
2018-07-19T08:06:16Z,1531987576,109,43.0833129,44.2228333,322.25,0,-0.3,34.4,705972.69,-51796.65,27.2,Air+FixedWing,Blue,Enemies,J-11A,Blue J-11A #005,cn,=UVAF= Backfire [456],0,0,0,322.25,2.25,0,0,NaN,NaN,0,0.013988227,NaN,0.999986172,0,-0.005235964,0,316.0192963,316.0192963,,,23.89999986,320,0.113510196,0.1966196
2018-07-19T08:06:17Z,1531987577,109,43.0833129,44.2228333,322.25,0,-0.3,34.4,705972.69,-51796.65,27.2,Air+FixedWing,Blue,Enemies,J-11A,Blue J-11A #005,cn,=UVAF= Backfire [456],0,0,0,322.25,2.25,0,0,NaN,NaN,0,0.00989117,NaN,0.999986172,0,-0.005235964,0,316.0192963,316.0192963,,,24.89999986,320,0.113510196,0.1966196
2018-07-19T08:06:18Z,1531987578,109,43.0833129,44.2228333,322.25,0,-0.3,34.4,705972.69,-51796.65,27.2,Air+FixedWing,Blue,Enemies,J-11A,Blue J-11A #005,cn,=UVAF= Backfire [456],0,0,0,322.25,2.25,0,0,NaN,NaN,0,0.013988227,NaN,0.999986172,0,-0.005235964,0,316.0192963,316.0192963,,,25.89999986,320,0.113510196,0.1966196
2018-07-19T08:06:19Z,1531987579,109,43.0833129,44.2228333,322.25,0,-0.3,34.4,705972.69,-51796.65,27.2,Air+FixedWing,Blue,Enemies,J-11A,Blue J-11A #005,cn,=UVAF= Backfire [456],0,0,0,322.25,2.25,0,0,NaN,NaN,0,0.01713201,NaN,0.999986172,0,-0.005235964,0,316.0192963,316.0192963,,,26.89999986,320,0.113510196,0.1966196
2018-07-19T08:06:20Z,1531987580,109,43.0833129,44.2228333,322.25,0,-0.3,34.4,705972.69,-51796.65,27.2,Air+FixedWing,Blue,Enemies,J-11A,Blue J-11A #005,cn,=UVAF= Backfire [456],0,0,0,322.25,2.25,0,0,NaN,NaN,0,0,NaN,0.999986172,0,-0.005235964,0,316.0192963,316.0192963,,,27.89999986,320,0.113510196,0.1966196
2018-07-19T08:06:21Z,1531987581,109,43.0833129,44.2228333,322.25,0,-0.3,34.4,705972.69,-51796.65,27.2,Air+FixedWing,Blue,Enemies,J-11A,Blue J-11A #005,cn,=UVAF= Backfire [456],0,0,0,322.25,2.25,0,0,NaN,NaN,0,0.01713201,NaN,0.999986172,0,-0.005235964,0,316.0192963,316.0192963,,,28.89999986,320,0.113510196,0.1966196
2018-07-19T08:06:22Z,1531987582,109,43.0833129,44.2228333,322.25,0,-0.3,34.4,705972.69,-51796.65,27.2,Air+FixedWing,Blue,Enemies,J-11A,Blue J-11A #005,cn,=UVAF= Backfire [456],0,0,0,322.25,2.25,0,0,NaN,NaN,0,0.00989117,NaN,0.999986172,0,-0.005235964,0,316.0192963,316.0192963,,,29.89999986,320,0.113510196,0.1966196
2018-07-19T08:06:23Z,1531987583,109,43.0833129,44.2228333,322.25,0,-0.3,34.4,705972.69,-51796.65,27.2,Air+FixedWing,Blue,Enemies,J-11A,Blue J-11A #005,cn,=UVAF= Backfire [456],0,0,0,322.25,2.25,0,0,NaN,NaN,0,0.00989117,NaN,0.999986172,0,-0.005235964,0,316.0192963,316.0192963,,,30.89999986,320,0.113510196,0.1966196
2018-07-19T08:06:24Z,1531987584,109,43.0833129,44.2228333,322.25,0,-0.3,34.4,705972.69,-51796.65,27.2,Air+FixedWing,Blue,Enemies,J-11A,Blue J-11A #005,cn,=UVAF= Backfire [456],0,0,0,322.25,2.25,0,0,NaN,NaN,0,0.01713201,NaN,0.999986172,0,-0.005235964,0,316.0192963,316.0192963,,,31.89999986,320,0.113510196,0.1966196
2018-07-19T08:06:25Z,1531987585,109,43.0833129,44.2228333,322.25,0,-0.3,34.4,705972.69,-51796.65,27.2,Air+FixedWing,Blue,Enemies,J-11A,Blue J-11A #005,cn,=UVAF= Backfire [456],0,0,0,322.25,2.25,0,0,NaN,NaN,0,0.013988227,NaN,0.999986172,0,-0.005235964,0,316.0192963,316.0192963,,,32.89999986,320,0.113510196,0.1966196
2018-07-19T08:06:26Z,1531987586,109,43.0833129,44.2228333,322.25,0,-0.3,34.4,705972.69,-51796.65,27.2,Air+FixedWing,Blue,Enemies,J-11A,Blue J-11A #005,cn,=UVAF= Backfire [456],0,0,0,322.25,2.25,0,0,NaN,NaN,0,0.013988227,NaN,0.999986172,0,-0.005235964,0,316.0192963,316.0192963,,,33.89999986,320,0.113510196,0.1966196
2018-07-19T08:06:27Z,1531987587,109,43.0833129,44.2228333,322.25,0,-0.3,34.4,705972.69,-51796.65,27.2,Air+FixedWing,Blue,Enemies,J-11A,Blue J-11A #005,cn,=UVAF= Backfire [456],0,0,0,322.25,2.25,0,0,NaN,NaN,0,0.013988227,NaN,0.999986172,0,-0.005235964,0,316.0192963,316.0192963,,,34.89999986,320,0.113510196,0.1966196
2018-07-19T08:06:28Z,1531987588,109,43.0833129,44.2228333,322.25,0,-0.3,34.4,705972.69,-51796.65,27.2,Air+FixedWing,Blue,Enemies,J-11A,Blue J-11A #005,cn,=UVAF= Backfire [456],0,0,0,322.25,2.25,0,0,NaN,NaN,0,0.013988227,NaN,0.999986172,0,-0.005235964,0,316.0192963,316.0192963,,,35.89999986,320,0.113510196,0.1966196
2018-07-19T08:06:29Z,1531987589,109,43.0833129,44.2228333,322.25,0,-0.3,34.4,705972.69,-51796.65,27.2,Air+FixedWing,Blue,Enemies,J-11A,Blue J-11A #005,cn,=UVAF= Backfire [456],0,0,0,322.25,2.25,0,0,NaN,NaN,0,0.00989117,NaN,0.999986172,0,-0.005235964,0,316.0192963,316.0192963,,,36.89999986,320,0.113510196,0.1966196
2018-07-19T08:06:30Z,1531987590,109,43.0833129,44.2228333,322.25,0,-0.3,34.4,705972.69,-51796.65,27.2,Air+FixedWing,Blue,Enemies,J-11A,Blue J-11A #005,cn,=UVAF= Backfire [456],0,0,0,322.25,2.25,0,0,NaN,NaN,0,0.013988227,NaN,0.999986172,0,-0.005235964,0,316.0192963,316.0192963,,,37.89999986,320,0.113510196,0.1966196
2018-07-19T08:06:31Z,1531987591,109,43.0833129,44.2228333,322.25,0,-0.3,34.4,705972.69,-51796.65,27.2,Air+FixedWing,Blue,Enemies,J-11A,Blue J-11A #005,cn,=UVAF= Backfire [456],0,0,0,322.25,2.25,0,0,NaN,NaN,0,0,NaN,0.999986172,0,-0.005235964,0,316.0192963,316.0192963,,,38.89999986,320,0.113510196,0.1966196
2018-07-19T08:06:32Z,1531987592,109,43.0833129,44.2228333,322.25,0,-0.3,34.4,705972.69,-51796.65,27.2,Air+FixedWing,Blue,Enemies,J-11A,Blue J-11A #005,cn,=UVAF= Backfire [456],0,0,0,322.25,2.25,0,0,NaN,NaN,0,0,NaN,0.999986172,0,-0.005235964,0,316.0192963,316.0192963,,,39.89999986,320,0.113510196,0.1966196
2018-07-19T08:06:33Z,1531987593,109,43.0833129,44.2228333,322.25,0,-0.3,34.4,705972.69,-51796.65,27.2,Air+FixedWing,Blue,Enemies,J-11A,Blue J-11A #005,cn,=UVAF= Backfire [456],0,0,0,322.25,2.25,0,0,NaN,NaN,0,0,NaN,0.999986172,0,-0.005235964,0,316.0192963,316.0192963,,,40.89999986,320,0.113510196,0.1966196
2018-07-19T08:06:34Z,1531987594,109,43.0833129,44.2228333,322.25,0,-0.3,34.4,705972.69,-51796.65,27.2,Air+FixedWing,Blue,Enemies,J-11A,Blue J-11A #005,cn,=UVAF= Backfire [456],0,0,0,322.25,2.25,0,0,NaN,NaN,0,0.00989117,NaN,0.999986172,0,-0.005235964,0,316.0192963,316.0192963,,,41.89999986,320,0.113510196,0.1966196
2018-07-19T08:06:35Z,1531987595,109,43.0833129,44.2228333,322.25,0,-0.3,34.4,705972.69,-51796.65,27.2,Air+FixedWing,Blue,Enemies,J-11A,Blue J-11A #005,cn,=UVAF= Backfire [456],0,0,0,322.25,2.25,0,0,NaN,NaN,0,0,NaN,0.999986172,0,-0.005235964,0,316.0192963,316.0192963,,,42.89999986,320,0.113510196,0.1966196
2018-07-19T08:06:36Z,1531987596,109,43.0833129,44.2228333,322.25,0,-0.3,34.4,705972.69,-51796.65,27.2,Air+FixedWing,Blue,Enemies,J-11A,Blue J-11A #005,cn,=UVAF= Backfire [456],0,0,0,322.25,2.25,0,0,NaN,NaN,0,0.00989117,NaN,0.999986172,0,-0.005235964,0,316.0192963,316.0192963,,,43.89999986,320,0.113510196,0.1966196
2018-07-19T08:06:37Z,1531987597,109,43.0833129,44.2228333,322.25,0,-0.3,34.4,705972.69,-51796.65,27.2,Air+FixedWing,Blue,Enemies,J-11A,Blue J-11A #005,cn,=UVAF= Backfire [456],0,0,0,322.25,2.25,0,0,NaN,NaN,0,0,NaN,0.999986172,0,-0.005235964,0,316.0192963,316.0192963,,,44.89999986,320,0.113510196,0.1966196
2018-07-19T08:06:38Z,1531987598,109,43.0833129,44.2228333,322.25,0,-0.3,34.4,705972.69,-51796.65,27.2,Air+FixedWing,Blue,Enemies,J-11A,Blue J-11A #005,cn,=UVAF= Backfire [456],0,0,0,322.25,2.25,0,0,NaN,NaN,0,0,NaN,0.999986172,0,-0.005235964,0,316.0192963,316.0192963,,,45.89999986,320,0.113510196,0.1966196
2018-07-19T08:06:39Z,1531987599,109,43.0833129,44.2228333,322.25,0,-0.3,34.4,705972.69,-51796.65,27.3,Air+FixedWing,Blue,Enemies,J-11A,Blue J-11A #005,cn,=UVAF= Backfire [456],0,0,0,322.25,2.25,0,0,NaN,NaN,0,0,NaN,0.999986172,0,-0.005235964,0,316.0192963,316.0192963,,,46.89999986,320,0.113510196,0.1966196
2018-07-19T08:06:40Z,1531987600,109,43.0833129,44.2228333,322.25,0,-0.3,34.4,705972.69,-51796.65,27.3,Air+FixedWing,Blue,Enemies,J-11A,Blue J-11A #005,cn,=UVAF= Backfire [456],0,0,0,322.25,2.25,0,0,NaN,NaN,0,0.00989117,NaN,0.999986172,0,-0.005235964,0,316.0192963,316.0192963,,,47.89999986,320,0.113510196,0.1966196
2018-07-19T08:06:41Z,1531987601,109,43.0833129,44.2228333,322.25,0,-0.3,34.4,705972.69,-51796.65,27.3,Air+FixedWing,Blue,Enemies,J-11A,Blue J-11A #005,cn,=UVAF= Backfire [456],0,0,0,322.25,2.25,0,0,NaN,NaN,0,0,NaN,0.999986172,0,-0.005235964,0,316.0192963,316.0192963,,,48.89999986,320,0.113510196,0.1966196
2018-07-19T08:06:42Z,1531987602,109,43.0833129,44.2228333,322.25,0,-0.3,34.4,705972.69,-51796.65,27.3,Air+FixedWing,Blue,Enemies,J-11A,Blue J-11A #005,cn,=UVAF= Backfire [456],0,0,0,322.25,2.25,0,0,NaN,NaN,0,0.00989117,NaN,0.999986172,0,-0.005235964,0,316.0192963,316.0192963,,,49.89999986,320,0.113510196,0.1966196
2018-07-19T08:06:43Z,1531987603,109,43.0833129,44.2228333,322.25,0,-0.3,34.4,705972.69,-51796.65,27.3,Air+FixedWing,Blue,Enemies,J-11A,Blue J-11A #005,cn,=UVAF= Backfire [456],0,0,0,322.25,2.25,0,0,NaN,NaN,0,0.013988227,NaN,0.999986172,0,-0.005235964,0,316.0192963,316.0192963,,,50.89999986,320,0.113510196,0.1966196
2018-07-19T08:06:44Z,1531987604,109,43.0833129,44.2228333,322.25,0,-0.3,34.4,705972.69,-51796.65,27.3,Air+FixedWing,Blue,Enemies,J-11A,Blue J-11A #005,cn,=UVAF= Backfire [456],0,0,0,322.25,2.25,0,0,NaN,NaN,0,0.00989117,NaN,0.999986172,0,-0.005235964,0,316.0192963,316.0192963,,,51.89999986,320,0.113510196,0.1966196
2018-07-19T08:06:45Z,1531987605,109,43.0833129,44.2228333,322.25,0,-0.3,34.4,705972.69,-51796.65,27.3,Air+FixedWing,Blue,Enemies,J-11A,Blue J-11A #005,cn,=UVAF= Backfire [456],0,0,0,322.25,2.25,0,0,NaN,NaN,0,0,NaN,0.999986172,0,-0.005235964,0,316.0192963,316.0192963,,,52.89999986,320,0.113510196,0.1966196
2018-07-19T08:06:46Z,1531987606,109,43.0833129,44.2228333,322.25,0,-0.3,34.4,705972.69,-51796.65,27.3,Air+FixedWing,Blue,Enemies,J-11A,Blue J-11A #005,cn,=UVAF= Backfire [456],0,0,0,322.25,2.25,0,0,NaN,NaN,0,0.00989117,NaN,0.999986172,0,-0.005235964,0,316.0192963,316.0192963,,,53.89999986,320,0.113510196,0.1966196
2018-07-19T08:06:47Z,1531987607,109,43.0833129,44.2228333,322.25,0,-0.3,34.4,705972.69,-51796.65,27.3,Air+FixedWing,Blue,Enemies,J-11A,Blue J-11A #005,cn,=UVAF= Backfire [456],0,0,0,322.25,2.25,0,0,NaN,NaN,0,0,NaN,0.999986172,0,-0.005235964,0,316.0192963,316.0192963,,,54.89999986,320,0.113510196,0.1966196
2018-07-19T08:06:48Z,1531987608,109,43.0833129,44.2228333,322.25,0,-0.3,34.4,705972.69,-51796.65,27.3,Air+FixedWing,Blue,Enemies,J-11A,Blue J-11A #005,cn,=UVAF= Backfire [456],0,0,0,322.25,2.25,0,0,NaN,NaN,0,0,NaN,0.999986172,0,-0.005235964,0,316.0192963,316.0192963,,,55.89999986,320,0.113510196,0.1966196
2018-07-19T08:06:49Z,1531987609,109,43.0833129,44.2228333,322.25,0,-0.3,34.4,705972.69,-51796.65,27.3,Air+FixedWing,Blue,Enemies,J-11A,Blue J-11A #005,cn,=UVAF= Backfire [456],0,0,0,322.25,2.25,0,0,NaN,NaN,0,0.013988227,NaN,0.999986172,0,-0.005235964,0,316.0192963,316.0192963,,,56.89999986,320,0.113510196,0.1966196
2018-07-19T08:06:50Z,1531987610,109,43.0833129,44.2228333,322.25,0,-0.3,34.4,705972.69,-51796.65,27.3,Air+FixedWing,Blue,Enemies,J-11A,Blue J-11A #005,cn,=UVAF= Backfire [456],0,0,0,322.25,2.25,0,0,NaN,NaN,0,0.00989117,NaN,0.999986172,0,-0.005235964,0,316.0192963,316.0192963,,,57.89999986,320,0.113510196,0.1966196
2018-07-19T08:06:51Z,1531987611,109,43.0833129,44.2228333,322.25,0,-0.3,34.4,705972.69,-51796.65,27.3,Air+FixedWing,Blue,Enemies,J-11A,Blue J-11A #005,cn,=UVAF= Backfire [456],0,0,0,322.25,2.25,0,0,NaN,NaN,0,0,NaN,0.999986172,0,-0.005235964,0,316.0192963,316.0192963,,,58.89999986,320,0.113510196,0.1966196
2018-07-19T08:06:52Z,1531987612,109,43.0833129,44.2228333,322.25,0,-0.3,34.4,705972.69,-51796.65,27.3,Air+FixedWing,Blue,Enemies,J-11A,Blue J-11A #005,cn,=UVAF= Backfire [456],0,0,0,322.25,2.25,0,0,NaN,NaN,0,0.00989117,NaN,0.999986172,0,-0.005235964,0,316.0192963,316.0192963,,,59.89999986,320,0.113510196,0.1966196
2018-07-19T08:06:53Z,1531987613,109,43.0833129,44.2228333,322.25,0,-0.3,34.4,705972.69,-51796.65,27.3,Air+FixedWing,Blue,Enemies,J-11A,Blue J-11A #005,cn,=UVAF= Backfire [456],0,0,0,322.25,2.25,0,0,NaN,NaN,0,0,NaN,0.999986172,0,-0.005235964,0,316.0192963,316.0192963,,,60.89999986,320,0.113510196,0.1966196
2018-07-19T08:06:54Z,1531987614,109,43.0833129,44.2228333,322.25,0,-0.3,34.4,705972.69,-51796.65,27.3,Air+FixedWing,Blue,Enemies,J-11A,Blue J-11A #005,cn,=UVAF= Backfire [456],0,0,0,322.25,2.25,0,0,NaN,NaN,0,0,NaN,0.999986172,0,-0.005235964,0,316.0192963,316.0192963,,,61.89999986,320,0.113510196,0.1966196
2018-07-19T08:06:55Z,1531987615,109,43.0833129,44.2228333,322.25,0,-0.3,34.4,705972.69,-51796.65,27.3,Air+FixedWing,Blue,Enemies,J-11A,Blue J-11A #005,cn,=UVAF= Backfire [456],0,0,0,322.25,2.25,0,0,NaN,NaN,0,0,NaN,0.999986172,0,-0.005235964,0,316.0192963,316.0192963,,,62.89999986,320,0.113510196,0.1966196
2018-07-19T08:06:56Z,1531987616,109,43.0833129,44.2228333,322.25,0,-0.3,34.4,705972.69,-51796.65,27.3,Air+FixedWing,Blue,Enemies,J-11A,Blue J-11A #005,cn,=UVAF= Backfire [456],0,0,0,322.25,2.25,0,0,NaN,NaN,0,0,NaN,0.999986172,0,-0.005235964,0,316.0192963,316.0192963,,,63.89999986,320,0.113510196,0.1966196
2018-07-19T08:06:57Z,1531987617,109,43.0833129,44.2228333,322.25,0,-0.3,34.4,705972.69,-51796.65,27.3,Air+FixedWing,Blue,Enemies,J-11A,Blue J-11A #005,cn,=UVAF= Backfire [456],0,0,0,322.25,2.25,0,0,NaN,NaN,0,0.00989117,NaN,0.999986172,0,-0.005235964,0,316.0192963,316.0192963,,,64.89999986,320,0.113510196,0.1966196
2018-07-19T08:06:58Z,1531987618,109,43.0833129,44.2228333,322.25,0,-0.3,34.4,705972.69,-51796.65,27.3,Air+FixedWing,Blue,Enemies,J-11A,Blue J-11A #005,cn,=UVAF= Backfire [456],0,0,0,322.25,2.25,0,0,NaN,NaN,0,0.00989117,NaN,0.999986172,0,-0.005235964,0,316.0192963,316.0192963,,,65.89999986,320,0.113510196,0.1966196
2018-07-19T08:06:59Z,1531987619,109,43.0833129,44.2228333,322.25,0,-0.3,34.4,705972.69,-51796.65,27.3,Air+FixedWing,Blue,Enemies,J-11A,Blue J-11A #005,cn,=UVAF= Backfire [456],0,0,0,322.25,2.25,0,0,NaN,NaN,0,0.00989117,NaN,0.999986172,0,-0.005235964,0,316.0192963,316.0192963,,,66.89999986,320,0.113510196,0.1966196
2018-07-19T08:07:00Z,1531987620,109,43.0833129,44.2228333,322.25,0,-0.3,34.4,705972.69,-51796.65,27.3,Air+FixedWing,Blue,Enemies,J-11A,Blue J-11A #005,cn,=UVAF= Backfire [456],0,0,0,322.25,2.25,0,0,NaN,NaN,0,0.00989117,NaN,0.999986172,0,-0.005235964,0,316.0192963,316.0192963,,,67.89999986,320,0.113510196,0.1966196
2018-07-19T08:07:01Z,1531987621,109,43.0833129,44.2228333,322.25,0,-0.3,34.4,705972.69,-51796.65,27.3,Air+FixedWing,Blue,Enemies,J-11A,Blue J-11A #005,cn,=UVAF= Backfire [456],0,0,0,322.25,2.25,0,0,NaN,NaN,0,0.00989117,NaN,0.999986172,0,-0.005235964,0,316.0192963,316.0192963,,,68.89999986,320,0.113510196,0.1966196
2018-07-19T08:07:02Z,1531987622,109,43.0833129,44.2228333,322.25,0,-0.3,34.4,705972.69,-51796.65,27.3,Air+FixedWing,Blue,Enemies,J-11A,Blue J-11A #005,cn,=UVAF= Backfire [456],0,0,0,322.25,2.25,0,0,NaN,NaN,0,0.00989117,NaN,0.999986172,0,-0.005235964,0,316.0192963,316.0192963,,,69.89999986,320,0.113510196,0.1966196
2018-07-19T08:07:03Z,1531987623,109,43.0833129,44.2228333,322.25,0,-0.3,34.4,705972.69,-51796.65,27.3,Air+FixedWing,Blue,Enemies,J-11A,Blue J-11A #005,cn,=UVAF= Backfire [456],0,0,0,322.25,2.25,0,0,NaN,NaN,0,0.00989117,NaN,0.999986172,0,-0.005235964,0,316.0192963,316.0192963,,,70.89999986,320,0.113510196,0.1966196
2018-07-19T08:07:04Z,1531987624,109,43.0833129,44.2228333,322.25,0,-0.3,34.4,705972.69,-51796.65,27.3,Air+FixedWing,Blue,Enemies,J-11A,Blue J-11A #005,cn,=UVAF= Backfire [456],0,0,0,322.25,2.25,0,0,NaN,NaN,0,0,NaN,0.999986172,0,-0.005235964,0,316.0192963,316.0192963,,,71.89999986,320,0.113510196,0.1966196
2018-07-19T08:07:05Z,1531987625,109,43.0833129,44.2228333,322.25,0,-0.3,34.4,705972.69,-51796.65,27.3,Air+FixedWing,Blue,Enemies,J-11A,Blue J-11A #005,cn,=UVAF= Backfire [456],0,0,0,322.25,2.25,0,0,NaN,NaN,0,0.013988227,NaN,0.999986172,0,-0.005235964,0,316.0192963,316.0192963,,,72.89999986,320,0.113510196,0.1966196
2018-07-19T08:07:06Z,1531987626,109,43.0833129,44.2228333,322.25,0,-0.3,34.4,705972.69,-51796.65,27.3,Air+FixedWing,Blue,Enemies,J-11A,Blue J-11A #005,cn,=UVAF= Backfire [456],0,0,0,322.25,2.25,0,0,NaN,NaN,0,0.00989117,NaN,0.999986172,0,-0.005235964,0,316.0192963,316.0192963,,,73.89999986,320,0.113510196,0.1966196
2018-07-19T08:07:07Z,1531987627,109,43.0833129,44.2228333,322.25,0,-0.3,34.4,705972.69,-51796.65,27.3,Air+FixedWing,Blue,Enemies,J-11A,Blue J-11A #005,cn,=UVAF= Backfire [456],0,0,0,322.25,2.25,0,0,NaN,NaN,0,0,NaN,0.999986172,0,-0.005235964,0,316.0192963,316.0192963,,,74.89999986,320,0.113510196,0.1966196
2018-07-19T08:07:08Z,1531987628,109,43.0833129,44.2228333,322.25,0,-0.3,34.4,705972.69,-51796.65,27.3,Air+FixedWing,Blue,Enemies,J-11A,Blue J-11A #005,cn,=UVAF= Backfire [456],0,0,0,322.25,2.25,0,0,NaN,NaN,0,0.013988227,NaN,0.999986172,0,-0.005235964,0,316.0192963,316.0192963,,,75.89999986,320,0.113510196,0.1966196
2018-07-19T08:07:09Z,1531987629,109,43.0833129,44.2228333,322.25,0,-0.3,34.4,705972.69,-51796.65,27.3,Air+FixedWing,Blue,Enemies,J-11A,Blue J-11A #005,cn,=UVAF= Backfire [456],0,0,0,322.25,2.25,0,0,NaN,NaN,0,0.00989117,NaN,0.999986172,0,-0.005235964,0,316.0192963,316.0192963,,,76.89999986,320,0.113510196,0.1966196
2018-07-19T08:07:10Z,1531987630,109,43.0833129,44.2228333,322.25,0,-0.3,34.4,705972.69,-51796.65,27.3,Air+FixedWing,Blue,Enemies,J-11A,Blue J-11A #005,cn,=UVAF= Backfire [456],0,0,0,322.25,2.25,0,0,NaN,NaN,0,0.013988227,NaN,0.999986172,0,-0.005235964,0,316.0192963,316.0192963,,,77.89999986,320,0.113510196,0.1966196
2018-07-19T08:07:11Z,1531987631,109,43.0833129,44.2228333,322.25,0,-0.3,34.4,705972.69,-51796.65,27.3,Air+FixedWing,Blue,Enemies,J-11A,Blue J-11A #005,cn,=UVAF= Backfire [456],0,0,0,322.25,2.25,0,0,NaN,NaN,0,0.00989117,NaN,0.999986172,0,-0.005235964,0,316.0192963,316.0192963,,,78.89999986,320,0.113510196,0.1966196
2018-07-19T08:07:12Z,1531987632,109,43.0833129,44.2228333,322.25,0,-0.3,34.4,705972.69,-51796.65,27.3,Air+FixedWing,Blue,Enemies,J-11A,Blue J-11A #005,cn,=UVAF= Backfire [456],0,0,0,322.25,2.25,0,0,NaN,NaN,0,0.00989117,NaN,0.999986172,0,-0.005235964,0,316.0192963,316.0192963,,,79.89999986,320,0.113510196,0.1966196
2018-07-19T08:07:13Z,1531987633,109,43.0833129,44.2228333,322.25,0,-0.3,34.4,705972.69,-51796.65,27.3,Air+FixedWing,Blue,Enemies,J-11A,Blue J-11A #005,cn,=UVAF= Backfire [456],0,0,0,322.25,2.25,0,0,NaN,NaN,0,0,NaN,0.999986172,0,-0.005235964,0,316.0192963,316.0192963,,,80.89999986,320,0.113510196,0.1966196
2018-07-19T08:07:14Z,1531987634,109,43.0833129,44.2228333,322.25,0,-0.3,34.4,705972.69,-51796.65,27.3,Air+FixedWing,Blue,Enemies,J-11A,Blue J-11A #005,cn,=UVAF= Backfire [456],0,0,0,322.25,2.25,0,0,NaN,NaN,0,0.013988227,NaN,0.999986172,0,-0.005235964,0,316.0192963,316.0192963,,,81.89999986,320,0.113510196,0.1966196
2018-07-19T08:07:15Z,1531987635,109,43.0833129,44.2228333,322.25,0,-0.3,34.4,705972.69,-51796.65,27.3,Air+FixedWing,Blue,Enemies,J-11A,Blue J-11A #005,cn,=UVAF= Backfire [456],0,0,0,322.25,2.25,0,0,NaN,NaN,0,0,NaN,0.999988025,0.000182692,-0.004882009,0,316.0192963,316.0192963,,,82.89999986,320,0.113510196,0.1966196
2018-07-19T08:07:16Z,1531987636,109,43.0833129,44.2228333,322.25,0,-0.3,34.4,705972.69,-51796.64,27.3,Air+FixedWing,Blue,Enemies,J-11A,Blue J-11A #005,cn,=UVAF= Backfire [456],0.00390625,0,1.15e-05,322.25,2.25,0.00390625,0,NaN,NaN,0,0,NaN,0.999986172,0,-0.005235964,7.63e-07,316.0192963,316.019297,,,83.89999986,320,0.113510196,0.1966196
2018-07-19T08:07:17Z,1531987637,109,43.0833129,44.2228333,322.25,0,-0.3,34.4,705972.69,-51796.64,27.3,Air+FixedWing,Blue,Enemies,J-11A,Blue J-11A #005,cn,=UVAF= Backfire [456],0.00390625,0,1.15e-05,322.25,2.25,0.00390625,0,NaN,NaN,0,0,NaN,0.999984318,-0.000182692,-0.005589919,7.63e-07,316.0192963,316.019297,,,84.89999986,320,0.113510196,0.1966196
2018-07-19T08:07:18Z,1531987638,109,43.0833129,44.2228334,322.25,0,-0.4,34.4,705972.69,-51796.64,27.3,Air+FixedWing,Blue,Enemies,J-11A,Blue J-11A #005,cn,=UVAF= Backfire [456],0,0,0,322.25,2.25,0,0,NaN,NaN,0,0,NaN,0.999976632,-0.000365385,-0.006858126,0,316.0192963,316.0192963,,,85.89999986,320,0.124642144,0.207752111
2018-07-19T08:07:19Z,1531987639,109,43.083313,44.2228333,322.25,0,-0.3,34.4,705972.69,-51796.65,27.3,Air+FixedWing,Blue,Enemies,J-11A,Blue J-11A #005,cn,=UVAF= Backfire [456],0.0078125,0,2.3e-05,322.25,2.25,0.0078125,0,NaN,NaN,0,0,NaN,1.000020997,0.000365385,-0.004528217,3.05e-06,316.0192963,316.0192993,,,86.89999986,320,0.138289695,0.221400352
2018-07-19T08:07:20Z,1531987640,109,43.0833129,44.2228333,322.25,0,-0.3,34.4,705972.69,-51796.65,27.3,Air+FixedWing,Blue,Enemies,J-11A,Blue J-11A #005,cn,=UVAF= Backfire [456],0.000305176,0,9e-07,322.2503052,2.250305176,0,0.000305176,NaN,NaN,0,0,NaN,1.000708129,0,-0.005239745,4.66e-09,316.0195955,316.0195955,,,87.89999986,320,0.146184971,0.229301922
2018-07-19T08:07:21Z,1531987641,109,43.0833129,44.2228333,322.26,0,-0.3,34.4,705972.69,-51796.65,27.3,Air+FixedWing,Blue,Enemies,J-11A,Blue J-11A #005,cn,=UVAF= Backfire [456],0.007385254,0,2.18e-05,322.2576904,2.25769043,0,0.007385254,NaN,NaN,0,0,NaN,0.998448901,0,-0.005227915,2.73e-06,316.026838,316.0268407,,,88.89999986,320,0.146184971,0.236687177
2018-07-19T08:07:22Z,1531987642,109,43.0833129,44.2228333,322.25,0,-0.3,34.4,705972.69,-51796.65,27.3,Air+FixedWing,Blue,Enemies,J-11A,Blue J-11A #005,cn,=UVAF= Backfire [456],0.00769043,0,2.27e-05,322.25,2.25,0,-0.00769043,NaN,NaN,0,0,NaN,1.000770366,0,-0.005240071,2.96e-06,316.0192963,316.0192992,,,89.89999986,320,0.146184971,0.244377607
2018-07-19T08:07:23Z,1531987643,109,43.083313,44.2228333,322.25,0,-0.3,34.4,705972.69,-51796.65,27.3,Air+FixedWing,Blue,Enemies,J-11A,Blue J-11A #005,cn,=UVAF= Backfire [456],0,0,0,322.25,2.25,0,0,NaN,NaN,0,0,NaN,0.999986172,0,-0.005235964,0,316.0192963,316.0192963,,,90.89999986,320,0.151433338,0.24962624
2018-07-19T08:07:24Z,1531987644,109,43.083313,44.2228333,322.25,0,-0.3,34.4,705972.69,-51796.65,27.3,Air+FixedWing,Blue,Enemies,J-11A,Blue J-11A #005,cn,=UVAF= Backfire [456],0,0,0,322.25,2.25,0,0,NaN,NaN,0,0,NaN,0.999986172,0,-0.005235964,0,316.0192963,316.0192963,,,91.89999986,320,0.152915189,0.251108166
2018-07-19T08:07:25Z,1531987645,109,43.083313,44.2228333,322.25,0,-0.3,34.4,705972.69,-51796.65,27.3,Air+FixedWing,Blue,Enemies,J-11A,Blue J-11A #005,cn,=UVAF= Backfire [456],0,0,0,322.25,2.25,0,0,NaN,NaN,0,0,NaN,0.999986172,0,-0.005235964,0,316.0192963,316.0192963,,,92.89999986,320,0.15551373,0.253706837
2018-07-19T08:07:26Z,1531987646,109,43.0833129,44.2228333,322.25,0,-0.3,34.4,705972.69,-51796.65,27.3,Air+FixedWing,Blue,Enemies,J-11A,Blue J-11A #005,cn,=UVAF= Backfire [456],0,0,0,322.25,2.25,0,0,NaN,NaN,0,0,NaN,0.999986172,0,-0.005235964,0,316.0192963,316.0192963,,,93.89999986,320,0.158112269,0.256305508
2018-07-19T08:07:27Z,1531987647,109,43.083313,44.2228333,322.25,0,-0.3,34.4,705972.69,-51796.65,27.3,Air+FixedWing,Blue,Enemies,J-11A,Blue J-11A #005,cn,=UVAF= Backfire [456],0,0,0,322.25,2.25,0,0,NaN,NaN,0,0,NaN,0.999986172,0,-0.005235964,0,316.0192963,316.0192963,,,94.89999986,320,0.161611104,0.25980452
2018-07-19T08:07:28Z,1531987648,109,43.0833129,44.2228333,322.25,0,-0.3,34.4,705972.69,-51796.65,27.3,Air+FixedWing,Blue,Enemies,J-11A,Blue J-11A #005,cn,=UVAF= Backfire [456],0,0,0,322.25,2.25,0,0,NaN,NaN,0,0,NaN,0.999986172,0,-0.005235964,0,316.0192963,316.0192963,,,95.89999986,320,0.165171037,0.263364632
2018-07-19T08:07:29Z,1531987649,109,43.083313,44.2228333,322.25,0,-0.3,34.4,705972.69,-51796.65,27.3,Air+FixedWing,Blue,Enemies,J-11A,Blue J-11A #005,cn,=UVAF= Backfire [456],0,0,0,322.25,2.25,0,0,NaN,NaN,0,0,NaN,0.999980612,-0.000548077,-0.006297829,0,316.0192963,316.0192963,,,96.89999986,320,0.169919559,0.268113395
2018-07-19T08:07:30Z,1531987650,109,43.0833131,44.2228332,322.25,0.2,-0.3,34.4,705972.69,-51796.66,27.3,Air+FixedWing,Blue,Enemies,J-11A,Blue J-11A #005,cn,=UVAF= Backfire [456],0.01171875,0,3.46e-05,322.25,2.25,0.01171875,0,NaN,NaN,0.400000024,0,NaN,0.999988542,0.004769487,-0.002758279,6.87e-06,316.0192963,316.0193031,,,97.89999986,320,0.184707401,0.282901983
2018-07-19T08:07:31Z,1531987651,109,43.083313,44.2228333,322.25,0.1,-0.3,34.4,705972.69,-51796.64,27.3,Air+FixedWing,Blue,Enemies,J-11A,Blue J-11A #005,cn,=UVAF= Backfire [456],0.015625,0,4.61e-05,322.25,2.25,0.015625,0,NaN,NaN,0,0,NaN,0.99997394,0.000466437,-0.007713649,1.22e-05,316.0192963,316.0193085,,,98.89999986,320,0.198402695,0.29659797
2018-07-19T08:07:32Z,1531987652,109,43.083313,44.2228333,322.25,0.1,-0.3,34.4,705972.69,-51796.66,27.3,Air+FixedWing,Blue,Enemies,J-11A,Blue J-11A #005,cn,=UVAF= Backfire [456],0.01171875,0,3.46e-05,322.25,2.25,0.01171875,0,NaN,NaN,0,0,NaN,0.999989285,0.00229339,-0.004174099,6.87e-06,316.0192963,316.0193031,,,99.89999986,320,0.198402695,0.29659797
2018-07-19T08:07:33Z,1531987653,109,43.0833129,44.2228333,322.25,-0.1,-0.3,34.4,705972.69,-51796.66,27.3,Air+FixedWing,Blue,Enemies,J-11A,Blue J-11A #005,cn,=UVAF= Backfire [456],0,0,0,322.25,2.25,0,0,NaN,NaN,0.199987939,0,NaN,0.999989026,-0.001379821,-0.004528054,0,316.0192963,316.0192963,,,100.8999999,320,0.206380214,0.304575892
2018-07-19T08:07:34Z,1531987654,109,43.0833129,44.2228333,322.25,-0.1,-0.3,34.4,705972.69,-51796.65,27.3,Air+FixedWing,Blue,Enemies,J-11A,Blue J-11A #005,cn,=UVAF= Backfire [456],0.0078125,0,2.3e-05,322.25,2.25,0.0078125,0,NaN,NaN,0.180918051,0,NaN,0.999980636,-0.001944368,-0.005943874,3.05e-06,316.0192963,316.0192993,,,101.8999999,320,0.206380214,0.304575892
2018-07-19T08:07:35Z,1531987655,109,43.0833129,44.2228333,322.25,-0.1,-0.3,34.4,705972.69,-51796.65,27.3,Air+FixedWing,Blue,Enemies,J-11A,Blue J-11A #005,cn,=UVAF= Backfire [456],0,0,0,322.25,2.25,0,0,NaN,NaN,0.139991557,0,NaN,0.999981303,-0.001587019,-0.005943874,0,316.0192963,316.0192963,,,102.8999999,320,0.206380214,0.304575892
2018-07-19T08:07:36Z,1531987656,109,43.083313,44.2228333,322.25,0,-0.3,34.4,705972.69,-51796.66,27.3,Air+FixedWing,Blue,Enemies,J-11A,Blue J-11A #005,cn,=UVAF= Backfire [456],0.0078125,0,2.3e-05,322.25,2.25,0.0078125,0,NaN,NaN,0,0,NaN,0.999989878,0.000365385,-0.004528054,3.05e-06,316.0192963,316.0192993,,,103.8999999,320,0.214357732,0.312553813
2018-07-19T08:07:37Z,1531987657,109,43.083313,44.2228333,322.25,0,-0.3,34.4,705972.69,-51796.66,27.3,Air+FixedWing,Blue,Enemies,J-11A,Blue J-11A #005,cn,=UVAF= Backfire [456],0,0,0,322.25,2.25,0,0,NaN,NaN,0,0,NaN,0.999984318,-0.000182692,-0.005589919,0,316.0192963,316.0192963,,,104.8999999,320,0.214357732,0.312553813
2018-07-19T08:07:38Z,1531987658,109,43.083313,44.2228332,322.25,0,-0.3,34.4,705972.69,-51796.66,27.3,Air+FixedWing,Blue,Enemies,J-11A,Blue J-11A #005,cn,=UVAF= Backfire [456],0.00390625,0,1.15e-05,322.25,2.25,0.00390625,0,NaN,NaN,0,0,NaN,0.999997292,0.001096154,-0.003112234,7.63e-07,316.0192963,316.019297,,,105.8999999,320,0.225603439,0.323800089
2018-07-19T08:07:39Z,1531987659,109,43.0833128,44.2228334,322.25,-0.1,-0.2,34.4,705972.69,-51796.64,27.3,Air+FixedWing,Blue,Enemies,J-11A,Blue J-11A #005,cn,=UVAF= Backfire [456],0.01953125,0,5.76e-05,322.25,2.25,0.01953125,0,NaN,NaN,0.152395181,0.027976455,NaN,0.999982558,-0.00260852,-0.005968355,1.91e-05,316.0192963,316.0193153,,,106.8999999,320,0.252096407,0.350294396
2018-07-19T08:07:40Z,1531987660,109,43.0833129,44.2228333,322.25,0,-0.2,34.4,705972.69,-51796.65,27.3,Air+FixedWing,Blue,Enemies,J-11A,Blue J-11A #005,cn,=UVAF= Backfire [456],0.0078125,0,2.3e-05,322.25,2.25,0.0078125,0,NaN,NaN,0,0.050435277,NaN,0.99999243,0,-0.003854343,3.05e-06,316.0192963,316.0192993,,,107.8999999,320,0.265791701,0.363990383
2018-07-19T08:07:41Z,1531987661,109,43.0833129,44.2228333,322.25,0,-0.2,34.4,705972.69,-51796.66,27.3,Air+FixedWing,Blue,Enemies,J-11A,Blue J-11A #005,cn,=UVAF= Backfire [456],0.0078125,0,2.3e-05,322.25,2.25,0.0078125,0,NaN,NaN,0,0.024228322,NaN,0.999994977,0.000182692,-0.003136694,3.05e-06,316.0192963,316.0192993,,,108.8999999,320,0.265791701,0.363990383
2018-07-19T08:07:42Z,1531987662,109,43.083313,44.2228333,322.25,0.1,-0.2,34.4,705972.69,-51796.66,27.3,Air+FixedWing,Blue,Enemies,J-11A,Blue J-11A #005,cn,=UVAF= Backfire [456],0.00390625,0,1.15e-05,322.25,2.25,0.00390625,0,NaN,NaN,0.190476794,0.013988227,NaN,0.999993362,0.001844907,-0.003136694,7.63e-07,316.0192963,316.019297,,,109.8999999,320,0.273769219,0.371968305
2018-07-19T08:07:43Z,1531987663,109,43.083313,44.2228333,322.25,0,-0.2,34.4,705972.69,-51796.66,27.3,Air+FixedWing,Blue,Enemies,J-11A,Blue J-11A #005,cn,=UVAF= Backfire [456],0,0,0,322.25,2.25,0,0,NaN,NaN,0,0.013988227,NaN,0.999483389,0,-0.00348887,0,316.0192963,316.0192963,,,110.8999999,320,0.274155228,0.372354333
2018-07-19T08:07:44Z,1531987664,109,43.0833129,44.2228333,322.24,0,-0.2,34.4,705972.69,-51796.66,27.3,Air+FixedWing,Blue,Enemies,J-11A,Blue J-11A #005,cn,=UVAF= Backfire [456],0.005004883,0,1.48e-05,322.2449951,2.244995117,0,-0.005004883,NaN,NaN,0,0.013988227,NaN,0.999996213,0.000365385,-0.002782736,1.25e-06,316.0143881,316.0143894,,,111.8999999,320,0.281746737,0.381447501
2018-07-19T08:07:45Z,1531987665,109,43.0833129,44.2228333,322.24,0,-0.2,34.4,705972.69,-51796.65,27.3,Air+FixedWing,Blue,Enemies,J-11A,Blue J-11A #005,cn,=UVAF= Backfire [456],0.009278147,0,2.74e-05,322.2399902,2.239990234,0.0078125,-0.005004883,NaN,NaN,0,0.013988227,NaN,1.000499152,-0.000730769,-0.004908264,4.3e-06,316.00948,316.0094843,,,112.8999999,320,0.281746737,0.386452384
2018-07-19T08:07:46Z,1531987666,109,43.0833129,44.2228333,322.24,0,-0.2,34.4,705972.69,-51796.66,27.3,Air+FixedWing,Blue,Enemies,J-11A,Blue J-11A #005,cn,=UVAF= Backfire [456],0.0078125,0,2.3e-05,322.2399902,2.239990234,0.0078125,0,NaN,NaN,0,0.013988227,NaN,0.999996213,0.000365385,-0.002782736,3.05e-06,316.00948,316.0094831,,,113.8999999,320,0.281746737,0.386452384
2018-07-19T08:07:47Z,1531987667,109,43.0833129,44.2228332,322.24,0,-0.2,34.4,705972.69,-51796.66,27.3,Air+FixedWing,Blue,Enemies,J-11A,Blue J-11A #005,cn,=UVAF= Backfire [456],0,0,0,322.2399902,2.239990234,0,0,NaN,NaN,0,0.013988227,NaN,0.999993742,0,-0.003490652,0,316.00948,316.00948,,,114.8999999,320,0.290435088,0.395141174
2018-07-19T08:07:48Z,1531987668,109,43.0833129,44.2228333,322.24,0,-0.2,34.4,705972.69,-51796.66,27.3,Air+FixedWing,Blue,Enemies,J-11A,Blue J-11A #005,cn,=UVAF= Backfire [456],0,0,0,322.2399902,2.239990234,0,0,NaN,NaN,0.000382491,0.013988227,NaN,0.999993801,-3.39e-06,-0.003490652,0,316.00948,316.00948,,,115.8999999,320,0.299123439,0.403829963
2018-07-19T08:07:49Z,1531987669,109,43.0833129,44.2228333,322.24,0,-0.2,34.4,705972.69,-51796.66,27.3,Air+FixedWing,Blue,Enemies,J-11A,Blue J-11A #005,cn,=UVAF= Backfire [456],0,0,0,322.2399902,2.239990234,0,0,NaN,NaN,0.000546415,0.013988227,NaN,0.999993801,-1.28e-05,-0.003490652,0,316.00948,316.00948,,,116.8999999,320,0.299123439,0.403829963
2018-07-19T08:07:50Z,1531987670,109,43.0833129,44.2228333,322.24,0,-0.2,34.4,705972.69,-51796.66,27.3,Air+FixedWing,Blue,Enemies,J-11A,Blue J-11A #005,cn,=UVAF= Backfire [456],0,0,0,322.2399902,2.239990234,0,0,NaN,NaN,0.000546415,0.013988227,NaN,0.999993801,-2.22e-05,-0.003490652,0,316.00948,316.00948,,,117.8999999,320,0.299123439,0.403829963
2018-07-19T08:07:51Z,1531987671,109,43.0833129,44.2228333,322.24,0,-0.2,34.4,705972.69,-51796.66,27.3,Air+FixedWing,Blue,Enemies,J-11A,Blue J-11A #005,cn,=UVAF= Backfire [456],0,0,0,322.2399902,2.239990234,0,0,NaN,NaN,0.000546415,0.013988227,NaN,0.999993801,-3.16e-05,-0.003490652,0,316.00948,316.00948,,,118.8999999,320,0.299123439,0.403829963
2018-07-19T08:07:52Z,1531987672,109,43.0833129,44.2228333,322.24,0,-0.2,34.4,705972.69,-51796.66,27.3,Air+FixedWing,Blue,Enemies,J-11A,Blue J-11A #005,cn,=UVAF= Backfire [456],0,0,0,322.2399902,2.239990234,0,0,NaN,NaN,0.000546415,0.013988227,NaN,0.999993801,-4.1e-05,-0.003490652,0,316.00948,316.00948,,,119.8999999,320,0.299123439,0.403829963
2018-07-19T08:07:53Z,1531987673,109,43.0833129,44.2228333,322.24,0,-0.2,34.4,705972.69,-51796.66,27.3,Air+FixedWing,Blue,Enemies,J-11A,Blue J-11A #005,cn,=UVAF= Backfire [456],0,0,0,322.2399902,2.239990234,0,0,NaN,NaN,0.000546415,0.013988227,NaN,0.999993742,-5.04e-05,-0.003490652,0,316.00948,316.00948,,,120.8999999,320,0.299123439,0.403829963
2018-07-19T08:07:54Z,1531987674,109,43.0833129,44.2228333,322.24,0,-0.2,34.4,705972.69,-51796.66,27.3,Air+FixedWing,Blue,Enemies,J-11A,Blue J-11A #005,cn,=UVAF= Backfire [456],0,0,0,322.2399902,2.239990234,0,0,NaN,NaN,0.000546415,0.013988227,NaN,0.999993742,-5.98e-05,-0.003490652,0,316.00948,316.00948,,,121.8999999,320,0.299123439,0.403829963
2018-07-19T08:07:55Z,1531987675,109,43.0833129,44.2228333,322.24,0,-0.2,34.4,705972.69,-51796.66,27.3,Air+FixedWing,Blue,Enemies,J-11A,Blue J-11A #005,cn,=UVAF= Backfire [456],0,0,0,322.2399902,2.239990234,0,0,NaN,NaN,0.000546415,0.013988227,NaN,0.999993742,-6.93e-05,-0.003490652,0,316.00948,316.00948,,,122.8999999,320,0.299123439,0.403829963
2018-07-19T08:07:56Z,1531987676,109,43.0833129,44.2228333,322.24,0,-0.2,34.4,705972.69,-51796.66,27.3,Air+FixedWing,Blue,Enemies,J-11A,Blue J-11A #005,cn,=UVAF= Backfire [456],0,0,0,322.2399902,2.239990234,0,0,NaN,NaN,0.000546415,0.013988227,NaN,0.999993742,-7.87e-05,-0.003490652,0,316.00948,316.00948,,,123.8999999,320,0.299123439,0.403829963
2018-07-19T08:07:57Z,1531987677,109,43.0833129,44.2228333,322.24,0,-0.2,34.4,705972.69,-51796.66,27.3,Air+FixedWing,Blue,Enemies,J-11A,Blue J-11A #005,cn,=UVAF= Backfire [456],0,0,0,322.2399902,2.239990234,0,0,NaN,NaN,0.000546415,0.013988227,NaN,0.999993682,-8.81e-05,-0.003490652,0,316.00948,316.00948,,,124.8999999,320,0.299123439,0.403829963
2018-07-19T08:07:58Z,1531987678,109,43.0833129,44.2228333,322.24,0,-0.2,34.4,705972.69,-51796.66,27.3,Air+FixedWing,Blue,Enemies,J-11A,Blue J-11A #005,cn,=UVAF= Backfire [456],0,0,0,322.2399902,2.239990234,0,0,NaN,NaN,0.000546415,0.013988227,NaN,0.999993801,-9.75e-05,-0.003490652,0,316.00948,316.00948,,,125.8999999,320,0.299123439,0.403829963
2018-07-19T08:07:59Z,1531987679,109,43.0833129,44.2228333,322.24,0,-0.2,34.4,705972.69,-51796.66,27.3,Air+FixedWing,Blue,Enemies,J-11A,Blue J-11A #005,cn,=UVAF= Backfire [456],0,0,0,322.2399902,2.239990234,0,0,NaN,NaN,0.000546415,0.013988227,NaN,0.999993801,-0.0001069,-0.003490652,0,316.00948,316.00948,,,126.8999999,320,0.299123439,0.403829963
2018-07-19T08:08:00Z,1531987680,109,43.0833129,44.2228333,322.24,0,-0.2,34.4,705972.69,-51796.66,27.3,Air+FixedWing,Blue,Enemies,J-11A,Blue J-11A #005,cn,=UVAF= Backfire [456],0,0,0,322.2399902,2.239990234,0,0,NaN,NaN,0.000546415,0.013988227,NaN,0.999993742,-0.00011631,-0.003490652,0,316.00948,316.00948,,,127.8999999,320,0.299123439,0.403829963
2018-07-19T08:08:01Z,1531987681,109,43.0833129,44.2228333,322.24,0,-0.2,34.4,705972.69,-51796.66,27.3,Air+FixedWing,Blue,Enemies,J-11A,Blue J-11A #005,cn,=UVAF= Backfire [456],0,0,0,322.2399902,2.239990234,0,0,NaN,NaN,0.000546415,0.013988227,NaN,0.999993801,-0.00012572,-0.003490652,0,316.00948,316.00948,,,128.8999999,320,0.299123439,0.403829963
2018-07-19T08:08:02Z,1531987682,109,43.0833129,44.2228333,322.24,0,-0.2,34.4,705972.69,-51796.66,27.3,Air+FixedWing,Blue,Enemies,J-11A,Blue J-11A #005,cn,=UVAF= Backfire [456],0,0,0,322.2399902,2.239990234,0,0,NaN,NaN,0.000546415,0.013988227,NaN,0.999993801,-0.00013513,-0.003490652,0,316.00948,316.00948,,,129.8999999,320,0.299123439,0.403829963
2018-07-19T08:08:03Z,1531987683,109,43.0833129,44.2228333,322.24,0,-0.2,34.4,705972.69,-51796.66,27.3,Air+FixedWing,Blue,Enemies,J-11A,Blue J-11A #005,cn,=UVAF= Backfire [456],0,0,0,322.2399902,2.239990234,0,0,NaN,NaN,0.000546415,0.013988227,NaN,0.999993742,-0.00014454,-0.003490652,0,316.00948,316.00948,,,130.8999999,320,0.299123439,0.403829963
2018-07-19T08:08:04Z,1531987684,109,43.0833129,44.2228333,322.24,0,-0.2,34.4,705972.69,-51796.66,27.3,Air+FixedWing,Blue,Enemies,J-11A,Blue J-11A #005,cn,=UVAF= Backfire [456],0,0,0,322.2399902,2.239990234,0,0,NaN,NaN,0.000546415,0.013988227,NaN,0.999993742,-0.000153951,-0.003490652,0,316.00948,316.00948,,,131.8999999,320,0.299123439,0.403829963
2018-07-19T08:08:05Z,1531987685,109,43.0833129,44.2228333,322.24,0,-0.2,34.4,705972.69,-51796.66,27.3,Air+FixedWing,Blue,Enemies,J-11A,Blue J-11A #005,cn,=UVAF= Backfire [456],0,0,0,322.2399902,2.239990234,0,0,NaN,NaN,0.000546415,0.013988227,NaN,0.999993801,-0.000163361,-0.003490652,0,316.00948,316.00948,,,132.8999999,320,0.299123439,0.403829963
2018-07-19T08:08:06Z,1531987686,109,43.0833129,44.2228333,322.24,0,-0.2,34.4,705972.69,-51796.66,27.3,Air+FixedWing,Blue,Enemies,J-11A,Blue J-11A #005,cn,=UVAF= Backfire [456],0,0,0,322.2399902,2.239990234,0,0,NaN,NaN,0.000546415,0.013988227,NaN,0.999993742,-0.000172771,-0.003490652,0,316.00948,316.00948,,,133.8999999,320,0.299123439,0.403829963
2018-07-19T08:08:07Z,1531987687,109,43.0833129,44.2228333,322.24,0,-0.2,34.4,705972.69,-51796.66,27.3,Air+FixedWing,Blue,Enemies,J-11A,Blue J-11A #005,cn,=UVAF= Backfire [456],0,0,0,322.2399902,2.239990234,0,0,NaN,NaN,0.000546415,0.013988227,NaN,0.999993801,-0.000182181,-0.003490652,0,316.00948,316.00948,,,134.8999999,320,0.299123439,0.403829963
2018-07-19T08:08:08Z,1531987688,109,43.0833129,44.2228333,322.24,0,-0.2,34.4,705972.69,-51796.66,27.3,Air+FixedWing,Blue,Enemies,J-11A,Blue J-11A #005,cn,=UVAF= Backfire [456],0,0,0,322.2399902,2.239990234,0,0,NaN,NaN,0.000546415,0.013988227,NaN,0.999993801,-0.000191591,-0.003490652,0,316.00948,316.00948,,,135.8999999,320,0.299123439,0.403829963
2018-07-19T08:08:09Z,1531987689,109,43.0833129,44.2228333,322.24,0,-0.2,34.4,705972.69,-51796.66,27.3,Air+FixedWing,Blue,Enemies,J-11A,Blue J-11A #005,cn,=UVAF= Backfire [456],0,0,0,322.2399902,2.239990234,0,0,NaN,NaN,0.000546415,0.013988227,NaN,0.999993742,-0.000201002,-0.003490652,0,316.00948,316.00948,,,136.8999999,320,0.299123439,0.403829963
2018-07-19T08:08:10Z,1531987690,109,43.0833129,44.2228333,322.24,0,-0.2,34.4,705972.69,-51796.66,27.3,Air+FixedWing,Blue,Enemies,J-11A,Blue J-11A #005,cn,=UVAF= Backfire [456],0,0,0,322.2399902,2.239990234,0,0,NaN,NaN,0.000546415,0.013988227,NaN,0.999993801,-0.000210412,-0.003490652,0,316.00948,316.00948,,,137.8999999,320,0.299123439,0.403829963
2018-07-19T08:08:11Z,1531987691,109,43.0833129,44.2228333,322.24,0,-0.2,34.4,705972.69,-51796.66,27.3,Air+FixedWing,Blue,Enemies,J-11A,Blue J-11A #005,cn,=UVAF= Backfire [456],0,0,0,322.2399902,2.239990234,0,0,NaN,NaN,0.000546415,0.013988227,NaN,0.999993742,-0.000219822,-0.003490652,0,316.00948,316.00948,,,138.8999999,320,0.299123439,0.403829963
2018-07-19T08:08:12Z,1531987692,109,43.0833129,44.2228333,322.24,0,-0.2,34.4,705972.69,-51796.66,27.3,Air+FixedWing,Blue,Enemies,J-11A,Blue J-11A #005,cn,=UVAF= Backfire [456],0,0,0,322.2399902,2.239990234,0,0,NaN,NaN,0.000546415,0.013988227,NaN,0.999993742,-0.000229232,-0.003490652,0,316.00948,316.00948,,,139.8999999,320,0.299123439,0.403829963
2018-07-19T08:08:13Z,1531987693,109,43.0833129,44.2228333,322.24,0,-0.2,34.4,705972.69,-51796.66,27.3,Air+FixedWing,Blue,Enemies,J-11A,Blue J-11A #005,cn,=UVAF= Backfire [456],0,0,0,322.2399902,2.239990234,0,0,NaN,NaN,0.000546415,0.013988227,NaN,0.999993742,-0.000238642,-0.003490652,0,316.00948,316.00948,,,140.8999999,320,0.299123439,0.403829963
2018-07-19T08:08:14Z,1531987694,109,43.0833129,44.2228333,322.24,0,-0.2,34.4,705972.69,-51796.66,27.3,Air+FixedWing,Blue,Enemies,J-11A,Blue J-11A #005,cn,=UVAF= Backfire [456],0,0,0,322.2399902,2.239990234,0,0,NaN,NaN,0.000546415,0.013988227,NaN,0.999993742,-0.000248053,-0.003490652,0,316.00948,316.00948,,,141.8999999,320,0.299123439,0.403829963
2018-07-19T08:08:15Z,1531987695,109,43.0833129,44.2228333,322.24,0,-0.2,34.4,705972.69,-51796.66,27.3,Air+FixedWing,Blue,Enemies,J-11A,Blue J-11A #005,cn,=UVAF= Backfire [456],0,0,0,322.2399902,2.239990234,0,0,NaN,NaN,0.000546415,0.013988227,NaN,0.999993682,-0.000257463,-0.003490652,0,316.00948,316.00948,,,142.8999999,320,0.299123439,0.403829963
2018-07-19T08:08:16Z,1531987696,109,43.0833129,44.2228333,322.24,0,-0.2,34.4,705972.69,-51796.66,27.3,Air+FixedWing,Blue,Enemies,J-11A,Blue J-11A #005,cn,=UVAF= Backfire [456],0,0,0,322.2399902,2.239990234,0,0,NaN,NaN,0.000546415,0.013988227,NaN,0.999993682,-0.000266873,-0.003490652,0,316.00948,316.00948,,,143.8999999,320,0.299123439,0.403829963
2018-07-19T08:08:17Z,1531987697,109,43.0833129,44.2228333,322.24,0,-0.2,34.4,705972.69,-51796.66,27.3,Air+FixedWing,Blue,Enemies,J-11A,Blue J-11A #005,cn,=UVAF= Backfire [456],0,0,0,322.2399902,2.239990234,0,0,NaN,NaN,0.000546415,0.013988227,NaN,0.999993742,-0.000276283,-0.003490652,0,316.00948,316.00948,,,144.8999999,320,0.299123439,0.403829963
2018-07-19T08:08:18Z,1531987698,109,43.0833129,44.2228333,322.24,0,-0.2,34.4,705972.69,-51796.66,27.3,Air+FixedWing,Blue,Enemies,J-11A,Blue J-11A #005,cn,=UVAF= Backfire [456],0,0,0,322.2399902,2.239990234,0,0,NaN,NaN,0.000546415,0.013988227,NaN,0.999993801,-0.000285693,-0.003490652,0,316.00948,316.00948,,,145.8999999,320,0.299123439,0.403829963
2018-07-19T08:08:19Z,1531987699,109,43.0833129,44.2228333,322.24,0,-0.2,34.4,705972.69,-51796.66,27.3,Air+FixedWing,Blue,Enemies,J-11A,Blue J-11A #005,cn,=UVAF= Backfire [456],0,0,0,322.2399902,2.239990234,0,0,NaN,NaN,0.000546415,0.013988227,NaN,0.999993742,-0.000295103,-0.003490652,0,316.00948,316.00948,,,146.8999999,320,0.299123439,0.403829963
2018-07-19T08:08:20Z,1531987700,109,43.0833129,44.2228333,322.24,0,-0.2,34.4,705972.69,-51796.66,27.3,Air+FixedWing,Blue,Enemies,J-11A,Blue J-11A #005,cn,=UVAF= Backfire [456],0,0,0,322.2399902,2.239990234,0,0,NaN,NaN,0.000546415,0.013988227,NaN,0.999993742,-0.000304514,-0.003490652,0,316.00948,316.00948,,,147.8999999,320,0.299123439,0.403829963
2018-07-19T08:08:21Z,1531987701,109,43.0833129,44.2228333,322.24,0,-0.2,34.4,705972.69,-51796.66,27.3,Air+FixedWing,Blue,Enemies,J-11A,Blue J-11A #005,cn,=UVAF= Backfire [456],0,0,0,322.2399902,2.239990234,0,0,NaN,NaN,0.000546415,0.013988227,NaN,0.999993682,-0.000313924,-0.003490652,0,316.00948,316.00948,,,148.8999999,320,0.299123439,0.403829963
2018-07-19T08:08:22Z,1531987702,109,43.0833129,44.2228333,322.24,0,-0.2,34.4,705972.69,-51796.66,27.3,Air+FixedWing,Blue,Enemies,J-11A,Blue J-11A #005,cn,=UVAF= Backfire [456],0,0,0,322.2399902,2.239990234,0,0,NaN,NaN,0.000546415,0.013988227,NaN,0.999993682,-0.000323334,-0.003490652,0,316.00948,316.00948,,,149.8999999,320,0.299123439,0.403829963
2018-07-19T08:08:23Z,1531987703,109,43.0833129,44.2228333,322.24,0,-0.2,34.4,705972.69,-51796.66,27.3,Air+FixedWing,Blue,Enemies,J-11A,Blue J-11A #005,cn,=UVAF= Backfire [456],0,0,0,322.2399902,2.239990234,0,0,NaN,NaN,0.000546415,0.013988227,NaN,0.999993742,-0.000332744,-0.003490652,0,316.00948,316.00948,,,150.8999999,320,0.299123439,0.403829963
2018-07-19T08:08:24Z,1531987704,109,43.0833129,44.2228333,322.24,0,-0.2,34.4,705972.69,-51796.66,27.3,Air+FixedWing,Blue,Enemies,J-11A,Blue J-11A #005,cn,=UVAF= Backfire [456],0,0,0,322.2399902,2.239990234,0,0,NaN,NaN,0.000546415,0.013988227,NaN,0.999993682,-0.000342154,-0.003490652,0,316.00948,316.00948,,,151.8999999,320,0.299123439,0.403829963
2018-07-19T08:08:25Z,1531987705,109,43.0833129,44.2228333,322.24,0,-0.2,34.4,705972.69,-51796.66,27.3,Air+FixedWing,Blue,Enemies,J-11A,Blue J-11A #005,cn,=UVAF= Backfire [456],0,0,0,322.2399902,2.239990234,0,0,NaN,NaN,0.000546415,0.013988227,NaN,0.999993682,-0.000351565,-0.003490652,0,316.00948,316.00948,,,152.8999999,320,0.299123439,0.403829963
2018-07-19T08:08:26Z,1531987706,109,43.0833129,44.2228333,322.24,0,-0.2,34.4,705972.69,-51796.66,27.3,Air+FixedWing,Blue,Enemies,J-11A,Blue J-11A #005,cn,=UVAF= Backfire [456],0,0,0,322.2399902,2.239990234,0,0,NaN,NaN,0.000546415,0.013988227,NaN,0.999993742,-0.000360975,-0.003490652,0,316.00948,316.00948,,,153.8999999,320,0.299123439,0.403829963
2018-07-19T08:08:27Z,1531987707,109,43.0833129,44.2228333,322.24,0,-0.2,34.4,705972.69,-51796.66,27.3,Air+FixedWing,Blue,Enemies,J-11A,Blue J-11A #005,cn,=UVAF= Backfire [456],0,0,0,322.2399902,2.239990234,0,0,NaN,NaN,0.000546415,0.013988227,NaN,0.999993682,-0.000370385,-0.003490652,0,316.00948,316.00948,,,154.8999999,320,0.299123439,0.403829963
2018-07-19T08:08:28Z,1531987708,109,43.0833129,44.2228333,322.24,0,-0.2,34.4,705972.69,-51796.66,27.3,Air+FixedWing,Blue,Enemies,J-11A,Blue J-11A #005,cn,=UVAF= Backfire [456],0,0,0,322.2399902,2.239990234,0,0,NaN,NaN,0.000546415,0.013988227,NaN,0.999993682,-0.000379795,-0.003490652,0,316.00948,316.00948,,,155.8999999,320,0.299123439,0.403829963
2018-07-19T08:08:29Z,1531987709,109,43.0833129,44.2228333,322.24,0,-0.2,34.4,705972.69,-51796.66,27.3,Air+FixedWing,Blue,Enemies,J-11A,Blue J-11A #005,cn,=UVAF= Backfire [456],0,0,0,322.2399902,2.239990234,0,0,NaN,NaN,0.000546415,0.013988227,NaN,0.999993682,-0.000389205,-0.003490652,0,316.00948,316.00948,,,156.8999999,320,0.299123439,0.403829963
2018-07-19T08:08:30Z,1531987710,109,43.0833129,44.2228333,322.24,0,-0.2,34.4,705972.69,-51796.66,27.3,Air+FixedWing,Blue,Enemies,J-11A,Blue J-11A #005,cn,=UVAF= Backfire [456],0,0,0,322.2399902,2.239990234,0,0,NaN,NaN,0.000546415,0.013988227,NaN,0.999993742,-0.000398615,-0.003490652,0,316.00948,316.00948,,,157.8999999,320,0.299123439,0.403829963
2018-07-19T08:08:31Z,1531987711,109,43.0833129,44.2228333,322.24,0,-0.2,34.4,705972.69,-51796.66,27.3,Air+FixedWing,Blue,Enemies,J-11A,Blue J-11A #005,cn,=UVAF= Backfire [456],0,0,0,322.2399902,2.239990234,0,0,NaN,NaN,0.000546415,0.013988227,NaN,0.999993682,-0.000408026,-0.003490652,0,316.00948,316.00948,,,158.8999999,320,0.299123439,0.403829963
2018-07-19T08:08:32Z,1531987712,109,43.0833129,44.2228333,322.24,0,-0.2,34.4,705972.69,-51796.66,27.3,Air+FixedWing,Blue,Enemies,J-11A,Blue J-11A #005,cn,=UVAF= Backfire [456],0,0,0,322.2399902,2.239990234,0,0,NaN,NaN,0.000546415,0.013988227,NaN,0.999993682,-0.000417436,-0.003490652,0,316.00948,316.00948,,,159.8999999,320,0.299123439,0.403829963
2018-07-19T08:08:33Z,1531987713,109,43.0833129,44.2228333,322.24,0,-0.2,34.4,705972.69,-51796.66,27.3,Air+FixedWing,Blue,Enemies,J-11A,Blue J-11A #005,cn,=UVAF= Backfire [456],0,0,0,322.2399902,2.239990234,0,0,NaN,NaN,0.000546415,0.013988227,NaN,0.999993742,-0.000426846,-0.003490652,0,316.00948,316.00948,,,160.8999999,320,0.299123439,0.403829963
2018-07-19T08:08:34Z,1531987714,109,43.0833129,44.2228333,322.24,0,-0.2,34.4,705972.69,-51796.66,27.3,Air+FixedWing,Blue,Enemies,J-11A,Blue J-11A #005,cn,=UVAF= Backfire [456],0,0,0,322.2399902,2.239990234,0,0,NaN,NaN,0.000546415,0.013988227,NaN,0.999993682,-0.000436256,-0.003490652,0,316.00948,316.00948,,,161.8999999,320,0.299123439,0.403829963
2018-07-19T08:08:35Z,1531987715,109,43.0833129,44.2228333,322.24,0,-0.2,34.4,705972.69,-51796.66,27.3,Air+FixedWing,Blue,Enemies,J-11A,Blue J-11A #005,cn,=UVAF= Backfire [456],0,0,0,322.2399902,2.239990234,0,0,NaN,NaN,0.000546415,0.013988227,NaN,0.999993682,-0.000445666,-0.003490652,0,316.00948,316.00948,,,162.8999999,320,0.299123439,0.403829963
2018-07-19T08:08:36Z,1531987716,109,43.0833129,44.2228333,322.24,0,-0.2,34.4,705972.69,-51796.66,27.3,Air+FixedWing,Blue,Enemies,J-11A,Blue J-11A #005,cn,=UVAF= Backfire [456],0,0,0,322.2399902,2.239990234,0,0,NaN,NaN,0.000546415,0.013988227,NaN,0.999993682,-0.000455077,-0.003490652,0,316.00948,316.00948,,,163.8999999,320,0.299123439,0.403829963
2018-07-19T08:08:37Z,1531987717,109,43.0833129,44.2228333,322.24,0,-0.2,34.4,705972.69,-51796.66,27.3,Air+FixedWing,Blue,Enemies,J-11A,Blue J-11A #005,cn,=UVAF= Backfire [456],0,0,0,322.2399902,2.239990234,0,0,NaN,NaN,0.000546415,0.013988227,NaN,0.999993682,-0.000464487,-0.003490652,0,316.00948,316.00948,,,164.8999999,320,0.299123439,0.403829963
2018-07-19T08:08:38Z,1531987718,109,43.0833129,44.2228333,322.24,0,-0.2,34.4,705972.69,-51796.66,27.3,Air+FixedWing,Blue,Enemies,J-11A,Blue J-11A #005,cn,=UVAF= Backfire [456],0,0,0,322.2399902,2.239990234,0,0,NaN,NaN,0.000546415,0.013988227,NaN,0.999993682,-0.000473897,-0.003490652,0,316.00948,316.00948,,,165.8999999,320,0.299123439,0.403829963
2018-07-19T08:08:39Z,1531987719,109,43.0833129,44.2228333,322.24,0,-0.2,34.4,705972.69,-51796.66,27.3,Air+FixedWing,Blue,Enemies,J-11A,Blue J-11A #005,cn,=UVAF= Backfire [456],0,0,0,322.2399902,2.239990234,0,0,NaN,NaN,0.000546415,0.013988227,NaN,0.999993682,-0.000483307,-0.003490652,0,316.00948,316.00948,,,166.8999999,320,0.299123439,0.403829963
2018-07-19T08:08:40Z,1531987720,109,43.0833129,44.2228333,322.24,0,-0.2,34.4,705972.69,-51796.66,27.3,Air+FixedWing,Blue,Enemies,J-11A,Blue J-11A #005,cn,=UVAF= Backfire [456],0,0,0,322.2399902,2.239990234,0,0,NaN,NaN,0.000546415,0.013988227,NaN,0.999993682,-0.000492717,-0.003490652,0,316.00948,316.00948,,,167.8999999,320,0.299123439,0.403829963
2018-07-19T08:08:41Z,1531987721,109,43.0833129,44.2228333,322.24,0,-0.2,34.4,705972.69,-51796.66,27.3,Air+FixedWing,Blue,Enemies,J-11A,Blue J-11A #005,cn,=UVAF= Backfire [456],0,0,0,322.2399902,2.239990234,0,0,NaN,NaN,0.000546415,0.013988227,NaN,0.999993622,-0.000502128,-0.003490652,0,316.00948,316.00948,,,168.8999999,320,0.299123439,0.403829963
2018-07-19T08:08:42Z,1531987722,109,43.0833129,44.2228333,322.24,0,-0.2,34.4,705972.69,-51796.66,27.3,Air+FixedWing,Blue,Enemies,J-11A,Blue J-11A #005,cn,=UVAF= Backfire [456],0,0,0,322.2399902,2.239990234,0,0,NaN,NaN,0.000546415,0.013988227,NaN,0.999993682,-0.000511538,-0.003490652,0,316.00948,316.00948,,,169.8999999,320,0.299123439,0.403829963
2018-07-19T08:08:43Z,1531987723,109,43.0833129,44.2228333,322.24,0,-0.2,34.4,705972.69,-51796.66,27.3,Air+FixedWing,Blue,Enemies,J-11A,Blue J-11A #005,cn,=UVAF= Backfire [456],0,0,0,322.2399902,2.239990234,0,0,NaN,NaN,0.000546415,0.013988227,NaN,0.999993622,-0.000520948,-0.003490652,0,316.00948,316.00948,,,170.8999999,320,0.299123439,0.403829963
2018-07-19T08:08:44Z,1531987724,109,43.0833129,44.2228333,322.24,0,-0.2,34.4,705972.69,-51796.66,27.3,Air+FixedWing,Blue,Enemies,J-11A,Blue J-11A #005,cn,=UVAF= Backfire [456],0,0,0,322.2399902,2.239990234,0,0,NaN,NaN,0.000546415,0.013988227,NaN,0.999993622,-0.000530358,-0.003490652,0,316.00948,316.00948,,,171.8999999,320,0.299123439,0.403829963
2018-07-19T08:08:45Z,1531987725,109,43.0833129,44.2228333,322.24,0,-0.2,34.4,705972.69,-51796.66,27.3,Air+FixedWing,Blue,Enemies,J-11A,Blue J-11A #005,cn,=UVAF= Backfire [456],0,0,0,322.2399902,2.239990234,0,0,NaN,NaN,0.000546415,0.013988227,NaN,0.999993682,-0.000539768,-0.003490652,0,316.00948,316.00948,,,172.8999999,320,0.299123439,0.403829963
2018-07-19T08:08:46Z,1531987726,109,43.0833129,44.2228333,322.24,0,-0.2,34.4,705972.69,-51796.66,27.3,Air+FixedWing,Blue,Enemies,J-11A,Blue J-11A #005,cn,=UVAF= Backfire [456],0,0,0,322.2399902,2.239990234,0,0,NaN,NaN,0.000546415,0.013988227,NaN,0.999993622,-0.000549178,-0.003490652,0,316.00948,316.00948,,,173.8999999,320,0.299123439,0.403829963
2018-07-19T08:08:47Z,1531987727,109,43.0833129,44.2228333,322.24,0,-0.2,34.4,705972.69,-51796.66,27.3,Air+FixedWing,Blue,Enemies,J-11A,Blue J-11A #005,cn,=UVAF= Backfire [456],0,0,0,322.2399902,2.239990234,0,0,NaN,NaN,0.000546415,0.013988227,NaN,0.999993622,-0.000558589,-0.003490652,0,316.00948,316.00948,,,174.8999999,320,0.299123439,0.403829963
2018-07-19T08:08:48Z,1531987728,109,43.0833129,44.2228333,322.24,0,-0.2,34.4,705972.69,-51796.66,27.3,Air+FixedWing,Blue,Enemies,J-11A,Blue J-11A #005,cn,=UVAF= Backfire [456],0,0,0,322.2399902,2.239990234,0,0,NaN,NaN,0.000546415,0.013988227,NaN,0.999993622,-0.000567999,-0.003490652,0,316.00948,316.00948,,,175.8999999,320,0.299123439,0.403829963
2018-07-19T08:08:49Z,1531987729,109,43.0833129,44.2228333,322.24,0,-0.2,34.4,705972.69,-51796.66,27.3,Air+FixedWing,Blue,Enemies,J-11A,Blue J-11A #005,cn,=UVAF= Backfire [456],0,0,0,322.2399902,2.239990234,0,0,NaN,NaN,0.000546415,0.013988227,NaN,0.999993563,-0.000577409,-0.003490652,0,316.00948,316.00948,,,176.8999999,320,0.299123439,0.403829963
2018-07-19T08:08:50Z,1531987730,109,43.0833129,44.2228333,322.24,0,-0.2,34.4,705972.69,-51796.66,27.3,Air+FixedWing,Blue,Enemies,J-11A,Blue J-11A #005,cn,=UVAF= Backfire [456],0,0,0,322.2399902,2.239990234,0,0,NaN,NaN,0.000546415,0.013988227,NaN,0.999993563,-0.000586819,-0.003490652,0,316.00948,316.00948,,,177.8999999,320,0.299123439,0.403829963
2018-07-19T08:08:51Z,1531987731,109,43.0833129,44.2228333,322.24,0,-0.2,34.4,705972.69,-51796.66,27.3,Air+FixedWing,Blue,Enemies,J-11A,Blue J-11A #005,cn,=UVAF= Backfire [456],0,0,0,322.2399902,2.239990234,0,0,NaN,NaN,0.000546415,0.013988227,NaN,0.999993622,-0.000596229,-0.003490652,0,316.00948,316.00948,,,178.8999999,320,0.299123439,0.403829963
