ISOTime,UnixTime,Id,Longitude,Latitude,Altitude,Roll,Pitch,Yaw,U,V,Heading,Type,Color,Coalition,Name,Group,Country,Pilot,TAS,CAS,M,ASL,AGL,GS,VS,AOA,AOS,RRT,TRT,TRD,G,LatG,LonG,Ek,Ep,Em,FFW,FFV,RelativeTime,Elev,GroundDistance,AirDistance
2018-07-19T08:08:02Z,1531987682,10A,43.0782976,44.2251478,322.38,0.2,-0.1,32.3,705540.06,-51589.18,25.1,Air+FixedWing,Blue,Enemies,F-15C,Blue F-15C #002,us,=UVAF= Peter[404],0.193166649,0.262722313,0.000569518,322.3766785,2.376678467,NaN,NaN,NaN,NaN,NaN,NaN,NaN,NaN,NaN,NaN,NaN,316.1435254,NaN,,,0.430000067,320,NaN,NaN
2018-07-19T08:08:03Z,1531987683,10A,43.0782976,44.2251478,322.3,0.7,0.4,32.3,705540.06,-51589.18,25.2,Air+FixedWing,Blue,Enemies,F-15C,Blue F-15C #002,us,=UVAF= Peter[404],0.080600084,0,0.000237635,322.2961731,2.296173096,0.00390625,-0.080505371,NaN,NaN,0,NaN,NaN,1.015601016,0.013595809,0.009951677,0.000324819,316.0645766,316.0649014,,,1.430000067,320,0.00288507,0.080557057
2018-07-19T08:08:04Z,1531987684,10A,43.0782976,44.225148,322.37,0.3,0.1,32.3,705540.06,-51589.16,25.2,Air+FixedWing,Blue,Enemies,F-15C,Blue F-15C #002,us,=UVAF= Peter[404],0.077453259,0,0.000228357,322.3699951,2.369995117,0.0234375,0.073822021,NaN,NaN,0.291293908,0.226635789,NaN,0.991439468,0.005123616,0.00028864,0.00029995,316.1369713,316.1372712,,,2.430000067,320,0.029433226,0.159008102
2018-07-19T08:08:05Z,1531987685,10A,43.0782976,44.225148,322.36,0.3,0,32.3,705540.06,-51589.15,25.2,Air+FixedWing,Blue,Enemies,F-15C,Blue F-15C #002,us,=UVAF= Peter[404],0.01269766,0,3.74e-05,322.3599854,2.359985352,0.0078125,-0.010009766,NaN,NaN,0,0.091726979,NaN,1.002028455,0.005077056,-0.000360417,8.06e-06,316.127155,316.1271631,,,3.430000067,320,0.029433226,0.169017867
2018-07-19T08:08:06Z,1531987686,10A,43.0782976,44.225148,322.37,0.3,0,32.3,705540.06,-51589.15,25.2,Air+FixedWing,Blue,Enemies,F-15C,Blue F-15C #002,us,=UVAF= Peter[404],0.010744961,0,3.17e-05,322.3699951,2.369995117,0.00390625,0.010009766,NaN,NaN,0,0.029673513,NaN,0.997948328,0.004546888,-0.001441666,5.77e-06,316.1369713,316.136977,,,4.430000067,320,0.03444872,0.180213988
2018-07-19T08:08:07Z,1531987687,10A,43.0782976,44.225148,322.36,0.3,-0.1,32.3,705540.06,-51589.16,25.2,Air+FixedWing,Blue,Enemies,F-15C,Blue F-15C #002,us,=UVAF= Peter[404],0.01541183,0,4.54e-05,322.3599854,2.359985352,0.01171875,-0.010009766,NaN,NaN,0,0.052339163,NaN,1.001004601,0.005750101,-0.000665862,1.19e-05,316.127155,316.1271669,,,5.430000067,320,0.039471875,0.191413544
2018-07-19T08:08:08Z,1531987688,10A,43.0782976,44.225148,322.36,0.3,-0.1,32.3,705540.06,-51589.16,25.2,Air+FixedWing,Blue,Enemies,F-15C,Blue F-15C #002,us,=UVAF= Peter[404],0,0,0,322.3599854,2.359985352,0,0,NaN,NaN,0,0.052339163,NaN,0.999984682,0.005235956,-0.001745328,0,316.127155,316.127155,,,6.430000067,320,0.041103205,0.193044956
2018-07-19T08:08:09Z,1531987689,10A,43.0782976,44.225148,322.36,0.3,-0.1,32.3,705540.06,-51589.16,25.2,Air+FixedWing,Blue,Enemies,F-15C,Blue F-15C #002,us,=UVAF= Peter[404],0,0,0,322.3599854,2.359985352,0,0,NaN,NaN,0,0.01713201,NaN,0.999984682,0.005235956,-0.001745328,0,316.127155,316.127155,,,7.430000067,320,0.042734534,0.194676368
2018-07-19T08:08:10Z,1531987690,10A,43.0782975,44.225148,322.36,0.3,-0.1,32.3,705540.06,-51589.16,25.2,Air+FixedWing,Blue,Enemies,F-15C,Blue F-15C #002,us,=UVAF= Peter[404],0,0,0,322.3599854,2.359985352,0,0,NaN,NaN,0,0.01713201,NaN,0.999984682,0.005235956,-0.001745328,0,316.127155,316.127155,,,8.430000067,320,0.044365865,0.196307781
2018-07-19T08:08:11Z,1531987691,10A,43.0782975,44.225148,322.36,0.3,-0.1,32.3,705540.06,-51589.16,25.2,Air+FixedWing,Blue,Enemies,F-15C,Blue F-15C #002,us,=UVAF= Peter[404],0,0,0,322.3599854,2.359985352,0,0,NaN,NaN,0,0.01713201,NaN,0.999984682,0.005235956,-0.001745328,0,316.127155,316.127155,,,9.430000067,320,0.045997195,0.197939194
2018-07-19T08:08:12Z,1531987692,10A,43.0782975,44.225148,322.36,0.3,-0.1,32.3,705540.06,-51589.16,25.2,Air+FixedWing,Blue,Enemies,F-15C,Blue F-15C #002,us,=UVAF= Peter[404],0,0,0,322.3599854,2.359985352,0,0,NaN,NaN,0,0.01713201,NaN,0.99998157,0.00523594,-0.001745323,0,316.127155,316.127155,,,10.43000007,320,0.046715534,0.198657569
2018-07-19T08:08:13Z,1531987693,10A,43.0782976,44.225148,322.36,0.3,-0.1,32.3,705540.06,-51589.16,25.2,Air+FixedWing,Blue,Enemies,F-15C,Blue F-15C #002,us,=UVAF= Peter[404],3.05e-05,0,9e-08,322.3599548,2.359954834,0,-3.05e-05,NaN,NaN,0,0.01713201,NaN,0.999962898,0.005235842,-0.00174529,4.66e-11,316.1271251,316.1271251,,,11.43000007,320,0.052799843,0.204742263
2018-07-19T08:08:14Z,1531987694,10A,43.0782976,44.225148,322.36,0.3,-0.1,32.3,705540.06,-51589.16,25.2,Air+FixedWing,Blue,Enemies,F-15C,Blue F-15C #002,us,=UVAF= Peter[404],0.000244141,0,7.2e-07,322.3597107,2.359710693,0,-0.000244141,NaN,NaN,0,0.01713201,NaN,0.99998157,0.00523594,-0.001745323,2.98e-09,316.1268857,316.1268857,,,12.43000007,320,0.052799843,0.204986404
2018-07-19T08:08:15Z,1531987695,10A,43.0782976,44.225148,322.36,0.3,-0.1,32.3,705540.06,-51589.16,25.2,Air+FixedWing,Blue,Enemies,F-15C,Blue F-15C #002,us,=UVAF= Peter[404],0.000274658,0,8.1e-07,322.359436,2.359436035,0,-0.000274658,NaN,NaN,0,0.01713201,NaN,0.999984682,0.005235956,-0.001745328,3.77e-09,316.1266163,316.1266163,,,13.43000007,320,0.052799843,0.205261062
2018-07-19T08:08:16Z,1531987696,10A,43.0782976,44.225148,322.36,0.3,-0.1,32.3,705540.06,-51589.16,25.2,Air+FixedWing,Blue,Enemies,F-15C,Blue F-15C #002,us,=UVAF= Peter[404],0.000274658,0,8.1e-07,322.3591614,2.359161377,0,-0.000274658,NaN,NaN,0,0.01713201,NaN,0.999987794,0.005235973,-0.001745334,3.77e-09,316.126347,316.126347,,,14.43000007,320,0.052799843,0.20553572
2018-07-19T08:08:17Z,1531987697,10A,43.0782976,44.225148,322.36,0.3,-0.1,32.3,705540.06,-51589.16,25.2,Air+FixedWing,Blue,Enemies,F-15C,Blue F-15C #002,us,=UVAF= Peter[404],0.000244141,0,7.2e-07,322.3589172,2.358917236,0,-0.000244141,NaN,NaN,0,0.01713201,NaN,0.99998157,0.00523594,-0.001745323,2.98e-09,316.1261076,316.1261076,,,15.43000007,320,0.052799843,0.205779861
2018-07-19T08:08:18Z,1531987698,10A,43.0782976,44.225148,322.36,0.3,-0.1,32.3,705540.06,-51589.16,25.2,Air+FixedWing,Blue,Enemies,F-15C,Blue F-15C #002,us,=UVAF= Peter[404],0.000274658,0,8.1e-07,322.3586426,2.358642578,0,-0.000274658,NaN,NaN,0,0.01713201,NaN,0.999987794,0.005235973,-0.001745334,3.77e-09,316.1258382,316.1258382,,,16.43000007,320,0.052799843,0.206054519
2018-07-19T08:08:19Z,1531987699,10A,43.0782976,44.225148,322.36,0.3,-0.1,32.3,705540.06,-51589.16,25.2,Air+FixedWing,Blue,Enemies,F-15C,Blue F-15C #002,us,=UVAF= Peter[404],0.000244141,0,7.2e-07,322.3583984,2.358398438,0,-0.000244141,NaN,NaN,0,0.01713201,NaN,0.99998157,0.00523594,-0.001745323,2.98e-09,316.1255988,316.1255988,,,17.43000007,320,0.052799843,0.20629866
2018-07-19T08:08:20Z,1531987700,10A,43.0782976,44.225148,322.36,0.3,-0.1,32.3,705540.06,-51589.16,25.2,Air+FixedWing,Blue,Enemies,F-15C,Blue F-15C #002,us,=UVAF= Peter[404],0.000274658,0,8.1e-07,322.3581238,2.358123779,0,-0.000274658,NaN,NaN,0,0.01713201,NaN,0.999984682,0.005235956,-0.001745328,3.77e-09,316.1253295,316.1253295,,,18.43000007,320,0.052799843,0.206573318
2018-07-19T08:08:21Z,1531987701,10A,43.0782976,44.225148,322.36,0.3,-0.1,32.3,705540.06,-51589.16,25.2,Air+FixedWing,Blue,Enemies,F-15C,Blue F-15C #002,us,=UVAF= Peter[404],0.000274658,0,8.1e-07,322.3578491,2.357849121,0,-0.000274658,NaN,NaN,0,0.01713201,NaN,0.999987794,0.005235973,-0.001745334,3.77e-09,316.1250601,316.1250601,,,19.43000007,320,0.052799843,0.206847975
2018-07-19T08:08:22Z,1531987702,10A,43.0782976,44.225148,322.36,0.3,-0.1,32.3,705540.06,-51589.16,25.2,Air+FixedWing,Blue,Enemies,F-15C,Blue F-15C #002,us,=UVAF= Peter[404],0.000244141,0,7.2e-07,322.357605,2.35760498,0,-0.000244141,NaN,NaN,0,0.01713201,NaN,0.99998157,0.00523594,-0.001745323,2.98e-09,316.1248207,316.1248207,,,20.43000007,320,0.052799843,0.207092117
2018-07-19T08:08:23Z,1531987703,10A,43.0782976,44.225148,322.36,0.3,-0.1,32.3,705540.06,-51589.16,25.2,Air+FixedWing,Blue,Enemies,F-15C,Blue F-15C #002,us,=UVAF= Peter[404],0.000274658,0,8.1e-07,322.3573303,2.357330322,0,-0.000274658,NaN,NaN,0,0.01713201,NaN,0.999987794,0.005235973,-0.001745334,3.77e-09,316.1245513,316.1245513,,,21.43000007,320,0.052799843,0.207366775
2018-07-19T08:08:24Z,1531987704,10A,43.0782976,44.225148,322.36,0.3,-0.1,32.3,705540.06,-51589.16,25.2,Air+FixedWing,Blue,Enemies,F-15C,Blue F-15C #002,us,=UVAF= Peter[404],0.000244141,0,7.2e-07,322.3570862,2.357086182,0,-0.000244141,NaN,NaN,0,0.01713201,NaN,0.99998157,0.00523594,-0.001745323,2.98e-09,316.1243119,316.1243119,,,22.43000007,320,0.052799843,0.207610916
2018-07-19T08:08:25Z,1531987705,10A,43.0782976,44.225148,322.36,0.3,-0.1,32.3,705540.06,-51589.16,25.2,Air+FixedWing,Blue,Enemies,F-15C,Blue F-15C #002,us,=UVAF= Peter[404],0.000274658,0,8.1e-07,322.3568115,2.356811523,0,-0.000274658,NaN,NaN,0,0.01713201,NaN,0.999987794,0.005235973,-0.001745334,3.77e-09,316.1240426,316.1240426,,,23.43000007,320,0.052799843,0.207885574
2018-07-19T08:08:26Z,1531987706,10A,43.0782976,44.225148,322.36,0.3,-0.1,32.3,705540.06,-51589.16,25.2,Air+FixedWing,Blue,Enemies,F-15C,Blue F-15C #002,us,=UVAF= Peter[404],0.000244141,0,7.2e-07,322.3565674,2.356567383,0,-0.000244141,NaN,NaN,0,0.01713201,NaN,0.99998157,0.00523594,-0.001745323,2.98e-09,316.1238032,316.1238032,,,24.43000007,320,0.052799843,0.208129714
2018-07-19T08:08:27Z,1531987707,10A,43.0782976,44.225148,322.36,0.3,-0.1,32.3,705540.06,-51589.16,25.2,Air+FixedWing,Blue,Enemies,F-15C,Blue F-15C #002,us,=UVAF= Peter[404],0.000274658,0,8.1e-07,322.3562927,2.356292725,0,-0.000274658,NaN,NaN,0,0.01713201,NaN,0.999984682,0.005235956,-0.001745328,3.77e-09,316.1235338,316.1235338,,,25.43000007,320,0.052799843,0.208404372
2018-07-19T08:08:28Z,1531987708,10A,43.0782976,44.225148,322.36,0.3,-0.1,32.3,705540.06,-51589.16,25.2,Air+FixedWing,Blue,Enemies,F-15C,Blue F-15C #002,us,=UVAF= Peter[404],0.000274658,0,8.1e-07,322.3560181,2.356018066,0,-0.000274658,NaN,NaN,0,0.01713201,NaN,0.999987794,0.005235973,-0.001745334,3.77e-09,316.1232645,316.1232645,,,26.43000007,320,0.052799843,0.20867903
2018-07-19T08:08:29Z,1531987709,10A,43.0782976,44.225148,322.36,0.3,-0.1,32.3,705540.06,-51589.16,25.2,Air+FixedWing,Blue,Enemies,F-15C,Blue F-15C #002,us,=UVAF= Peter[404],0.000244141,0,7.2e-07,322.3557739,2.355773926,0,-0.000244141,NaN,NaN,0,0.01713201,NaN,0.99998157,0.00523594,-0.001745323,2.98e-09,316.123025,316.123025,,,27.43000007,320,0.052799843,0.208923171
2018-07-19T08:08:30Z,1531987710,10A,43.0782976,44.225148,322.36,0.3,-0.1,32.3,705540.06,-51589.16,25.2,Air+FixedWing,Blue,Enemies,F-15C,Blue F-15C #002,us,=UVAF= Peter[404],0.000274658,0,8.1e-07,322.3554993,2.355499268,0,-0.000274658,NaN,NaN,0,0.01713201,NaN,0.999987794,0.005235973,-0.001745334,3.77e-09,316.1227557,316.1227557,,,28.43000007,320,0.052799843,0.20919783
2018-07-19T08:08:31Z,1531987711,10A,43.0782976,44.225148,322.36,0.3,-0.1,32.3,705540.06,-51589.16,25.2,Air+FixedWing,Blue,Enemies,F-15C,Blue F-15C #002,us,=UVAF= Peter[404],0.000244141,0,7.2e-07,322.3552551,2.355255127,0,-0.000244141,NaN,NaN,0,0.01713201,NaN,0.99998157,0.00523594,-0.001745323,2.98e-09,316.1225163,316.1225163,,,29.43000007,320,0.052799843,0.20944197
2018-07-19T08:08:32Z,1531987712,10A,43.0782976,44.225148,322.35,0.3,-0.1,32.3,705540.06,-51589.16,25.2,Air+FixedWing,Blue,Enemies,F-15C,Blue F-15C #002,us,=UVAF= Peter[404],0.000274658,0,8.1e-07,322.3549805,2.354980469,0,-0.000274658,NaN,NaN,0,0.01713201,NaN,0.999984682,0.005235956,-0.001745328,3.77e-09,316.1222469,316.1222469,,,30.43000007,320,0.052799843,0.209716628
2018-07-19T08:08:33Z,1531987713,10A,43.0782976,44.225148,322.35,0.3,-0.1,32.3,705540.06,-51589.16,25.2,Air+FixedWing,Blue,Enemies,F-15C,Blue F-15C #002,us,=UVAF= Peter[404],0.000274658,0,8.1e-07,322.3547058,2.354705811,0,-0.000274658,NaN,NaN,0,0.01713201,NaN,0.999987794,0.005235973,-0.001745334,3.77e-09,316.1219776,316.1219776,,,31.43000007,320,0.052799843,0.209991286
2018-07-19T08:08:34Z,1531987714,10A,43.0782976,44.225148,322.35,0.3,-0.1,32.3,705540.06,-51589.16,25.2,Air+FixedWing,Blue,Enemies,F-15C,Blue F-15C #002,us,=UVAF= Peter[404],0.000244141,0,7.2e-07,322.3544617,2.35446167,0,-0.000244141,NaN,NaN,0,0.01713201,NaN,0.99998157,0.00523594,-0.001745323,2.98e-09,316.1217382,316.1217382,,,32.43000007,320,0.052799843,0.210235427
2018-07-19T08:08:35Z,1531987715,10A,43.0782976,44.225148,322.35,0.3,-0.1,32.3,705540.06,-51589.16,25.2,Air+FixedWing,Blue,Enemies,F-15C,Blue F-15C #002,us,=UVAF= Peter[404],0.000274658,0,8.1e-07,322.354187,2.354187012,0,-0.000274658,NaN,NaN,0,0.01713201,NaN,0.999987794,0.005235973,-0.001745334,3.77e-09,316.1214688,316.1214688,,,33.43000007,320,0.052799843,0.210510085
2018-07-19T08:08:36Z,1531987716,10A,43.0782976,44.225148,322.35,0.3,-0.1,32.3,705540.06,-51589.16,25.2,Air+FixedWing,Blue,Enemies,F-15C,Blue F-15C #002,us,=UVAF= Peter[404],0.000244141,0,7.2e-07,322.3539429,2.353942871,0,-0.000244141,NaN,NaN,0,0.01713201,NaN,0.99998157,0.00523594,-0.001745323,2.98e-09,316.1212294,316.1212294,,,34.43000007,320,0.052799843,0.210754226
2018-07-19T08:08:37Z,1531987717,10A,43.0782976,44.225148,322.35,0.3,-0.1,32.3,705540.06,-51589.16,25.2,Air+FixedWing,Blue,Enemies,F-15C,Blue F-15C #002,us,=UVAF= Peter[404],0.000274658,0,8.1e-07,322.3536682,2.353668213,0,-0.000274658,NaN,NaN,0,0.01713201,NaN,0.999984682,0.005235956,-0.001745328,3.77e-09,316.12096,316.12096,,,35.43000007,320,0.052799843,0.211028884
2018-07-19T08:08:38Z,1531987718,10A,43.0782976,44.225148,322.35,0.3,-0.1,32.3,705540.06,-51589.16,25.2,Air+FixedWing,Blue,Enemies,F-15C,Blue F-15C #002,us,=UVAF= Peter[404],0.000274658,0,8.1e-07,322.3533936,2.353393555,0,-0.000274658,NaN,NaN,0,0.01713201,NaN,0.999987794,0.005235973,-0.001745334,3.77e-09,316.1206907,316.1206907,,,36.43000007,320,0.052799843,0.211303543
2018-07-19T08:08:39Z,1531987719,10A,43.0782976,44.225148,322.35,0.3,-0.1,32.3,705540.06,-51589.16,25.2,Air+FixedWing,Blue,Enemies,F-15C,Blue F-15C #002,us,=UVAF= Peter[404],0.000244141,0,7.2e-07,322.3531494,2.353149414,0,-0.000244141,NaN,NaN,0,0.01713201,NaN,0.99998157,0.00523594,-0.001745323,2.98e-09,316.1204513,316.1204513,,,37.43000007,320,0.052799843,0.211547683
2018-07-19T08:08:40Z,1531987720,10A,43.0782976,44.225148,322.35,0.3,-0.1,32.3,705540.06,-51589.16,25.2,Air+FixedWing,Blue,Enemies,F-15C,Blue F-15C #002,us,=UVAF= Peter[404],0.000274658,0,8.1e-07,322.3528748,2.352874756,0,-0.000274658,NaN,NaN,0,0.01713201,NaN,0.999987794,0.005235973,-0.001745334,3.77e-09,316.1201819,316.1201819,,,38.43000007,320,0.052799843,0.211822341
2018-07-19T08:08:41Z,1531987721,10A,43.0782976,44.225148,322.35,0.3,-0.1,32.3,705540.06,-51589.16,25.2,Air+FixedWing,Blue,Enemies,F-15C,Blue F-15C #002,us,=UVAF= Peter[404],0.000244141,0,7.2e-07,322.3526306,2.352630615,0,-0.000244141,NaN,NaN,0,0.01713201,NaN,0.99998157,0.00523594,-0.001745323,2.98e-09,316.1199425,316.1199425,,,39.43000007,320,0.052799843,0.212066482
2018-07-19T08:08:42Z,1531987722,10A,43.0782976,44.225148,322.35,0.3,-0.1,32.3,705540.06,-51589.16,25.2,Air+FixedWing,Blue,Enemies,F-15C,Blue F-15C #002,us,=UVAF= Peter[404],0.000274658,0,8.1e-07,322.352356,2.352355957,0,-0.000274658,NaN,NaN,0,0.01713201,NaN,0.999987794,0.005235973,-0.001745334,3.77e-09,316.1196732,316.1196732,,,40.43000007,320,0.052799843,0.21234114
2018-07-19T08:08:43Z,1531987723,10A,43.0782976,44.225148,322.35,0.3,-0.1,32.3,705540.06,-51589.16,25.2,Air+FixedWing,Blue,Enemies,F-15C,Blue F-15C #002,us,=UVAF= Peter[404],0.000244141,0,7.2e-07,322.3521118,2.352111816,0,-0.000244141,NaN,NaN,0,0.01713201,NaN,0.99998157,0.00523594,-0.001745323,2.98e-09,316.1194337,316.1194337,,,41.43000007,320,0.052799843,0.21258528
2018-07-19T08:08:44Z,1531987724,10A,43.0782976,44.225148,322.35,0.3,-0.1,32.3,705540.06,-51589.16,25.2,Air+FixedWing,Blue,Enemies,F-15C,Blue F-15C #002,us,=UVAF= Peter[404],0.000274658,0,8.1e-07,322.3518372,2.351837158,0,-0.000274658,NaN,NaN,0,0.01713201,NaN,0.999984682,0.005235956,-0.001745328,3.77e-09,316.1191644,316.1191644,,,42.43000007,320,0.052799843,0.212859939
2018-07-19T08:08:45Z,1531987725,10A,43.0782976,44.225148,322.35,0.3,-0.1,32.3,705540.06,-51589.16,25.2,Air+FixedWing,Blue,Enemies,F-15C,Blue F-15C #002,us,=UVAF= Peter[404],0.000274658,0,8.1e-07,322.3515625,2.3515625,0,-0.000274658,NaN,NaN,0,0.01713201,NaN,0.999987794,0.005235973,-0.001745334,3.77e-09,316.118895,316.118895,,,43.43000007,320,0.052799843,0.213134597
2018-07-19T08:08:46Z,1531987726,10A,43.0782976,44.225148,322.35,0.3,-0.1,32.3,705540.06,-51589.16,25.2,Air+FixedWing,Blue,Enemies,F-15C,Blue F-15C #002,us,=UVAF= Peter[404],0.000244141,0,7.2e-07,322.3513184,2.351318359,0,-0.000244141,NaN,NaN,0,0.01713201,NaN,0.99998157,0.00523594,-0.001745323,2.98e-09,316.1186556,316.1186556,,,44.43000007,320,0.052799843,0.213378738
2018-07-19T08:08:47Z,1531987727,10A,43.0782976,44.225148,322.35,0.3,-0.1,32.3,705540.06,-51589.16,25.2,Air+FixedWing,Blue,Enemies,F-15C,Blue F-15C #002,us,=UVAF= Peter[404],0.000274658,0,8.1e-07,322.3510437,2.351043701,0,-0.000274658,NaN,NaN,0,0.01713201,NaN,0.999987794,0.005235973,-0.001745334,3.77e-09,316.1183863,316.1183863,,,45.43000007,320,0.052799843,0.213653396
2018-07-19T08:08:48Z,1531987728,10A,43.0782976,44.225148,322.35,0.3,-0.1,32.3,705540.06,-51589.16,25.2,Air+FixedWing,Blue,Enemies,F-15C,Blue F-15C #002,us,=UVAF= Peter[404],0.000244141,0,7.2e-07,322.3507996,2.350799561,0,-0.000244141,NaN,NaN,0,0.01713201,NaN,0.99998157,0.00523594,-0.001745323,2.98e-09,316.1181469,316.1181469,,,46.43000007,320,0.052799843,0.213897536
2018-07-19T08:08:49Z,1531987729,10A,43.0782976,44.225148,322.35,0.3,-0.1,32.3,705540.06,-51589.16,25.2,Air+FixedWing,Blue,Enemies,F-15C,Blue F-15C #002,us,=UVAF= Peter[404],0.000274658,0,8.1e-07,322.3505249,2.350524902,0,-0.000274658,NaN,NaN,0,0.01713201,NaN,0.999984682,0.005235956,-0.001745328,3.77e-09,316.1178775,316.1178775,,,47.43000007,320,0.052799843,0.214172195
2018-07-19T08:08:50Z,1531987730,10A,43.0782976,44.225148,322.35,0.3,-0.1,32.3,705540.06,-51589.16,25.2,Air+FixedWing,Blue,Enemies,F-15C,Blue F-15C #002,us,=UVAF= Peter[404],0.000274658,0,8.1e-07,322.3502502,2.350250244,0,-0.000274658,NaN,NaN,0,0.01713201,NaN,0.999987794,0.005235973,-0.001745334,3.77e-09,316.1176082,316.1176082,,,48.43000007,320,0.052799843,0.214446853
2018-07-19T08:08:51Z,1531987731,10A,43.0782976,44.225148,322.35,0.3,-0.1,32.3,705540.06,-51589.16,25.2,Air+FixedWing,Blue,Enemies,F-15C,Blue F-15C #002,us,=UVAF= Peter[404],0.000244141,0,7.2e-07,322.3500061,2.350006104,0,-0.000244141,NaN,NaN,0,0.05326559,NaN,1.001026384,0.005750215,-0.0006659,2.98e-09,316.1173687,316.1173687,,,49.43000007,320,0.052799843,0.214690994
2018-07-19T08:08:52Z,1531987732,10A,43.0782976,44.2251481,322.36,0.3,-0.1,32.3,705540.06,-51589.15,25.2,Air+FixedWing,Blue,Enemies,F-15C,Blue F-15C #002,us,=UVAF= Peter[404],0.015392027,0,4.54e-05,322.3599854,2.359985352,0.01171875,0.009979248,NaN,NaN,0,0.01713201,NaN,0.998494395,0.004719349,-0.002986184,1.18e-05,316.127155,316.1271669,,,50.43000007,320,0.063931792,0.229641518
2018-07-19T08:08:53Z,1531987733,10A,43.0782976,44.2251481,322.36,0.3,-0.1,32.3,705540.06,-51589.15,25.2,Air+FixedWing,Blue,Enemies,F-15C,Blue F-15C #002,us,=UVAF= Peter[404],0.004638672,0,1.37e-05,322.3553467,2.35534668,0,-0.004638672,NaN,NaN,0,0.05326559,NaN,1.000835001,0.004731604,-0.002828059,1.08e-06,316.1226061,316.1226071,,,51.43000007,320,0.063931792,0.23428019
2018-07-19T08:08:54Z,1531987734,10A,43.0782976,44.225148,322.36,0.3,-0.1,32.3,705540.06,-51589.16,25.2,Air+FixedWing,Blue,Enemies,F-15C,Blue F-15C #002,us,=UVAF= Peter[404],0.012286765,0,3.62e-05,322.3590393,2.359039307,0.01171875,0.003692627,NaN,NaN,0,0.01713201,NaN,0.999703059,0.006252091,0.000417657,7.55e-06,316.1262273,316.1262348,,,52.43000007,320,0.07506374,0.246009142
2018-07-19T08:08:55Z,1531987735,10A,43.0782976,44.2251481,322.36,0.3,-0.1,32.3,705540.06,-51589.15,25.2,Air+FixedWing,Blue,Enemies,F-15C,Blue F-15C #002,us,=UVAF= Peter[404],0.011756875,0,3.47e-05,322.3599854,2.359985352,0.01171875,0.000946045,NaN,NaN,0,0.01713201,NaN,0.99988899,0.004726651,-0.002826408,6.91e-06,316.127155,316.1271619,,,53.43000007,320,0.086362418,0.257347926
2018-07-19T08:08:56Z,1531987736,10A,43.0782975,44.2251481,322.36,0.3,-0.1,32.3,705540.06,-51589.15,25.2,Air+FixedWing,Blue,Enemies,F-15C,Blue F-15C #002,us,=UVAF= Peter[404],0,0,0,322.3599854,2.359985352,0,0,NaN,NaN,0,0.01713201,NaN,0.999985459,0.004727156,-0.002826577,0,316.127155,316.127155,,,54.43000007,320,0.090391309,0.26137702
2018-07-19T08:08:57Z,1531987737,10A,43.0782974,44.225148,322.36,0.2,-0.1,32.3,705540.06,-51589.16,25.2,Air+FixedWing,Blue,Enemies,F-15C,Blue F-15C #002,us,=UVAF= Peter[404],0.01171875,0,3.46e-05,322.3599854,2.359985352,0.01171875,0,NaN,NaN,0.123817669,0.01713201,NaN,0.999989353,0.005173129,0.000417168,6.87e-06,316.127155,316.1271619,,,55.43000007,320,0.105349697,0.276336164
2018-07-19T08:08:58Z,1531987738,10A,43.0782976,44.2251481,322.36,0.3,-0.1,32.3,705540.06,-51589.15,25.2,Air+FixedWing,Blue,Enemies,F-15C,Blue F-15C #002,us,=UVAF= Peter[404],0.01171875,0,3.46e-05,322.3599854,2.359985352,0.01171875,0,NaN,NaN,0,0.01713201,NaN,0.999986235,0.004218355,-0.003907825,6.87e-06,316.127155,316.1271619,,,56.43000007,320,0.124926436,0.295913892
2018-07-19T08:08:59Z,1531987739,10A,43.0782977,44.225148,322.36,0.3,-0.1,32.3,705540.06,-51589.16,25.2,Air+FixedWing,Blue,Enemies,F-15C,Blue F-15C #002,us,=UVAF= Peter[404],0.01171875,0,3.46e-05,322.3599854,2.359985352,0.01171875,0,NaN,NaN,0,0.01713201,NaN,0.999983128,0.006253557,0.000417168,6.87e-06,316.127155,316.1271619,,,57.43000007,320,0.135286125,0.306274106
2018-07-19T08:09:00Z,1531987740,10A,43.0782975,44.2251481,322.36,0.3,-0.1,32.3,705540.06,-51589.15,25.2,Air+FixedWing,Blue,Enemies,F-15C,Blue F-15C #002,us,=UVAF= Peter[404],0.01171875,0,3.46e-05,322.3599854,2.359985352,0.01171875,0,NaN,NaN,0,0.01713201,NaN,0.9999852,0.004896756,-0.002466161,6.87e-06,316.127155,316.1271619,,,58.43000007,320,0.149642948,0.320631653
2018-07-19T08:09:01Z,1531987741,10A,43.0782976,44.2251481,322.36,0.3,-0.1,32.3,705540.06,-51589.14,25.2,Air+FixedWing,Blue,Enemies,F-15C,Blue F-15C #002,us,=UVAF= Peter[404],0.00390625,0,1.15e-05,322.3599854,2.359985352,0.00390625,0,NaN,NaN,0,0.01713201,NaN,0.998871924,0.004382122,-0.003545464,7.63e-07,316.127155,316.1271558,,,59.43000007,320,0.159261476,0.330250667
2018-07-19T08:09:02Z,1531987742,10A,43.0782976,44.225148,322.35,0.2,-0.1,32.3,705540.06,-51589.16,25.2,Air+FixedWing,Blue,Enemies,F-15C,Blue F-15C #002,us,=UVAF= Peter[404],0.019065745,0,5.62e-05,322.3490601,2.349060059,0.015625,-0.010925293,NaN,NaN,0.199987939,0.01713201,NaN,1.000035966,0.0041692,-0.00030374,1.82e-05,316.116441,316.1164592,,,60.43000007,320,0.170393425,0.345848579
2018-07-19T08:09:03Z,1531987743,10A,43.0782977,44.225148,322.34,0.2,-0.1,32.3,705540.06,-51589.16,25.2,Air+FixedWing,Blue,Enemies,F-15C,Blue F-15C #002,us,=UVAF= Peter[404],0.010498047,0,3.1e-05,322.338562,2.338562012,0,-0.010498047,NaN,NaN,0.028581754,0.01713201,NaN,1.003246448,0.004261042,-0.000669761,5.51e-06,316.1061459,316.1061514,,,61.43000007,320,0.17837063,0.359033844
2018-07-19T08:09:04Z,1531987744,10A,43.0782976,44.2251481,322.36,0.3,-0.1,32.3,705540.06,-51589.15,25.2,Air+FixedWing,Blue,Enemies,F-15C,Blue F-15C #002,us,=UVAF= Peter[404],0.024419021,0,7.2e-05,322.3599854,2.359985352,0.01171875,0.02142334,NaN,NaN,0.085718421,0.01713201,NaN,0.99678595,0.004130519,-0.002820988,2.98e-05,316.127155,316.1271848,,,62.43000007,320,0.192065741,0.384460887
2018-07-19T08:09:05Z,1531987745,10A,43.0782977,44.2251481,322.35,0.4,-0.1,32.3,705540.06,-51589.15,25.2,Air+FixedWing,Blue,Enemies,F-15C,Blue F-15C #002,us,=UVAF= Peter[404],0.009979248,0,2.94e-05,322.3500061,2.350006104,0,-0.009979248,NaN,NaN,0.184615424,0.01713201,NaN,1.000991646,0.006988354,-0.001747104,4.98e-06,316.1173687,316.1173737,,,63.43000007,320,0.197383878,0.395768886
2018-07-19T08:09:06Z,1531987746,10A,43.0782976,44.2251481,322.35,0.3,-0.1,32.3,705540.06,-51589.15,25.2,Air+FixedWing,Blue,Enemies,F-15C,Blue F-15C #002,us,=UVAF= Peter[404],0,0,0,322.3500061,2.350006104,0,0,NaN,NaN,0.012075774,0.01713201,NaN,0.999985278,0.005130542,-0.001745328,0,316.1173687,316.1173687,,,64.43000007,320,0.202702015,0.401087291
2018-07-19T08:09:07Z,1531987747,10A,43.0782976,44.2251481,322.35,0.2,-0.1,32.3,705540.06,-51589.15,25.2,Air+FixedWing,Blue,Enemies,F-15C,Blue F-15C #002,us,=UVAF= Peter[404],0,0,0,322.3500061,2.350006104,0,0,NaN,NaN,0.067099778,0.01713201,NaN,0.999990523,0.003959265,-0.001745328,0,316.1173687,316.1173687,,,65.43000007,320,0.202702015,0.401087291
2018-07-19T08:09:08Z,1531987748,10A,43.0782976,44.2251481,322.35,0.3,-0.1,32.3,705540.06,-51589.15,25.2,Air+FixedWing,Blue,Enemies,F-15C,Blue F-15C #002,us,=UVAF= Peter[404],0,0,0,322.3500061,2.350006104,0,0,NaN,NaN,0.119999994,0.01713201,NaN,0.999988139,0.004537834,-0.001745328,0,316.1173687,316.1173687,,,66.43000007,320,0.202702015,0.401087291
2018-07-19T08:09:09Z,1531987749,10A,43.0782976,44.2251481,322.35,0.3,-0.1,32.3,705540.06,-51589.15,25.2,Air+FixedWing,Blue,Enemies,F-15C,Blue F-15C #002,us,=UVAF= Peter[404],0,0,0,322.3500061,2.350006104,0,0,NaN,NaN,0.113410249,0.01713201,NaN,0.999451958,0.004471076,-0.002465226,0,316.1173687,316.1173687,,,67.43000007,320,0.202702015,0.401087291
2018-07-19T08:09:10Z,1531987750,10A,43.0782978,44.2251479,322.34,0.6,-0.1,32.3,705540.06,-51589.16,25.2,Air+FixedWing,Blue,Enemies,F-15C,Blue F-15C #002,us,=UVAF= Peter[404],0.009412088,0,2.77e-05,322.3447571,2.34475708,0.0078125,-0.005249023,NaN,NaN,0.523808968,0.069941157,NaN,0.999996001,0.010485788,-0.000303751,4.43e-06,316.1122212,316.1122256,,,68.43000007,320,0.223794271,0.422823906
2018-07-19T08:09:11Z,1531987751,10A,43.0782977,44.225148,322.34,0.7,-0.2,32.3,705540.06,-51589.15,25.2,Air+FixedWing,Blue,Enemies,F-15C,Blue F-15C #002,us,=UVAF= Peter[404],0.009148761,0,2.7e-05,322.3399963,2.339996338,0.0078125,-0.004760742,NaN,NaN,1.676183064,0.037009373,NaN,1.001415736,0.012984449,-0.003495909,4.18e-06,316.1075525,316.1075567,,,69.43000007,320,0.232877606,0.433079637
2018-07-19T08:09:12Z,1531987752,10A,43.0782977,44.2251481,322.35,0.5,-0.2,32.3,705540.06,-51589.14,25.2,Air+FixedWing,Blue,Enemies,F-15C,Blue F-15C #002,us,=UVAF= Peter[404],0.01269766,0,3.74e-05,322.3500061,2.350006104,0.0078125,0.010009766,NaN,NaN,0.666681105,0.055952916,NaN,0.99702685,0.014467809,-0.006194207,8.06e-06,316.1173687,316.1173768,,,70.43000007,320,0.241689792,0.446415975
2018-07-19T08:09:13Z,1531987753,10A,43.0782973,44.2251483,322.33,-0.2,-0.2,32.3,705540,-51589.13,25.2,Air+FixedWing,Blue,Enemies,F-15C,Blue F-15C #002,us,=UVAF= Peter[404],0.065543034,0,0.000193242,322.3318787,2.331878662,0.062986389,-0.018127441,NaN,NaN,1.780985486,0.024228322,NaN,1.002611837,-0.017393024,-0.001316582,0.000214794,316.0995918,316.0998066,,,71.43000007,320,0.279667222,0.488499644
2018-07-19T08:09:14Z,1531987754,10A,43.078298,44.225148,322.34,0.5,-0.2,32.3,705540.06,-51589.16,25.2,Air+FixedWing,Blue,Enemies,F-15C,Blue F-15C #002,us,=UVAF= Peter[404],0.068700999,0,0.000202553,322.3399963,2.339996338,0.068219723,0.008117676,NaN,NaN,1.342886161,0.032805302,NaN,0.999070507,0.015423869,-0.003678432,0.000235991,316.1075525,316.1077885,,,72.43000007,320,0.345656235,0.554989391
2018-07-19T08:09:15Z,1531987755,10A,43.0782978,44.2251479,322.34,0.5,-0.2,32.3,705540.06,-51589.16,25.2,Air+FixedWing,Blue,Enemies,F-15C,Blue F-15C #002,us,=UVAF= Peter[404],0,0,0,322.3399963,2.339996338,0,0,NaN,NaN,1.000000099,0.01713201,NaN,0.999955714,0.008726482,-0.003490652,0,316.1075525,316.1075525,,,73.43000007,320,0.363329981,0.57266403
2018-07-19T08:09:16Z,1531987756,10A,43.0782976,44.225148,322.34,0.5,-0.2,32.3,705540.06,-51589.16,25.2,Air+FixedWing,Blue,Enemies,F-15C,Blue F-15C #002,us,=UVAF= Peter[404],0,0,0,322.3399963,2.339996338,0,0,NaN,NaN,0.685697098,0.01713201,NaN,0.999955048,0.009235293,-0.002409409,0,316.1075525,316.1075525,,,74.43000007,320,0.377897662,0.587232448
2018-07-19T08:09:17Z,1531987757,10A,43.0782976,44.2251481,322.34,0.3,-0.2,32.3,705540.06,-51589.15,25.2,Air+FixedWing,Blue,Enemies,F-15C,Blue F-15C #002,us,=UVAF= Peter[404],0.01171875,0,3.46e-05,322.3399963,2.339996338,0.01171875,0,NaN,NaN,0.038083534,0.01713201,NaN,0.999976569,0.004973063,-0.004932309,6.87e-06,316.1075525,316.1075594,,,75.43000007,320,0.389055506,0.598390856
2018-07-19T08:09:18Z,1531987758,10A,43.0782976,44.2251481,322.34,0.2,-0.2,32.3,705540.06,-51589.15,25.2,Air+FixedWing,Blue,Enemies,F-15C,Blue F-15C #002,us,=UVAF= Peter[404],0.00390625,0,1.15e-05,322.3399963,2.339996338,0.00390625,0,NaN,NaN,0.133325293,0.01713201,NaN,0.999987726,0.00475081,-0.002048994,7.63e-07,316.1075525,316.1075533,,,76.43000007,320,0.392766151,0.602101689
2018-07-19T08:09:19Z,1531987759,10A,43.0782976,44.2251481,322.34,0.2,-0.2,32.3,705540.06,-51589.14,25.2,Air+FixedWing,Blue,Enemies,F-15C,Blue F-15C #002,us,=UVAF= Peter[404],0.01171875,0,3.46e-05,322.3399963,2.339996338,0.01171875,0,NaN,NaN,0.156547936,0.01713201,NaN,0.999983223,0.00302203,-0.005292724,6.87e-06,316.1075525,316.1075594,,,77.43000007,320,0.396476796,0.605812521
2018-07-19T08:09:20Z,1531987760,10A,43.0782976,44.2251481,322.34,0.2,-0.2,32.3,705540.06,-51589.15,25.2,Air+FixedWing,Blue,Enemies,F-15C,Blue F-15C #002,us,=UVAF= Peter[404],0.0078125,0,2.3e-05,322.3399963,2.339996338,0.0078125,0,NaN,NaN,0.109228385,0.01713201,NaN,0.999987303,0.004245385,-0.002769823,3.05e-06,316.1075525,316.1075556,,,78.43000007,320,0.396476796,0.605812521
2018-07-19T08:09:21Z,1531987761,10A,43.0782976,44.2251481,322.34,0.3,-0.2,32.3,705540.06,-51589.15,25.2,Air+FixedWing,Blue,Enemies,F-15C,Blue F-15C #002,us,=UVAF= Peter[404],0,0,0,322.3399963,2.339996338,0,0,NaN,NaN,0.057155023,0.01713201,NaN,0.999982476,0.004737306,-0.003490652,0,316.1075525,316.1075525,,,79.43000007,320,0.396476796,0.605812521
2018-07-19T08:09:22Z,1531987762,10A,43.0782976,44.2251481,322.34,0.3,-0.2,32.3,705540.06,-51589.15,25.2,Air+FixedWing,Blue,Enemies,F-15C,Blue F-15C #002,us,=UVAF= Peter[404],0,0,0,322.3399963,2.339996338,0,0,NaN,NaN,0,0.01713201,NaN,0.999980033,0.005235932,-0.003490652,0,316.1075525,316.1075525,,,80.43000007,320,0.396476796,0.605812521
2018-07-19T08:09:23Z,1531987763,10A,43.0782976,44.2251481,322.34,0.3,-0.2,32.3,705540.06,-51589.15,25.2,Air+FixedWing,Blue,Enemies,F-15C,Blue F-15C #002,us,=UVAF= Peter[404],0,0,0,322.3399963,2.339996338,0,0,NaN,NaN,0,0.01713201,NaN,0.999980033,0.005235932,-0.003490652,0,316.1075525,316.1075525,,,81.43000007,320,0.396476796,0.605812521
2018-07-19T08:09:24Z,1531987764,10A,43.0782976,44.2251481,322.34,0.3,-0.2,32.3,705540.06,-51589.15,25.2,Air+FixedWing,Blue,Enemies,F-15C,Blue F-15C #002,us,=UVAF= Peter[404],0,0,0,322.3399963,2.339996338,0,0,NaN,NaN,0,0.01713201,NaN,0.999980033,0.005235932,-0.003490652,0,316.1075525,316.1075525,,,82.43000007,320,0.396476796,0.605812521
2018-07-19T08:09:25Z,1531987765,10A,43.0782976,44.2251481,322.34,0.3,-0.2,32.3,705540.06,-51589.15,25.2,Air+FixedWing,Blue,Enemies,F-15C,Blue F-15C #002,us,=UVAF= Peter[404],0,0,0,322.3399963,2.339996338,0,0,NaN,NaN,0,0.01713201,NaN,0.999980033,0.005235932,-0.003490652,0,316.1075525,316.1075525,,,83.43000007,320,0.396476796,0.605812521
2018-07-19T08:09:26Z,1531987766,10A,43.0782976,44.2251481,322.34,0.3,-0.2,32.3,705540.06,-51589.15,25.2,Air+FixedWing,Blue,Enemies,F-15C,Blue F-15C #002,us,=UVAF= Peter[404],0,0,0,322.3399963,2.339996338,0,0,NaN,NaN,0,0.01713201,NaN,0.999980033,0.005235932,-0.003490652,0,316.1075525,316.1075525,,,84.43000007,320,0.396476796,0.605812521
2018-07-19T08:09:27Z,1531987767,10A,43.0782976,44.2251481,322.34,0.3,-0.2,32.3,705540.06,-51589.15,25.2,Air+FixedWing,Blue,Enemies,F-15C,Blue F-15C #002,us,=UVAF= Peter[404],0,0,0,322.3399963,2.339996338,0,0,NaN,NaN,0,0.01713201,NaN,0.999980033,0.005235932,-0.003490652,0,316.1075525,316.1075525,,,85.43000007,320,0.396476796,0.605812521
2018-07-19T08:09:28Z,1531987768,10A,43.0782976,44.2251481,322.34,0.3,-0.2,32.3,705540.06,-51589.15,25.2,Air+FixedWing,Blue,Enemies,F-15C,Blue F-15C #002,us,=UVAF= Peter[404],0,0,0,322.3399963,2.339996338,0,0,NaN,NaN,0,0.01713201,NaN,0.999980033,0.005235932,-0.003490652,0,316.1075525,316.1075525,,,86.43000007,320,0.396476796,0.605812521
2018-07-19T08:09:29Z,1531987769,10A,43.0782976,44.2251481,322.34,0.3,-0.2,32.3,705540.06,-51589.15,25.2,Air+FixedWing,Blue,Enemies,F-15C,Blue F-15C #002,us,=UVAF= Peter[404],0,0,0,322.3399963,2.339996338,0,0,NaN,NaN,0,0.01713201,NaN,0.999980033,0.005235932,-0.003490652,0,316.1075525,316.1075525,,,87.43000007,320,0.396476796,0.605812521
2018-07-19T08:09:30Z,1531987770,10A,43.0782976,44.2251481,322.34,0.3,-0.2,32.3,705540.06,-51589.15,25.2,Air+FixedWing,Blue,Enemies,F-15C,Blue F-15C #002,us,=UVAF= Peter[404],0,0,0,322.3399963,2.339996338,0,0,NaN,NaN,0,0.01713201,NaN,0.999980033,0.005235932,-0.003490652,0,316.1075525,316.1075525,,,88.43000007,320,0.396476796,0.605812521
2018-07-19T08:09:31Z,1531987771,10A,43.0782976,44.2251481,322.34,0.3,-0.2,32.3,705540.06,-51589.15,25.2,Air+FixedWing,Blue,Enemies,F-15C,Blue F-15C #002,us,=UVAF= Peter[404],0,0,0,322.3399963,2.339996338,0,0,NaN,NaN,0,0.01713201,NaN,0.999980033,0.005235932,-0.003490652,0,316.1075525,316.1075525,,,89.43000007,320,0.396476796,0.605812521
2018-07-19T08:09:32Z,1531987772,10A,43.0782976,44.2251481,322.34,0.3,-0.2,32.3,705540.06,-51589.15,25.2,Air+FixedWing,Blue,Enemies,F-15C,Blue F-15C #002,us,=UVAF= Peter[404],0,0,0,322.3399963,2.339996338,0,0,NaN,NaN,0,0.01713201,NaN,0.999980033,0.005235932,-0.003490652,0,316.1075525,316.1075525,,,90.43000007,320,0.396476796,0.605812521
2018-07-19T08:09:33Z,1531987773,10A,43.0782976,44.2251481,322.34,0.3,-0.2,32.3,705540.06,-51589.15,25.2,Air+FixedWing,Blue,Enemies,F-15C,Blue F-15C #002,us,=UVAF= Peter[404],0,0,0,322.3399963,2.339996338,0,0,NaN,NaN,0,0.01713201,NaN,0.999980033,0.005235932,-0.003490652,0,316.1075525,316.1075525,,,91.43000007,320,0.396476796,0.605812521
2018-07-19T08:09:34Z,1531987774,10A,43.0782976,44.2251481,322.34,0.3,-0.2,32.3,705540.06,-51589.15,25.2,Air+FixedWing,Blue,Enemies,F-15C,Blue F-15C #002,us,=UVAF= Peter[404],0,0,0,322.3399963,2.339996338,0,0,NaN,NaN,0,0.01713201,NaN,0.999980033,0.005235932,-0.003490652,0,316.1075525,316.1075525,,,92.43000007,320,0.396476796,0.605812521
2018-07-19T08:09:35Z,1531987775,10A,43.0782976,44.2251481,322.34,0.3,-0.2,32.3,705540.06,-51589.15,25.2,Air+FixedWing,Blue,Enemies,F-15C,Blue F-15C #002,us,=UVAF= Peter[404],0,0,0,322.3399963,2.339996338,0,0,NaN,NaN,0,0.01713201,NaN,0.999980033,0.005235932,-0.003490652,0,316.1075525,316.1075525,,,93.43000007,320,0.396476796,0.605812521
2018-07-19T08:09:36Z,1531987776,10A,43.0782976,44.2251481,322.34,0.3,-0.2,32.3,705540.06,-51589.15,25.2,Air+FixedWing,Blue,Enemies,F-15C,Blue F-15C #002,us,=UVAF= Peter[404],0,0,0,322.3399963,2.339996338,0,0,NaN,NaN,0,0.01713201,NaN,0.999980033,0.005235932,-0.003490652,0,316.1075525,316.1075525,,,94.43000007,320,0.396476796,0.605812521
2018-07-19T08:09:37Z,1531987777,10A,43.0782976,44.2251481,322.34,0.3,-0.2,32.3,705540.06,-51589.15,25.2,Air+FixedWing,Blue,Enemies,F-15C,Blue F-15C #002,us,=UVAF= Peter[404],0,0,0,322.3399963,2.339996338,0,0,NaN,NaN,0,0.01713201,NaN,0.999980033,0.005235932,-0.003490652,0,316.1075525,316.1075525,,,95.43000007,320,0.396476796,0.605812521
2018-07-19T08:09:38Z,1531987778,10A,43.0782976,44.2251481,322.34,0.3,-0.2,32.3,705540.06,-51589.15,25.2,Air+FixedWing,Blue,Enemies,F-15C,Blue F-15C #002,us,=UVAF= Peter[404],0,0,0,322.3399963,2.339996338,0,0,NaN,NaN,0,0.01713201,NaN,0.999980033,0.005235932,-0.003490652,0,316.1075525,316.1075525,,,96.43000007,320,0.396476796,0.605812521
2018-07-19T08:09:39Z,1531987779,10A,43.0782976,44.2251481,322.34,0.3,-0.2,32.3,705540.06,-51589.15,25.2,Air+FixedWing,Blue,Enemies,F-15C,Blue F-15C #002,us,=UVAF= Peter[404],0,0,0,322.3399963,2.339996338,0,0,NaN,NaN,0,0.01713201,NaN,0.999980033,0.005235932,-0.003490652,0,316.1075525,316.1075525,,,97.43000007,320,0.396476796,0.605812521
2018-07-19T08:09:40Z,1531987780,10A,43.0782976,44.2251481,322.34,0.3,-0.2,32.3,705540.06,-51589.15,25.2,Air+FixedWing,Blue,Enemies,F-15C,Blue F-15C #002,us,=UVAF= Peter[404],0,0,0,322.3399963,2.339996338,0,0,NaN,NaN,0,0.01713201,NaN,0.999980033,0.005235932,-0.003490652,0,316.1075525,316.1075525,,,98.43000007,320,0.396476796,0.605812521
2018-07-19T08:09:41Z,1531987781,10A,43.0782976,44.2251481,322.34,0.3,-0.2,32.3,705540.06,-51589.15,25.2,Air+FixedWing,Blue,Enemies,F-15C,Blue F-15C #002,us,=UVAF= Peter[404],0,0,0,322.3399963,2.339996338,0,0,NaN,NaN,0,0.01713201,NaN,0.999980033,0.005235932,-0.003490652,0,316.1075525,316.1075525,,,99.43000007,320,0.396476796,0.605812521
2018-07-19T08:09:42Z,1531987782,10A,43.0782976,44.2251481,322.34,0.3,-0.2,32.3,705540.06,-51589.15,25.2,Air+FixedWing,Blue,Enemies,F-15C,Blue F-15C #002,us,=UVAF= Peter[404],0,0,0,322.3399963,2.339996338,0,0,NaN,NaN,0,0.01713201,NaN,0.999980033,0.005235932,-0.003490652,0,316.1075525,316.1075525,,,100.4300001,320,0.396476796,0.605812521
2018-07-19T08:09:43Z,1531987783,10A,43.0782976,44.2251481,322.34,0.3,-0.2,32.3,705540.06,-51589.15,25.2,Air+FixedWing,Blue,Enemies,F-15C,Blue F-15C #002,us,=UVAF= Peter[404],0,0,0,322.3399963,2.339996338,0,0,NaN,NaN,0,0.01713201,NaN,0.999980033,0.005235932,-0.003490652,0,316.1075525,316.1075525,,,101.4300001,320,0.396476796,0.605812521
2018-07-19T08:09:44Z,1531987784,10A,43.0782976,44.2251481,322.34,0.3,-0.2,32.3,705540.06,-51589.15,25.2,Air+FixedWing,Blue,Enemies,F-15C,Blue F-15C #002,us,=UVAF= Peter[404],0,0,0,322.3399963,2.339996338,0,0,NaN,NaN,0,0.01713201,NaN,0.999980033,0.005235932,-0.003490652,0,316.1075525,316.1075525,,,102.4300001,320,0.396476796,0.605812521
2018-07-19T08:09:45Z,1531987785,10A,43.0782976,44.2251481,322.34,0.3,-0.2,32.3,705540.06,-51589.15,25.2,Air+FixedWing,Blue,Enemies,F-15C,Blue F-15C #002,us,=UVAF= Peter[404],0,0,0,322.3399963,2.339996338,0,0,NaN,NaN,0,0.01713201,NaN,0.999980033,0.005235932,-0.003490652,0,316.1075525,316.1075525,,,103.4300001,320,0.396476796,0.605812521
2018-07-19T08:09:46Z,1531987786,10A,43.0782976,44.2251481,322.34,0.3,-0.2,32.3,705540.06,-51589.15,25.2,Air+FixedWing,Blue,Enemies,F-15C,Blue F-15C #002,us,=UVAF= Peter[404],0,0,0,322.3399963,2.339996338,0,0,NaN,NaN,0,0.01713201,NaN,0.999980033,0.005235932,-0.003490652,0,316.1075525,316.1075525,,,104.4300001,320,0.396476796,0.605812521
2018-07-19T08:09:47Z,1531987787,10A,43.0782976,44.2251481,322.34,0.3,-0.2,32.3,705540.06,-51589.15,25.2,Air+FixedWing,Blue,Enemies,F-15C,Blue F-15C #002,us,=UVAF= Peter[404],0,0,0,322.3399963,2.339996338,0,0,NaN,NaN,0,0.01713201,NaN,0.999980033,0.005235932,-0.003490652,0,316.1075525,316.1075525,,,105.4300001,320,0.396476796,0.605812521
2018-07-19T08:09:48Z,1531987788,10A,43.0782976,44.2251481,322.34,0.3,-0.2,32.3,705540.06,-51589.15,25.2,Air+FixedWing,Blue,Enemies,F-15C,Blue F-15C #002,us,=UVAF= Peter[404],0,0,0,322.3399963,2.339996338,0,0,NaN,NaN,0,0.01713201,NaN,0.999980033,0.005235932,-0.003490652,0,316.1075525,316.1075525,,,106.4300001,320,0.396476796,0.605812521
2018-07-19T08:09:49Z,1531987789,10A,43.0782976,44.2251481,322.34,0.3,-0.2,32.3,705540.06,-51589.15,25.2,Air+FixedWing,Blue,Enemies,F-15C,Blue F-15C #002,us,=UVAF= Peter[404],0,0,0,322.3399963,2.339996338,0,0,NaN,NaN,0,0.01713201,NaN,0.999980033,0.005235932,-0.003490652,0,316.1075525,316.1075525,,,107.4300001,320,0.396476796,0.605812521
2018-07-19T08:09:50Z,1531987790,10A,43.0782976,44.2251481,322.34,0.3,-0.2,32.3,705540.06,-51589.15,25.2,Air+FixedWing,Blue,Enemies,F-15C,Blue F-15C #002,us,=UVAF= Peter[404],0,0,0,322.3399963,2.339996338,0,0,NaN,NaN,0,0.01713201,NaN,0.999980033,0.005235932,-0.003490652,0,316.1075525,316.1075525,,,108.4300001,320,0.396476796,0.605812521
2018-07-19T08:09:51Z,1531987791,10A,43.0782976,44.2251481,322.34,0.3,-0.2,32.3,705540.06,-51589.15,25.2,Air+FixedWing,Blue,Enemies,F-15C,Blue F-15C #002,us,=UVAF= Peter[404],0,0,0,322.3399963,2.339996338,0,0,NaN,NaN,0,0.01713201,NaN,0.999980033,0.005235932,-0.003490652,0,316.1075525,316.1075525,,,109.4300001,320,0.396476796,0.605812521
2018-07-19T08:09:52Z,1531987792,10A,43.0782976,44.2251481,322.34,0.3,-0.2,32.3,705540.06,-51589.15,25.2,Air+FixedWing,Blue,Enemies,F-15C,Blue F-15C #002,us,=UVAF= Peter[404],0,0,0,322.3399963,2.339996338,0,0,NaN,NaN,0,0.01713201,NaN,0.999980033,0.005235932,-0.003490652,0,316.1075525,316.1075525,,,110.4300001,320,0.396476796,0.605812521
2018-07-19T08:09:53Z,1531987793,10A,43.0782976,44.2251481,322.34,0.3,-0.2,32.3,705540.06,-51589.15,25.2,Air+FixedWing,Blue,Enemies,F-15C,Blue F-15C #002,us,=UVAF= Peter[404],0,0,0,322.3399963,2.339996338,0,0,NaN,NaN,0,0.01713201,NaN,0.999980033,0.005235932,-0.003490652,0,316.1075525,316.1075525,,,111.4300001,320,0.396476796,0.605812521
2018-07-19T08:09:54Z,1531987794,10A,43.0782976,44.2251481,322.34,0.3,-0.2,32.3,705540.06,-51589.15,25.2,Air+FixedWing,Blue,Enemies,F-15C,Blue F-15C #002,us,=UVAF= Peter[404],0,0,0,322.3399963,2.339996338,0,0,NaN,NaN,0,0.01713201,NaN,0.999980033,0.005235932,-0.003490652,0,316.1075525,316.1075525,,,112.4300001,320,0.396476796,0.605812521
2018-07-19T08:09:55Z,1531987795,10A,43.0782976,44.2251481,322.34,0.3,-0.2,32.3,705540.06,-51589.15,25.2,Air+FixedWing,Blue,Enemies,F-15C,Blue F-15C #002,us,=UVAF= Peter[404],0,0,0,322.3399963,2.339996338,0,0,NaN,NaN,0,0.01713201,NaN,0.999980033,0.005235932,-0.003490652,0,316.1075525,316.1075525,,,113.4300001,320,0.396476796,0.605812521
2018-07-19T08:09:56Z,1531987796,10A,43.0782976,44.2251481,322.34,0.3,-0.2,32.3,705540.06,-51589.15,25.2,Air+FixedWing,Blue,Enemies,F-15C,Blue F-15C #002,us,=UVAF= Peter[404],0,0,0,322.3399963,2.339996338,0,0,NaN,NaN,0,0.01713201,NaN,0.999980033,0.005235932,-0.003490652,0,316.1075525,316.1075525,,,114.4300001,320,0.396476796,0.605812521
2018-07-19T08:09:57Z,1531987797,10A,43.0782976,44.2251481,322.34,0.3,-0.2,32.3,705540.06,-51589.15,25.2,Air+FixedWing,Blue,Enemies,F-15C,Blue F-15C #002,us,=UVAF= Peter[404],0,0,0,322.3399963,2.339996338,0,0,NaN,NaN,0,0.01713201,NaN,0.999980033,0.005235932,-0.003490652,0,316.1075525,316.1075525,,,115.4300001,320,0.396476796,0.605812521
2018-07-19T08:09:58Z,1531987798,10A,43.0782976,44.2251481,322.34,0.3,-0.2,32.3,705540.06,-51589.15,25.2,Air+FixedWing,Blue,Enemies,F-15C,Blue F-15C #002,us,=UVAF= Peter[404],0,0,0,322.3399963,2.339996338,0,0,NaN,NaN,0,0.01713201,NaN,0.999980033,0.005235932,-0.003490652,0,316.1075525,316.1075525,,,116.4300001,320,0.396476796,0.605812521
2018-07-19T08:09:59Z,1531987799,10A,43.0782976,44.2251481,322.34,0.3,-0.2,32.3,705540.06,-51589.15,25.2,Air+FixedWing,Blue,Enemies,F-15C,Blue F-15C #002,us,=UVAF= Peter[404],0,0,0,322.3399963,2.339996338,0,0,NaN,NaN,0,0.01713201,NaN,0.999980033,0.005235932,-0.003490652,0,316.1075525,316.1075525,,,117.4300001,320,0.396476796,0.605812521
2018-07-19T08:10:00Z,1531987800,10A,43.0782976,44.2251481,322.34,0.3,-0.2,32.3,705540.06,-51589.15,25.2,Air+FixedWing,Blue,Enemies,F-15C,Blue F-15C #002,us,=UVAF= Peter[404],0,0,0,322.3399963,2.339996338,0,0,NaN,NaN,0,0.01713201,NaN,0.999980033,0.005235932,-0.003490652,0,316.1075525,316.1075525,,,118.4300001,320,0.396476796,0.605812521
2018-07-19T08:10:01Z,1531987801,10A,43.0782976,44.2251481,322.34,0.3,-0.2,32.3,705540.06,-51589.15,25.2,Air+FixedWing,Blue,Enemies,F-15C,Blue F-15C #002,us,=UVAF= Peter[404],0,0,0,322.3399963,2.339996338,0,0,NaN,NaN,0,0.01713201,NaN,0.999980033,0.005235932,-0.003490652,0,316.1075525,316.1075525,,,119.4300001,320,0.396476796,0.605812521
2018-07-19T08:10:02Z,1531987802,10A,43.0782976,44.2251481,322.34,0.3,-0.2,32.3,705540.06,-51589.15,25.2,Air+FixedWing,Blue,Enemies,F-15C,Blue F-15C #002,us,=UVAF= Peter[404],0,0,0,322.3399963,2.339996338,0,0,NaN,NaN,0,0.01713201,NaN,0.999980033,0.005235932,-0.003490652,0,316.1075525,316.1075525,,,120.4300001,320,0.396476796,0.605812521
2018-07-19T08:10:03Z,1531987803,10A,43.0782976,44.2251481,322.34,0.3,-0.2,32.3,705540.06,-51589.15,25.2,Air+FixedWing,Blue,Enemies,F-15C,Blue F-15C #002,us,=UVAF= Peter[404],0,0,0,322.3399963,2.339996338,0,0,NaN,NaN,0,0.01713201,NaN,0.999980033,0.005235932,-0.003490652,0,316.1075525,316.1075525,,,121.4300001,320,0.396476796,0.605812521
2018-07-19T08:10:04Z,1531987804,10A,43.0782976,44.2251481,322.34,0.3,-0.2,32.3,705540.06,-51589.15,25.2,Air+FixedWing,Blue,Enemies,F-15C,Blue F-15C #002,us,=UVAF= Peter[404],0,0,0,322.3399963,2.339996338,0,0,NaN,NaN,0,0.01713201,NaN,0.999980033,0.005235932,-0.003490652,0,316.1075525,316.1075525,,,122.4300001,320,0.396476796,0.605812521
2018-07-19T08:10:05Z,1531987805,10A,43.0782976,44.2251481,322.34,0.3,-0.2,32.3,705540.06,-51589.15,25.2,Air+FixedWing,Blue,Enemies,F-15C,Blue F-15C #002,us,=UVAF= Peter[404],0,0,0,322.3399963,2.339996338,0,0,NaN,NaN,0,0.01713201,NaN,0.999980033,0.005235932,-0.003490652,0,316.1075525,316.1075525,,,123.4300001,320,0.396476796,0.605812521
2018-07-19T08:10:06Z,1531987806,10A,43.0782976,44.2251481,322.34,0.3,-0.2,32.3,705540.06,-51589.15,25.2,Air+FixedWing,Blue,Enemies,F-15C,Blue F-15C #002,us,=UVAF= Peter[404],0,0,0,322.3399963,2.339996338,0,0,NaN,NaN,0,0.01713201,NaN,0.999980033,0.005235932,-0.003490652,0,316.1075525,316.1075525,,,124.4300001,320,0.396476796,0.605812521
2018-07-19T08:10:07Z,1531987807,10A,43.0782976,44.2251481,322.34,0.3,-0.2,32.3,705540.06,-51589.15,25.2,Air+FixedWing,Blue,Enemies,F-15C,Blue F-15C #002,us,=UVAF= Peter[404],0,0,0,322.3399963,2.339996338,0,0,NaN,NaN,0,0.01713201,NaN,0.999980033,0.005235932,-0.003490652,0,316.1075525,316.1075525,,,125.4300001,320,0.396476796,0.605812521
2018-07-19T08:10:08Z,1531987808,10A,43.0782976,44.2251481,322.34,0.3,-0.2,32.3,705540.06,-51589.15,25.2,Air+FixedWing,Blue,Enemies,F-15C,Blue F-15C #002,us,=UVAF= Peter[404],0,0,0,322.3399963,2.339996338,0,0,NaN,NaN,0,0.01713201,NaN,0.999980033,0.005235932,-0.003490652,0,316.1075525,316.1075525,,,126.4300001,320,0.396476796,0.605812521
2018-07-19T08:10:09Z,1531987809,10A,43.0782976,44.2251481,322.34,0.3,-0.2,32.3,705540.06,-51589.15,25.2,Air+FixedWing,Blue,Enemies,F-15C,Blue F-15C #002,us,=UVAF= Peter[404],0,0,0,322.3399963,2.339996338,0,0,NaN,NaN,0,0.01713201,NaN,0.999980033,0.005235932,-0.003490652,0,316.1075525,316.1075525,,,127.4300001,320,0.396476796,0.605812521
2018-07-19T08:10:10Z,1531987810,10A,43.0782976,44.2251481,322.34,0.3,-0.2,32.3,705540.06,-51589.15,25.2,Air+FixedWing,Blue,Enemies,F-15C,Blue F-15C #002,us,=UVAF= Peter[404],0,0,0,322.3399963,2.339996338,0,0,NaN,NaN,0,0.01713201,NaN,0.999980033,0.005235932,-0.003490652,0,316.1075525,316.1075525,,,128.4300001,320,0.396476796,0.605812521
2018-07-19T08:10:11Z,1531987811,10A,43.0782976,44.2251481,322.34,0.3,-0.2,32.3,705540.06,-51589.15,25.2,Air+FixedWing,Blue,Enemies,F-15C,Blue F-15C #002,us,=UVAF= Peter[404],0,0,0,322.3399963,2.339996338,0,0,NaN,NaN,0,0.01713201,NaN,0.999980033,0.005235932,-0.003490652,0,316.1075525,316.1075525,,,129.4300001,320,0.396476796,0.605812521
2018-07-19T08:10:12Z,1531987812,10A,43.0782976,44.2251481,322.34,0.3,-0.2,32.3,705540.06,-51589.15,25.2,Air+FixedWing,Blue,Enemies,F-15C,Blue F-15C #002,us,=UVAF= Peter[404],0,0,0,322.3399963,2.339996338,0,0,NaN,NaN,0,0.01713201,NaN,0.999980033,0.005235932,-0.003490652,0,316.1075525,316.1075525,,,130.4300001,320,0.396476796,0.605812521
2018-07-19T08:10:13Z,1531987813,10A,43.0782976,44.2251481,322.34,0.3,-0.2,32.3,705540.06,-51589.15,25.2,Air+FixedWing,Blue,Enemies,F-15C,Blue F-15C #002,us,=UVAF= Peter[404],0,0,0,322.3399963,2.339996338,0,0,NaN,NaN,0,0.01713201,NaN,0.999980033,0.005235932,-0.003490652,0,316.1075525,316.1075525,,,131.4300001,320,0.396476796,0.605812521
2018-07-19T08:10:14Z,1531987814,10A,43.0782976,44.2251481,322.34,0.3,-0.2,32.3,705540.06,-51589.15,25.2,Air+FixedWing,Blue,Enemies,F-15C,Blue F-15C #002,us,=UVAF= Peter[404],0,0,0,322.3399963,2.339996338,0,0,NaN,NaN,0,0.01713201,NaN,0.999980033,0.005235932,-0.003490652,0,316.1075525,316.1075525,,,132.4300001,320,0.396476796,0.605812521
2018-07-19T08:10:15Z,1531987815,10A,43.0782976,44.2251481,322.34,0.3,-0.2,32.3,705540.06,-51589.15,25.2,Air+FixedWing,Blue,Enemies,F-15C,Blue F-15C #002,us,=UVAF= Peter[404],0,0,0,322.3399963,2.339996338,0,0,NaN,NaN,0,0.01713201,NaN,0.999980033,0.005235932,-0.003490652,0,316.1075525,316.1075525,,,133.4300001,320,0.396476796,0.605812521
2018-07-19T08:10:16Z,1531987816,10A,43.0782976,44.2251481,322.34,0.3,-0.2,32.3,705540.06,-51589.15,25.2,Air+FixedWing,Blue,Enemies,F-15C,Blue F-15C #002,us,=UVAF= Peter[404],0,0,0,322.3399963,2.339996338,0,0,NaN,NaN,0,0.01713201,NaN,0.999980033,0.005235932,-0.003490652,0,316.1075525,316.1075525,,,134.4300001,320,0.396476796,0.605812521
2018-07-19T08:10:17Z,1531987817,10A,43.0782976,44.2251481,322.34,0.3,-0.2,32.3,705540.06,-51589.15,25.2,Air+FixedWing,Blue,Enemies,F-15C,Blue F-15C #002,us,=UVAF= Peter[404],0,0,0,322.3399963,2.339996338,0,0,NaN,NaN,0,0.01713201,NaN,0.999980033,0.005235932,-0.003490652,0,316.1075525,316.1075525,,,135.4300001,320,0.396476796,0.605812521
2018-07-19T08:10:18Z,1531987818,10A,43.0782976,44.2251481,322.34,0.3,-0.2,32.3,705540.06,-51589.15,25.2,Air+FixedWing,Blue,Enemies,F-15C,Blue F-15C #002,us,=UVAF= Peter[404],0,0,0,322.3399963,2.339996338,0,0,NaN,NaN,0,0.01713201,NaN,0.999980033,0.005235932,-0.003490652,0,316.1075525,316.1075525,,,136.4300001,320,0.396476796,0.605812521
2018-07-19T08:10:19Z,1531987819,10A,43.0782976,44.2251481,322.34,0.3,-0.2,32.3,705540.06,-51589.15,25.2,Air+FixedWing,Blue,Enemies,F-15C,Blue F-15C #002,us,=UVAF= Peter[404],0,0,0,322.3399963,2.339996338,0,0,NaN,NaN,0,0.01713201,NaN,0.999980033,0.005235932,-0.003490652,0,316.1075525,316.1075525,,,137.4300001,320,0.396476796,0.605812521
2018-07-19T08:10:20Z,1531987820,10A,43.0782976,44.2251481,322.34,0.3,-0.2,32.3,705540.06,-51589.15,25.2,Air+FixedWing,Blue,Enemies,F-15C,Blue F-15C #002,us,=UVAF= Peter[404],0,0,0,322.3399963,2.339996338,0,0,NaN,NaN,0,0.01713201,NaN,0.999980033,0.005235932,-0.003490652,0,316.1075525,316.1075525,,,138.4300001,320,0.396476796,0.605812521
2018-07-19T08:10:21Z,1531987821,10A,43.0782976,44.2251481,322.34,0.3,-0.2,32.3,705540.06,-51589.15,25.2,Air+FixedWing,Blue,Enemies,F-15C,Blue F-15C #002,us,=UVAF= Peter[404],0,0,0,322.3399963,2.339996338,0,0,NaN,NaN,0,0.01713201,NaN,0.999980033,0.005235932,-0.003490652,0,316.1075525,316.1075525,,,139.4300001,320,0.396476796,0.605812521
2018-07-19T08:10:22Z,1531987822,10A,43.0782976,44.2251481,322.34,0.3,-0.2,32.3,705540.06,-51589.15,25.2,Air+FixedWing,Blue,Enemies,F-15C,Blue F-15C #002,us,=UVAF= Peter[404],0,0,0,322.3399963,2.339996338,0,0,NaN,NaN,0,0.01713201,NaN,0.999980033,0.005235932,-0.003490652,0,316.1075525,316.1075525,,,140.4300001,320,0.396476796,0.605812521
2018-07-19T08:10:23Z,1531987823,10A,43.0782976,44.2251481,322.34,0.3,-0.2,32.3,705540.06,-51589.15,25.2,Air+FixedWing,Blue,Enemies,F-15C,Blue F-15C #002,us,=UVAF= Peter[404],0,0,0,322.3399963,2.339996338,0,0,NaN,NaN,0,0.01713201,NaN,0.999980033,0.005235932,-0.003490652,0,316.1075525,316.1075525,,,141.4300001,320,0.396476796,0.605812521
2018-07-19T08:10:24Z,1531987824,10A,43.0782976,44.2251481,322.34,0.3,-0.2,32.3,705540.06,-51589.15,25.2,Air+FixedWing,Blue,Enemies,F-15C,Blue F-15C #002,us,=UVAF= Peter[404],0,0,0,322.3399963,2.339996338,0,0,NaN,NaN,0,0.01713201,NaN,0.999980033,0.005235932,-0.003490652,0,316.1075525,316.1075525,,,142.4300001,320,0.396476796,0.605812521
2018-07-19T08:10:25Z,1531987825,10A,43.0782976,44.2251481,322.34,0.3,-0.2,32.3,705540.06,-51589.15,25.2,Air+FixedWing,Blue,Enemies,F-15C,Blue F-15C #002,us,=UVAF= Peter[404],0,0,0,322.3399963,2.339996338,0,0,NaN,NaN,0,0.01713201,NaN,0.999980033,0.005235932,-0.003490652,0,316.1075525,316.1075525,,,143.4300001,320,0.396476796,0.605812521
2018-07-19T08:10:26Z,1531987826,10A,43.0782976,44.2251481,322.34,0.3,-0.2,32.3,705540.06,-51589.15,25.2,Air+FixedWing,Blue,Enemies,F-15C,Blue F-15C #002,us,=UVAF= Peter[404],0,0,0,322.3399963,2.339996338,0,0,NaN,NaN,0,0.01713201,NaN,0.999980033,0.005235932,-0.003490652,0,316.1075525,316.1075525,,,144.4300001,320,0.396476796,0.605812521
2018-07-19T08:10:27Z,1531987827,10A,43.0782976,44.2251481,322.34,0.3,-0.2,32.3,705540.06,-51589.15,25.2,Air+FixedWing,Blue,Enemies,F-15C,Blue F-15C #002,us,=UVAF= Peter[404],0,0,0,322.3399963,2.339996338,0,0,NaN,NaN,0,0.01713201,NaN,0.999980033,0.005235932,-0.003490652,0,316.1075525,316.1075525,,,145.4300001,320,0.396476796,0.605812521
2018-07-19T08:10:28Z,1531987828,10A,43.0782976,44.2251481,322.34,0.3,-0.2,32.3,705540.06,-51589.15,25.2,Air+FixedWing,Blue,Enemies,F-15C,Blue F-15C #002,us,=UVAF= Peter[404],0,0,0,322.3399963,2.339996338,0,0,NaN,NaN,0,0.01713201,NaN,0.999980033,0.005235932,-0.003490652,0,316.1075525,316.1075525,,,146.4300001,320,0.396476796,0.605812521
2018-07-19T08:10:29Z,1531987829,10A,43.0782976,44.2251481,322.34,0.3,-0.2,32.3,705540.06,-51589.15,25.2,Air+FixedWing,Blue,Enemies,F-15C,Blue F-15C #002,us,=UVAF= Peter[404],0,0,0,322.3399963,2.339996338,0,0,NaN,NaN,0,0.01713201,NaN,0.999980033,0.005235932,-0.003490652,0,316.1075525,316.1075525,,,147.4300001,320,0.396476796,0.605812521
2018-07-19T08:10:30Z,1531987830,10A,43.0782976,44.2251481,322.34,0.3,-0.2,32.3,705540.06,-51589.15,25.2,Air+FixedWing,Blue,Enemies,F-15C,Blue F-15C #002,us,=UVAF= Peter[404],0,0,0,322.3399963,2.339996338,0,0,NaN,NaN,0,0.01713201,NaN,0.999980033,0.005235932,-0.003490652,0,316.1075525,316.1075525,,,148.4300001,320,0.396476796,0.605812521
2018-07-19T08:10:31Z,1531987831,10A,43.0782976,44.2251481,322.34,0.3,-0.2,32.3,705540.06,-51589.15,25.2,Air+FixedWing,Blue,Enemies,F-15C,Blue F-15C #002,us,=UVAF= Peter[404],0,0,0,322.3399963,2.339996338,0,0,NaN,NaN,0,0.01713201,NaN,0.999980033,0.005235932,-0.003490652,0,316.1075525,316.1075525,,,149.4300001,320,0.396476796,0.605812521
2018-07-19T08:10:32Z,1531987832,10A,43.0782976,44.2251481,322.34,0.3,-0.2,32.3,705540.06,-51589.15,25.2,Air+FixedWing,Blue,Enemies,F-15C,Blue F-15C #002,us,=UVAF= Peter[404],0,0,0,322.3399963,2.339996338,0,0,NaN,NaN,0,0.01713201,NaN,0.999980033,0.005235932,-0.003490652,0,316.1075525,316.1075525,,,150.4300001,320,0.396476796,0.605812521
2018-07-19T08:10:33Z,1531987833,10A,43.0782976,44.2251481,322.34,0.3,-0.2,32.3,705540.06,-51589.15,25.2,Air+FixedWing,Blue,Enemies,F-15C,Blue F-15C #002,us,=UVAF= Peter[404],0,0,0,322.3399963,2.339996338,0,0,NaN,NaN,0,0.01713201,NaN,0.999980033,0.005235932,-0.003490652,0,316.1075525,316.1075525,,,151.4300001,320,0.396476796,0.605812521
2018-07-19T08:10:34Z,1531987834,10A,43.0782976,44.2251481,322.34,0.3,-0.2,32.3,705540.06,-51589.15,25.2,Air+FixedWing,Blue,Enemies,F-15C,Blue F-15C #002,us,=UVAF= Peter[404],0,0,0,322.3399963,2.339996338,0,0,NaN,NaN,0,0.01713201,NaN,0.999980033,0.005235932,-0.003490652,0,316.1075525,316.1075525,,,152.4300001,320,0.396476796,0.605812521
2018-07-19T08:10:35Z,1531987835,10A,43.0782976,44.2251481,322.34,0.3,-0.2,32.3,705540.06,-51589.15,25.2,Air+FixedWing,Blue,Enemies,F-15C,Blue F-15C #002,us,=UVAF= Peter[404],0,0,0,322.3399963,2.339996338,0,0,NaN,NaN,0,0.01713201,NaN,0.999980033,0.005235932,-0.003490652,0,316.1075525,316.1075525,,,153.4300001,320,0.396476796,0.605812521
2018-07-19T08:10:36Z,1531987836,10A,43.0782976,44.2251481,322.34,0.3,-0.2,32.3,705540.06,-51589.15,25.2,Air+FixedWing,Blue,Enemies,F-15C,Blue F-15C #002,us,=UVAF= Peter[404],0,0,0,322.3399963,2.339996338,0,0,NaN,NaN,0,0.01713201,NaN,0.999980033,0.005235932,-0.003490652,0,316.1075525,316.1075525,,,154.4300001,320,0.396476796,0.605812521
2018-07-19T08:10:37Z,1531987837,10A,43.0782976,44.2251481,322.34,0.3,-0.2,32.3,705540.06,-51589.15,25.2,Air+FixedWing,Blue,Enemies,F-15C,Blue F-15C #002,us,=UVAF= Peter[404],0,0,0,322.3399963,2.339996338,0,0,NaN,NaN,0,0.01713201,NaN,0.999980033,0.005235932,-0.003490652,0,316.1075525,316.1075525,,,155.4300001,320,0.396476796,0.605812521
2018-07-19T08:10:38Z,1531987838,10A,43.0782976,44.2251481,322.34,0.3,-0.2,32.3,705540.06,-51589.15,25.2,Air+FixedWing,Blue,Enemies,F-15C,Blue F-15C #002,us,=UVAF= Peter[404],0,0,0,322.3399963,2.339996338,0,0,NaN,NaN,0,0.01713201,NaN,0.999980403,0.005405535,-0.003130237,0,316.1075525,316.1075525,,,156.4300001,320,0.396476796,0.605812521
2018-07-19T08:10:39Z,1531987839,10A,43.0782976,44.2251481,322.34,0.3,-0.2,32.3,705540.06,-51589.14,25.2,Air+FixedWing,Blue,Enemies,F-15C,Blue F-15C #002,us,=UVAF= Peter[404],0.00390625,0,1.15e-05,322.3399963,2.339996338,0.00390625,0,NaN,NaN,0,0.01713201,NaN,0.999979662,0.005066329,-0.003851066,7.63e-07,316.1075525,316.1075533,,,157.4300001,320,0.396476796,0.605812521
2018-07-19T08:10:40Z,1531987840,10A,43.0782976,44.2251481,322.34,0.3,-0.2,32.3,705540.06,-51589.14,25.2,Air+FixedWing,Blue,Enemies,F-15C,Blue F-15C #002,us,=UVAF= Peter[404],0,0,0,322.3399963,2.339996338,0,0,NaN,NaN,0,0.01713201,NaN,0.999980033,0.005235932,-0.003490652,0,316.1075525,316.1075525,,,158.4300001,320,0.396476796,0.605812521
2018-07-19T08:10:41Z,1531987841,10A,43.0782976,44.2251481,322.34,0.3,-0.2,32.3,705540.06,-51589.14,25.2,Air+FixedWing,Blue,Enemies,F-15C,Blue F-15C #002,us,=UVAF= Peter[404],0,0,0,322.3399963,2.339996338,0,0,NaN,NaN,0,0.01713201,NaN,0.999980033,0.005235932,-0.003490652,0,316.1075525,316.1075525,,,159.4300001,320,0.396476796,0.605812521
2018-07-19T08:10:42Z,1531987842,10A,43.0782976,44.2251481,322.34,0.3,-0.2,32.3,705540.06,-51589.14,25.2,Air+FixedWing,Blue,Enemies,F-15C,Blue F-15C #002,us,=UVAF= Peter[404],0,0,0,322.3399963,2.339996338,0,0,NaN,NaN,0,0.01713201,NaN,0.999980033,0.005235932,-0.003490652,0,316.1075525,316.1075525,,,160.4300001,320,0.396476796,0.605812521
2018-07-19T08:10:43Z,1531987843,10A,43.0782976,44.2251481,322.34,0.3,-0.2,32.3,705540.06,-51589.14,25.2,Air+FixedWing,Blue,Enemies,F-15C,Blue F-15C #002,us,=UVAF= Peter[404],0,0,0,322.3399963,2.339996338,0,0,NaN,NaN,0,0.01713201,NaN,0.999980033,0.005235932,-0.003490652,0,316.1075525,316.1075525,,,161.4300001,320,0.396476796,0.605812521
2018-07-19T08:10:44Z,1531987844,10A,43.0782976,44.2251481,322.34,0.3,-0.2,32.3,705540.06,-51589.14,25.2,Air+FixedWing,Blue,Enemies,F-15C,Blue F-15C #002,us,=UVAF= Peter[404],0,0,0,322.3399963,2.339996338,0,0,NaN,NaN,0,0.01713201,NaN,0.999980033,0.005235932,-0.003490652,0,316.1075525,316.1075525,,,162.4300001,320,0.396476796,0.605812521
2018-07-19T08:10:45Z,1531987845,10A,43.0782976,44.2251481,322.34,0.3,-0.2,32.3,705540.06,-51589.14,25.2,Air+FixedWing,Blue,Enemies,F-15C,Blue F-15C #002,us,=UVAF= Peter[404],0,0,0,322.3399963,2.339996338,0,0,NaN,NaN,0,0.01713201,NaN,0.999980033,0.005235932,-0.003490652,0,316.1075525,316.1075525,,,163.4300001,320,0.396476796,0.605812521
2018-07-19T08:10:46Z,1531987846,10A,43.0782976,44.2251481,322.34,0.3,-0.2,32.3,705540.06,-51589.14,25.2,Air+FixedWing,Blue,Enemies,F-15C,Blue F-15C #002,us,=UVAF= Peter[404],0,0,0,322.3399963,2.339996338,0,0,NaN,NaN,0,0.01713201,NaN,0.999980033,0.005235932,-0.003490652,0,316.1075525,316.1075525,,,164.4300001,320,0.396476796,0.605812521
2018-07-19T08:10:47Z,1531987847,10A,43.0782976,44.2251481,322.34,0.3,-0.2,32.3,705540.06,-51589.14,25.2,Air+FixedWing,Blue,Enemies,F-15C,Blue F-15C #002,us,=UVAF= Peter[404],0,0,0,322.3399963,2.339996338,0,0,NaN,NaN,0,0.01713201,NaN,0.999980033,0.005235932,-0.003490652,0,316.1075525,316.1075525,,,165.4300001,320,0.396476796,0.605812521
2018-07-19T08:10:48Z,1531987848,10A,43.0782976,44.2251481,322.34,0.3,-0.2,32.3,705540.06,-51589.14,25.2,Air+FixedWing,Blue,Enemies,F-15C,Blue F-15C #002,us,=UVAF= Peter[404],0,0,0,322.3399963,2.339996338,0,0,NaN,NaN,0,0.01713201,NaN,0.999980033,0.005235932,-0.003490652,0,316.1075525,316.1075525,,,166.4300001,320,0.396476796,0.605812521
2018-07-19T08:10:49Z,1531987849,10A,43.0782976,44.2251481,322.34,0.3,-0.2,32.3,705540.06,-51589.14,25.2,Air+FixedWing,Blue,Enemies,F-15C,Blue F-15C #002,us,=UVAF= Peter[404],0,0,0,322.3399963,2.339996338,0,0,NaN,NaN,0,0.01713201,NaN,0.999980033,0.005235932,-0.003490652,0,316.1075525,316.1075525,,,167.4300001,320,0.396476796,0.605812521
2018-07-19T08:10:50Z,1531987850,10A,43.0782976,44.2251481,322.34,0.3,-0.2,32.3,705540.06,-51589.14,25.2,Air+FixedWing,Blue,Enemies,F-15C,Blue F-15C #002,us,=UVAF= Peter[404],0,0,0,322.3399963,2.339996338,0,0,NaN,NaN,0,0.01713201,NaN,0.999980033,0.005235932,-0.003490652,0,316.1075525,316.1075525,,,168.4300001,320,0.396476796,0.605812521
