ISOTime,UnixTime,Id,Longitude,Latitude,Altitude,Roll,Pitch,Yaw,U,V,Heading,Type,Color,Coalition,Name,Group,Country,Pilot,TAS,CAS,M,ASL,AGL,GS,VS,AOA,AOS,RRT,TRT,TRD,G,LatG,LonG,Ek,Ep,Em,FFW,FFV,RelativeTime,Elev,GroundDistance,AirDistance
2018-07-19T08:00:00Z,1531987200,202,43.3412041,45.4198632,8998.06,0,0.3,200.6,709474.19,83762.38,193.1,Air+FixedWing,Blue,Enemies,E-2C,Blue AWACS,us,,NaN,NaN,NaN,8998.05957,8875.819962,NaN,NaN,NaN,NaN,NaN,NaN,NaN,NaN,NaN,NaN,NaN,8824.082089,NaN,,,0,122.2396088,NaN,NaN
2018-07-19T08:00:01Z,1531987201,202,43.3405236,45.4185825,8994.94,0.4,2.4,200.6,709439.5,83613.23,193.1,Air+FixedWing,Blue,Enemies,E-2C,Blue AWACS,us,,153.1682746,96.59431458,0.503870577,8994.943359,8870.538269,153.1365716,-3.116210938,4.18231804,0.049270953,0.657173481,0.130025352,5000,0.772524032,-0.004401442,-0.066484985,1173.026017,8821.02613,9994.052147,,,1,124.4050903,152.1622814,152.4087706
2018-07-19T08:00:02Z,1531987202,202,43.3398469,45.4173099,8989.56,0.2,3.9,200.6,709404.94,83465.03,193.1,Air+FixedWing,Blue,Enemies,E-2C,Blue AWACS,us,,152.2674315,96.03282166,0.500869058,8989.5625,8862.285675,152.1723268,-5.380859375,5.874075997,0.048919539,0.390476232,1.573889028,5000,1.082279075,0.000210685,0.115329574,1159.268535,8815.749309,9975.017844,,,2,127.276825,303.372019,303.9272672
2018-07-19T08:00:03Z,1531987203,202,43.3391682,45.4160342,8985.04,0,5.1,200.6,709370.25,83316.45,193.1,Air+FixedWing,Blue,Enemies,E-2C,Blue AWACS,us,,152.6405114,96.30304718,0.502064216,8985.041016,8855.516846,152.5735294,-4.521484375,6.477808262,0.041817242,0.038085135,1.119173026,5000,1.189025495,-0.001737379,0.070788457,1164.956285,8811.315248,9976.271533,,,3,129.5241699,454.9628587,455.7990315
2018-07-19T08:00:04Z,1531987204,202,43.3384912,45.4147614,8982.39,-0.1,5.8,200.6,709335.62,83168.22,193.1,Air+FixedWing,Blue,Enemies,E-2C,Blue AWACS,us,,152.2476781,96.05976868,0.500753361,8982.388672,8850.100861,152.2245728,-2.65234375,6.436451052,0.0081699,0.199987939,0.735899362,5000,1.180225636,0.003425367,0.115211641,1158.967774,8808.714187,9967.681961,,,4,132.2878113,606.2013406,607.2737587
2018-07-19T08:00:05Z,1531987205,202,43.3378145,45.4134889,8981.56,-0.1,6.2,200.6,709301.06,83020.02,193.1,Air+FixedWing,Blue,Enemies,E-2C,Blue AWACS,us,,152.182199,96.02167511,0.500532131,8981.558594,8848.67363,152.1799352,-0.830078125,6.200209629,0.019127127,0,0.421511598,5000,1.14241473,0.002002781,0.055954359,1157.971085,8807.900158,9965.871243,,,5,132.884964,757.4037812,758.6914045
2018-07-19T08:00:06Z,1531987206,202,43.3371411,45.4122218,8982.12,-0.1,6.3,200.6,709266.69,82872.45,193.1,Air+FixedWing,Blue,Enemies,E-2C,Blue AWACS,us,,151.5221171,95.5847168,0.498365044,8982.119141,8848.213226,151.5210802,0.560546875,5.897234298,0.025324746,0,0.183720656,5000,1.084129727,0.002148574,0.108867606,1147.947598,8808.449867,9956.397465,,,6,133.9059143,907.9556613,909.4563373
2018-07-19T08:00:07Z,1531987207,202,43.3364682,45.4109554,8983.56,-0.1,6.4,200.6,709232.38,82724.97,193.1,Air+FixedWing,Blue,Enemies,E-2C,Blue AWACS,us,,151.4224335,95.51139069,0.498047292,8983.557617,8848.905182,151.4156007,1.438476563,5.747404087,-0.005933113,0,0.049455859,5000,1.044864674,-0.008323783,0.089093424,1146.437668,8809.860531,9956.298199,,,7,134.6524353,1058.413356,1060.1328
2018-07-19T08:00:08Z,1531987208,202,43.3357968,45.4096913,8985.47,-0.1,6.3,200.6,709198.06,82577.77,193.1,Air+FixedWing,Blue,Enemies,E-2C,Blue AWACS,us,,151.1537755,95.32440186,0.497177063,8985.469727,8850.097778,151.1416808,1.912109375,5.533332176,-0.013389627,0,0.049455859,5000,1.012694043,-0.003685325,0.075221203,1142.373192,8811.735669,9954.108861,,,8,135.3719482,1208.600279,1210.543437
2018-07-19T08:00:09Z,1531987209,202,43.3351272,45.4084304,8987.53,-0.1,6.3,200.6,709163.81,82430.93,193.1,Air+FixedWing,Blue,Enemies,E-2C,Blue AWACS,us,,150.7991485,95.08043671,0.496025029,8987.527344,8850.506012,150.7851101,2.057617188,5.519096765,-0.018075178,0,0.100870595,5000,0.989561182,0.01213225,0.112584657,1137.01916,8813.753503,9950.772663,,,9,137.0213318,1358.402207,1360.57054
2018-07-19T08:00:10Z,1531987210,202,43.3344575,45.4071689,8989.54,0,6.2,200.6,709129.69,82284.02,193.1,Air+FixedWing,Blue,Enemies,E-2C,Blue AWACS,us,,150.8311391,95.09023285,0.496144389,8989.544922,8851.146057,150.8176446,2.017578125,5.464838618,0.020125166,0,0.100870595,5000,0.985297736,-0.009433319,0.009692916,1137.501627,8815.732071,9953.233698,,,10,138.3988647,1508.266606,1510.6597
2018-07-19T08:00:11Z,1531987211,202,43.3337923,45.4059154,8991.37,0,6.1,200.6,709095.69,82138.06,193.1,Air+FixedWing,Blue,Enemies,E-2C,Blue AWACS,us,,149.8797309,94.45625305,0.493027544,8991.37207,8851.469055,149.8685934,1.827148438,5.441628153,0.001093144,0,0.084510231,5000,0.965639352,0.008598752,0.168637422,1123.196687,8817.523891,9940.720579,,,11,139.9030151,1657.173653,1659.787837
2018-07-19T08:00:12Z,1531987212,202,43.3331241,45.4046566,8992.98,0,6,200.6,709061.62,81991.46,193.1,Air+FixedWing,Blue,Enemies,E-2C,Blue AWACS,us,,150.5153532,94.86385345,0.495129688,8992.984375,8851.570709,150.5067176,1.612304688,5.43186802,-0.012361878,0,0.052339163,5000,0.986000373,-0.004533961,-0.057327984,1132.743578,8819.105022,9951.8486,,,12,141.4136658,1806.723313,1809.557016
2018-07-19T08:00:13Z,1531987213,202,43.3324631,45.4034107,8994.35,0,5.9,200.6,709027.88,81846.4,193.1,Air+FixedWing,Blue,Enemies,E-2C,Blue AWACS,us,,148.9431098,93.82608032,0.489967127,8994.347656,8851.438934,148.9368705,1.36328125,5.439655641,0.01333469,0,0.067810465,5000,0.963705221,-0.002732609,0.172916795,1109.202497,8820.441944,9929.644441,,,13,142.9087219,1954.726466,1957.775136
2018-07-19T08:00:14Z,1531987214,202,43.3317991,45.402159,8995.48,0,5.9,200.6,708993.94,81700.65,193.1,Air+FixedWing,Blue,Enemies,E-2C,Blue AWACS,us,,149.6532574,94.28510284,0.492311116,8995.479492,8850.068817,149.6489773,1.131835938,5.505445892,-0.012242701,0,0.051396036,5000,0.980259973,-0.00130801,0.039111597,1119.804873,8821.551896,9941.356769,,,14,145.410675,2103.408142,2106.670795
2018-07-19T08:00:15Z,1531987215,202,43.3311377,45.4009125,8996.41,0,5.9,200.6,708960.12,81555.49,193.1,Air+FixedWing,Blue,Enemies,E-2C,Blue AWACS,us,,149.0452312,93.88159943,0.490317322,8996.40625,8848.59314,149.0423499,0.926757813,5.546993985,-0.001464019,0,0.050435277,5000,0.981102365,0.009232857,0.055893612,1110.724048,8822.460735,9933.184783,,,15,147.8131104,2251.491139,2254.96555
2018-07-19T08:00:16Z,1531987216,202,43.3304784,45.3996695,8997.15,0,5.8,200.6,708926.5,81410.74,193.1,Air+FixedWing,Blue,Enemies,E-2C,Blue AWACS,us,,148.6060606,93.59000397,0.488877731,8997.15332,8847.755188,148.6041827,0.747070313,5.542412609,-0.019661494,0,0.050435277,5000,0.972221997,-0.008217727,0.176314589,1104.188062,8823.193361,9927.381423,,,16,149.3981323,2399.144659,2402.829232
2018-07-19T08:00:17Z,1531987217,202,43.3298158,45.3984202,8997.75,0,5.8,200.6,708892.62,81265.27,193.1,Air+FixedWing,Blue,Enemies,E-2C,Blue AWACS,us,,149.3620887,94.08210754,0.491369047,8997.753906,8846.156586,149.3608813,0.600585938,5.595311901,-0.006091956,0,0.013988227,5000,0.994529955,0.003410786,-0.025565657,1115.451678,8823.782334,9939.234012,,,17,151.5973206,2547.543116,2551.438243
2018-07-19T08:00:18Z,1531987218,202,43.3291586,45.3971813,8998.23,0,5.8,200.6,708859.06,81121,193.1,Air+FixedWing,Blue,Enemies,E-2C,Blue AWACS,us,,148.1265967,93.27048492,0.487307791,8998.225586,8844.841644,148.1258457,0.471679688,5.634829234,0.010067672,0,0.013988227,5000,0.98058096,0.005168066,0.150190373,1097.074433,8824.244894,9921.319327,,,18,153.3839417,2694.71522,2698.818726
2018-07-19T08:00:19Z,1531987219,202,43.3284993,45.395938,8998.61,0,5.8,200.6,708825.44,80976.23,193.1,Air+FixedWing,Blue,Enemies,E-2C,Blue AWACS,us,,148.6198905,93.59111023,0.488933262,8998.606445,8843.730469,148.6194025,0.380859375,5.671312924,-0.005677763,0,0.013988227,5000,0.990029301,-0.007764185,0.067027334,1104.393593,8824.61839,9929.011983,,,19,154.8759766,2842.408721,2846.721087
2018-07-19T08:00:20Z,1531987220,202,43.3278415,45.3946977,8998.91,0,5.8,200.6,708791.81,80831.8,193.1,Air+FixedWing,Blue,Enemies,E-2C,Blue AWACS,us,,148.2924986,93.3755188,0.487858266,8998.90625,8842.541931,148.2921955,0.299804688,5.698357219,0.000663302,0,0.013988227,5000,0.988599067,0.004582306,0.091947184,1099.533257,8824.912398,9924.445655,,,20,156.3643188,2989.742446,2994.262985
2018-07-19T08:00:21Z,1531987221,202,43.3271839,45.3934579,8999.14,0,5.8,200.6,708758.25,80687.45,193.1,Air+FixedWing,Blue,Enemies,E-2C,Blue AWACS,us,,148.2097272,93.32006836,0.487587541,8999.135742,8841.283691,148.2095495,0.229492188,5.720468986,-0.018491759,0,0.013988227,5000,0.996574499,-0.00130801,0.03905116,1098.306161,8825.137453,9923.443614,,,21,157.8520508,3137.014407,3141.742914
2018-07-19T08:00:22Z,1531987222,202,43.3265292,45.3922232,8999.32,0,5.8,200.6,708724.81,80543.68,193.1,Air+FixedWing,Blue,Enemies,E-2C,Blue AWACS,us,,147.6030332,92.92202759,0.485592876,8999.320313,8840.320313,147.6029178,0.184570313,5.734820251,-0.012811863,0,0.013988227,5000,0.990306822,0.00072225,0.10371146,1089.33277,8825.318454,9914.651224,,,22,159,3283.683861,3288.619426
2018-07-19T08:00:23Z,1531987223,202,43.3258744,45.3909883,8999.46,0,5.8,200.6,708691.38,80399.88,193.1,Air+FixedWing,Blue,Enemies,E-2C,Blue AWACS,us,,147.6334244,92.94097137,0.485693837,8999.462891,8839.647339,147.6333555,0.142578125,5.751817939,0.005675133,0,0.013988227,5000,0.991386799,-0.006026805,0.102933352,1089.7814,8825.458276,9915.239675,,,23,159.8155518,3430.368488,3435.511092
2018-07-19T08:00:24Z,1531987224,202,43.3252194,45.3897533,8999.57,0,5.8,200.6,708657.88,80256.08,193.1,Air+FixedWing,Blue,Enemies,E-2C,Blue AWACS,us,,147.6551737,92.95470428,0.485766146,8999.573242,8838.494492,147.6551325,0.110351563,5.760516282,0.015366998,0,0.013988227,5000,0.995657573,0.001332182,0.078625718,1090.102516,8825.566494,9915.66901,,,24,161.0787506,3577.077924,3582.427576
2018-07-19T08:00:25Z,1531987225,202,43.3245655,45.3885201,8999.67,0,5.8,200.5,708624.44,80112.48,193.1,Air+FixedWing,Blue,Enemies,E-2C,Blue AWACS,us,,147.4355473,92.81053925,0.48504426,8999.668945,8838.668945,147.4355162,0.095703125,5.769951879,-0.009393233,0,0.013988227,5000,0.991389993,0.008193555,0.107828947,1086.86203,8825.660346,9912.522376,,,25,161,3723.567784,3729.124165
2018-07-19T08:00:26Z,1531987226,202,43.3239112,45.3872862,8999.74,0,5.8,200.5,708591.06,79968.8,193.1,Air+FixedWing,Blue,Enemies,E-2C,Blue AWACS,us,,147.5050775,92.85552216,0.485273474,8999.737305,8838.963791,147.5050617,0.068359375,5.773824831,0.005675355,0,0.013988227,5000,1.002864836,-0.007808257,0.011613223,1087.887395,8825.727384,9913.614779,,,26,160.7735138,3870.137903,3875.901114
2018-07-19T08:00:27Z,1531987227,202,43.3232609,45.3860597,8999.79,0,5.8,200.5,708557.81,79826,193.1,Air+FixedWing,Blue,Enemies,E-2C,Blue AWACS,us,,146.624502,92.27950287,0.482376882,8999.794922,8838.150696,146.6244907,0.057617188,5.781338687,-0.015917441,0,0.013988227,5000,0.988811897,0.002640192,0.140107653,1074.93723,8825.783887,9900.721117,,,27,161.6442261,4015.825252,4021.794044
2018-07-19T08:00:28Z,1531987228,202,43.322609,45.38483,8999.83,0,5.8,200.5,708524.5,79682.81,193.1,Air+FixedWing,Blue,Enemies,E-2C,Blue AWACS,us,,147.0115104,92.53234863,0.483650346,8999.832031,8837.494476,147.0115057,0.037109375,5.785535079,0.003783347,0,0.013988227,5000,0.993265418,-0.002596119,0.117942533,1080.619209,8825.820279,9906.439488,,,28,162.3375549,4161.901408,4168.076324
2018-07-19T08:00:29Z,1531987229,202,43.3219562,45.3835989,8999.87,0,5.8,200.5,708491.12,79539.47,193.1,Air+FixedWing,Blue,Enemies,E-2C,Blue AWACS,us,,147.1778609,92.64082336,0.48419788,8999.870117,8836.187286,147.177856,0.038085938,5.788971415,-0.007314706,0,0.013988227,5000,1.002540342,-0.000517515,0.014807811,1083.066137,8825.857628,9908.923765,,,29,163.6828308,4308.14021,4314.521481
2018-07-19T08:00:30Z,1531987230,202,43.3213073,45.3823749,8999.9,0,5.8,200.5,708457.94,79396.95,193.1,Air+FixedWing,Blue,Enemies,E-2C,Blue AWACS,us,,146.3287883,92.08557892,0.481404716,8999.897461,8835.024261,146.3287857,0.02734375,5.789682858,0.006755652,0,0.013988227,5000,0.990621434,0.008666997,0.138059613,1070.605714,8825.884444,9896.490157,,,30,164.8731995,4453.530886,4460.117313
2018-07-19T08:00:31Z,1531987231,202,43.3206567,45.3811478,8999.92,0,5.8,200.5,708424.75,79254.06,193.1,Air+FixedWing,Blue,Enemies,E-2C,Blue AWACS,us,,146.69404,92.32437134,0.482606505,8999.919922,8832.80304,146.6940383,0.022460938,5.792748573,-0.006476766,0,0.013988227,5000,0.998974401,-0.010111497,0.057797069,1075.957069,8825.90647,9901.863539,,,31,167.1168823,4599.304998,4606.097122
2018-07-19T08:00:32Z,1531987232,202,43.3200081,45.3799243,8999.94,0,5.9,200.5,708391.56,79111.61,193.1,Air+FixedWing,Blue,Enemies,E-2C,Blue AWACS,us,,146.2679164,92.0458374,0.48120474,8999.939453,8830.744781,146.2679151,0.01953125,5.895793329,0.008151599,0,0.050435277,5000,0.988079605,0.006432003,0.158164,1069.715168,8825.925624,9895.640792,,,32,169.1946716,4744.634321,4751.631515
2018-07-19T08:00:33Z,1531987233,202,43.3193569,45.378696,8999.95,0,5.9,200.5,708358.31,78968.61,193.1,Air+FixedWing,Blue,Enemies,E-2C,Blue AWACS,us,,146.8147221,92.4032135,0.483003742,8999.950195,8828.383911,146.8147217,0.010742188,5.89425408,0.005807129,0,0.050435277,5000,1.005615855,-0.004851013,-0.001843185,1077.728131,8825.936158,9903.664289,,,33,171.5662842,4890.536533,4897.739605
2018-07-19T08:00:34Z,1531987234,202,43.3187106,45.3774767,8999.96,0,5.9,200.5,708325.25,78826.62,193.1,Air+FixedWing,Blue,Enemies,E-2C,Blue AWACS,us,,145.7830298,91.72885132,0.479609671,8999.961914,8826.948563,145.7830294,0.01171875,5.894295213,0.01027939,0,0.00989117,5000,0.988825187,-0.000678177,0.155792975,1062.634589,8825.94765,9888.58224,,,34,173.0133514,5035.371062,5042.778505
2018-07-19T08:00:35Z,1531987235,202,43.3180619,45.376253,8999.97,0,5.9,200.5,708292.06,78684.13,193.1,Air+FixedWing,Blue,Enemies,E-2C,Blue AWACS,us,,146.3059593,92.07057953,0.481330103,8999.969727,8826.471771,146.3059591,0.0078125,5.89961279,-0.026031303,0,0.00989117,5000,1.001110768,0.004899358,0.039814125,1070.271686,8825.955312,9896.226998,,,35,173.4979553,5180.737872,5188.350437
2018-07-19T08:00:36Z,1531987236,202,43.317416,45.3750343,8999.98,0,5.9,200.5,708259.06,78542.23,193.1,Air+FixedWing,Blue,Enemies,E-2C,Blue AWACS,us,,145.6851626,91.66486359,0.479287798,8999.976563,8825.016205,145.6851625,0.006835938,5.896171336,-0.001871713,0,0.00989117,5000,0.992961614,-0.003498931,0.115765588,1061.208331,8825.962016,9887.170346,,,36,174.9603577,5325.499203,5333.316036
2018-07-19T08:00:37Z,1531987237,202,43.3167694,45.3738146,8999.98,0,5.9,200.5,708226,78400.22,193.1,Air+FixedWing,Blue,Enemies,E-2C,Blue AWACS,us,,145.8134653,91.74878693,0.479709919,8999.979492,8824.483688,145.8134653,0.002929688,5.899999268,0.011154235,0,0.00989117,5000,0.998030502,0.005553363,0.070590019,1063.078333,8825.964889,9889.043222,,,37,175.4958038,5470.386195,5478.407473
2018-07-19T08:00:38Z,1531987238,202,43.3161243,45.3725974,8999.98,0,5.9,200.5,708193.06,78258.5,193.1,Air+FixedWing,Blue,Enemies,E-2C,Blue AWACS,us,,145.4959897,91.54129791,0.47866548,8999.982422,8824.631958,145.4959897,0.002929688,5.895768371,-0.01389355,0,0.00989117,5000,0.993784376,-0.009886862,0.116522751,1058.454151,8825.967762,9884.421913,,,38,175.3504639,5614.969829,5623.195125
2018-07-19T08:00:39Z,1531987239,202,43.3154788,45.3713793,8999.99,0,5.9,200.5,708160,78116.67,193.1,Air+FixedWing,Blue,Enemies,E-2C,Blue AWACS,us,,145.6308553,91.62947083,0.479109226,8999.990234,8824.414398,145.6308551,0.0078125,5.899999268,0.01045391,0,0.00989117,5000,0.996201203,0.007900675,0.080541669,1060.4173,8825.975423,9886.392724,,,39,175.5758362,5759.656554,5768.086013
2018-07-19T08:00:40Z,1531987240,202,43.3148341,45.3701628,8999.99,0,5.9,200.5,708127.06,77975.04,193.1,Air+FixedWing,Blue,Enemies,E-2C,Blue AWACS,us,,145.4122845,91.48661041,0.478390152,8999.990234,8824.343582,145.4122845,0,5.899999268,0.017465785,0,0.00989117,5000,0.991853446,-0.006636738,0.130364164,1057.236624,8825.975423,9883.212047,,,40,175.6466522,5904.152748,5912.7861
2018-07-19T08:00:41Z,1531987241,202,43.3141883,45.3689443,8999.99,0,5.9,200.5,708094,77833.16,193.1,Air+FixedWing,Blue,Enemies,E-2C,Blue AWACS,us,,145.6841151,91.66411591,0.479284445,8999.990234,8823.98291,145.6841151,0,5.899999268,0.008805516,0,0.00989117,5000,1.005335216,0.008647097,-9.63e-05,1061.193069,8825.975423,9887.168493,,,41,176.0073242,6048.896134,6057.73373
2018-07-19T08:00:42Z,1531987242,202,43.313547,45.367734,8999.99,0,5.9,200.5,708061.25,77692.24,193.1,Air+FixedWing,Blue,Enemies,E-2C,Blue AWACS,us,,144.6697464,91.00171661,0.475947285,8999.990234,8823.804504,144.6697464,0,5.898076938,-0.01949442,0,0.026169578,5000,0.989664666,-0.005982733,0.161232184,1046.466776,8825.975423,9872.442199,,,42,176.18573,6192.663268,6201.703729
2018-07-19T08:00:43Z,1531987243,202,43.3129033,45.366519,9000,0,6,200.5,708028.31,77550.78,193.1,Air+FixedWing,Blue,Enemies,E-2C,Blue AWACS,us,,145.2448823,91.37714386,0.477839484,9000,8823.514801,145.244882,0.009765625,5.998054644,0.016292864,0,0.051396036,5000,0.996845551,-0.000834567,0.072892521,1054.803792,8825.985,9880.788792,,,43,176.485199,6336.974914,6346.219009
2018-07-19T08:00:44Z,1531987244,202,43.3122608,45.3653066,9000,0,6,200.5,707995.44,77409.62,193.1,Air+FixedWing,Blue,Enemies,E-2C,Blue AWACS,us,,144.9339592,91.17410278,0.476816581,9000,8824,144.9339592,0,5.999993149,-0.010392646,0,0.027976455,5000,0.992494154,0.004514061,0.123820106,1050.292627,8825.985,9876.277627,,,44,176,6480.988255,6490.435562
2018-07-19T08:00:45Z,1531987245,202,43.3116176,45.3640926,9000,0,6,200.5,707962.56,77268.27,193.1,Air+FixedWing,Blue,Enemies,E-2C,Blue AWACS,us,,145.1241877,91.29855347,0.477442412,9000,8824.057556,145.1241877,0,5.999993149,0.012534745,0,0.013988227,5000,0.998565863,-0.002459629,0.066051578,1053.051492,8825.985,9879.036492,,,45,175.9424438,6625.192803,6634.843593
2018-07-19T08:00:46Z,1531987246,202,43.3109761,45.3628817,9000,0,6,200.5,707929.75,77127.3,193.1,Air+FixedWing,Blue,Enemies,E-2C,Blue AWACS,us,,144.74478,91.05062866,0.476194203,9000,8824.827393,144.74478,0,5.999993149,0.007098932,0,0.013988227,5000,0.999527912,0.001942114,0.056898287,1047.552567,8825.985,9873.537567,,,46,175.1726074,6769.027243,6778.880994
2018-07-19T08:00:47Z,1531987247,202,43.3103367,45.3616749,9000,0,6,200.5,707897.06,76986.77,193.1,Air+FixedWing,Blue,Enemies,E-2C,Blue AWACS,us,,144.2751162,90.74422455,0.474649061,9000,8825.594696,144.2751162,0,5.999993149,0.002153537,0,0.013988227,5000,0.990651163,-0.004469988,0.141355017,1040.765457,8825.985,9866.750457,,,47,174.405304,6912.377364,6922.433393
2018-07-19T08:00:48Z,1531987248,202,43.3096958,45.360465,9000,0,6,200.5,707864.25,76845.91,193.1,Air+FixedWing,Blue,Enemies,E-2C,Blue AWACS,us,,144.6382545,90.98123169,0.475843746,9000,8826.202438,144.6382545,0,5.999993149,0.006392224,0,0.013988227,5000,0.999041277,0.003025489,0.06152831,1046.011234,8825.985,9871.996234,,,48,173.7975616,7056.083586,7066.342394
2018-07-19T08:00:49Z,1531987249,202,43.3090567,45.3592586,9000,0,6,200.5,707831.56,76705.45,193.1,Air+FixedWing,Blue,Enemies,E-2C,Blue AWACS,us,,144.2142421,90.70466614,0.474448792,9000,8825.225235,144.2142421,0,5.999993149,-0.001376656,0,0.013988227,5000,0.99032674,-0.003747739,0.144441699,1039.887381,8825.985,9865.872381,,,49,174.774765,7199.387711,7209.848731
2018-07-19T08:00:50Z,1531987250,202,43.308416,45.3580489,9000,0,6,200.5,707798.75,76564.61,193.1,Air+FixedWing,Blue,Enemies,E-2C,Blue AWACS,us,,144.6078195,90.9615097,0.475743618,9000,8824.657104,144.6078195,0,5.999993149,-0.013537172,0,0.013988227,5000,1.002019749,0.009481664,0.033190012,1045.571072,8825.985,9871.556072,,,50,175.3428955,7343.076886,7353.740662
2018-07-19T08:00:51Z,1531987251,202,43.3077783,45.3568449,9000,0,6,200.5,707766.19,76424.44,193.1,Air+FixedWing,Blue,Enemies,E-2C,Blue AWACS,us,,143.9043813,90.50240326,0.473429385,9000,8823.735977,143.9043813,0,5.999993149,0.002153537,0,0.013988227,5000,0.992922123,-0.009525737,0.119748245,1035.423547,8825.985,9861.408547,,,51,176.2640228,7486.080143,7496.945706
2018-07-19T08:00:52Z,1531987252,202,43.3071401,45.35564,9000,0,6,200.5,707733.5,76284.14,193.1,Air+FixedWing,Blue,Enemies,E-2C,Blue AWACS,us,,144.0544543,90.60035706,0.473923108,9000,8822.766449,144.0544543,0,5.999993149,0.01960227,0,0.013988227,5000,0.992737471,0.003972374,0.121505095,1037.58429,8825.985,9863.56929,,,52,177.233551,7629.20376,7640.271281
2018-07-19T08:00:53Z,1531987253,202,43.3065011,45.3544334,9000,0,6,200.5,707700.81,76143.67,193.1,Air+FixedWing,Blue,Enemies,E-2C,Blue AWACS,us,,144.2218513,90.70961761,0.474473826,9000,8822.197449,144.2218513,0,5.999993149,0.005880516,0,0.013988227,5000,0.995495066,-0.002166749,0.0952683,1039.997119,8825.985,9865.982119,,,53,177.8025513,7772.517702,7783.787449
2018-07-19T08:00:54Z,1531987254,202,43.3058626,45.3532277,9000,0,6.1,200.5,707668.12,76003.3,193.1,Air+FixedWing,Blue,Enemies,E-2C,Blue AWACS,us,,144.1305425,90.64985657,0.47417343,9000,8824.091888,144.1305425,0,6.099987404,0.015349953,0,0.052339163,5000,1.000993684,-0.001488572,0.043983578,1038.680664,8825.985,9864.665664,,,54,175.9081116,7915.727976,7927.199802
2018-07-19T08:00:55Z,1531987255,202,43.3052268,45.3520272,9000,0,6.1,200.5,707635.56,75863.52,193.1,Air+FixedWing,Blue,Enemies,E-2C,Blue AWACS,us,,143.5163065,90.2492218,0.472152662,9000,8826.295319,143.5163065,0,6.099987404,-0.011703461,0,0.052339163,5000,0.989814385,0.003362441,0.148591143,1029.846512,8825.985,9855.831512,,,55,173.7046814,8058.316042,8069.989071
2018-07-19T08:00:56Z,1531987256,202,43.3045892,45.3508231,9000,0,6.1,200.5,707602.94,75723.34,193.1,Air+FixedWing,Blue,Enemies,E-2C,Blue AWACS,us,,143.9337548,90.52146912,0.47352602,9000,8827.990341,143.9337548,0,6.099987404,0.007045975,0,0.01713201,5000,0.998932375,0.003025489,0.063271771,1035.846289,8825.985,9861.831289,,,56,172.0096588,8201.338221,8213.213064
2018-07-19T08:00:57Z,1531987257,202,43.3039534,45.3496224,9000,0,6.1,200.5,707570.44,75583.55,193.1,Air+FixedWing,Blue,Enemies,E-2C,Blue AWACS,us,,143.5097483,90.24501801,0.472131086,9000,8829.709167,143.5097483,0,6.099987404,0.006591097,0,0.01713201,5000,0.994596621,-0.00711018,0.103842536,1029.752393,8825.985,9855.737393,,,57,170.2908325,8343.952363,8356.028444
2018-07-19T08:00:58Z,1531987258,202,43.3033179,45.3484221,9000,0,6.1,200.5,707537.88,75443.81,193.1,Air+FixedWing,Blue,Enemies,E-2C,Blue AWACS,us,,143.4858717,90.2293396,0.472052535,9000,8831.017242,143.4858717,0,6.099987404,-0.002189894,0,0.01713201,5000,0.993678238,0.0014445,0.112436075,1029.409769,8825.985,9855.394769,,,58,168.9827576,8486.52504,8498.802302
2018-07-19T08:00:59Z,1531987259,202,43.3026821,45.3472213,9000,0,6.1,200.5,707505.31,75304.01,193.1,Air+FixedWing,Blue,Enemies,E-2C,Blue AWACS,us,,143.5467417,90.26911163,0.47225279,9000,8830.401978,143.5467417,0,6.099987404,0.004131476,0,0.01713201,5000,0.997530685,0.00609505,0.076387742,1030.283353,8825.985,9856.268353,,,59,169.5980225,8629.150892,8641.629409
2018-07-19T08:01:00Z,1531987260,202,43.3020476,45.3460228,9000,0,6.1,200.5,707472.88,75164.48,193.1,Air+FixedWing,Blue,Enemies,E-2C,Blue AWACS,us,,143.2520895,90.07698059,0.471283417,9000,8828.580765,143.2520895,0,6.099987404,0.017483044,0,0.01713201,5000,0.997058785,-0.00595856,0.080803439,1026.058057,8825.985,9852.043057,,,60,171.4192352,8771.501328,8784.180711
2018-07-19T08:01:01Z,1531987261,202,43.3014144,45.3448265,9000,0,6.1,200.5,707440.44,75025.2,193.1,Air+FixedWing,Blue,Enemies,E-2C,Blue AWACS,us,,143.0009853,89.91323853,0.470457313,9000,8827.488861,143.0009853,0,6.099987404,-0.026603559,0,0.01713201,5000,0.99301862,0.002888999,0.118608297,1022.46409,8825.985,9848.44909,,,61,172.5111389,8913.58928,8926.469159
2018-07-19T08:01:02Z,1531987262,202,43.3007805,45.3436291,9000,0,6.1,200.5,707408,74885.8,193.1,Air+FixedWing,Blue,Enemies,E-2C,Blue AWACS,us,,143.1227298,89.99265289,0.470857838,9000,8825.291351,143.1227298,0,6.099987404,-0.006581177,0,0.01713201,5000,0.995244833,-0.001986187,0.097777049,1024.205789,8825.985,9850.190789,,,62,174.7086487,9055.809774,9068.890336
2018-07-19T08:01:03Z,1531987263,202,43.3001471,45.3424325,9000,0,6.1,200.5,707375.56,74746.49,193.1,Air+FixedWing,Blue,Enemies,E-2C,Blue AWACS,us,,143.0390299,89.93818665,0.470582475,9000,8822.998077,143.0390299,0,6.099987404,0.027976677,0,0.01713201,5000,0.997212283,0.000248807,0.079367118,1023.008203,8825.985,9848.993203,,,63,177.0019226,9197.939792,9211.22091
2018-07-19T08:01:04Z,1531987264,202,43.2995149,45.3412381,9000,0,6.1,200.5,707343.19,74607.44,193.1,Air+FixedWing,Blue,Enemies,E-2C,Blue AWACS,us,,142.7737607,89.76533508,0.469709769,9000,8819.668945,142.7737607,0,6.099987404,0.012245117,0,0.01713201,5000,0.987517125,0.001849697,0.170087184,1019.217337,8825.985,9845.202337,,,64,180.3310547,9339.800452,9353.281745
2018-07-19T08:01:05Z,1531987265,202,43.2988798,45.3400383,9000,0,6.1,200.5,707310.69,74467.77,193.1,Air+FixedWing,Blue,Enemies,E-2C,Blue AWACS,us,,143.4032171,90.17577362,0.47178061,9000,8815.761215,143.4032171,0,6.099987404,0.004653812,0,0.01713201,5000,1.007072345,-0.001713207,-0.012896003,1028.224133,8825.985,9854.209133,,,65,184.2387848,9482.309229,9495.991611
2018-07-19T08:01:06Z,1531987266,202,43.2982502,45.3388485,9000,0,6.1,200.5,707278.44,74329.24,193.1,Air+FixedWing,Blue,Enemies,E-2C,Blue AWACS,us,,142.2280044,89.40976715,0.467914291,9000,8813.578903,142.2280044,0,6.099987404,-0.004003692,0,0.037009373,5000,0.988660052,0.005890315,0.159392531,1011.440262,8825.985,9837.425262,,,66,186.4210968,9623.625304,9637.507094
2018-07-19T08:01:07Z,1531987267,202,43.297618,45.3376541,9000,0,6.2,200.5,707246.12,74190.2,193.1,Air+FixedWing,Blue,Enemies,E-2C,Blue AWACS,us,,142.7519916,89.75110626,0.469638151,9000,8811.209595,142.7519916,0,6.200008228,-0.008870152,0,0.052339163,5000,0.996245854,-0.004514061,0.088714936,1018.906555,8825.985,9844.891555,,,67,188.7904053,9765.487568,9779.569536
2018-07-19T08:01:08Z,1531987268,202,43.2969869,45.3364614,9000,0,6.2,200.5,707213.81,74051.34,193.1,Air+FixedWing,Blue,Enemies,E-2C,Blue AWACS,us,,142.5617553,89.6272049,0.469012295,9000,8809.599884,142.5617553,0,6.200008228,0.021311393,0,0.024228322,5000,0.988571118,-0.007607795,0.159362,1016.192703,8825.985,9842.177703,,,68,190.400116,9907.14624,9921.428098
2018-07-19T08:01:09Z,1531987269,202,43.2963536,45.3352646,9000,0,6.2,200.5,707181.31,73912.02,193.1,Air+FixedWing,Blue,Enemies,E-2C,Blue AWACS,us,,143.0684326,89.95736694,0.470679207,9000,8807.31601,143.0684326,0,6.200008228,-0.00858225,0,0.013988227,5000,1.002735811,0.00767604,0.028973945,1023.428821,8825.985,9849.413821,,,69,192.6839905,10049.28868,10063.77111
2018-07-19T08:01:10Z,1531987270,202,43.2957237,45.3340742,9000,0,6.2,200.5,707149.06,73773.43,193.1,Air+FixedWing,Blue,Enemies,E-2C,Blue AWACS,us,,142.2888772,89.4495163,0.468114556,9000,8804.887573,142.2888772,0,6.200008228,0.006735095,0,0.013988227,5000,0.995144873,0.004401743,0.098849626,1012.306229,8825.985,9838.291229,,,70,195.1124268,10190.67124,10205.35317
2018-07-19T08:01:11Z,1531987271,202,43.2950942,45.3328844,9000,0,6.2,200.5,707116.88,73634.92,193.1,Air+FixedWing,Blue,Enemies,E-2C,Blue AWACS,us,,142.1986262,89.39047241,0.46781764,9000,8803.459808,142.1986262,0,6.200008228,-0.007865918,0,0.013988227,5000,0.992498082,-0.009525737,0.123213728,1011.022464,8825.985,9837.007464,,,71,196.5401917,10331.98599,10346.86732
2018-07-19T08:01:12Z,1531987272,202,43.2944642,45.3316936,9000,0,6.2,200.5,707084.56,73496.29,193.1,Air+FixedWing,Blue,Enemies,E-2C,Blue AWACS,us,,142.3487069,89.48809052,0.468311389,9000,8802.030853,142.3487069,0,6.200008228,0.005302162,0,0.013988227,5000,0.997982449,0.004831113,0.072729329,1013.157718,8825.985,9839.142718,,,72,197.9691467,10473.41602,10488.49692
2018-07-19T08:01:13Z,1531987273,202,43.2938356,45.3305055,9000,0,6.2,200.5,707052.38,73357.98,193.1,Air+FixedWing,Blue,Enemies,E-2C,Blue AWACS,us,,142.0007808,89.26181793,0.467166751,9000,8799.970535,142.0007808,0,6.200008228,0.014610533,0,0.013988227,5000,0.990391512,0.001556817,0.14260501,1008.211087,8825.985,9834.196087,,,73,200.0294647,10614.5306,10629.81063
2018-07-19T08:01:14Z,1531987274,202,43.2932056,45.3293146,9000,0,6.2,200.5,707020.12,73219.34,193.1,Air+FixedWing,Blue,Enemies,E-2C,Blue AWACS,us,,142.342142,89.4838562,0.468289792,9000,8798.050751,142.342142,0,6.200008228,-0.004999826,0,0.013988227,5000,1.0030826,0.000385297,0.025781699,1013.06427,8825.985,9839.04927,,,74,201.9492493,10755.97192,10771.45153
2018-07-19T08:01:15Z,1531987275,202,43.2925791,45.3281304,9000,0,6.2,200.5,706988.06,73081.49,193.1,Air+FixedWing,Blue,Enemies,E-2C,Blue AWACS,us,,141.5311174,88.95585632,0.465621611,9000,8795.851196,141.5311174,0,6.200008228,0.024178861,0,0.013988227,5000,0.98339876,-0.009549909,0.206974298,1001.552859,8825.985,9827.537859,,,75,204.1488037,10896.62095,10912.29903
2018-07-19T08:01:16Z,1531987276,202,43.2919485,45.3269383,9000,0,6.2,200.5,706955.69,72942.71,193.1,Air+FixedWing,Blue,Enemies,E-2C,Blue AWACS,us,,142.5074594,89.59177399,0.468833667,9000,8794.324432,142.5074594,0,6.200008228,0.000643755,0,0.013988227,5000,0.999144043,0.008871732,0.062036686,1015.418799,8825.985,9841.403799,,,76,205.6755676,11038.20357,11054.08143
2018-07-19T08:01:17Z,1531987277,202,43.2913199,45.3257498,9000,0,6.2,200.5,706923.5,72804.35,193.1,Air+FixedWing,Blue,Enemies,E-2C,Blue AWACS,us,,142.0540454,89.29621887,0.467341986,9000,8792.483307,142.0540454,0,6.200008228,-0.013050262,0,0.013988227,5000,1.000915417,-0.001488572,0.045730935,1008.96759,8825.985,9834.95259,,,77,207.5166931,11179.36192,11195.43896
2018-07-19T08:01:18Z,1531987278,202,43.290694,45.3245664,9000,0,6.2,200.5,706891.44,72666.59,193.1,Air+FixedWing,Blue,Enemies,E-2C,Blue AWACS,us,,141.4398063,88.89608765,0.465321208,9000,8790.478119,141.4398063,0,6.200008228,-0.013174689,0,0.013988227,5000,0.989313716,-0.002664364,0.15252627,1000.260941,8825.985,9826.245941,,,78,209.5218811,11319.90936,11336.18472
2018-07-19T08:01:19Z,1531987279,202,43.2900663,45.3233794,9000,0,6.2,200.5,706859.25,72528.41,193.1,Air+FixedWing,Blue,Enemies,E-2C,Blue AWACS,us,,141.8790372,89.18213654,0.466766228,9000,8789.053802,141.8790372,0,6.200008228,0.019176898,0,0.013988227,5000,0.998652842,0.003386614,0.066558268,1006.48306,8825.985,9832.46806,,,79,210.9461975,11460.87724,11477.35152
2018-07-19T08:01:20Z,1531987280,202,43.2894403,45.3221957,9000,0,6.2,200.5,706827.19,72390.62,193.1,Air+FixedWing,Blue,Enemies,E-2C,Blue AWACS,us,,141.470243,88.91627502,0.465421341,9000,8786.633362,141.470243,0,6.200008228,0.010752009,0,0.013988227,5000,0.988475726,-0.00085874,0.160240097,1000.691483,8825.985,9826.676483,,,80,213.3666382,11601.45983,11618.13249
2018-07-19T08:01:21Z,1531987281,202,43.2888121,45.3210079,9000,0,6.2,200.5,706795,72252.34,193.1,Air+FixedWing,Blue,Enemies,E-2C,Blue AWACS,us,,141.9855625,89.25176239,0.467116685,9000,8785.207977,141.9855625,0,6.200008228,0.002808528,0,0.050435277,5000,1.002328409,0.002010359,0.032724144,1007.994998,8825.985,9833.979998,,,81,214.7920227,11742.5361,11759.40782
2018-07-19T08:01:22Z,1531987282,202,43.2881871,45.319826,9000,0,6.3,200.5,706763,72114.77,193.1,Air+FixedWing,Blue,Enemies,E-2C,Blue AWACS,us,,141.2430206,88.76826477,0.464673805,9000,8783.789703,141.2430206,0,6.300002825,0.010284467,0,0.050435277,5000,0.992950835,-0.004401743,0.118882483,997.4795441,8825.985,9823.464544,,,82,216.2102966,11882.9039,11899.9737
2018-07-19T08:01:23Z,1531987283,202,43.2875619,45.3186436,9000,0,6.3,200.5,706730.94,71977.12,193.1,Air+FixedWing,Blue,Enemies,E-2C,Blue AWACS,us,,141.3332808,88.82695007,0.46497075,9000,8782.370758,141.3332808,0,6.300002825,-0.02416491,0,0,5000,0.99234304,0.003430686,0.124387823,998.7548126,8825.985,9824.739813,,,83,217.6292419,12023.3359,12040.60385
2018-07-19T08:01:24Z,1531987284,202,43.286936,45.3174599,9000,0,6.3,200.5,706698.88,71839.32,193.1,Air+FixedWing,Blue,Enemies,E-2C,Blue AWACS,us,,141.4778522,88.92092896,0.465446374,9000,8780.950378,141.4778522,0,6.300002825,0.024724863,0,0,5000,0.999738891,-0.005709753,0.057397065,1000.799133,8825.985,9826.784133,,,84,219.0496216,12163.91445,12181.38077
2018-07-19T08:01:25Z,1531987285,202,43.2863125,45.3162806,9000,0,6.3,200.5,706666.88,71702.04,193.1,Air+FixedWing,Blue,Enemies,E-2C,Blue AWACS,us,,140.9614898,88.58496857,0.463747599,9000,8779.535248,140.9614898,0,6.300002825,-0.004528512,0,0,5000,0.984022371,0.00798882,0.199755472,993.5070801,8825.985,9819.49208,,,85,220.4647522,12303.96928,12321.63323
2018-07-19T08:01:26Z,1531987286,202,43.285685,45.3150936,9000,0,6.3,200.5,706634.75,71563.88,193.1,Air+FixedWing,Blue,Enemies,E-2C,Blue AWACS,us,,141.8496521,89.16317749,0.466669554,9000,8778.091217,141.8496521,0,6.300002825,0.020389483,0,0,5000,1.006612092,-0.007198325,-0.004859588,1006.06619,8825.985,9832.05119,,,86,221.908783,12444.94468,12462.80755
2018-07-19T08:01:27Z,1531987287,202,43.2850626,45.3139163,9000,0,6.3,200.5,706602.81,71426.83,193.1,Air+FixedWing,Blue,Enemies,E-2C,Blue AWACS,us,,140.7190458,88.42703247,0.462949986,9000,8776.698029,140.7190458,0,6.300002825,-0.017263758,0,0,5000,0.987586689,0.00697369,0.167470293,990.0924927,8825.985,9816.077493,,,87,223.3019714,12584.76473,12602.8249
2018-07-19T08:01:28Z,1531987288,202,43.2844376,45.312734,9000,0,6.3,200.5,706570.81,71289.21,193.1,Air+FixedWing,Blue,Enemies,E-2C,Blue AWACS,us,,141.2886772,88.79781342,0.464824009,9000,8775.279327,141.2886772,0,6.300002825,0.014122808,0,0,5000,0.998546859,-0.003181879,0.068194356,998.1245148,8825.985,9824.109515,,,88,224.7206726,12725.17453,12743.43283
2018-07-19T08:01:29Z,1531987289,202,43.2838146,45.3115554,9000,0,6.3,200.5,706538.88,71152,193.1,Air+FixedWing,Blue,Enemies,E-2C,Blue AWACS,us,,140.8788319,88.53118896,0.463475664,9000,8773.864929,140.8788319,0,6.300002825,0.011949733,0,0,5000,0.990737061,0.00029288,0.138934595,992.3422638,8825.985,9818.327264,,,89,226.1350708,12865.15286,12883.60867
2018-07-19T08:01:30Z,1531987290,202,43.2831902,45.3103742,9000,0,6.3,200.5,706506.88,71014.51,193.1,Air+FixedWing,Blue,Enemies,E-2C,Blue AWACS,us,,141.1669282,88.7184906,0.464423469,9000,8773.076263,141.1669282,0,6.300002825,-0.012204321,0,0,5000,1.000237983,-0.000224635,0.052876349,996.4050812,8825.985,9822.390081,,,90,226.9237366,13005.43106,13024.08481
2018-07-19T08:01:31Z,1531987291,202,43.2825684,45.3091977,9000,0,6.3,200.5,706475,70877.56,193.1,Air+FixedWing,Blue,Enemies,E-2C,Blue AWACS,us,,140.6059538,88.3536377,0.462577926,9000,8772.919601,140.6059538,0,6.300002825,-0.00597895,0,0,5000,0.990311335,0.001195692,0.142790771,988.501712,8825.985,9814.486712,,,91,227.0803986,13145.1539,13164.00481
2018-07-19T08:01:32Z,1531987292,202,43.2819452,45.3080185,9000,0,6.3,200.5,706443.06,70740.3,193.1,Air+FixedWing,Blue,Enemies,E-2C,Blue AWACS,us,,140.9320961,88.56586456,0.463650898,9000,8772.412491,140.9320961,0,6.300002825,0.010501407,0,0,5000,0.994142868,-0.006929618,0.108085192,993.0927856,8825.985,9819.077786,,,92,227.5875092,13285.19318,13304.2417
2018-07-19T08:01:33Z,1531987293,202,43.2813222,45.3068396,9000,0,6.3,200.5,706411.06,70603.06,193.1,Air+FixedWing,Blue,Enemies,E-2C,Blue AWACS,us,,140.915839,88.55496216,0.463597413,9000,8772.0849,140.915839,0,6.300002825,0.017265778,0,0,5000,0.9985233,0.009955107,0.068407745,992.8636841,8825.985,9818.848684,,,93,227.9151001,13425.20258,13444.44866
2018-07-19T08:01:34Z,1531987294,202,43.2807007,45.3056638,9000,0,6.3,200.5,706379.25,70466.2,193.1,Air+FixedWing,Blue,Enemies,E-2C,Blue AWACS,us,,140.5080912,88.28993988,0.462255968,9000,8771.95285,140.5080912,0,6.300002825,0.002002345,0,0,5000,0.990833985,-0.006456175,0.138056666,987.1261841,8825.985,9813.111184,,,94,228.0471497,13564.84387,13584.28699
2018-07-19T08:01:35Z,1531987295,202,43.2800783,45.3044859,9000,0,6.3,200.5,706347.31,70329.09,193.1,Air+FixedWing,Blue,Enemies,E-2C,Blue AWACS,us,,140.7875244,88.47151947,0.463175273,9000,8771.904724,140.7875244,0,6.300002825,0.006621378,0,0,5000,0.99251333,0.003069561,0.122845353,991.0563507,8825.985,9817.041351,,,95,228.0952759,13704.72693,13724.36744
2018-07-19T08:01:36Z,1531987296,202,43.2794552,45.3033068,9000,0,6.3,200.5,706315.38,70191.84,193.1,Air+FixedWing,Blue,Enemies,E-2C,Blue AWACS,us,,140.9168776,88.55573273,0.46360083,9000,8771.619019,140.9168776,0,6.300002825,0.012901254,0,0,5000,0.999556822,0.001219865,0.05904623,992.8783203,8825.985,9818.86332,,,96,228.3809814,13844.76196,13864.60007
2018-07-19T08:01:37Z,1531987297,202,43.2788345,45.3021318,9000,0,6.3,200.5,706283.56,70055.07,193.1,Air+FixedWing,Blue,Enemies,E-2C,Blue AWACS,us,,140.4167773,88.2305069,0.461955556,9000,8770.95401,140.4167773,0,6.300002825,-0.016736081,0,0,5000,0.995833992,-0.003972374,0.092767185,985.8435669,8825.985,9811.828567,,,97,229.04599,13984.2936,14004.3286
2018-07-19T08:01:38Z,1531987298,202,43.2782144,45.3009584,9000,0,6.3,200.5,706251.75,69918.48,193.1,Air+FixedWing,Blue,Enemies,E-2C,Blue AWACS,us,,140.2493768,88.12130737,0.461404827,9000,8770.289917,140.2493768,0,6.300002825,0.009522335,0,0,5000,0.990992496,-0.000248807,0.13662089,983.4943848,8825.985,9809.479385,,,98,229.710083,14123.6528,14143.88445
2018-07-19T08:01:39Z,1531987299,202,43.2775933,45.2997827,9000,0,6.4,200.5,706219.88,69781.62,193.1,Air+FixedWing,Blue,Enemies,E-2C,Blue AWACS,us,,140.5146462,88.29385376,0.462277534,9000,8769.737701,140.5146462,0,6.399996696,-0.00162701,0,0.049455859,5000,0.997549473,0.005192238,0.077754465,987.2182892,8825.985,9813.203289,,,99,230.2622986,14263.27629,14283.70496
2018-07-19T08:01:40Z,1531987300,202,43.2769736,45.2986097,9000,0,6.4,200.5,706188.12,69645.09,193.1,Air+FixedWing,Blue,Enemies,E-2C,Blue AWACS,us,,140.1819464,88.07782745,0.461182988,9000,8768.330078,140.1819464,0,6.399996696,0.014840239,0,0.049455859,5000,0.990332088,-0.005914488,0.142098942,982.5489044,8825.985,9808.533904,,,100,231.6699219,14402.57934,14423.20457
2018-07-19T08:01:41Z,1531987301,202,43.2763527,45.2974342,9000,0,6.4,200.5,706156.25,69508.27,193.1,Air+FixedWing,Blue,Enemies,E-2C,Blue AWACS,us,,140.484211,88.27429962,0.462177405,9000,8767.345306,140.484211,0,6.399996696,-0.012675964,0,0.00989117,5000,0.998846838,0.002483802,0.066188184,986.7906769,8825.985,9812.775677,,,101,232.6546936,14542.17308,14562.99529
2018-07-19T08:01:42Z,1531987302,202,43.2757337,45.2962625,9000,0,6.4,200.5,706124.5,69371.88,193.1,Air+FixedWing,Blue,Enemies,E-2C,Blue AWACS,us,,140.0373703,87.98334503,0.460707349,9000,8766.513519,140.0373703,0,6.399996696,0.012176474,0,0.00989117,5000,0.991432541,0.004875186,0.132288179,980.5232544,8825.985,9806.508254,,,102,233.4864807,14681.31685,14702.3354
2018-07-19T08:01:43Z,1531987303,202,43.2751138,45.2950889,9000,0,6.4,200.5,706092.75,69235.27,193.1,Air+FixedWing,Blue,Enemies,E-2C,Blue AWACS,us,,140.2428229,88.11739349,0.461383265,9000,8765.105194,140.2428229,0,6.399996696,-0.004813005,0,0.00989117,5000,0.99136998,-0.008081237,0.132845917,983.4024689,8825.985,9809.387469,,,103,234.8948059,14820.69049,14841.9057
2018-07-19T08:01:44Z,1531987304,202,43.2744931,45.2939137,9000,0,6.4,200.5,706060.88,69098.48,193.1,Air+FixedWing,Blue,Enemies,E-2C,Blue AWACS,us,,140.4537762,88.25436401,0.462077278,9000,8763.694946,140.4537762,0,6.399996696,0.004572,0,0.00989117,5000,1.003406932,0.006050978,0.025534007,986.3631622,8825.985,9812.348162,,,104,236.3050537,14960.25033,14981.66248
2018-07-19T08:01:45Z,1531987305,202,43.273876,45.2927455,9000,0,6.4,200.5,706029.25,68962.51,193.1,Air+FixedWing,Blue,Enemies,E-2C,Blue AWACS,us,,139.6057527,87.70282745,0.459287375,9000,8763.101852,139.6057527,0,6.399996696,0.000276756,0,0.00989117,5000,0.984907084,-0.00767604,0.190463973,974.4883087,8825.985,9800.473309,,,105,236.8981476,15098.98349,15120.5914
2018-07-19T08:01:46Z,1531987306,202,43.2732557,45.2915709,9000,0,6.4,200.5,705997.38,68825.79,193.1,Air+FixedWing,Blue,Enemies,E-2C,Blue AWACS,us,,140.3852992,88.20977783,0.461851997,9000,8761.883575,140.3852992,0,6.399996696,-0.002014258,0,0.00989117,5000,1.001763603,0.009481664,0.040184629,985.4016113,8825.985,9811.386611,,,106,238.1164246,15238.4701,15260.27483
2018-07-19T08:01:47Z,1531987307,202,43.2726384,45.290402,9000,0,6.4,200.5,705965.75,68689.73,193.1,Air+FixedWing,Blue,Enemies,E-2C,Blue AWACS,us,,139.6818478,87.75240326,0.45953772,9000,8760.480927,139.6818478,0,6.399996696,0.013382469,0,0.00989117,5000,0.986451957,-0.004357671,0.17669111,975.5509308,8825.985,9801.535931,,,107,239.5190735,15377.27962,15399.28022
2018-07-19T08:01:48Z,1531987308,202,43.2720184,45.2892278,9000,0,6.4,200.5,705933.94,68553.06,193.1,Air+FixedWing,Blue,Enemies,E-2C,Blue AWACS,us,,140.3254666,88.17102814,0.461655154,9000,8759.071808,140.3254666,0,6.399996696,0.00437599,0,0.00989117,5000,0.996523546,0.000790495,0.086900816,984.5618286,8825.985,9810.546829,,,108,240.9281921,15516.72695,15538.92432
2018-07-19T08:01:49Z,1531987309,202,43.2713995,45.2880557,9000,0,6.4,200.5,705902.19,68416.62,193.1,Air+FixedWing,Blue,Enemies,E-2C,Blue AWACS,us,,140.083025,88.01315308,0.460857548,9000,8757.665344,140.083025,0,6.399996696,0.004839167,0,0.00989117,5000,1.004370299,-0.002503702,0.016945394,981.1626953,8825.985,9807.147695,,,109,242.3346558,15655.91074,15678.30451
2018-07-19T08:01:50Z,1531987310,202,43.2707846,45.2868913,9000,0,6.4,200.5,705870.62,68281.1,193.1,Air+FixedWing,Blue,Enemies,E-2C,Blue AWACS,us,,139.1502552,87.40681458,0.457788839,9000,8756.268005,139.1502552,0,6.399996696,-0.008301468,0,0.00989117,5000,0.985142626,0.004919258,0.188364063,968.1396759,8825.985,9794.124676,,,110,243.7319946,15794.19184,15816.78073
2018-07-19T08:01:51Z,1531987311,202,43.2701665,45.2857205,9000,0,6.4,200.5,705838.94,68144.83,193.1,Air+FixedWing,Blue,Enemies,E-2C,Blue AWACS,us,,139.9090684,87.90014648,0.46028525,9000,8754.863037,139.9090684,0,6.399996696,0.020699001,0,0.00989117,5000,0.993779764,-0.006568493,0.1113622,978.7273712,8825.985,9804.712371,,,111,245.1369629,15933.22682,15956.01191
2018-07-19T08:01:52Z,1531987312,202,43.2695484,45.2845498,9000,0,6.4,200.5,705807.19,68008.57,193.1,Air+FixedWing,Blue,Enemies,E-2C,Blue AWACS,us,,139.9080197,87.89936066,0.4602818,9000,8753.458252,139.9080197,0,6.399996696,-0.00319428,0,0.00989117,5000,0.996091091,0.001693307,0.090756243,978.7126984,8825.985,9804.697698,,,112,246.541748,16072.24536,16095.22661
2018-07-19T08:01:53Z,1531987313,202,43.2689312,45.2833808,9000,0,6.4,200.5,705775.5,67872.51,193.1,Air+FixedWing,Blue,Enemies,E-2C,Blue AWACS,us,,139.7036204,87.76655579,0.459609349,9000,8752.055481,139.7036204,0,6.399996696,-0.006842669,0,0.00989117,5000,0.992989379,0.001625062,0.118408642,975.8550781,8825.985,9801.840078,,,113,247.944519,16211.06163,16234.23876
2018-07-19T08:01:54Z,1531987314,202,43.2683138,45.2822112,9000,0,6.4,200.5,705743.81,67736.38,193.1,Air+FixedWing,Blue,Enemies,E-2C,Blue AWACS,us,,139.7721013,87.81097412,0.459834644,9000,8749.651978,139.7721013,0,6.399996696,-0.004493478,0,0.00989117,5000,1.004110826,-0.001962014,0.019258651,976.8120148,8825.985,9802.797015,,,114,250.3480225,16349.951,16373.32411
2018-07-19T08:01:55Z,1531987315,202,43.2677004,45.2810492,9000,0,6.4,200.5,705712.31,67601.13,193.1,Air+FixedWing,Blue,Enemies,E-2C,Blue AWACS,us,,138.8621593,87.21945953,0.456841036,9000,8748.257538,138.8621593,0,6.399996696,0.02409499,0,0.00989117,5000,0.982905825,0.003045389,0.208305609,964.134964,8825.985,9790.119964,,,115,251.7424622,16487.94249,16511.51031
2018-07-19T08:01:56Z,1531987316,202,43.2670828,45.2798792,9000,0,6.4,200.5,705680.62,67464.95,193.1,Air+FixedWing,Blue,Enemies,E-2C,Blue AWACS,us,,139.8177562,87.8408432,0.459984843,9000,8747,139.8177562,0,6.399996696,0.000180443,0,0.00989117,5000,0.994880216,0.004221181,0.101551438,977.4502472,8825.985,9803.435247,,,116,253,16626.88195,16650.64583
2018-07-19T08:01:57Z,1531987317,202,43.2664656,45.2787099,9000,0,6.4,200.5,705649,67328.86,193.1,Air+FixedWing,Blue,Enemies,E-2C,Blue AWACS,us,,139.7198963,87.7771759,0.459662895,9000,8746.450378,139.7198963,0,6.399996696,-0.000551204,0,0.00989117,5000,0.997400422,-0.007583622,0.079083289,976.0824707,8825.985,9802.067471,,,117,253.5496216,16765.73415,16789.69396
2018-07-19T08:01:58Z,1531987318,202,43.2658499,45.2775435,9000,0,6.4,200.5,705617.38,67193.09,193.1,Air+FixedWing,Blue,Enemies,E-2C,Blue AWACS,us,,139.4003069,87.56932831,0.458611482,9000,8745.050629,139.4003069,0,6.399996696,0.008446043,0,0.00989117,5000,0.997549473,0.005192238,0.077754465,971.6222778,8825.985,9797.607278,,,118,254.9493713,16904.24967,16928.40493
2018-07-19T08:01:59Z,1531987319,202,43.2652357,45.2763796,9000,0,6.4,200.5,705585.88,67057.64,193.1,Air+FixedWing,Blue,Enemies,E-2C,Blue AWACS,us,,139.0676061,87.35309601,0.457516933,9000,8743.654053,139.0676061,0,6.399996696,-0.00611315,0,0.00989117,5000,0.990937525,-0.007178425,0.136701344,966.9899536,8825.985,9792.974954,,,119,256.3459473,17042.4516,17066.80188
2018-07-19T08:02:00Z,1531987320,202,43.2646206,45.275214,9000,0,6.4,200.5,705554.25,66921.96,193.1,Air+FixedWing,Blue,Enemies,E-2C,Blue AWACS,us,,139.3166114,87.51493073,0.458336133,9000,8742.255249,139.3166114,0,6.399996696,-0.007423338,0,0.00989117,5000,0.98755241,0.006432003,0.166880347,970.4559113,8825.985,9796.440911,,,120,257.744751,17180.87046,17205.41606
2018-07-19T08:02:01Z,1531987321,202,43.2640028,45.2740435,9000,0,6.5,200.5,705522.56,66785.73,193.1,Air+FixedWing,Blue,Enemies,E-2C,Blue AWACS,us,,139.8634119,87.87030792,0.460135046,9000,8740.850708,139.8634119,0,6.499990465,0.030987943,0,0.050435277,5000,1.005041901,-0.003948201,0.012530747,978.0886993,8825.985,9804.073699,,,121,259.149292,17319.85965,17344.60137
2018-07-19T08:02:02Z,1531987322,202,43.2633897,45.2728815,9000,0,6.5,200.5,705491.06,66650.48,193.1,Air+FixedWing,Blue,Enemies,E-2C,Blue AWACS,us,,138.8697681,87.22460175,0.456866068,9000,8739.456238,138.8697681,0,6.499990465,0.000360535,0,0.050435277,5000,0.989279916,0.002279067,0.150872127,964.240625,8825.985,9790.225625,,,122,260.5437622,17457.84963,17482.78606
2018-07-19T08:02:03Z,1531987323,202,43.2627748,45.2717161,9000,0,6.5,200.5,705459.5,66514.87,193.1,Air+FixedWing,Blue,Enemies,E-2C,Blue AWACS,us,,139.2415633,87.46601868,0.458089233,9000,8738.057861,139.2415633,0,6.499990465,0.008968202,0,0,5000,0.996019032,0.001512744,0.09172357,969.4106476,8825.985,9795.395648,,,123,261.9421387,17596.22727,17621.35896
2018-07-19T08:02:04Z,1531987324,202,43.2621609,45.2705527,9000,0,6.5,200.5,705428,66379.45,193.1,Air+FixedWing,Blue,Enemies,E-2C,Blue AWACS,us,,139.0295592,87.32820129,0.457391763,9000,8736.661743,139.0295592,0,6.499990465,-0.00551493,0,0,5000,0.992002851,-0.003318369,0.126973195,966.4609161,8825.985,9792.445916,,,124,263.3382568,17734.38193,17759.70857
2018-07-19T08:02:05Z,1531987325,202,43.2615465,45.2693882,9000,0,6.5,200.5,705396.44,66243.91,193.1,Air+FixedWing,Blue,Enemies,E-2C,Blue AWACS,us,,139.165473,87.41667938,0.457838904,9000,8735.264282,139.165473,0,6.499990465,-0.013155261,0,0,5000,0.999168999,0.001580989,0.064076624,968.3514435,8825.985,9794.336443,,,125,264.7357178,17872.66451,17898.18627
2018-07-19T08:02:06Z,1531987326,202,43.2609342,45.2682276,9000,0,6.5,200.5,705365,66108.84,193.1,Air+FixedWing,Blue,Enemies,E-2C,Blue AWACS,us,,138.6805889,87.10146332,0.456243689,9000,8733.871613,138.6805889,0,6.499990465,0.007502783,0,0,5000,0.987535335,-0.000678177,0.16618414,961.6152863,8825.985,9787.600286,,,126,266.1283875,18010.47787,18036.1941
2018-07-19T08:02:07Z,1531987327,202,43.2603197,45.2670627,9000,0,6.5,200.5,705333.44,65973.27,193.1,Air+FixedWing,Blue,Enemies,E-2C,Blue AWACS,us,,139.2035179,87.44114685,0.457964068,9000,8732.473694,139.2035179,0,6.499990465,0.017774736,0,0,5000,0.994889308,-0.002708437,0.10163905,968.8809692,8825.985,9794.865969,,,127,267.5263062,18148.80385,18174.71527
2018-07-19T08:02:08Z,1531987328,202,43.2597057,45.2658988,9000,0,6.5,200.5,705301.88,65837.8,193.1,Air+FixedWing,Blue,Enemies,E-2C,Blue AWACS,us,,139.0893849,87.3673172,0.457588583,9000,8730.725098,139.0893849,0,6.499990465,0.013366381,0,0,5000,0.991815026,0.003611249,0.128621714,967.2928497,8825.985,9793.27785,,,128,269.2749023,18287.01151,18313.11795
2018-07-19T08:02:09Z,1531987329,202,43.259091,45.2647335,9000,0,6.5,200.5,705270.31,65702.19,193.1,Air+FixedWing,Blue,Enemies,E-2C,Blue AWACS,us,,139.2415633,87.46601868,0.458089233,9000,8729.61792,139.2415633,0,6.499990465,-0.008450734,0,0,5000,0.996282542,0.000971057,0.08941077,969.4106476,8825.985,9795.395648,,,129,270.3820801,18425.38609,18451.68778
2018-07-19T08:02:10Z,1531987330,202,43.2584774,45.2635702,9000,0,6.5,200.5,705238.81,65566.8,193.1,Air+FixedWing,Blue,Enemies,E-2C,Blue AWACS,us,,139.0067313,87.31358337,0.457316662,9000,8728.282715,139.0067313,0,6.499990465,-0.009041249,0,0,5000,1.001672342,-0.00356504,0.042105026,966.1435669,8825.985,9792.128567,,,130,271.7172852,18563.51687,18590.01348
2018-07-19T08:02:11Z,1531987331,202,43.257867,45.2624128,9000,0,6.5,200.5,705207.44,65432.1,193.1,Air+FixedWing,Blue,Enemies,E-2C,Blue AWACS,us,,138.3049896,86.85744476,0.45500801,9000,8726.834595,138.3049896,0,6.499990465,0.020596762,0,0,5000,0.981442842,0.005302419,0.21965735,956.4135078,8825.985,9782.398508,,,131,273.1654053,18700.9464,18727.63692
2018-07-19T08:02:12Z,1531987332,202,43.2572518,45.2612465,9000,0,6.5,200.5,705175.88,65296.36,193.1,Air+FixedWing,Blue,Enemies,E-2C,Blue AWACS,us,,139.355703,87.5401535,0.45846474,9000,8724.494324,139.355703,0,6.499990465,0.001462758,0,0,5000,1.006535123,-0.007017763,-0.000575118,971.0005981,8825.985,9796.985598,,,132,275.5056763,18839.43545,18866.3214
2018-07-19T08:02:13Z,1531987333,202,43.2566418,45.2600898,9000,0,6.5,200.5,705144.5,65161.74,193.1,Air+FixedWing,Blue,Enemies,E-2C,Blue AWACS,us,,138.2327069,86.81053925,0.454770208,9000,8723.106293,138.2327069,0,6.499990465,0.001923714,0,0,5000,0.983099586,0.008440226,0.20511627,955.4140625,8825.985,9781.399063,,,133,276.8937073,18976.78304,19003.86279
2018-07-19T08:02:14Z,1531987334,202,43.2560277,45.2589252,9000,0,6.5,200.5,705113,65026.21,193.1,Air+FixedWing,Blue,Enemies,E-2C,Blue AWACS,us,,139.1398969,87.40010071,0.457754762,9000,8721.777069,139.1398969,0,6.499990465,0.004133239,0,0,5000,0.999268987,-0.005168066,0.063199038,967.9955452,8825.985,9793.980545,,,134,278.2229309,19115.06953,19142.34442
2018-07-19T08:02:15Z,1531987335,202,43.2554159,45.257765,9000,0,6.5,200.5,705081.56,64891.18,193.1,Air+FixedWing,Blue,Enemies,E-2C,Blue AWACS,us,,138.6463481,87.07926941,0.456131041,9000,8720.658508,138.6463481,0,6.499990465,0.000819225,0,0,5000,0.991871096,-0.003047525,0.128129595,961.1404915,8825.985,9787.125491,,,135,279.3414917,19252.83182,19280.3011
2018-07-19T08:02:16Z,1531987336,202,43.2548034,45.2566035,9000,0,6.5,200.5,705050.06,64756,193.1,Air+FixedWing,Blue,Enemies,E-2C,Blue AWACS,us,,138.7936807,87.17512512,0.456615749,9000,8718.922729,138.7936807,0,6.499990465,-0.007642495,0,0,5000,0.996182554,0.007720112,0.090288355,963.1842896,8825.985,9789.16929,,,136,281.0772705,19390.7495,19418.41339
2018-07-19T08:02:17Z,1531987337,202,43.2541919,45.2554438,9000,0,6.5,200.5,705018.69,64621.04,193.1,Air+FixedWing,Blue,Enemies,E-2C,Blue AWACS,us,,138.5675074,87.02812958,0.455871664,9000,8717.531006,138.5675074,0,6.499990465,0.011986164,0,0,5000,0.998961559,-0.004536097,0.065897305,960.0477051,8825.985,9786.032705,,,137,282.4689941,19528.46151,19556.31972
2018-07-19T08:02:18Z,1531987338,202,43.2535826,45.2542881,9000,0,6.5,200.5,704987.38,64486.53,193.1,Air+FixedWing,Blue,Enemies,E-2C,Blue AWACS,us,,138.1005918,86.72463226,0.454335564,9000,8716.144196,138.1005918,0,6.499990465,-0.002945048,0,0,5000,0.985000225,-0.002010359,0.188434552,953.5886726,8825.985,9779.573673,,,138,283.8558044,19665.68508,19693.73692
2018-07-19T08:02:19Z,1531987339,202,43.25297,45.2531261,9000,0,6.5,200.5,704955.88,64351.31,193.1,Air+FixedWing,Blue,Enemies,E-2C,Blue AWACS,us,,138.8431373,87.20719147,0.456778456,9000,8714.749786,138.8431373,0,6.499990465,-0.002322764,0,0,5000,0.996929165,0.006185332,0.083735423,963.8708382,8825.985,9789.855838,,,139,285.2502136,19803.66173,19831.90826
2018-07-19T08:02:20Z,1531987340,202,43.2523586,45.2519665,9000,0,6.5,200.5,704924.5,64216.36,193.1,Air+FixedWing,Blue,Enemies,E-2C,Blue AWACS,us,,138.5522882,87.01781464,0.455821595,9000,8713.358276,138.5522882,0,6.499990465,0.021333775,0,0,5000,0.993452155,-0.006297649,0.114252796,959.8368286,8825.985,9785.821829,,,140,286.6417236,19941.34963,19969.79046
2018-07-19T08:02:21Z,1531987341,202,43.2517473,45.2508069,9000,0,6.5,200.5,704893.06,64081.41,193.1,Air+FixedWing,Blue,Enemies,E-2C,Blue AWACS,us,,138.5626503,87.02495575,0.455855685,9000,8711.966766,138.5626503,0,6.499990465,0.007289285,0,0,NaN,0.993571759,0,0.113203049,959.9804024,8825.985,9785.965402,,,141,288.0332336,20079.03866,20107.67378
2018-07-19T08:02:22Z,1531987342,202,43.2511361,45.2496473,9000,0,6.5,200.5,704861.62,63946.46,193.1,Air+FixedWing,Blue,Enemies,E-2C,Blue AWACS,us,,138.5626503,87.02495575,0.455855685,9000,8710.730103,138.5626503,0,6.499990465,0.013482544,0,0,5000,0.99785145,0.004289426,0.075640623,959.9804024,8825.985,9785.965402,,,142,289.2698975,20216.7241,20245.5535
2018-07-19T08:02:23Z,1531987343,202,43.2505264,45.2484908,9000,0,6.5,200.5,704830.31,63811.86,193.1,Air+FixedWing,Blue,Enemies,E-2C,Blue AWACS,us,,138.1919018,86.78390503,0.454635963,9000,8709.701752,138.1919018,0,6.499990465,-0.016715059,0,0,5000,0.990290037,0.000202599,0.142006394,954.8500862,8825.985,9780.835086,,,143,290.2982483,20354.04977,20383.07294
2018-07-19T08:02:24Z,1531987344,202,43.2499156,45.2473318,9000,0,6.5,200.5,704798.94,63676.98,193.1,Air+FixedWing,Blue,Enemies,E-2C,Blue AWACS,us,,138.4761938,86.9686203,0.455571253,9000,8708.71701,138.4761938,0,6.499990465,0.01827027,0,0,5000,0.997073072,-0.000654005,0.08247237,958.7828125,8825.985,9784.767813,,,144,291.2829895,20491.65874,20520.87609
2018-07-19T08:02:25Z,1531987345,202,43.2493061,45.2461754,9000,0,6.5,200.5,704767.62,63542.41,193.1,Air+FixedWing,Blue,Enemies,E-2C,Blue AWACS,us,,138.1728786,86.77157593,0.454573379,9000,8707.408997,138.1728786,0,6.499990465,0.008661664,0,0,5000,0.987635323,-0.007427232,0.165306554,954.5872192,8825.985,9780.572219,,,145,292.5910034,20628.96848,20658.37958
2018-07-19T08:02:26Z,1531987346,202,43.2486944,45.2450148,9000,0,6.5,200.5,704736.12,63407.34,193.1,Air+FixedWing,Blue,Enemies,E-2C,Blue AWACS,us,,138.687162,87.1058197,0.456265314,9000,8706.016296,138.687162,0,6.499990465,0.001465697,0,0,5000,1.003260865,0.012800033,0.028162718,961.7064453,8825.985,9787.691445,,,146,293.9837036,20766.77124,20796.3768
2018-07-19T08:02:27Z,1531987347,202,43.2480864,45.2438611,9000,0,6.5,200.5,704704.94,63273.07,193.1,Air+FixedWing,Blue,Enemies,E-2C,Blue AWACS,us,,137.8478008,86.56052399,0.453503909,9000,8704.631805,137.8478008,0,6.499990465,-0.011685633,0,0,5000,0.990214352,-0.006185332,0.142670675,950.1008087,8825.985,9776.085809,,,147,295.3681946,20903.76044,20933.5593
2018-07-19T08:02:28Z,1531987348,202,43.2474771,45.2427049,9000,0,6.5,200.5,704673.62,63138.53,193.1,Air+FixedWing,Blue,Enemies,E-2C,Blue AWACS,us,,138.1386372,86.7492981,0.454460729,9000,8703.244324,138.1386372,0,6.499990465,0.016174177,0,0,5000,0.988413701,-0.002483802,0.158474807,954.1141548,8825.985,9780.099155,,,148,296.7556763,21041.04457,21071.03714
2018-07-19T08:02:29Z,1531987349,202,43.246866,45.2415451,9000,0,6.5,200.5,704642.19,63003.55,193.1,Air+FixedWing,Blue,Enemies,E-2C,Blue AWACS,us,,138.5854767,87.03961945,0.455930781,9000,8702.204987,138.5854767,0,6.499990465,-0.000195631,0,0.050435277,5000,0.999432509,0.001039302,0.061763824,960.2967171,8825.985,9786.281717,,,149,297.7950134,21178.75318,21208.94006
2018-07-19T08:02:30Z,1531987350,202,43.246257,45.2403894,9000,0,6.6,200.5,704610.88,62869.07,193.1,Air+FixedWing,Blue,Enemies,E-2C,Blue AWACS,us,,138.0777648,86.70990753,0.454260465,9000,8701.237427,138.0777648,0,6.60001197,0.002206935,0,0.050435277,5000,0.992480797,0.001805624,0.122645145,953.2734566,8825.985,9779.258457,,,150,298.7625732,21315.96787,21346.34838
2018-07-19T08:02:31Z,1531987351,202,43.2456478,45.2392332,9000,0,6.6,200.5,704579.56,62734.52,193.1,Air+FixedWing,Blue,Enemies,E-2C,Blue AWACS,us,,138.1538556,86.75924683,0.454510796,9000,8700.078308,138.1538556,0,6.60001197,-0.018193093,0,0,5000,0.995869724,-0.005055748,0.093355553,954.3243904,8825.985,9780.30939,,,151,299.9216919,21453.25433,21483.82855
2018-07-19T08:02:32Z,1531987352,202,43.2450396,45.2380788,9000,0,6.6,200.5,704548.25,62600.18,193.1,Air+FixedWing,Blue,Enemies,E-2C,Blue AWACS,us,,137.9408071,86.62071228,0.45380989,9000,8698.692993,137.9408071,0,6.60001197,0.026046331,0,0,5000,0.987409743,0.005529191,0.166472903,951.3833138,8825.985,9777.368314,,,152,301.3070068,21590.32303,21621.09067
2018-07-19T08:02:33Z,1531987353,202,43.2444291,45.23692,9000,0,6.6,200.5,704516.88,62465.33,193.1,Air+FixedWing,Blue,Enemies,E-2C,Blue AWACS,us,,138.4495613,86.95116425,0.455483635,9000,8697.30249,138.4495613,0,6.60001197,-0.013335737,0,0,5000,0.996972165,-0.000744286,0.083827449,958.4140511,8825.985,9784.399051,,,153,302.6975098,21727.90533,21758.86711
2018-07-19T08:02:34Z,1531987354,202,43.24382,45.2357639,9000,0,6.6,200.5,704485.56,62330.78,193.1,Air+FixedWing,Blue,Enemies,E-2C,Blue AWACS,us,,138.1424418,86.75208282,0.454473246,9000,8695.915131,138.1424418,0,6.60001197,0.020757162,0,0,5000,0.995456066,0.002325275,0.096930688,954.1667114,8825.985,9780.151711,,,154,304.0848694,21865.17737,21896.33285
2018-07-19T08:02:35Z,1531987355,202,43.2432117,45.234609,9000,0,6.6,200.5,704454.31,62196.4,193.1,Air+FixedWing,Blue,Enemies,E-2C,Blue AWACS,us,,137.9646801,86.63624573,0.453888429,9000,8694.529327,137.9646801,0,6.60001197,-0.024415628,0,0,5000,0.992270178,-0.004311462,0.124465461,951.7126472,8825.985,9777.697647,,,155,305.4706726,22002.2918,22033.64076
2018-07-19T08:02:36Z,1531987356,202,43.2426031,45.2334536,9000,0,6.6,200.5,704423,62061.94,193.1,Air+FixedWing,Blue,Enemies,E-2C,Blue AWACS,us,,138.0587425,86.6975708,0.454197884,9000,8693.249969,138.0587425,0,6.60001197,0.028268668,0,0,5000,0.993996896,-0.001263937,0.109541906,953.0108185,8825.985,9778.995818,,,156,306.7500305,22139.47424,22171.01677
2018-07-19T08:02:37Z,1531987357,202,43.2419947,45.2322986,9000,0,6.6,200.5,704391.69,61927.54,193.1,Air+FixedWing,Blue,Enemies,E-2C,Blue AWACS,us,,138.0054807,86.66292572,0.454022659,9000,8692.151672,138.0054807,0,6.60001197,-0.007788916,0,0,5000,0.995666684,0.008442362,0.095110372,952.2756348,8825.985,9778.260635,,,157,307.8483276,22276.61718,22308.35323
2018-07-19T08:02:38Z,1531987358,202,43.2413871,45.2311451,9000,0,6.6,200.5,704360.5,61793.3,193.1,Air+FixedWing,Blue,Enemies,E-2C,Blue AWACS,us,,137.8097514,86.53579712,0.453378731,9000,8690.790344,137.8097514,0,6.60001197,0.006015402,0,0,5000,0.996672365,-0.00668081,0.086418544,949.5763794,8825.985,9775.561379,,,158,309.2096558,22413.56945,22445.49875
2018-07-19T08:02:39Z,1531987359,202,43.2407809,45.229994,9000,0,6.6,200.5,704329.31,61659.36,193.1,Air+FixedWing,Blue,Enemies,E-2C,Blue AWACS,us,,137.528204,86.35295105,0.452452472,9000,8689.930237,137.528204,0,6.60001197,0.001649006,0,0,5000,0.985204861,-0.003093734,0.185529109,945.7003448,8825.985,9771.685345,,,159,310.0697632,22550.23718,22582.35933
2018-07-19T08:02:40Z,1531987360,202,43.2401717,45.2288372,9000,0,6.6,200.5,704297.94,61524.74,193.1,Air+FixedWing,Blue,Enemies,E-2C,Blue AWACS,us,,138.2250983,86.80537415,0.454745176,9000,8688.603088,138.2250983,0,6.60001197,-0.010678875,0,0,5000,0.995220773,0.009345174,0.098964266,955.3088898,8825.985,9781.29389,,,160,311.3969116,22687.58884,22719.9048
2018-07-19T08:02:41Z,1531987361,202,43.239563,45.2276815,9000,0,6.6,200.5,704266.69,61390.25,193.1,Air+FixedWing,Blue,Enemies,E-2C,Blue AWACS,us,,138.0674097,86.70314026,0.454226398,9000,8687.216278,138.0674097,0,6.60001197,0.016177419,0,0,5000,0.997162867,-0.007673904,0.082179261,953.130481,8825.985,9779.115481,,,161,312.7837219,22824.80204,22857.31162
