ISOTime,UnixTime,Id,Longitude,Latitude,Altitude,Roll,Pitch,Yaw,U,V,Heading,Type,Color,Coalition,Name,Group,Country,Pilot,TAS,CAS,M,ASL,AGL,GS,VS,AOA,AOS,RRT,TRT,TRD,G,LatG,LonG,Ek,Ep,Em,FFW,FFV,RelativeTime,Elev,GroundDistance,AirDistance
2018-07-19T09:10:50Z,1531991450,300AE02,40.285862,44.283914,8753.15,0,0,5.1,481865.94,-68827.12,0,Weapon+Missile,Violet,Neutral,R-27ER (AA-10C),,,,258.030589343863,170.986404418945,0.845947728634734,8753.154296875,8021.93347167969,NaN,NaN,47.4495928249814,NaN,0,2.35745779652198,NaN,NaN,NaN,NaN,NaN,8583.91205854492,NaN,,,0.529999971389771,731.220825195312,NaN,NaN
2018-07-19T09:10:51Z,1531991451,300AE02,40.2837472,44.2855833,8738.05,0,0,5.1,481680.59,-68656.74,0,Weapon+Missile,Violet,Neutral,R-27ER (AA-10C),,,,252.206681101847,166.876434326172,0.826679008815809,8738.0458984375,8034.15704345703,251.753741360605,-15.1083984375,47.5756706377661,NaN,0,0.0197823405926261,5000,0.694694876670837,0.694694876670837,0.694694876670837,3180.41049962044,8569.09578099121,11749.5062806116,,,1.52999997138977,703.888854980469,250.858708564449,251.656613596649
2018-07-19T09:10:52Z,1531991452,300AE02,40.2817099,44.2871913,8713.09,0,0,5.1,481502.06,-68492.62,0,Weapon+Missile,Violet,Neutral,R-27ER (AA-10C),,,,243.789409655908,160.997131347656,0.798809559781569,8713.0888671875,8021.74133300781,242.50860366503,-24.95703125,47.8181842386383,NaN,0,0.0197823405926261,5000,0.748859703540802,0.748859703540802,0.748859703540802,2971.6638130188,8544.62129394043,11516.2851069592,,,2.52999997138977,691.347534179688,492.52186323595,494.933890471779
2018-07-19T09:10:53Z,1531991453,300AE02,40.279756,44.2887333,8678.35,0,0,5.1,481330.88,-68335.22,0,Weapon+Missile,Violet,Neutral,R-27ER (AA-10C),,,,235.12969385397,155.06315612793,0.770060152017711,8678.353515625,8004.72528076172,232.549840429297,-34.7353515625,48.1811122797064,NaN,0,0.0197823405926261,4780.79320433744,0.755234062671661,0.755234062671661,0.755234062671661,2764.29864659309,8510.55755040039,11274.8561969935,,,3.52999997138977,673.628234863281,724.274840114993,729.587971606524
2018-07-19T09:10:54Z,1531991454,300AE02,40.2778865,44.2902086,8633.84,0,0,5.1,481167.09,-68184.63,0,Weapon+Missile,Violet,Neutral,R-27ER (AA-10C),,,,226.895633705011,149.545303344727,0.742630728632682,8633.8427734375,7977.07458496094,222.486903938898,-44.5107421875,48.7011585142428,NaN,0,0.0197823405926261,4317.60266372178,0.701132893562317,0.701132893562317,0.701132893562317,2574.08142971992,8466.90742341309,11040.988853133,,,4.52999997138977,656.768188476562,946.000100247815,956.031846575045
2018-07-19T09:10:55Z,1531991455,300AE02,40.276096,44.2916216,8579.42,0,0,5.1,481010.19,-68040.41,0,Weapon+Missile,Violet,Neutral,R-27ER (AA-10C),,,,219.959997537075,145.050094604492,0.719383293745871,8579.4228515625,7946.18341064453,213.121731927152,-54.419921875,49.3907524001591,NaN,0,0.0197823405926261,3927.63484834447,0.780910313129425,0.780910313129425,0.780910313129425,2419.1200258255,8413.53971072754,10832.659736553,,,5.52999997138977,633.239440917969,1158.3584605381,1175.52988328619
2018-07-19T09:10:56Z,1531991456,300AE02,40.2743921,44.2929659,8515.37,0,0,5.1,480860.94,-67903.16,0,Weapon+Missile,Violet,Neutral,R-27ER (AA-10C),,,,212.636682746711,140.361846923828,0.694811296285988,8515.365234375,7898.85388183594,202.758428998119,-64.0576171875,50.2717824166938,NaN,0,0.0197823405926261,3585.02497781157,0.748980224132538,0.748980224132538,0.748980224132538,2260.71794247627,8350.72064756836,10611.4385900446,,,6.52999997138977,616.511352539062,1360.42316222271,1387.76331358712
2018-07-19T09:10:57Z,1531991457,300AE02,40.2727722,44.294244,8441.64,0,0,5.1,480719.03,-67772.7,0,Weapon+Missile,Violet,Neutral,R-27ER (AA-10C),,,,206.38187425418,136.504150390625,0.6736813958641,8441.6357421875,7836.11828613281,192.76265199058,-73.7294921875,51.3718196796511,NaN,0,0.0197823405926261,3278.58167588151,0.664242506027222,0.664242506027222,0.664242506027222,2129.6739010334,8278.4167151123,10408.0906161457,,,7.52999997138977,605.517456054688,1552.51371117423,1593.75598774495
2018-07-19T09:10:58Z,1531991458,300AE02,40.2712268,44.2954633,8357.67,0,0,5.1,480583.62,-67648.24,0,Weapon+Missile,Violet,Neutral,R-27ER (AA-10C),,,,202.176023564979,134.162902832031,0.659183343608179,8357.6728515625,7759.77374267578,183.916767866449,-83.962890625,52.6833889447311,NaN,0,0.0197823405926261,3063.38981017338,0.742483854293823,0.742483854293823,0.742483854293823,2043.75722522736,8196.07724697754,10239.8344722049,,,8.52999997138977,597.899108886719,1735.77524648577,1795.5555769484
2018-07-19T09:10:59Z,1531991459,300AE02,40.269764,44.2966173,8263.88,0,0,5.1,480455.5,-67530.45,0,Weapon+Missile,Violet,Neutral,R-27ER (AA-10C),,,,197.708600754016,131.69596862793,0.643780517037131,8263.8828125,7668.81896972656,174.046313907436,-93.7900390625,54.2266497765154,NaN,0,0.0197823405926261,2884.26890744215,0.801553308963776,0.801553308963776,0.801553308963776,1954.43454060555,8104.10063832031,10058.5351789259,,,9.52999997138977,595.063842773438,1909.22917804623,1992.94173225631
2018-07-19T09:11:00Z,1531991460,300AE02,40.2683908,44.2977006,8160.8,0,0,5.1,480335.22,-67419.85,0,Weapon+Missile,Violet,Neutral,R-27ER (AA-10C),,,,193.195919057047,129.248168945312,0.628190958767082,8160.7998046875,7564.58081054688,163.396929716029,-103.0830078125,55.9859102694997,NaN,0,0.0197823405926261,2724.83389384857,0.714052081108093,0.714052081108093,0.714052081108093,1866.23315701485,8003.01074046387,9869.24389747871,,,10.5299999713898,596.218994140625,2072.06266299519,2185.83852801792
2018-07-19T09:11:01Z,1531991461,300AE02,40.2670974,44.2987208,8047.72,0,0,5.1,480221.94,-67315.7,0,Weapon+Missile,Violet,Neutral,R-27ER (AA-10C),,,,190.9595203969,128.468795776367,0.619952732022138,8047.724609375,7451.39904785156,153.881573410379,-113.0751953125,57.9519108481489,NaN,0,0.0197823405926261,2644.37035320905,0.714054703712463,0.714054703712463,0.714054703712463,1823.2769215107,7892.12185405273,9715.39877556343,,,11.5299999713898,596.325561523438,2225.41418654979,2376.52803909238
2018-07-19T09:11:02Z,1531991462,300AE02,40.2658841,44.2996779,7924.66,0,0,5.1,480115.66,-67218,0,Weapon+Missile,Violet,Neutral,R-27ER (AA-10C),,,,189.703520830749,128.447845458984,0.614835290499837,7924.65625,7330.74993896484,144.36621743444,-123.068359375,60.089458038297,NaN,0,0.0197823405926261,2592.61954808915,0.765657603740692,0.765657603740692,0.765657603740692,1799.37129077911,7771.43302140625,9570.80431218536,,,12.5299999713898,593.906311035156,2369.27406308184,2565.98342828355
2018-07-19T09:11:03Z,1531991463,300AE02,40.264756,44.3005676,7792.14,0,0,5.1,480016.88,-67127.16,0,Weapon+Missile,Violet,Neutral,R-27ER (AA-10C),,,,188.599262972375,128.595275878906,0.61014905078171,7792.13916015625,7200.42175292969,134.197253671848,-132.51708984375,62.3612500818412,NaN,0,0.0197823405926261,2574.37717061634,0.705409646034241,0.705409646034241,0.705409646034241,1778.48409968615,7641.47814949463,9419.96224918077,,,13.5299999713898,591.717407226562,2503.01303692174,2754.37396346523
2018-07-19T09:11:04Z,1531991464,300AE02,40.2637074,44.3013947,7649.42,0,0,5.1,479925,-67042.73,0,Weapon+Missile,Violet,Neutral,R-27ER (AA-10C),,,,189.57896740955,130.316360473633,0.612126524486781,7649.41748046875,7060.05749511719,124.78263914203,-142.7216796875,64.7540948738498,NaN,0,0.0197823405926261,2608.65105870201,0.762570023536682,0.762570023536682,0.762570023536682,1797.00924420357,7501.51599348389,9298.52523768746,,,14.5299999713898,589.359985351562,2627.34014353555,2943.75229407141
2018-07-19T09:11:05Z,1531991465,300AE02,40.2627437,44.3021548,7497.27,0,0,5.1,479840.59,-66965.13,0,Weapon+Missile,Violet,Neutral,R-27ER (AA-10C),,,,190.513106150602,132.085845947266,0.613873353257912,7497.26611328125,6909.59246826172,114.652540652726,-152.1513671875,67.1865412062877,NaN,0,0.0197823405926261,2682.15901782476,0.723755896091461,0.723755896091461,0.723755896091461,1814.76218075752,7352.30647298096,9167.06865373848,,,15.5299999713898,587.673645019531,2741.59754629774,3134.10936176106
2018-07-19T09:11:06Z,1531991466,300AE02,40.2618606,44.3028513,7335.07,0,0,5.1,479763.28,-66894.02,0,Weapon+Missile,Violet,Neutral,R-27ER (AA-10C),,,,193.23883164767,135.262954711914,0.621292435458366,7335.07373046875,6749.03735351562,105.047022871475,-162.1923828125,69.6359585320309,NaN,0,0.0197823405926261,2801.27516889129,0.742923617362976,0.742923617362976,0.742923617362976,1867.06230282784,7193.25007989014,9060.31238271797,,,16.5299999713898,586.036376953125,2846.2950648747,3327.22447084816
2018-07-19T09:11:07Z,1531991467,300AE02,40.261061,44.3034819,7163.33,0,0,5.1,479693.25,-66829.66,0,Weapon+Missile,Violet,Neutral,R-27ER (AA-10C),,,,196.325568915174,138.820098876953,0.62975945642978,7163.326171875,6579.30316162109,95.1131175335617,-171.74755859375,72.0751154939213,NaN,0,0.0197823405926261,2953.15379055313,0.716921985149384,0.716921985149384,0.716921985149384,1927.18645049334,7024.8232603418,8952.00971083513,,,17.5299999713898,584.023010253906,2941.08692570661,3523.44668585736
2018-07-19T09:11:08Z,1531991468,300AE02,40.2603413,44.3040495,6981.12,0,0,5.1,479630.22,-66771.71,0,Weapon+Missile,Violet,Neutral,R-27ER (AA-10C),,,,201.322849281829,143.944259643555,0.644215206945591,6981.11669921875,6396.63171386719,85.6189098113563,-182.20947265625,74.4545422150082,NaN,0,0.0197823405926261,3178.72864042809,0.757447957992554,0.757447957992554,0.757447957992554,2026.54448214769,6846.13680783936,8872.68128998705,,,18.5299999713898,584.484985351562,3026.40112084373,3724.68026635443
2018-07-19T09:11:09Z,1531991469,300AE02,40.2597061,44.3045504,6789.67,0,0,5.1,479574.59,-66720.56,0,Weapon+Missile,Violet,Neutral,R-27ER (AA-10C),,,,205.821635790408,148.843490600586,0.656932588599116,6789.6689453125,6202.56823730469,75.5665487083498,-191.44775390625,76.7488530234813,NaN,0,0.0197823405926261,3422.67012848033,0.733085632324219,0.733085632324219,0.733085632324219,2118.12728797197,6658.39069625488,8776.51798422686,,,19.5299999713898,587.100708007812,3101.69924426092,3930.43326859635
2018-07-19T09:11:10Z,1531991470,300AE02,40.2591528,44.3049868,6588.26,0,0,5.1,479526.16,-66676.02,0,Weapon+Missile,Violet,Neutral,R-27ER (AA-10C),,,,211.885086081129,155.110107421875,0.674482172489729,6588.26220703125,5998.02886962891,65.8074120332628,-201.40673828125,78.9484452425388,NaN,0,0.0197823405926261,3744.04958404054,0.736206293106079,0.736206293106079,0.736206293106079,2244.76448518038,6460.8781572583,8705.64264243868,,,20.5299999713898,590.233337402344,3167.29851618048,4142.27511854009
2018-07-19T09:11:11Z,1531991471,300AE02,40.2586823,44.3053578,6377.17,0,0,5.1,479484.94,-66638.14,0,Weapon+Missile,Violet,Neutral,R-27ER (AA-10C),,,,218.391141547663,161.915832519531,0.693260146129739,6377.1669921875,5784.27526855469,55.9776828438129,-211.09521484375,81.03505973353,NaN,0,0.0197823405926261,4115.8634455943,0.739772260189056,0.739772260189056,0.739772260189056,2384.73453532457,6253.86446839355,8638.59900371813,,,21.5299999713898,592.891723632812,3223.06834683094,4360.62756183993
2018-07-19T09:11:12Z,1531991472,300AE02,40.2582945,44.3056637,6156.53,0,0,5.1,479450.97,-66606.91,0,Weapon+Missile,Violet,Neutral,R-27ER (AA-10C),,,,225.414008109785,169.339767456055,0.713486456026591,6156.52587890625,5561.05462646484,46.1408082084493,-220.64111328125,83.0058634374556,NaN,0,0.0197823405926261,4549.64304346565,0.736668109893799,0.736668109893799,0.736668109893799,2540.57375260592,6037.4894510376,8578.06320364351,,,22.5299999713898,595.471252441406,3269.04755646888,4586.01776798995
2018-07-19T09:11:13Z,1531991473,300AE02,40.2579888,44.3059046,5926.36,0,0,5.1,479424.22,-66582.31,0,Weapon+Missile,Violet,Neutral,R-27ER (AA-10C),,,,233.017583298191,177.457015991211,0.735344089095188,5926.35986328125,5328.75189208984,36.342803654113,-230.166015625,84.8537969943138,NaN,0,0.0197823405926261,5000,0.738401830196381,0.738401830196381,0.738401830196381,2714.85970630646,5811.77369532471,8526.63340163116,,,23.5299999713898,597.607971191406,3305.27370417313,4819.02252291407
2018-07-19T09:11:14Z,1531991474,300AE02,40.2577644,44.3060816,5684.93,0,0,5.1,479404.56,-66564.25,0,Weapon+Missile,Violet,Neutral,R-27ER (AA-10C),,,,242.898129795534,187.701629638672,0.764130909440778,5684.93310546875,5085.90692138672,26.6949821186024,-241.4267578125,86.5827789093225,NaN,0,0.0197823405926261,5000,0.762771785259247,0.762771785259247,0.762771785259247,2949.9750729084,5575.01492387451,8524.98999678291,,,24.5299999713898,599.026184082031,3331.87175280114,5061.91267108244
2018-07-19T09:11:15Z,1531991475,300AE02,40.2576235,44.3061927,5435.27,0,0,5.1,479392.22,-66552.91,0,Weapon+Missile,Violet,Neutral,R-27ER (AA-10C),,,,250.220437246298,196.110198974609,0.784640330642764,5435.27490234375,4835.35791015625,16.7645109718417,-249.658203125,88.1918007210356,NaN,0,0.0197823405926261,5000,0.74581253528595,0.74581253528595,0.74581253528595,3130.51336078644,5330.18386210693,8460.69722289337,,,25.5299999713898,599.9169921875,3348.57633972509,5312.13007321915
2018-07-19T09:11:16Z,1531991476,300AE02,40.2575644,44.3062393,5174.46,0,0,5.1,479387.06,-66548.14,0,Weapon+Missile,Violet,Neutral,R-27ER (AA-10C),,,,260.913336930938,207.632919311523,0.815446557424771,5174.4560546875,4574.16485595703,7.02126026459104,-260.81884765625,89.6313267728189,NaN,0,0.0197823405926261,5000,0.514304757118225,0.514304757118225,0.514304757118225,3403.78846942186,5074.40794687012,8478.19641629198,,,26.5299999713898,600.291198730469,3355.58630019098,5573.04326302457
2018-07-19T09:11:17Z,1531991477,300AE02,40.2575625,44.3062408,4904.7,0,0,5.1,479386.88,-66547.98,0,Weapon+Missile,Violet,Neutral,R-27ER (AA-10C),,,,269.759880676888,217.902130126953,0.840211071133524,4904.6962890625,4304.39331054688,0.249144042485968,-269.759765625,90,NaN,0,0.0197823405926261,5000,0.0192390736192465,0.0192390736192465,0.0192390736192465,3638.51966114044,4809.86398631348,8448.38364745392,,,27.5299999713898,600.302978515625,3355.81043896092,5842.8031219116
2018-07-19T09:11:18Z,1531991478,300AE02,40.2575625,44.3062408,4625.11,0,0,5.1,479386.88,-66547.98,0,Weapon+Missile,Violet,Neutral,R-27ER (AA-10C),,,,279.58740234375,229.323165893555,0.867754599894419,4625.10888671875,4024.80590820312,0,-279.58740234375,90,NaN,0,0.0197823405926261,NaN,0.0063741821795702,0.0063741821795702,0.0063741821795702,3908.4557774663,4535.68240639404,8444.13818386034,,,28.5299999713898,600.302978515625,3355.81043896092,6122.39052425596
2018-07-19T09:11:19Z,1531991479,300AE02,40.2575625,44.3062408,4335.78,0,0,5.1,479386.88,-66547.98,0,Weapon+Missile,Violet,Neutral,R-27ER (AA-10C),,,,289.33154296875,240.993133544922,0.894749174352074,4335.77734375,3735.47436523438,0,-289.33154296875,90,NaN,0,0.0197823405926261,NaN,0.0122475884854794,0.0122475884854794,0.0122475884854794,4185.63708783388,4251.94508880859,8437.58217664247,,,29.5299999713898,600.302978515625,3355.81043896092,6411.72206722433
2018-07-19T09:11:20Z,1531991480,300AE02,40.2575625,44.3062408,4036.52,0,0,5.1,479386.88,-66547.98,0,Weapon+Missile,Violet,Neutral,R-27ER (AA-10C),,,,299.25830078125,253.149826049805,0.922010448068186,4036.51904296875,3436.21606445312,0,-299.25830078125,90,NaN,0,0.0197823405926261,NaN,0.00420636916533113,0.00420636916533113,0.00420636916533113,4477.77652932405,3958.47294727295,8436.249476597,,,30.5299999713898,600.302978515625,3355.81043896092,6710.98036800598
2018-07-19T09:11:21Z,1531991481,300AE02,40.2575625,44.3062408,3727.41,0,0,5.1,479386.88,-66547.98,0,Weapon+Missile,Violet,Neutral,R-27ER (AA-10C),,,,309.106201171875,265.560424804688,0.948726043155778,3727.41284179688,3127.10986328125,0,-309.106201171875,90,NaN,0,0.0197823405926261,NaN,0.0310685224831104,0.0310685224831104,0.0310685224831104,4777.33218014538,3655.34331450073,8432.67549464612,,,31.5299999713898,600.302978515625,3355.81043896092,7020.08656917754
2018-07-19T09:11:22Z,1531991482,300AE02,40.2575625,44.3062408,3408.2,0,0,5.1,479386.88,-66547.98,0,Weapon+Missile,Violet,Neutral,R-27ER (AA-10C),,,,319.217529296875,278.537841796875,0.975938111447891,3408.1953125,2807.89233398438,0,-319.217529296875,90,NaN,0,0.0197823405926261,5000,0.104760862886906,0.104760862886906,0.104760862886906,5094.99155052006,3342.29785613281,8437.28940665288,,,32.5299999713898,600.302978515625,3355.81043896092,7339.30409847426
2018-07-19T09:11:23Z,1531991483,300AE02,40.2575625,44.3062408,3080.2,0,0,5.1,479386.88,-66547.98,0,Weapon+Missile,Violet,Neutral,R-27ER (AA-10C),,,,327.996826171875,290.584411621094,0.998791081795851,3080.19848632812,2479.8955078125,0,-327.996826171875,90,NaN,0,0.0197823405926261,5000,0.162491425871849,0.162491425871849,0.162491425871849,5379.09589894116,3020.64284859497,8399.73874753613,,,33.5299999713898,600.302978515625,3355.81043896092,7667.30092464633
2018-07-19T09:11:24Z,1531991484,300AE02,40.2575625,44.3062408,2740.8,0,0,5.1,479386.88,-66547.98,0,Weapon+Missile,Violet,Neutral,R-27ER (AA-10C),,,,339.39697265625,305.367645263672,1.02928750472391,2740.80151367188,2140.49853515625,0,-339.39697265625,90,NaN,0,0.0197823405926261,NaN,0.0311202257871628,0.0311202257871628,0.0311202257871628,5759.51525241137,2687.80811640503,8447.32336881639,,,34.5299999713898,600.302978515625,3355.81043896092,8006.69789730259
2018-07-19T09:11:25Z,1531991485,300AE02,40.2575625,44.3062408,2391.9,0,0,5.1,479386.88,-66547.98,0,Weapon+Missile,Violet,Neutral,R-27ER (AA-10C),,,,348.8984375,318.677520751953,1.05369950600574,2391.90307617188,1791.60009765625,0,-348.8984375,90,NaN,0,0.0197823405926261,5000,0.223524436354637,0.223524436354637,0.223524436354637,6086.50598449707,2345.65563019409,8432.16161469116,,,35.5299999713898,600.302978515625,3355.81043896092,8355.59633480227
2018-07-19T09:11:26Z,1531991486,300AE02,40.2575625,44.3062408,2035.39,0,0,5.1,479386.88,-66547.98,0,Weapon+Missile,Violet,Neutral,R-27ER (AA-10C),,,,356.513061523438,330.410278320312,1.07215644227437,2035.39001464844,1435.08703613281,0,-356.513061523438,90,NaN,0,0.0197823405926261,5000,0.239505380392075,0.239505380392075,0.239505380392075,6355.07815184072,1996.03574871521,8351.11390055593,,,36.5299999713898,600.302978515625,3355.81043896092,8712.10939632591
2018-07-19T09:11:27Z,1531991487,300AE02,40.2575625,44.3062408,1666.72,0,0,5.1,479386.88,-66547.98,0,Weapon+Missile,Violet,Neutral,R-27ER (AA-10C),,,,368.66845703125,346.69287109375,1.10391913336964,1666.72155761719,1066.41857910156,0,-368.66845703125,90,NaN,0,0.0197823405926261,NaN,0.010467566549778,0.010467566549778,0.010467566549778,6795.82156049013,1634.49549630066,8430.31705679079,,,37.5299999713898,600.302978515625,3355.81043896092,9080.77785335802
2018-07-19T09:11:28Z,1531991488,300AE02,40.2575625,44.3062408,1288.14,0,0,5.1,479386.88,-66547.98,0,Weapon+Missile,Violet,Neutral,R-27ER (AA-10C),,,,378.577758789062,361.089416503906,1.12860296451051,1288.14379882812,687.8408203125,0,-378.577758789062,90,NaN,0,0.0197823405926261,NaN,0.141879931092262,0.141879931092262,0.141879931092262,7166.05597248748,1263.23753847778,8429.29351096526,,,38.5299999713898,600.302978515625,3355.81043896092,9459.35561214608
2018-07-19T09:11:29Z,1531991489,300AE02,40.2575625,44.3062408,901.15,0,0,5.1,479386.88,-66547.98,0,Weapon+Missile,Violet,Neutral,R-27ER (AA-10C),,,,386.993041992188,374.344757080078,1.1485470508102,901.150756835938,300.847778320312,0,-386.993041992188,90,NaN,0,0.0197823405926261,NaN,0.00740543007850647,0.00740543007850647,0.00740543007850647,7488.18072751835,883.727006952515,8371.90773447086,,,39.5299999713898,600.302978515625,3355.81043896092,9846.34865413856
2018-07-19T09:11:30Z,1531991490,300AE02,40.2575625,44.3062408,504.28,0,0,5.1,479386.88,-66547.98,0,Weapon+Missile,Violet,Neutral,R-27ER (AA-10C),,,,396.872314453125,389.358184814453,1.17253089013582,504.278442382812,-96.0245361328125,0,-396.872314453125,90,NaN,0,0.0197823405926261,5000,0.162474304437637,0.162474304437637,0.162474304437637,7875.38169896901,494.528218699341,8369.90991766835,,,40.5299999713898,600.302978515625,3355.81043896092,10243.2209685919
2018-07-19T09:11:31Z,1531991491,300AE02,40.2575625,44.3062408,96.01,0,0,5.1,479386.88,-66547.98,0,Weapon+Missile,Violet,Neutral,R-27ER (AA-10C),,,,408.27229309082,406.311431884766,1.20064086760559,96.0061492919922,-504.296829223633,0,-408.27229309082,90,NaN,0,0.0197823405926261,5000,0.161635905504227,0.161635905504227,0.161635905504227,8334.31326528183,94.1498703954315,8428.46313567727,,,41.5299999713898,600.302978515625,3355.81043896092,10651.4932616829
