ISOTime,UnixTime,Id,Longitude,Latitude,Altitude,Roll,Pitch,Yaw,U,V,Heading,Type,Color,Coalition,Name,Group,Country,Pilot,TAS,CAS,M,ASL,AGL,GS,VS,AOA,AOS,RRT,TRT,TRD,G,LatG,LonG,Ek,Ep,Em,FFW,FFV,RelativeTime,Elev,GroundDistance,AirDistance
2018-07-19T09:10:49Z,1531991449,300AB02,40.2880998,44.2822458,8757.62,0,0,5.1,482061.06,-68996.52,0,Weapon+Missile,Violet,Neutral,R-73 (AA-11),,,,256.06803538393,169.511688232422,0.839566115940358,8757.619140625,7988.10205078125,NaN,NaN,NaN,NaN,NaN,NaN,NaN,NaN,NaN,NaN,NaN,8588.29057454102,NaN,,,0.0299999713897705,769.51708984375,NaN,NaN
2018-07-19T09:10:50Z,1531991450,300AB02,40.2859446,44.2839491,8747.26,0,0,5.1,481872.16,-68822.65,0,Weapon+Missile,Violet,Neutral,R-73 (AA-11),,,,256.948801959872,170.249938964844,0.842331474178231,8747.259765625,8015.29681396484,256.739888171321,-10.359375,47.4675917753351,NaN,0,2.44055541020706,5000,0.752048850059509,0.752048850059509,0.752048850059509,3301.13434143066,8578.13149805664,11879.2658394873,,,1.02999997138977,731.962951660156,255.836225624133,256.396662570032
2018-07-19T09:10:51Z,1531991451,300AB02,40.2838731,44.2855861,8727.13,0,0,5.1,481690.62,-68655.54,0,Weapon+Missile,Violet,Neutral,R-73 (AA-11),,,,247.556920237887,163.598602294922,0.811313919422425,8727.1279296875,8022.38720703125,246.736981296791,-20.1318359375,47.647084708191,NaN,0,0.0197823405926261,5000,0.710623800754547,0.710623800754547,0.710623800754547,3064.22143788338,8558.38891116699,11622.6103490504,,,2.02999997138977,704.74072265625,501.727042192499,503.445946007049
2018-07-19T09:10:52Z,1531991452,300AB02,40.2818815,44.28716,8697.22,0,0,5.1,481516.06,-68494.88,0,Weapon+Missile,Violet,Neutral,R-73 (AA-11),,,,239.121759676877,157.769943237305,0.7833412754288,8697.224609375,8004.22277832031,237.244615081679,-29.9033203125,47.9483155964739,NaN,0,0.0197823405926261,5000,0.669329881668091,0.669329881668091,0.669329881668091,2858.96079754829,8529.06377155273,11388.024569101,,,3.02999997138977,693.001831054688,738.125769694028,742.048839905698
2018-07-19T09:10:53Z,1531991453,300AB02,40.2799641,44.288675,8657.38,0,0,5.1,481348.06,-68340.22,0,Weapon+Missile,Violet,Neutral,R-73 (AA-11),,,,231.797665861637,152.852691650391,0.758924857000561,8657.3798828125,7981.89361572266,228.347445057006,-39.8447265625,48.3949701430132,NaN,0,0.0197823405926261,4547.89407412993,0.803144156932831,0.803144156932831,0.803144156932831,2686.50789494514,8489.98944277832,11176.4973377235,,,4.02999997138977,675.486267089844,965.696466082172,973.386328768166
2018-07-19T09:10:54Z,1531991454,300AB02,40.2781367,44.2901188,8607.86,0,0,5.1,481187.94,-68192.84,0,Weapon+Missile,Violet,Neutral,R-73 (AA-11),,,,223.189611935031,147.117218017578,0.730235746002271,8607.86328125,7948.09985351562,217.627454714267,-49.5166015625,48.996213635812,NaN,0,0.0197823405926261,4129.23483486471,0.726553201675415,0.726553201675415,0.726553201675415,2490.68014378548,8441.43024470703,10932.1103884925,,,5.02999997138977,659.763427734375,1182.57032086863,1196.12736201338
2018-07-19T09:10:55Z,1531991455,300AB02,40.2763906,44.2914982,8548.57,0,0,5.1,481034.94,-68052,0,Weapon+Missile,Violet,Neutral,R-73 (AA-11),,,,216.240063038777,142.654830932617,0.706912792773682,8548.5673828125,7911.73260498047,207.951343567441,-59.2958984375,49.7755068481801,NaN,0,0.0197823405926261,3754.97555777386,0.704314768314362,0.704314768314362,0.704314768314362,2337.98824315071,8383.28083246582,10721.2690756165,,,6.02999997138977,636.834777832031,1389.78960335024,1411.93147531525
2018-07-19T09:10:56Z,1531991456,300AB02,40.2747234,44.2928154,8479.37,0,0,5.1,480888.84,-67917.53,0,Weapon+Missile,Violet,Neutral,R-73 (AA-11),,,,210.271647789213,138.966445922852,0.686738938926151,8479.365234375,7860.76428222656,198.557871955823,-69.2021484375,50.7672676207016,NaN,0,0.0197823405926261,3427.32078549998,0.768054783344269,0.768054783344269,0.768054783344269,2210.70829319954,8315.41670756836,10526.1250007679,,,7.02999997138977,618.600952148438,1587.6435644919,1621.7878713946
2018-07-19T09:10:57Z,1531991457,300AB02,40.2731416,44.294065,8400.47,0,0,5.1,480750.28,-67789.97,0,Weapon+Missile,Violet,Neutral,R-73 (AA-11),,,,204.198127689521,135.271896362305,0.666171871581352,8400.4658203125,7792.49774169922,188.339474918297,-78.8994140625,51.9706937355379,NaN,0,0.0197823405926261,3179.43018440329,0.691921830177307,0.691921830177307,0.691921830177307,2084.84376759529,8238.04281367676,10322.886581272,,,8.02999997138977,607.968078613281,1775.3573248741,1825.63803416124
2018-07-19T09:10:58Z,1531991458,300AB02,40.2716376,44.295253,8311.52,0,0,5.1,480618.5,-67668.68,0,Weapon+Missile,Violet,Neutral,R-73 (AA-11),,,,199.971071480488,132.946060180664,0.651577209473127,8311.521484375,7711.76586914062,179.101464353844,-88.9443359375,53.4031493713002,NaN,0,0.0197823405926261,2976.81444237597,0.774892866611481,0.774892866611481,0.774892866611481,1999.42147145271,8150.81821647461,10150.2396879273,,,9.02999997138977,599.755615234375,1953.82160734913,2025.24790792073
2018-07-19T09:10:59Z,1531991459,300AB02,40.2702201,44.2963726,8213.06,0,0,5.1,480494.31,-67554.38,0,Weapon+Missile,Violet,Neutral,R-73 (AA-11),,,,195.406280632267,130.436538696289,0.635836689994698,8213.0556640625,7619.09338378906,168.784172068126,-98.4658203125,55.0493649825311,NaN,0,0.0197823405926261,2804.73285920481,0.745753943920135,0.745753943920135,0.745753943920135,1909.18072552681,8054.25623279785,9963.43695832466,,,10.0299999713898,593.962280273438,2122.0120401758,2220.3296240856
2018-07-19T09:11:00Z,1531991460,300AB02,40.2688859,44.2974264,8104.89,0,0,5.1,480377.44,-67446.79,0,Weapon+Missile,Violet,Neutral,R-73 (AA-11),,,,192.180462649139,128.928421020508,0.62440770294597,8104.89453125,7510.26177978516,158.853704938707,-108.1611328125,56.916281015296,NaN,0,0.0197823405926261,2680.40457930324,0.693057060241699,0.693057060241699,0.693057060241699,1846.66651120186,7948.18639548828,9794.85290669014,,,11.0299999713898,594.632751464844,2280.32142151712,2412.22764552652
2018-07-19T09:11:01Z,1531991461,300AB02,40.2676291,44.2984191,7986.47,0,0,5.1,480267.34,-67345.45,0,Weapon+Missile,Violet,Neutral,R-73 (AA-11),,,,190.828175385357,128.811126708984,0.619005044889315,7986.470703125,7391.50695800781,149.63685860484,-118.423828125,58.9656045572328,NaN,0,0.0197823405926261,2629.75481619141,0.789988279342651,0.789988279342651,0.789988279342651,1820.76962604523,7832.05229208008,9652.82191812531,,,12.0299999713898,594.963745117188,2429.44673456248,2602.80230929816
2018-07-19T09:11:02Z,1531991462,300AB02,40.2664605,44.2993419,7858.9,0,0,5.1,480164.97,-67251.22,0,Weapon+Missile,Violet,Neutral,R-73 (AA-11),,,,188.766648116022,128.242935180664,0.611248183147524,7858.90283203125,7263.84661865234,139.137650208584,-127.56787109375,61.1779797018079,NaN,0,0.0197823405926261,2575.80904426355,0.672799944877625,0.672799944877625,0.672799944877625,1781.6423720479,7706.95094577393,9488.59331782183,,,13.0299999713898,595.056213378906,2568.0947700081,2791.33513408366
2018-07-19T09:11:03Z,1531991463,300AB02,40.2653662,44.3002062,7720.59,0,0,5.1,480069.12,-67162.99,0,Weapon+Missile,Violet,Neutral,R-73 (AA-11),,,,189.999008031188,130.112014770508,0.614077692545315,7720.5927734375,7128.77514648438,130.268763503109,-138.31005859375,63.5167808285237,NaN,0,0.0197823405926261,2600.14620515992,0.825013637542725,0.825013637542725,0.825013637542725,1804.98115264177,7571.31511216309,9376.29626480486,,,14.0299999713898,591.817626953125,2697.9252804915,2981.14248893349
2018-07-19T09:11:04Z,1531991464,300AB02,40.2643634,44.300998,7573.68,0,0,5.1,479981.28,-67082.15,0,Weapon+Missile,Violet,Neutral,R-73 (AA-11),,,,189.300141058001,130.654647827148,0.610597433238552,7573.68359375,6984.26037597656,119.382730443415,-146.9091796875,65.9294110471635,NaN,0,0.0197823405926261,2643.1472684574,0.670226812362671,0.670226812362671,0.670226812362671,1791.72717022896,7427.24642146484,9218.9735916938,,,15.0299999713898,589.423217773438,2816.8921627432,3170.27044713026
2018-07-19T09:11:05Z,1531991465,300AB02,40.2634342,44.3017318,7415.64,0,0,5.1,479899.88,-67007.22,0,Weapon+Missile,Violet,Neutral,R-73 (AA-11),,,,192.921504510264,134.440948486328,0.620947395570655,7415.6416015625,6827.9560546875,110.641021361474,-158.0419921875,68.374072007167,NaN,0,0.0197823405926261,2746.81253339878,0.785257995128632,0.785257995128632,0.785257995128632,1860.9353451252,7272.26017119629,9133.19551632149,,,16.0299999713898,587.685546875,2927.1285851961,3363.03433277379
2018-07-19T09:11:06Z,1531991466,300AB02,40.2625921,44.3023968,7248.62,0,0,5.1,479826.12,-66939.33,0,Weapon+Missile,Violet,Neutral,R-73 (AA-11),,,,194.793580009393,137.048416137695,0.625562080483072,7248.61962890625,6662.28552246094,100.240707613677,-167.02197265625,70.8270505678062,NaN,0,0.0197823405926261,2872.79066706466,0.746134340763092,0.746134340763092,0.746134340763092,1897.22694064379,7108.46756838135,9005.69450902514,,,17.0299999713898,586.334106445312,3027.03509762586,3557.71512855328
2018-07-19T09:11:07Z,1531991467,300AB02,40.2618336,44.3029957,7072.05,0,0,5.1,479759.69,-66878.17,0,Weapon+Missile,Violet,Neutral,R-73 (AA-11),,,,198.320274165182,140.995254516602,0.635379703317028,7072.0498046875,6487.41131591797,90.2996584728453,-176.56982421875,73.2406973134629,NaN,0,0.0197823405926261,3063.3282069157,0.721053957939148,0.721053957939148,0.721053957939148,1966.54655724764,6935.31172171387,8901.85827896151,,,18.0299999713898,584.638488769531,3117.01930941452,3755.93786121603
2018-07-19T09:11:08Z,1531991468,300AB02,40.2611554,44.3035312,6885.32,0,0,5.1,479700.31,-66823.5,0,Weapon+Missile,Violet,Neutral,R-73 (AA-11),,,,203.422832997474,146.271224975586,0.650103399274354,6885.32421875,6302.39959716797,80.7118612164013,-186.7255859375,75.5693491921127,NaN,0,0.0197823405926261,3314.73638884064,0.729781270027161,0.729781270027161,0.729781270027161,2069.04244923592,6752.19647498047,8821.23892421638,,,19.0299999713898,582.924621582031,3197.47153940592,3959.29266815636
2018-07-19T09:11:09Z,1531991469,300AB02,40.2605596,44.3040017,6688.87,0,0,5.1,479648.09,-66775.45,0,Weapon+Missile,Violet,Neutral,R-73 (AA-11),,,,208.8740361555,151.979339599609,0.665783588167225,6688.873046875,6106.21148681641,70.9598481454697,-196.451171875,77.8185497996224,NaN,0,0.0197823405926261,3558.54629891723,0.736520111560822,0.736520111560822,0.736520111560822,2181.41814899445,6559.54368651367,8740.96183550812,,,20.0299999713898,582.661560058594,3268.15564238771,4168.09866471132
2018-07-19T09:11:10Z,1531991470,300AB02,40.2600456,44.3044075,6482.37,0,0,5.1,479603.09,-66734.04,0,Weapon+Missile,Violet,Neutral,R-73 (AA-11),,,,215.365208222768,158.677108764648,0.68460237572027,6482.37353515625,5897.9169921875,61.1565578883729,-206.49951171875,79.9722554172077,NaN,0,0.0197823405926261,3935.36871628919,0.74406635761261,0.74406635761261,0.74406635761261,2319.1086456418,6357.036842854,8676.14548849581,,,21.0299999713898,584.45654296875,3329.11845480975,4383.42676675226
2018-07-19T09:11:11Z,1531991471,300AB02,40.259615,44.3047475,6266.54,0,0,5.1,479565.38,-66699.32,0,Weapon+Missile,Violet,Neutral,R-73 (AA-11),,,,221.834889786455,165.559463500977,0.703169852064319,6266.54345703125,5679.95471191406,51.2649558970355,-215.830078125,81.9994641149058,NaN,0,0.0197823405926261,4328.72712110506,0.724393904209137,0.724393904209137,0.724393904209137,2460.53591632843,6145.37983928955,8605.91575561798,,,22.0299999713898,586.588745117188,3380.20379743682,4605.23198282026
2018-07-19T09:11:12Z,1531991472,300AB02,40.2592652,44.3050237,6040.14,0,0,5.1,479534.72,-66671.12,0,Weapon+Missile,Violet,Neutral,R-73 (AA-11),,,,230.202613319921,174.181533813477,0.727537319386835,6040.14111328125,5451.50671386719,41.6559950526707,-226.40234375,83.9039999207668,NaN,0,0.0197823405926261,4769.03647672895,0.75046169757843,0.75046169757843,0.75046169757843,2649.66215896606,5923.35498485596,8573.01714382202,,,23.0299999713898,588.634399414062,3421.69873047823,4835.41272618087
2018-07-19T09:11:13Z,1531991473,300AB02,40.2589986,44.3052342,5804.41,0,0,5.1,479511.41,-66649.63,0,Weapon+Missile,Violet,Neutral,R-73 (AA-11),,,,237.849792301471,182.475158691406,0.749406632186968,5804.41357421875,5214.23974609375,31.702539730921,-235.7275390625,85.6971513283178,NaN,0,0.0197823405926261,5000,0.730092227458954,0.730092227458954,0.730092227458954,2828.62618489265,5692.18523776123,8520.81142265389,,,24.0299999713898,590.173828125,3453.32067486254,5073.25569508964
2018-07-19T09:11:14Z,1531991474,300AB02,40.2588143,44.3053796,5558.66,0,0,5.1,479495.25,-66634.78,0,Weapon+Missile,Violet,Neutral,R-73 (AA-11),,,,246.73616622952,192.046417236328,0.774942205378562,5558.6552734375,4967.40319824219,21.9452346251733,-245.75830078125,87.3651576492364,NaN,0,0.0197823405926261,5000,0.740482091903687,0.740482091903687,0.740482091903687,3043.93678628206,5451.17867372559,8495.11546000765,,,25.0299999713898,591.252075195312,3475.17223440298,5319.98527198721
2018-07-19T09:11:15Z,1531991475,300AB02,40.2587124,44.3054601,5303.5,0,0,5.1,479486.34,-66626.56,0,Weapon+Missile,Violet,Neutral,R-73 (AA-11),,,,255.441451570651,201.748840332031,0.799661387503235,5303.50146484375,4711.62030029297,12.1189579017752,-255.15380859375,88.9238065377533,NaN,0,0.0197823405926261,5000,0.704368889331818,0.704368889331818,0.704368889331818,3262.51675902605,5200.958264021,8463.47502304705,,,26.0299999713898,591.881164550781,3487.26292560236,5575.42587157203
2018-07-19T09:11:16Z,1531991476,300AB02,40.2586899,44.3054778,5038.67,0,0,5.1,479484.34,-66624.74,0,Weapon+Missile,Violet,Neutral,R-73 (AA-11),,,,264.842909234887,212.331161499023,0.826298987633881,5038.67236328125,4446.64801025391,2.70435530166734,-264.8291015625,89.958545251948,NaN,0,0.0197823405926261,5000,0.209980368614197,0.209980368614197,0.209980368614197,3507.08832859993,4941.24963313721,8448.33796173714,,,27.0299999713898,592.024353027344,3489.93032464894,5840.26842781007
2018-07-19T09:11:17Z,1531991477,300AB02,40.2586899,44.3054778,4763.55,0,0,5.1,479484.34,-66624.74,0,Weapon+Missile,Violet,Neutral,R-73 (AA-11),,,,275.1259765625,223.990768432617,0.855397543978943,4763.54638671875,4171.52203369141,0,-275.1259765625,90,NaN,0,0.0197823405926261,NaN,0.0396325439214706,0.0396325439214706,0.0396325439214706,3784.71514897347,4671.44321733154,8456.15836630501,,,28.0299999713898,592.024353027344,3489.93032464894,6115.39440437253
2018-07-19T09:11:18Z,1531991478,300AB02,40.2586899,44.3054778,4478.23,0,0,5.1,479484.34,-66624.74,0,Weapon+Missile,Violet,Neutral,R-73 (AA-11),,,,285.3212890625,235.912216186523,0.883920307449041,4478.22509765625,3886.20074462891,0,-285.3212890625,90,NaN,0,0.0197823405926261,NaN,0.0563641749322414,0.0563641749322414,0.0563641749322414,4070.41189961433,4391.63861539307,8462.0505150074,,,29.0299999713898,592.024353027344,3489.93032464894,6400.71569343449
2018-07-19T09:11:19Z,1531991479,300AB02,40.2586899,44.3054778,4183.65,0,0,5.1,479484.34,-66624.74,0,Weapon+Missile,Violet,Neutral,R-73 (AA-11),,,,294.5751953125,247.321624755859,0.909240478541133,4183.64990234375,3591.62554931641,0,-294.5751953125,90,NaN,0,0.0197823405926261,5000,0.0512606166303158,0.0512606166303158,0.0512606166303158,4338.72728466988,4102.75903148193,8441.48631615181,,,30.0299999713898,592.024353027344,3489.93032464894,6695.29088874712
2018-07-19T09:11:20Z,1531991480,300AB02,40.2586899,44.3054778,3879.77,0,0,5.1,479484.34,-66624.74,0,Weapon+Missile,Violet,Neutral,R-73 (AA-11),,,,303.879150390625,259.079925537109,0.934434642364396,3879.77075195312,3287.74639892578,0,-303.879150390625,90,NaN,0,0.0197823405926261,5000,0.113148704171181,0.113148704171181,0.113148704171181,4617.1269021064,3804.75538446411,8421.88228657052,,,31.0299999713898,592.024353027344,3489.93032464894,6999.17003913726
2018-07-19T09:11:21Z,1531991481,300AB02,40.2586899,44.3054778,3564.98,0,0,5.1,479484.34,-66624.74,0,Weapon+Missile,Violet,Neutral,R-73 (AA-11),,,,314.79541015625,272.6357421875,0.96426413937481,3564.97534179688,2972.95098876953,0,-314.79541015625,90,NaN,0,0.0197823405926261,5000,0.083973191678524,0.083973191678524,0.083973191678524,4954.80751277208,3496.04654356323,8450.85405633532,,,32.0299999713898,592.024353027344,3489.93032464894,7313.96544929404
2018-07-19T09:11:22Z,1531991482,300AB02,40.2586899,44.3054778,3241.2,0,0,5.1,479484.34,-66624.74,0,Weapon+Missile,Violet,Neutral,R-73 (AA-11),,,,323.778564453125,284.734039306641,0.987872330689373,3241.19677734375,2649.17242431641,0,-323.778564453125,90,NaN,0,0.0197823405926261,5000,0.0337093472480774,0.0337093472480774,0.0337093472480774,5241.62793996632,3178.52823765381,8420.15617762013,,,33.0299999713898,592.024353027344,3489.93032464894,7637.74401374674
2018-07-19T09:11:23Z,1531991483,300AB02,40.2586899,44.3054778,2907.94,0,0,5.1,479484.34,-66624.74,0,Weapon+Missile,Violet,Neutral,R-73 (AA-11),,,,333.254638671875,297.551086425781,1.01269315852331,2907.94213867188,2315.91778564453,0,-333.254638671875,90,NaN,0,0.0197823405926261,NaN,0.107696607708931,0.107696607708931,0.107696607708931,5552.9327098161,2851.71707742065,8404.64978723675,,,34.0299999713898,592.024353027344,3489.93032464894,7970.99865241899
2018-07-19T09:11:24Z,1531991484,300AB02,40.2586899,44.3054778,2563.82,0,0,5.1,479484.34,-66624.74,0,Weapon+Missile,Violet,Neutral,R-73 (AA-11),,,,344.117431640625,312.00927734375,1.04139361334371,2563.82470703125,1971.80035400391,0,-344.117431640625,90,NaN,0,0.0197823405926261,NaN,0.111233673989773,0.111233673989773,0.111233673989773,5920.84033794701,2514.2531563208,8435.09349426781,,,35.0299999713898,592.024353027344,3489.93032464894,8315.11608405943
2018-07-19T09:11:25Z,1531991485,300AB02,40.2586899,44.3054778,2210.99,0,0,5.1,479484.34,-66624.74,0,Weapon+Missile,Violet,Neutral,R-73 (AA-11),,,,352.833251953125,324.6865234375,1.06329589249776,2210.99145507812,1618.96710205078,0,-352.833251953125,90,NaN,0,0.0197823405926261,NaN,0.0346036702394485,0.0346036702394485,0.0346036702394485,6224.56518419087,2168.24193529419,8392.80711948506,,,36.0299999713898,592.024353027344,3489.93032464894,8667.94933601316
2018-07-19T09:11:26Z,1531991486,300AB02,40.2586899,44.3054778,1848.01,0,0,5.1,479484.34,-66624.74,0,Weapon+Missile,Violet,Neutral,R-73 (AA-11),,,,362.979248046875,338.950073242188,1.0891964666731,1848.01220703125,1255.98785400391,0,-362.979248046875,90,NaN,0,0.0197823405926261,5000,0.0024512424133718,0.0024512424133718,0.0024512424133718,6587.69672563374,1812.2808910083,8399.97761664204,,,37.0299999713898,592.024353027344,3489.93032464894,9030.92858405952
2018-07-19T09:11:27Z,1531991487,300AB02,40.2586899,44.3054778,1475.2,0,0,5.1,479484.34,-66624.74,0,Weapon+Missile,Violet,Neutral,R-73 (AA-11),,,,372.809936523438,353.131805419922,1.11382707293477,1475.20227050781,883.177917480469,0,-372.809936523438,90,NaN,0,0.0197823405926261,5000,0.0554162375628948,0.0554162375628948,0.0554162375628948,6949.36243853048,1446.67923460754,8396.04167313802,,,38.0299999713898,592.024353027344,3489.93032464894,9403.73852058276
2018-07-19T09:11:28Z,1531991488,300AB02,40.2586899,44.3054778,1092.04,0,0,5.1,479484.34,-66624.74,0,Weapon+Missile,Violet,Neutral,R-73 (AA-11),,,,383.160034179688,368.086456298828,1.13967451471859,1092.04223632812,500.017883300781,0,-383.160034179688,90,NaN,0,0.0197823405926261,NaN,0.136776372790337,0.136776372790337,0.136776372790337,7340.58058962896,1070.92759968872,8411.50818931768,,,39.0299999713898,592.024353027344,3489.93032464894,9786.8985547626
2018-07-19T09:11:29Z,1531991489,300AB02,40.2586899,44.3054778,700.42,0,0,5.1,479484.34,-66624.74,0,Weapon+Missile,Violet,Neutral,R-73 (AA-11),,,,391.625366210938,381.555297851562,1.15962272957394,700.416870117188,108.392517089844,0,-391.625366210938,90,NaN,0,0.0197823405926261,NaN,0.194948822259903,0.194948822259903,0.194948822259903,7668.52137299255,686.874309933472,8355.39568292602,,,40.0299999713898,592.024353027344,3489.93032464894,10178.5239209738
2018-07-19T09:11:30Z,1531991490,300AB02,40.2586899,44.3054778,297.07,0,0,5.1,479484.34,-66624.74,0,Weapon+Missile,Violet,Neutral,R-73 (AA-11),,,,403.343811035156,398.584411621094,1.18884794317186,297.073059082031,-294.951293945312,0,-403.343811035156,90,NaN,0,0.0197823405926261,NaN,0.6186243891716,0.6186243891716,0.6186243891716,8134.31149501819,291.32915148468,8425.64064650287,,,41.0299999713898,592.024353027344,3489.93032464894,10581.8677320084
