ISOTime,UnixTime,Id,Longitude,Latitude,Altitude,Roll,Pitch,Yaw,U,V,Heading,Type,Color,Coalition,Name,Group,Country,Pilot,TAS,CAS,M,ASL,AGL,GS,VS,AOA,AOS,RRT,TRT,TRD,G,LatG,LonG,Ek,Ep,Em,FFW,FFV,RelativeTime,Elev,GroundDistance,AirDistance
2011-06-01T04:30:42Z,1306902642,103,54.654714,24.4234004,30.23,0,-1.1,38.4,-162042.62,-191815.75,39.4,Air+FixedWing,Blue,Enemies,Su-33,Blue Su-33 #001,ru,[51☭] holimoli,0.104267470862038,0,0.000306400813640874,30.2299995422363,2.22999954223633,NaN,NaN,NaN,NaN,0,NaN,NaN,NaN,NaN,NaN,NaN,29.6455025010872,NaN,,,0.639999866485596,28,NaN,NaN
2011-06-01T04:30:43Z,1306902643,103,54.6547142,24.4234005,30.21,0,-2.3,38.4,-162042.61,-191815.72,39.4,Air+FixedWing,Blue,Enemies,Su-33,Blue Su-33 #001,ru,[51☭] holimoli,0.0393463180792446,0,0.000115623226643546,30.2119045257568,2.21190452575684,0.0349385621484342,-0.0180950164794922,NaN,NaN,0,0.838332136002929,NaN,1.0004585745075,-0.00136299718853422,-0.0497132944257627,7.74066373196547e-05,29.6277573517513,29.6278347583886,,,1.6399998664856,28,0.0256096601401013,0.0313574631872858
2011-06-01T04:30:44Z,1306902644,103,54.6547139,24.4234002,30.21,0,-1.2,38.4,-162042.64,-191815.77,39.4,Air+FixedWing,Blue,Enemies,Su-33,Blue Su-33 #001,ru,[51☭] holimoli,0.0563689527265449,0,0.000165645996245236,30.2099990844727,2.20999908447266,0.0563367386791248,-0.00190544128417969,NaN,NaN,0,0.643319936554457,NaN,1.00013150447538,0.000351677244105852,-0.0137376326104444,0.000158872941574373,29.6258887521744,29.626047625116,,,2.6399998664856,28,0.0717172143590985,0.0775045910431019
2011-06-01T04:30:45Z,1306902645,103,54.654714,24.4234004,30.21,0,-1.3,38.4,-162042.62,-191815.75,39.4,Air+FixedWing,Blue,Enemies,Su-33,Blue Su-33 #001,ru,[51☭] holimoli,0.0220970869120796,0,6.49345747724939e-05,30.2099990844727,2.20999908447266,0.0220970869120796,0,NaN,NaN,0,0.139532267027538,NaN,0.999676975384129,0.000219880900107505,-0.0255108705301793,2.44140625e-05,29.6258887521744,29.6259131662369,,,3.6399998664856,28,0.0938225612527563,0.0996100424354292
2011-06-01T04:30:46Z,1306902646,103,54.6547141,24.4234004,30.21,0,-1.5,38.4,-162042.62,-191815.75,39.4,Air+FixedWing,Blue,Enemies,Su-33,Blue Su-33 #001,ru,[51☭] holimoli,0,0,0,30.2099990844727,2.20999908447266,0,0,NaN,NaN,0,0.151305992372332,NaN,0.999635259608934,0.00123120084453587,-0.027021772408422,0,29.6258887521744,29.6258887521744,,,4.6399998664856,28,0.0996144552379437,0.105401964350403
2011-06-01T04:30:47Z,1306902647,103,54.654714,24.4234003,30.21,0,-1.4,38.4,-162042.64,-191815.75,39.4,Air+FixedWing,Blue,Enemies,Su-33,Blue Su-33 #001,ru,[51☭] holimoli,0.015625,0,4.59156781550953e-05,30.2099990844727,2.20999908447266,0.015625,0,NaN,NaN,0,0.0383083399245797,NaN,0.999750798254478,-0.00246240168907174,-0.0224101442770873,1.220703125e-05,29.6258887521744,29.6259009592056,,,5.6399998664856,28,0.115767297280365,0.121554883092945
2011-06-01T04:30:48Z,1306902648,103,54.654714,24.4234004,30.21,0,-1.4,38.4,-162042.62,-191815.75,39.4,Air+FixedWing,Blue,Enemies,Su-33,Blue Su-33 #001,ru,[51☭] holimoli,0.015625,0,4.59156781550953e-05,30.2099990844727,2.20999908447266,0.015625,0,NaN,NaN,0,0.0139882274201861,NaN,0.999651963240463,0.00246240168907174,-0.0264542166216458,1.220703125e-05,29.6258887521744,29.6259009592056,,,6.6399998664856,28,0.127184004461869,0.132971644362491
2011-06-01T04:30:49Z,1306902649,103,54.654714,24.4234004,30.21,0,-1.4,38.4,-162042.64,-191815.75,39.4,Air+FixedWing,Blue,Enemies,Su-33,Blue Su-33 #001,ru,[51☭] holimoli,0.015625,0,4.59156781550953e-05,30.2099990844727,2.20999908447266,0.015625,0,NaN,NaN,0,0.0139882274201861,NaN,0.999726089500975,-0.00123120084453587,-0.0234211623632269,1.220703125e-05,29.6258887521744,29.6259009592056,,,7.6399998664856,28,0.127184004461869,0.132971644362491
2011-06-01T04:30:50Z,1306902650,103,54.654714,24.4234004,30.21,0,-1.4,38.4,-162042.64,-191815.75,39.4,Air+FixedWing,Blue,Enemies,Su-33,Blue Su-33 #001,ru,[51☭] holimoli,0,0,0,30.2099990844727,2.20999908447266,0,0,NaN,NaN,0,0.0139882274201861,NaN,0.999701380747471,0,-0.0244321804493666,0,29.6258887521744,29.6258887521744,,,8.6399998664856,28,0.127184004461869,0.132971644362491
2011-06-01T04:30:51Z,1306902651,103,54.654714,24.4234004,30.21,0,-1.4,38.4,-162042.64,-191815.75,39.4,Air+FixedWing,Blue,Enemies,Su-33,Blue Su-33 #001,ru,[51☭] holimoli,0,0,0,30.2099990844727,2.20999908447266,0,0,NaN,NaN,0,0.0139882274201861,NaN,0.999701380747471,0,-0.0244321804493666,0,29.6258887521744,29.6258887521744,,,9.6399998664856,28,0.127184004461869,0.132971644362491
2011-06-01T04:30:52Z,1306902652,103,54.654714,24.4234004,30.21,0,-1.4,38.4,-162042.64,-191815.75,39.4,Air+FixedWing,Blue,Enemies,Su-33,Blue Su-33 #001,ru,[51☭] holimoli,0,0,0,30.2099990844727,2.20999908447266,0,0,NaN,NaN,0,0.0139882274201861,NaN,0.999726089500975,-0.00123120084453587,-0.0234211623632269,0,29.6258887521744,29.6258887521744,,,10.6399998664856,28,0.127184004461869,0.132971644362491
2011-06-01T04:30:53Z,1306902653,103,54.654714,24.4234004,30.21,0,-1.4,38.4,-162042.62,-191815.75,39.4,Air+FixedWing,Blue,Enemies,Su-33,Blue Su-33 #001,ru,[51☭] holimoli,0.015625,0,4.59156781550953e-05,30.2099990844727,2.20999908447266,0.015625,0,NaN,NaN,0,0.0139882274201861,NaN,0.999676671993967,0.00123120084453587,-0.0254431985355062,1.220703125e-05,29.6258887521744,29.6259009592056,,,11.6399998664856,28,0.127184004461869,0.132971644362491
2011-06-01T04:30:54Z,1306902654,103,54.654714,24.4234004,30.21,0,-1.4,38.4,-162042.62,-191815.75,39.4,Air+FixedWing,Blue,Enemies,Su-33,Blue Su-33 #001,ru,[51☭] holimoli,0,0,0,30.2099990844727,2.20999908447266,0,0,NaN,NaN,0,0.0139882274201861,NaN,0.999701380747471,0,-0.0244321804493666,0,29.6258887521744,29.6258887521744,,,12.6399998664856,28,0.127184004461869,0.132971644362491
2011-06-01T04:30:55Z,1306902655,103,54.654714,24.4234004,30.21,0,-1.4,38.4,-162042.62,-191815.75,39.4,Air+FixedWing,Blue,Enemies,Su-33,Blue Su-33 #001,ru,[51☭] holimoli,0,0,0,30.2099990844727,2.20999908447266,0,0,NaN,NaN,0,0.0139882274201861,NaN,0.999676671993967,0.00123120084453587,-0.0254431985355062,0,29.6258887521744,29.6258887521744,,,13.6399998664856,28,0.127184004461869,0.132971644362491
2011-06-01T04:30:56Z,1306902656,103,54.654714,24.4234004,30.21,0,-1.4,38.4,-162042.64,-191815.75,39.4,Air+FixedWing,Blue,Enemies,Su-33,Blue Su-33 #001,ru,[51☭] holimoli,0.015625,0,4.59156781550953e-05,30.2099990844727,2.20999908447266,0.015625,0,NaN,NaN,0,0.0139882274201861,NaN,0.999750798254478,-0.00246240168907174,-0.0224101442770873,1.220703125e-05,29.6258887521744,29.6259009592056,,,14.6399998664856,28,0.127184004461869,0.132971644362491
2011-06-01T04:30:57Z,1306902657,103,54.654714,24.4234004,30.21,0,-1.4,38.4,-162042.62,-191815.75,39.4,Air+FixedWing,Blue,Enemies,Su-33,Blue Su-33 #001,ru,[51☭] holimoli,0.015625,0,4.59156781550953e-05,30.2099990844727,2.20999908447266,0.015625,0,NaN,NaN,0,0.0139882274201861,NaN,0.999676671993967,0.00123120084453587,-0.0254431985355062,1.220703125e-05,29.6258887521744,29.6259009592056,,,15.6399998664856,28,0.127184004461869,0.132971644362491
2011-06-01T04:30:58Z,1306902658,103,54.654714,24.4234004,30.21,0,-1.4,38.4,-162042.62,-191815.75,39.4,Air+FixedWing,Blue,Enemies,Su-33,Blue Su-33 #001,ru,[51☭] holimoli,0,0,0,30.2099990844727,2.20999908447266,0,0,NaN,NaN,0,0.0139882274201861,NaN,0.999676671993967,0.00123120084453587,-0.0254431985355062,0,29.6258887521744,29.6258887521744,,,16.6399998664856,28,0.127184004461869,0.132971644362491
2011-06-01T04:30:59Z,1306902659,103,54.654714,24.4234004,30.21,0,-1.4,38.4,-162042.64,-191815.75,39.4,Air+FixedWing,Blue,Enemies,Su-33,Blue Su-33 #001,ru,[51☭] holimoli,0.015625,0,4.59156781550953e-05,30.2099990844727,2.20999908447266,0.015625,0,NaN,NaN,0,0.0139882274201861,NaN,0.999726089500975,-0.00123120084453587,-0.0234211623632269,1.220703125e-05,29.6258887521744,29.6259009592056,,,17.6399998664856,28,0.127184004461869,0.132971644362491
2011-06-01T04:31:00Z,1306902660,103,54.654714,24.4234004,30.21,0,-1.4,38.4,-162042.64,-191815.75,39.4,Air+FixedWing,Blue,Enemies,Su-33,Blue Su-33 #001,ru,[51☭] holimoli,0,0,0,30.2099990844727,2.20999908447266,0,0,NaN,NaN,0,0.0139882274201861,NaN,0.999726089500975,-0.00123120084453587,-0.0234211623632269,0,29.6258887521744,29.6258887521744,,,18.6399998664856,28,0.127184004461869,0.132971644362491
2011-06-01T04:31:01Z,1306902661,103,54.654714,24.4234004,30.21,0,-1.4,38.4,-162042.62,-191815.75,39.4,Air+FixedWing,Blue,Enemies,Su-33,Blue Su-33 #001,ru,[51☭] holimoli,0.015625,0,4.59156781550953e-05,30.2099990844727,2.20999908447266,0.015625,0,NaN,NaN,0,0.0139882274201861,NaN,0.999651963240463,0.00246240168907174,-0.0264542166216458,1.220703125e-05,29.6258887521744,29.6259009592056,,,19.6399998664856,28,0.130349971061284,0.136137625921967
2011-06-01T04:31:02Z,1306902662,103,54.654714,24.4234003,30.21,0,-1.4,38.4,-162042.64,-191815.75,39.4,Air+FixedWing,Blue,Enemies,Su-33,Blue Su-33 #001,ru,[51☭] holimoli,0.015625,0,4.59156781550953e-05,30.2099990844727,2.20999908447266,0.015625,0,NaN,NaN,0,0.0541761800424684,NaN,0.999750798254478,-0.00246240168907174,-0.0224101442770873,1.220703125e-05,29.6258887521744,29.6259009592056,,,20.6399998664856,28,0.138315953263993,0.14410364623656
2011-06-01T04:31:03Z,1306902663,103,54.654714,24.4234003,30.21,0,-1.3,38.4,-162042.62,-191815.75,39.4,Air+FixedWing,Blue,Enemies,Su-33,Blue Su-33 #001,ru,[51☭] holimoli,0.015625,0,4.59156781550953e-05,30.2099990844727,2.20999908447266,0.015625,0,NaN,NaN,0,0.0541761800424684,NaN,0.999696619637392,0.00246240168907174,-0.0247094539559294,1.220703125e-05,29.6258887521744,29.6259009592056,,,21.6399998664856,28,0.138315953263993,0.14410364623656
2011-06-01T04:31:04Z,1306902664,103,54.654714,24.4234003,30.21,0,-1.3,38.4,-162042.64,-191815.75,39.4,Air+FixedWing,Blue,Enemies,Su-33,Blue Su-33 #001,ru,[51☭] holimoli,0.015625,0,4.59156781550953e-05,30.2099990844727,2.20999908447266,0.015625,0,NaN,NaN,0,0.0568204570971485,NaN,0.999762261298409,-0.00123120084453587,-0.0218216856978596,1.220703125e-05,29.6258887521744,29.6259009592056,,,22.6399998664856,28,0.138315953263993,0.14410364623656
2011-06-01T04:31:05Z,1306902665,103,54.654714,24.4234004,30.21,0,-1.5,38.4,-162042.64,-191815.75,39.4,Air+FixedWing,Blue,Enemies,Su-33,Blue Su-33 #001,ru,[51☭] holimoli,0,0,0,30.2099990844727,2.20999908447266,0,0,NaN,NaN,0,0.089568392712263,NaN,0.999670803566524,0,-0.0256535261869431,0,29.6258887521744,29.6258887521744,,,23.6399998664856,28,0.146108316755629,0.151896047304704
2011-06-01T04:31:06Z,1306902666,103,54.654714,24.4234003,30.21,0,-1.4,38.4,-162042.64,-191815.75,39.4,Air+FixedWing,Blue,Enemies,Su-33,Blue Su-33 #001,ru,[51☭] holimoli,0,0,0,30.2099990844727,2.20999908447266,0,0,NaN,NaN,0,0.0197823405926261,NaN,0.998706654684718,-0.00123120084453587,-0.0233962479095384,0,29.6258887521744,29.6258887521744,,,24.6399998664856,28,0.153900680247265,0.159688448372848
2011-06-01T04:31:07Z,1306902667,103,54.654714,24.4234003,30.2,0,-1.4,38.4,-162042.62,-191815.75,39.4,Air+FixedWing,Blue,Enemies,Su-33,Blue Su-33 #001,ru,[51☭] holimoli,0.0185511509801712,0,5.45144692368442e-05,30.1999988555908,2.19999885559082,0.015625,-0.0100002288818359,NaN,NaN,0,0.0419646855956116,NaN,1.00067139805672,0.00246240168907174,-0.0264791310753343,1.72072601344553e-05,29.616081877718,29.6160990849781,,,25.6399998664856,28,0.153900680247265,0.169688677794952
2011-06-01T04:31:08Z,1306902668,103,54.654714,24.4234003,30.2,0,-1.4,38.4,-162042.64,-191815.75,39.4,Air+FixedWing,Blue,Enemies,Su-33,Blue Su-33 #001,ru,[51☭] holimoli,0.015625,0,4.59156729809457e-05,30.1999988555908,2.19999885559082,0.015625,0,NaN,NaN,0,0.0139882274201861,NaN,0.999726089500975,-0.00123120084453587,-0.0234211623632269,1.220703125e-05,29.616081877718,29.6160940847492,,,26.6399998664856,28,0.153900680247265,0.169688677794952
2011-06-01T04:31:09Z,1306902669,103,54.6547139,24.4234003,30.2,0,-1.4,38.4,-162042.64,-191815.75,39.4,Air+FixedWing,Blue,Enemies,Su-33,Blue Su-33 #001,ru,[51☭] holimoli,0,0,0,30.1999988555908,2.19999885559082,0,0,NaN,NaN,0,0.0139882274201861,NaN,0.999726089500975,-0.00123120084453587,-0.0234211623632269,0,29.616081877718,29.616081877718,,,27.6399998664856,28,0.160416553499117,0.176204581414518
2011-06-01T04:31:10Z,1306902670,103,54.654714,24.4234004,30.2,0,-1.5,38.4,-162042.62,-191815.75,39.4,Air+FixedWing,Blue,Enemies,Su-33,Blue Su-33 #001,ru,[51☭] holimoli,0.015625,0,4.59156729809457e-05,30.1999988555908,2.19999885559082,0.015625,0,NaN,NaN,0,0.0541761800424684,NaN,0.999604326759169,0.00246240168907174,-0.0281988971536867,1.220703125e-05,29.616081877718,29.6160940847492,,,28.6399998664856,28,0.173315270537092,0.189103359470069
2011-06-01T04:31:11Z,1306902671,103,54.654714,24.4234003,30.2,0,-1.4,38.4,-162042.64,-191815.75,39.4,Air+FixedWing,Blue,Enemies,Su-33,Blue Su-33 #001,ru,[51☭] holimoli,0.015625,0,4.59156729809457e-05,30.1999988555908,2.19999885559082,0.015625,0,NaN,NaN,0,0.0139882274201861,NaN,0.999733773795751,-0.00246240168907174,-0.0231580076431687,1.220703125e-05,29.616081877718,29.6160940847492,,,29.6399998664856,28,0.184447219339216,0.200235361030036
2011-06-01T04:31:12Z,1306902672,103,54.654714,24.4234003,30.2,0.1,-1.5,38.4,-162042.62,-191815.75,39.4,Air+FixedWing,Blue,Enemies,Su-33,Blue Su-33 #001,ru,[51☭] holimoli,0.015625,0,4.59156729809457e-05,30.1999988555908,2.19999885559082,0.015625,0,NaN,NaN,0.145454507945401,0.0221173298063182,NaN,0.999641341618469,0.0025000775860725,-0.0267120953752446,1.220703125e-05,29.616081877718,29.6160940847492,,,30.6399998664856,28,0.184447219339216,0.200235361030036
2011-06-01T04:31:13Z,1306902673,103,54.654714,24.4234003,30.2,0,-1.5,38.4,-162042.62,-191815.75,39.4,Air+FixedWing,Blue,Enemies,Su-33,Blue Su-33 #001,ru,[51☭] holimoli,0,0,0,30.1999988555908,2.19999885559082,0,0,NaN,NaN,0.0352437761172658,0.0541761800424684,NaN,0.999657154144526,0.000553207190602169,-0.0261769499629736,0,29.616081877718,29.616081877718,,,31.6399998664856,28,0.184447219339216,0.200235361030036
2011-06-01T04:31:14Z,1306902674,103,54.654714,24.4234003,30.2,0,-1.5,38.4,-162042.62,-191815.75,39.4,Air+FixedWing,Blue,Enemies,Su-33,Blue Su-33 #001,ru,[51☭] holimoli,0,0,0,30.1999988555908,2.19999885559082,0,0,NaN,NaN,0.0999939694489867,0.0221173298063182,NaN,0.999657154144526,0.000488600497752061,-0.0261769499629736,0,29.616081877718,29.616081877718,,,32.6399998664856,28,0.184447219339216,0.200235361030036
2011-06-01T04:31:15Z,1306902675,103,54.654714,24.4234004,30.2,-0.1,-1.5,38.4,-162042.62,-191815.75,39.4,Air+FixedWing,Blue,Enemies,Su-33,Blue Su-33 #001,ru,[51☭] holimoli,0,0,0,30.1999988555908,2.19999885559082,0,0,NaN,NaN,0.199987938897973,0.0221173298063182,NaN,0.99965578370746,-0.00174462503716849,-0.0261769499629736,0,29.616081877718,29.616081877718,,,33.6399998664856,28,0.19557916814134,0.211367362590004
2011-06-01T04:31:16Z,1306902676,103,54.654714,24.4234003,30.2,0,-1.5,38.4,-162042.62,-191815.75,39.4,Air+FixedWing,Blue,Enemies,Su-33,Blue Su-33 #001,ru,[51☭] holimoli,0,0,0,30.1999988555908,2.19999885559082,0,0,NaN,NaN,0,0.0221173298063182,NaN,0.999657273312966,0,-0.0261769499629736,0,29.616081877718,29.616081877718,,,34.6399998664856,28,0.205667498244816,0.221455739825057
2011-06-01T04:31:17Z,1306902677,103,54.654714,24.4234003,30.2,0.1,-1.5,38.4,-162042.62,-191815.75,39.4,Air+FixedWing,Blue,Enemies,Su-33,Blue Su-33 #001,ru,[51☭] holimoli,0,0,0,30.1999988555908,2.19999885559082,0,0,NaN,NaN,0.181818208302925,0.0541761800424684,NaN,0.999656022044341,0.00158611879195129,-0.0261769499629736,0,29.616081877718,29.616081877718,,,35.6399998664856,28,0.206711116943465,0.222499364149972
2011-06-01T04:31:18Z,1306902678,103,54.654714,24.4234003,30.2,0.1,-1.4,38.4,-162042.62,-191815.75,39.4,Air+FixedWing,Blue,Enemies,Su-33,Blue Su-33 #001,ru,[51☭] holimoli,0,0,0,30.1999988555908,2.19999885559082,0,0,NaN,NaN,0,0.0242283218322616,NaN,0.999678850669241,0.00174477061641919,-0.0252796486020088,0,29.616081877718,29.616081877718,,,36.6399998664856,28,0.206711116943465,0.222499364149972
2011-06-01T04:31:19Z,1306902679,103,54.654714,24.4234003,30.2,0,-1.5,38.4,-162042.62,-191815.75,39.4,Air+FixedWing,Blue,Enemies,Su-33,Blue Su-33 #001,ru,[51☭] holimoli,0,0,0,30.1999988555908,2.19999885559082,0,0,NaN,NaN,0.124309442894232,0.0197823405926261,NaN,0.999629867705935,0.00189141740641028,-0.0271879235583302,0,29.616081877718,29.616081877718,,,37.6399998664856,28,0.206711116943465,0.222499364149972
2011-06-01T04:31:20Z,1306902680,103,54.654714,24.4234003,30.2,-0.1,-1.4,38.4,-162042.64,-191815.75,39.4,Air+FixedWing,Blue,Enemies,Su-33,Blue Su-33 #001,ru,[51☭] holimoli,0.015625,0,4.59156729809457e-05,30.1999988555908,2.19999885559082,0.015625,0,NaN,NaN,0.190480315573316,0.0523391626455858,NaN,0.999722451073976,-0.00297594422741167,-0.0234211623632269,1.220703125e-05,29.616081877718,29.6160940847492,,,38.6399998664856,28,0.210253103070044,0.226041367155348
2011-06-01T04:31:21Z,1306902681,103,54.6547139,24.4234003,30.2,0,-1.4,38.4,-162042.64,-191815.75,39.4,Air+FixedWing,Blue,Enemies,Su-33,Blue Su-33 #001,ru,[51☭] holimoli,0,0,0,30.1999988555908,2.19999885559082,0,0,NaN,NaN,0,0.0139882274201861,NaN,0.99909494599276,-0.00123120084453587,-0.0234057375460092,0,29.616081877718,29.616081877718,,,39.6399998664856,28,0.220463127825033,0.236251440044574
2011-06-01T04:31:22Z,1306902682,103,54.654714,24.4234003,30.19,0,-1.4,38.4,-162042.62,-191815.75,39.4,Air+FixedWing,Blue,Enemies,Su-33,Blue Su-33 #001,ru,[51☭] holimoli,0.0168069106890167,0,4.93888359153949e-05,30.1938076019287,2.19380760192871,0.015625,-0.00619125366210938,NaN,NaN,0,0.0139882274201861,NaN,1.00091425025689,0.00246240168907174,-0.0264850662560814,1.41236123454291e-05,29.6100103319454,29.6100244555578,,,40.6399998664856,28,0.231665599073229,0.249050978090445
2011-06-01T04:31:23Z,1306902683,103,54.654714,24.4234003,30.2,0,-1.4,38.4,-162042.64,-191815.75,39.4,Air+FixedWing,Blue,Enemies,Su-33,Blue Su-33 #001,ru,[51☭] holimoli,0.0168069106890167,0,4.93888393610784e-05,30.1999988555908,2.19999885559082,0.015625,0.00619125366210938,NaN,NaN,0,0.0139882274201861,NaN,0.99909494599276,-0.00123120084453587,-0.0234057375460092,1.41236123454291e-05,29.616081877718,29.6160960013303,,,41.6399998664856,28,0.231665599073229,0.255242231643011
2011-06-01T04:31:24Z,1306902684,103,54.654714,24.4234003,30.2,0,-1.4,38.4,-162042.64,-191815.75,39.4,Air+FixedWing,Blue,Enemies,Su-33,Blue Su-33 #001,ru,[51☭] holimoli,0,0,0,30.1999988555908,2.19999885559082,0,0,NaN,NaN,0,0.0139882274201861,NaN,0.998681945931214,0,-0.0244072659956781,0,29.616081877718,29.616081877718,,,42.6399998664856,28,0.231665599073229,0.255242231643011
2011-06-01T04:31:25Z,1306902685,103,54.6547139,24.4234003,30.19,0,-1.4,38.4,-162042.64,-191815.75,39.4,Air+FixedWing,Blue,Enemies,Su-33,Blue Su-33 #001,ru,[51☭] holimoli,0.0100002288818359,0,2.93866999891407e-05,30.189998626709,2.18999862670898,0,-0.0100002288818359,NaN,NaN,0,0.0139882274201861,NaN,1.00176495913349,-0.00123120084453587,-0.0234709912706039,5.00022888445528e-06,29.6062750032616,29.6062800034905,,,43.6399998664856,28,0.238422804214909,0.267311398947305
2011-06-01T04:31:26Z,1306902686,103,54.654714,24.4234003,30.2,0,-1.4,38.4,-162042.62,-191815.75,39.4,Air+FixedWing,Blue,Enemies,Su-33,Blue Su-33 #001,ru,[51☭] holimoli,0.0185511509801712,0,5.45144692368442e-05,30.1999988555908,2.19999885559082,0.015625,0.0100002288818359,NaN,NaN,0.00588234826086641,0.0139882274201861,NaN,0.998657173973504,0.00128246509501529,-0.0254182840818177,1.72072601344553e-05,29.616081877718,29.6160990849781,,,44.6399998664856,28,0.24518000935659,0.279380566251599
2011-06-01T04:31:27Z,1306902687,103,54.654714,24.4234003,30.2,0.1,-1.4,38.4,-162042.62,-191815.75,39.4,Air+FixedWing,Blue,Enemies,Su-33,Blue Su-33 #001,ru,[51☭] holimoli,0,0,0,30.1999988555908,2.19999885559082,0,0,NaN,NaN,0.0735294143339938,0.0139882274201861,NaN,0.999674134974742,0.00256543152858165,-0.0254431985355062,0,29.616081877718,29.616081877718,,,45.6399998664856,28,0.24518000935659,0.279380566251599
2011-06-01T04:31:28Z,1306902688,103,54.654714,24.4234003,30.2,0,-1.4,38.4,-162042.64,-191815.75,39.4,Air+FixedWing,Blue,Enemies,Su-33,Blue Su-33 #001,ru,[51☭] holimoli,0.015625,0,4.59156729809457e-05,30.1999988555908,2.19999885559082,0.015625,0,NaN,NaN,0.0499969847244933,0.0139882274201861,NaN,0.999750798254478,-0.00246240168907174,-0.0224101442770873,1.220703125e-05,29.616081877718,29.6160940847492,,,46.6399998664856,28,0.24518000935659,0.279380566251599
2011-06-01T04:31:29Z,1306902689,103,54.654714,24.4234003,30.2,0,-1.4,38.4,-162042.62,-191815.75,39.4,Air+FixedWing,Blue,Enemies,Su-33,Blue Su-33 #001,ru,[51☭] holimoli,0.015625,0,4.59156729809457e-05,30.1999988555908,2.19999885559082,0.015625,0,NaN,NaN,0,0.0139882274201861,NaN,0.999676671993967,0.00123120084453587,-0.0254431985355062,1.220703125e-05,29.616081877718,29.6160940847492,,,47.6399998664856,28,0.24518000935659,0.279380566251599
2011-06-01T04:31:30Z,1306902690,103,54.654714,24.4234003,30.2,-0.1,-1.4,38.4,-162042.62,-191815.75,39.4,Air+FixedWing,Blue,Enemies,Su-33,Blue Su-33 #001,ru,[51☭] holimoli,0,0,0,30.1999988555908,2.19999885559082,0,0,NaN,NaN,0.17141042741064,0.0139882274201861,NaN,0.999700248597335,-0.00149545941821001,-0.0244321804493666,0,29.616081877718,29.616081877718,,,48.6399998664856,28,0.24518000935659,0.279380566251599
2011-06-01T04:31:31Z,1306902691,103,54.654714,24.4234003,30.2,0,-1.4,38.4,-162042.62,-191815.75,39.4,Air+FixedWing,Blue,Enemies,Su-33,Blue Su-33 #001,ru,[51☭] holimoli,0,0,0,30.1999988555908,2.19999885559082,0,0,NaN,NaN,0,0.0139882274201861,NaN,0.999676671993967,0.00123120084453587,-0.0254431985355062,0,29.616081877718,29.616081877718,,,49.6399998664856,28,0.24518000935659,0.279380566251599
2011-06-01T04:31:32Z,1306902692,103,54.654714,24.4234003,30.2,0,-1.4,38.4,-162042.64,-191815.75,39.4,Air+FixedWing,Blue,Enemies,Su-33,Blue Su-33 #001,ru,[51☭] holimoli,0.015625,0,4.59156729809457e-05,30.1999988555908,2.19999885559082,0.015625,0,NaN,NaN,0,0.0139882274201861,NaN,0.999726089500975,-0.00123120084453587,-0.0234211623632269,1.220703125e-05,29.616081877718,29.6160940847492,,,50.6399998664856,28,0.24518000935659,0.279380566251599
2011-06-01T04:31:33Z,1306902693,103,54.654714,24.4234003,30.2,0,-1.4,38.4,-162042.64,-191815.75,39.4,Air+FixedWing,Blue,Enemies,Su-33,Blue Su-33 #001,ru,[51☭] holimoli,0,0,0,30.1999988555908,2.19999885559082,0,0,NaN,NaN,0,0.0139882274201861,NaN,0.999701380747471,0,-0.0244321804493666,0,29.616081877718,29.616081877718,,,51.6399998664856,28,0.24518000935659,0.279380566251599
2011-06-01T04:31:34Z,1306902694,103,54.654714,24.4234003,30.2,0,-1.4,38.4,-162042.64,-191815.75,39.4,Air+FixedWing,Blue,Enemies,Su-33,Blue Su-33 #001,ru,[51☭] holimoli,0,0,0,30.1999988555908,2.19999885559082,0,0,NaN,NaN,0,0.0139882274201861,NaN,0.999701380747471,0,-0.0244321804493666,0,29.616081877718,29.616081877718,,,52.6399998664856,28,0.24518000935659,0.279380566251599
2011-06-01T04:31:35Z,1306902695,103,54.654714,24.4234003,30.2,0,-1.4,38.4,-162042.64,-191815.75,39.4,Air+FixedWing,Blue,Enemies,Su-33,Blue Su-33 #001,ru,[51☭] holimoli,0,0,0,30.1999988555908,2.19999885559082,0,0,NaN,NaN,0,0.0139882274201861,NaN,0.999726089500975,-0.00123120084453587,-0.0234211623632269,0,29.616081877718,29.616081877718,,,53.6399998664856,28,0.24518000935659,0.279380566251599
2011-06-01T04:31:36Z,1306902696,103,54.654714,24.4234003,30.2,0,-1.4,38.4,-162042.62,-191815.75,39.4,Air+FixedWing,Blue,Enemies,Su-33,Blue Su-33 #001,ru,[51☭] holimoli,0.015625,0,4.59156729809457e-05,30.1999988555908,2.19999885559082,0.015625,0,NaN,NaN,0,0.0139882274201861,NaN,0.999676671993967,0.00123120084453587,-0.0254431985355062,1.220703125e-05,29.616081877718,29.6160940847492,,,54.6399998664856,28,0.24518000935659,0.279380566251599
2011-06-01T04:31:37Z,1306902697,103,54.654714,24.4234003,30.2,0,-1.4,38.4,-162042.62,-191815.75,39.4,Air+FixedWing,Blue,Enemies,Su-33,Blue Su-33 #001,ru,[51☭] holimoli,0,0,0,30.1999988555908,2.19999885559082,0,0,NaN,NaN,0,0.0139882274201861,NaN,0.999701380747471,0,-0.0244321804493666,0,29.616081877718,29.616081877718,,,55.6399998664856,28,0.24518000935659,0.279380566251599
2011-06-01T04:31:38Z,1306902698,103,54.654714,24.4234003,30.2,0,-1.4,38.4,-162042.62,-191815.75,39.4,Air+FixedWing,Blue,Enemies,Su-33,Blue Su-33 #001,ru,[51☭] holimoli,0,0,0,30.1999988555908,2.19999885559082,0,0,NaN,NaN,0,0.0139882274201861,NaN,0.999676671993967,0.00123120084453587,-0.0254431985355062,0,29.616081877718,29.616081877718,,,56.6399998664856,28,0.24518000935659,0.279380566251599
2011-06-01T04:31:39Z,1306902699,103,54.654714,24.4234003,30.2,0,-1.4,38.4,-162042.64,-191815.75,39.4,Air+FixedWing,Blue,Enemies,Su-33,Blue Su-33 #001,ru,[51☭] holimoli,0.015625,0,4.59156729809457e-05,30.1999988555908,2.19999885559082,0.015625,0,NaN,NaN,0,0.0139882274201861,NaN,0.999750798254478,-0.00246240168907174,-0.0224101442770873,1.220703125e-05,29.616081877718,29.6160940847492,,,57.6399998664856,28,0.24518000935659,0.279380566251599
2011-06-01T04:31:40Z,1306902700,103,54.654714,24.4234003,30.2,0,-1.4,38.4,-162042.62,-191815.75,39.4,Air+FixedWing,Blue,Enemies,Su-33,Blue Su-33 #001,ru,[51☭] holimoli,0.015625,0,4.59156729809457e-05,30.1999988555908,2.19999885559082,0.015625,0,NaN,NaN,0,0.0139882274201861,NaN,0.999676671993967,0.00123120084453587,-0.0254431985355062,1.220703125e-05,29.616081877718,29.6160940847492,,,58.6399998664856,28,0.24518000935659,0.279380566251599
2011-06-01T04:31:41Z,1306902701,103,54.654714,24.4234003,30.2,0,-1.4,38.4,-162042.62,-191815.75,39.4,Air+FixedWing,Blue,Enemies,Su-33,Blue Su-33 #001,ru,[51☭] holimoli,0,0,0,30.1999988555908,2.19999885559082,0,0,NaN,NaN,0,0.0139882274201861,NaN,0.999676671993967,0.00123120084453587,-0.0254431985355062,0,29.616081877718,29.616081877718,,,59.6399998664856,28,0.24518000935659,0.279380566251599
2011-06-01T04:31:42Z,1306902702,103,54.654714,24.4234003,30.2,0,-1.4,38.4,-162042.64,-191815.75,39.4,Air+FixedWing,Blue,Enemies,Su-33,Blue Su-33 #001,ru,[51☭] holimoli,0.015625,0,4.59156729809457e-05,30.1999988555908,2.19999885559082,0.015625,0,NaN,NaN,0,0.0139882274201861,NaN,0.999750798254478,-0.00246240168907174,-0.0224101442770873,1.220703125e-05,29.616081877718,29.6160940847492,,,60.6399998664856,28,0.24518000935659,0.279380566251599
2011-06-01T04:31:43Z,1306902703,103,54.654714,24.4234003,30.2,0,-1.4,38.4,-162042.62,-191815.75,39.4,Air+FixedWing,Blue,Enemies,Su-33,Blue Su-33 #001,ru,[51☭] holimoli,0.015625,0,4.59156729809457e-05,30.1999988555908,2.19999885559082,0.015625,0,NaN,NaN,0,0.0139882274201861,NaN,0.999651963240463,0.00246240168907174,-0.0264542166216458,1.220703125e-05,29.616081877718,29.6160940847492,,,61.6399998664856,28,0.24518000935659,0.279380566251599
2011-06-01T04:31:44Z,1306902704,103,54.654714,24.4234003,30.2,0,-1.4,38.4,-162042.64,-191815.75,39.4,Air+FixedWing,Blue,Enemies,Su-33,Blue Su-33 #001,ru,[51☭] holimoli,0.015625,0,4.59156729809457e-05,30.1999988555908,2.19999885559082,0.015625,0,NaN,NaN,0,0.0139882274201861,NaN,0.999750798254478,-0.00246240168907174,-0.0224101442770873,1.220703125e-05,29.616081877718,29.6160940847492,,,62.6399998664856,28,0.24518000935659,0.279380566251599
2011-06-01T04:31:45Z,1306902705,103,54.654714,24.4234003,30.2,0,-1.4,38.4,-162042.62,-191815.75,39.4,Air+FixedWing,Blue,Enemies,Su-33,Blue Su-33 #001,ru,[51☭] holimoli,0.015625,0,4.59156729809457e-05,30.1999988555908,2.19999885559082,0.015625,0,NaN,NaN,0,0.0139882274201861,NaN,0.999651963240463,0.00246240168907174,-0.0264542166216458,1.220703125e-05,29.616081877718,29.6160940847492,,,63.6399998664856,28,0.24518000935659,0.279380566251599
2011-06-01T04:31:46Z,1306902706,103,54.654714,24.4234003,30.2,0,-1.4,38.4,-162042.64,-191815.75,39.4,Air+FixedWing,Blue,Enemies,Su-33,Blue Su-33 #001,ru,[51☭] holimoli,0.015625,0,4.59156729809457e-05,30.1999988555908,2.19999885559082,0.015625,0,NaN,NaN,0,0.0139882274201861,NaN,0.999750798254478,-0.00246240168907174,-0.0224101442770873,1.220703125e-05,29.616081877718,29.6160940847492,,,64.6399998664856,28,0.24518000935659,0.279380566251599
2011-06-01T04:31:47Z,1306902707,103,54.654714,24.4234003,30.2,0,-1.4,38.4,-162042.62,-191815.75,39.4,Air+FixedWing,Blue,Enemies,Su-33,Blue Su-33 #001,ru,[51☭] holimoli,0.015625,0,4.59156729809457e-05,30.1999988555908,2.19999885559082,0.015625,0,NaN,NaN,0,0.0139882274201861,NaN,0.999676671993967,0.00123120084453587,-0.0254431985355062,1.220703125e-05,29.616081877718,29.6160940847492,,,65.6399998664856,28,0.24518000935659,0.279380566251599
2011-06-01T04:31:48Z,1306902708,103,54.654714,24.4234003,30.2,0,-1.4,38.4,-162042.62,-191815.75,39.4,Air+FixedWing,Blue,Enemies,Su-33,Blue Su-33 #001,ru,[51☭] holimoli,0,0,0,30.1999988555908,2.19999885559082,0,0,NaN,NaN,0,0.0139882274201861,NaN,0.999676671993967,0.00123120084453587,-0.0254431985355062,0,29.616081877718,29.616081877718,,,66.6399998664856,28,0.24518000935659,0.279380566251599
2011-06-01T04:31:49Z,1306902709,103,54.654714,24.4234003,30.2,0,-1.4,38.4,-162042.64,-191815.75,39.4,Air+FixedWing,Blue,Enemies,Su-33,Blue Su-33 #001,ru,[51☭] holimoli,0.015625,0,4.59156729809457e-05,30.1999988555908,2.19999885559082,0.015625,0,NaN,NaN,0,0.0139882274201861,NaN,0.999750798254478,-0.00246240168907174,-0.0224101442770873,1.220703125e-05,29.616081877718,29.6160940847492,,,67.6399998664856,28,0.24518000935659,0.279380566251599
2011-06-01T04:31:50Z,1306902710,103,54.654714,24.4234003,30.2,0,-1.4,38.4,-162042.62,-191815.75,39.4,Air+FixedWing,Blue,Enemies,Su-33,Blue Su-33 #001,ru,[51☭] holimoli,0.015625,0,4.59156729809457e-05,30.1999988555908,2.19999885559082,0.015625,0,NaN,NaN,0,0.0139882274201861,NaN,0.999676671993967,0.00123120084453587,-0.0254431985355062,1.220703125e-05,29.616081877718,29.6160940847492,,,68.6399998664856,28,0.24518000935659,0.279380566251599
2011-06-01T04:31:51Z,1306902711,103,54.654714,24.4234003,30.2,0,-1.4,38.4,-162042.62,-191815.75,39.4,Air+FixedWing,Blue,Enemies,Su-33,Blue Su-33 #001,ru,[51☭] holimoli,0,0,0,30.1999988555908,2.19999885559082,0,0,NaN,NaN,0,0.0139882274201861,NaN,0.999676671993967,0.00123120084453587,-0.0254431985355062,0,29.616081877718,29.616081877718,,,69.6399998664856,28,0.24518000935659,0.279380566251599
2011-06-01T04:31:52Z,1306902712,103,54.654714,24.4234003,30.2,0,-1.4,38.4,-162042.64,-191815.75,39.4,Air+FixedWing,Blue,Enemies,Su-33,Blue Su-33 #001,ru,[51☭] holimoli,0.015625,0,4.59156729809457e-05,30.1999988555908,2.19999885559082,0.015625,0,NaN,NaN,0,0.0139882274201861,NaN,0.999726089500975,-0.00123120084453587,-0.0234211623632269,1.220703125e-05,29.616081877718,29.6160940847492,,,70.6399998664856,28,0.24518000935659,0.279380566251599
2011-06-01T04:31:53Z,1306902713,103,54.654714,24.4234003,30.2,0,-1.4,38.4,-162042.64,-191815.75,39.4,Air+FixedWing,Blue,Enemies,Su-33,Blue Su-33 #001,ru,[51☭] holimoli,0,0,0,30.1999988555908,2.19999885559082,0,0,NaN,NaN,0,0.0139882274201861,NaN,0.999726089500975,-0.00123120084453587,-0.0234211623632269,0,29.616081877718,29.616081877718,,,71.6399998664856,28,0.24518000935659,0.279380566251599
2011-06-01T04:31:54Z,1306902714,103,54.654714,24.4234003,30.2,0,-1.4,38.4,-162042.62,-191815.75,39.4,Air+FixedWing,Blue,Enemies,Su-33,Blue Su-33 #001,ru,[51☭] holimoli,0.015625,0,4.59156729809457e-05,30.1999988555908,2.19999885559082,0.015625,0,NaN,NaN,0,0.0139882274201861,NaN,0.999676671993967,0.00123120084453587,-0.0254431985355062,1.220703125e-05,29.616081877718,29.6160940847492,,,72.6399998664856,28,0.24518000935659,0.279380566251599
2011-06-01T04:31:55Z,1306902715,103,54.654714,24.4234003,30.2,0,-1.4,38.4,-162042.62,-191815.75,39.4,Air+FixedWing,Blue,Enemies,Su-33,Blue Su-33 #001,ru,[51☭] holimoli,0,0,0,30.1999988555908,2.19999885559082,0,0,NaN,NaN,0,0.0139882274201861,NaN,0.999676671993967,0.00123120084453587,-0.0254431985355062,0,29.616081877718,29.616081877718,,,73.6399998664856,28,0.24518000935659,0.279380566251599
2011-06-01T04:31:56Z,1306902716,103,54.654714,24.4234003,30.2,0,-1.4,38.4,-162042.64,-191815.75,39.4,Air+FixedWing,Blue,Enemies,Su-33,Blue Su-33 #001,ru,[51☭] holimoli,0.015625,0,4.59156729809457e-05,30.1999988555908,2.19999885559082,0.015625,0,NaN,NaN,0,0.0139882274201861,NaN,0.999750798254478,-0.00246240168907174,-0.0224101442770873,1.220703125e-05,29.616081877718,29.6160940847492,,,74.6399998664856,28,0.24518000935659,0.279380566251599
2011-06-01T04:31:57Z,1306902717,103,54.654714,24.4234003,30.2,0,-1.4,38.4,-162042.62,-191815.75,39.4,Air+FixedWing,Blue,Enemies,Su-33,Blue Su-33 #001,ru,[51☭] holimoli,0.015625,0,4.59156729809457e-05,30.1999988555908,2.19999885559082,0.015625,0,NaN,NaN,0,0.0139882274201861,NaN,0.999676671993967,0.00123120084453587,-0.0254431985355062,1.220703125e-05,29.616081877718,29.6160940847492,,,75.6399998664856,28,0.24518000935659,0.279380566251599
2011-06-01T04:31:58Z,1306902718,103,54.654714,24.4234003,30.2,0,-1.4,38.4,-162042.62,-191815.75,39.4,Air+FixedWing,Blue,Enemies,Su-33,Blue Su-33 #001,ru,[51☭] holimoli,0,0,0,30.1999988555908,2.19999885559082,0,0,NaN,NaN,0,0.0139882274201861,NaN,0.999701380747471,0,-0.0244321804493666,0,29.616081877718,29.616081877718,,,76.6399998664856,28,0.24518000935659,0.279380566251599
2011-06-01T04:31:59Z,1306902719,103,54.654714,24.4234003,30.2,0,-1.4,38.4,-162042.62,-191815.75,39.4,Air+FixedWing,Blue,Enemies,Su-33,Blue Su-33 #001,ru,[51☭] holimoli,0,0,0,30.1999988555908,2.19999885559082,0,0,NaN,NaN,0,0.0139882274201861,NaN,0.999676671993967,0.00123120084453587,-0.0254431985355062,0,29.616081877718,29.616081877718,,,77.6399998664856,28,0.24518000935659,0.279380566251599
2011-06-01T04:32:00Z,1306902720,103,54.654714,24.4234003,30.2,0,-1.4,38.4,-162042.64,-191815.75,39.4,Air+FixedWing,Blue,Enemies,Su-33,Blue Su-33 #001,ru,[51☭] holimoli,0.015625,0,4.59156729809457e-05,30.1999988555908,2.19999885559082,0.015625,0,NaN,NaN,0,0.0139882274201861,NaN,0.999750798254478,-0.00246240168907174,-0.0224101442770873,1.220703125e-05,29.616081877718,29.6160940847492,,,78.6399998664856,28,0.24518000935659,0.279380566251599
2011-06-01T04:32:01Z,1306902721,103,54.654714,24.4234003,30.2,0,-1.4,38.4,-162042.62,-191815.75,39.4,Air+FixedWing,Blue,Enemies,Su-33,Blue Su-33 #001,ru,[51☭] holimoli,0.015625,0,4.59156729809457e-05,30.1999988555908,2.19999885559082,0.015625,0,NaN,NaN,0,0.0139882274201861,NaN,0.999651963240463,0.00246240168907174,-0.0264542166216458,1.220703125e-05,29.616081877718,29.6160940847492,,,79.6399998664856,28,0.24518000935659,0.279380566251599
2011-06-01T04:32:02Z,1306902722,103,54.654714,24.4234003,30.2,0,-1.4,38.4,-162042.64,-191815.75,39.4,Air+FixedWing,Blue,Enemies,Su-33,Blue Su-33 #001,ru,[51☭] holimoli,0.015625,0,4.59156729809457e-05,30.1999988555908,2.19999885559082,0.015625,0,NaN,NaN,0,0.0139882274201861,NaN,0.999750798254478,-0.00246240168907174,-0.0224101442770873,1.220703125e-05,29.616081877718,29.6160940847492,,,80.6399998664856,28,0.24518000935659,0.279380566251599
2011-06-01T04:32:03Z,1306902723,103,54.654714,24.4234003,30.2,0,-1.4,38.4,-162042.62,-191815.75,39.4,Air+FixedWing,Blue,Enemies,Su-33,Blue Su-33 #001,ru,[51☭] holimoli,0.015625,0,4.59156729809457e-05,30.1999988555908,2.19999885559082,0.015625,0,NaN,NaN,0,0.0139882274201861,NaN,0.999676671993967,0.00123120084453587,-0.0254431985355062,1.220703125e-05,29.616081877718,29.6160940847492,,,81.6399998664856,28,0.24518000935659,0.279380566251599
2011-06-01T04:32:04Z,1306902724,103,54.654714,24.4234003,30.2,0,-1.4,38.4,-162042.62,-191815.75,39.4,Air+FixedWing,Blue,Enemies,Su-33,Blue Su-33 #001,ru,[51☭] holimoli,0,0,0,30.1999988555908,2.19999885559082,0,0,NaN,NaN,0,0.0139882274201861,NaN,0.999676671993967,0.00123120084453587,-0.0254431985355062,0,29.616081877718,29.616081877718,,,82.6399998664856,28,0.24518000935659,0.279380566251599
2011-06-01T04:32:05Z,1306902725,103,54.654714,24.4234003,30.2,0,-1.4,38.4,-162042.64,-191815.75,39.4,Air+FixedWing,Blue,Enemies,Su-33,Blue Su-33 #001,ru,[51☭] holimoli,0.015625,0,4.59156729809457e-05,30.1999988555908,2.19999885559082,0.015625,0,NaN,NaN,0,0.0139882274201861,NaN,0.999750798254478,-0.00246240168907174,-0.0224101442770873,1.220703125e-05,29.616081877718,29.6160940847492,,,83.6399998664856,28,0.24518000935659,0.279380566251599
2011-06-01T04:32:06Z,1306902726,103,54.654714,24.4234003,30.2,0,-1.4,38.4,-162042.62,-191815.75,39.4,Air+FixedWing,Blue,Enemies,Su-33,Blue Su-33 #001,ru,[51☭] holimoli,0.015625,0,4.59156729809457e-05,30.1999988555908,2.19999885559082,0.015625,0,NaN,NaN,0,0.0139882274201861,NaN,0.999651963240463,0.00246240168907174,-0.0264542166216458,1.220703125e-05,29.616081877718,29.6160940847492,,,84.6399998664856,28,0.24518000935659,0.279380566251599
2011-06-01T04:32:07Z,1306902727,103,54.654714,24.4234003,30.2,0,-1.4,38.4,-162042.64,-191815.75,39.4,Air+FixedWing,Blue,Enemies,Su-33,Blue Su-33 #001,ru,[51☭] holimoli,0.015625,0,4.59156729809457e-05,30.1999988555908,2.19999885559082,0.015625,0,NaN,NaN,0,0.0139882274201861,NaN,0.999726089500975,-0.00123120084453587,-0.0234211623632269,1.220703125e-05,29.616081877718,29.6160940847492,,,85.6399998664856,28,0.24518000935659,0.279380566251599
2011-06-01T04:32:08Z,1306902728,103,54.654714,24.4234003,30.2,0,-1.4,38.4,-162042.64,-191815.75,39.4,Air+FixedWing,Blue,Enemies,Su-33,Blue Su-33 #001,ru,[51☭] holimoli,0,0,0,30.1999988555908,2.19999885559082,0,0,NaN,NaN,0,0.0139882274201861,NaN,0.999726089500975,-0.00123120084453587,-0.0234211623632269,0,29.616081877718,29.616081877718,,,86.6399998664856,28,0.24518000935659,0.279380566251599
2011-06-01T04:32:09Z,1306902729,103,54.654714,24.4234003,30.2,0,-1.4,38.4,-162042.62,-191815.75,39.4,Air+FixedWing,Blue,Enemies,Su-33,Blue Su-33 #001,ru,[51☭] holimoli,0.015625,0,4.59156729809457e-05,30.1999988555908,2.19999885559082,0.015625,0,NaN,NaN,0,0.0139882274201861,NaN,0.999651963240463,0.00246240168907174,-0.0264542166216458,1.220703125e-05,29.616081877718,29.6160940847492,,,87.6399998664856,28,0.24518000935659,0.279380566251599
2011-06-01T04:32:10Z,1306902730,103,54.654714,24.4234003,30.2,0,-1.4,38.4,-162042.64,-191815.75,39.4,Air+FixedWing,Blue,Enemies,Su-33,Blue Su-33 #001,ru,[51☭] holimoli,0.015625,0,4.59156729809457e-05,30.1999988555908,2.19999885559082,0.015625,0,NaN,NaN,0,0.0139882274201861,NaN,0.999750798254478,-0.00246240168907174,-0.0224101442770873,1.220703125e-05,29.616081877718,29.6160940847492,,,88.6399998664856,28,0.24518000935659,0.279380566251599
2011-06-01T04:32:11Z,1306902731,103,54.654714,24.4234003,30.2,0,-1.4,38.4,-162042.62,-191815.75,39.4,Air+FixedWing,Blue,Enemies,Su-33,Blue Su-33 #001,ru,[51☭] holimoli,0.015625,0,4.59156729809457e-05,30.1999988555908,2.19999885559082,0.015625,0,NaN,NaN,0,0.0139882274201861,NaN,0.999676671993967,0.00123120084453587,-0.0254431985355062,1.220703125e-05,29.616081877718,29.6160940847492,,,89.6399998664856,28,0.24518000935659,0.279380566251599
2011-06-01T04:32:12Z,1306902732,103,54.654714,24.4234003,30.2,0,-1.4,38.4,-162042.62,-191815.75,39.4,Air+FixedWing,Blue,Enemies,Su-33,Blue Su-33 #001,ru,[51☭] holimoli,0,0,0,30.1999988555908,2.19999885559082,0,0,NaN,NaN,0,0.0139882274201861,NaN,0.999701380747471,0,-0.0244321804493666,0,29.616081877718,29.616081877718,,,90.6399998664856,28,0.24518000935659,0.279380566251599
2011-06-01T04:32:13Z,1306902733,103,54.654714,24.4234003,30.2,0,-1.4,38.4,-162042.62,-191815.75,39.4,Air+FixedWing,Blue,Enemies,Su-33,Blue Su-33 #001,ru,[51☭] holimoli,0,0,0,30.1999988555908,2.19999885559082,0,0,NaN,NaN,0,0.0139882274201861,NaN,0.999701380747471,0,-0.0244321804493666,0,29.616081877718,29.616081877718,,,91.6399998664856,28,0.24518000935659,0.279380566251599
2011-06-01T04:32:14Z,1306902734,103,54.654714,24.4234003,30.2,0,-1.4,38.4,-162042.62,-191815.75,39.4,Air+FixedWing,Blue,Enemies,Su-33,Blue Su-33 #001,ru,[51☭] holimoli,0,0,0,30.1999988555908,2.19999885559082,0,0,NaN,NaN,0,0.0139882274201861,NaN,0.999676671993967,0.00123120084453587,-0.0254431985355062,0,29.616081877718,29.616081877718,,,92.6399998664856,28,0.24518000935659,0.279380566251599
2011-06-01T04:32:15Z,1306902735,103,54.654714,24.4234003,30.2,0,-1.4,38.4,-162042.64,-191815.75,39.4,Air+FixedWing,Blue,Enemies,Su-33,Blue Su-33 #001,ru,[51☭] holimoli,0.015625,0,4.59156729809457e-05,30.1999988555908,2.19999885559082,0.015625,0,NaN,NaN,0,0.0139882274201861,NaN,0.999750798254478,-0.00246240168907174,-0.0224101442770873,1.220703125e-05,29.616081877718,29.6160940847492,,,93.6399998664856,28,0.24518000935659,0.279380566251599
2011-06-01T04:32:16Z,1306902736,103,54.654714,24.4234003,30.2,0,-1.4,38.4,-162042.62,-191815.75,39.4,Air+FixedWing,Blue,Enemies,Su-33,Blue Su-33 #001,ru,[51☭] holimoli,0.015625,0,4.59156729809457e-05,30.1999988555908,2.19999885559082,0.015625,0,NaN,NaN,0,0.0139882274201861,NaN,0.999676671993967,0.00123120084453587,-0.0254431985355062,1.220703125e-05,29.616081877718,29.6160940847492,,,94.6399998664856,28,0.24518000935659,0.279380566251599
2011-06-01T04:32:17Z,1306902737,103,54.654714,24.4234003,30.2,0,-1.4,38.4,-162042.62,-191815.75,39.4,Air+FixedWing,Blue,Enemies,Su-33,Blue Su-33 #001,ru,[51☭] holimoli,0,0,0,30.1999988555908,2.19999885559082,0,0,NaN,NaN,0,0.0139882274201861,NaN,0.999701380747471,0,-0.0244321804493666,0,29.616081877718,29.616081877718,,,95.6399998664856,28,0.24518000935659,0.279380566251599
2011-06-01T04:32:18Z,1306902738,103,54.654714,24.4234003,30.2,0,-1.4,38.4,-162042.62,-191815.75,39.4,Air+FixedWing,Blue,Enemies,Su-33,Blue Su-33 #001,ru,[51☭] holimoli,0,0,0,30.1999988555908,2.19999885559082,0,0,NaN,NaN,0,0.0139882274201861,NaN,0.999676671993967,0.00123120084453587,-0.0254431985355062,0,29.616081877718,29.616081877718,,,96.6399998664856,28,0.24518000935659,0.279380566251599
2011-06-01T04:32:19Z,1306902739,103,54.654714,24.4234003,30.2,0,-1.4,38.4,-162042.64,-191815.75,39.4,Air+FixedWing,Blue,Enemies,Su-33,Blue Su-33 #001,ru,[51☭] holimoli,0.015625,0,4.59156729809457e-05,30.1999988555908,2.19999885559082,0.015625,0,NaN,NaN,0,0.0139882274201861,NaN,0.999750798254478,-0.00246240168907174,-0.0224101442770873,1.220703125e-05,29.616081877718,29.6160940847492,,,97.6399998664856,28,0.24518000935659,0.279380566251599
2011-06-01T04:32:20Z,1306902740,103,54.654714,24.4234003,30.2,0,-1.4,38.4,-162042.62,-191815.75,39.4,Air+FixedWing,Blue,Enemies,Su-33,Blue Su-33 #001,ru,[51☭] holimoli,0.015625,0,4.59156729809457e-05,30.1999988555908,2.19999885559082,0.015625,0,NaN,NaN,0,0.0139882274201861,NaN,0.999676671993967,0.00123120084453587,-0.0254431985355062,1.220703125e-05,29.616081877718,29.6160940847492,,,98.6399998664856,28,0.24518000935659,0.279380566251599
2011-06-01T04:32:21Z,1306902741,103,54.654714,24.4234003,30.2,0,-1.4,38.4,-162042.62,-191815.75,39.4,Air+FixedWing,Blue,Enemies,Su-33,Blue Su-33 #001,ru,[51☭] holimoli,0,0,0,30.1999988555908,2.19999885559082,0,0,NaN,NaN,0,0.0139882274201861,NaN,0.999676671993967,0.00123120084453587,-0.0254431985355062,0,29.616081877718,29.616081877718,,,99.6399998664856,28,0.24518000935659,0.279380566251599
2011-06-01T04:32:22Z,1306902742,103,54.654714,24.4234003,30.2,0,-1.4,38.4,-162042.64,-191815.75,39.4,Air+FixedWing,Blue,Enemies,Su-33,Blue Su-33 #001,ru,[51☭] holimoli,0.015625,0,4.59156729809457e-05,30.1999988555908,2.19999885559082,0.015625,0,NaN,NaN,0,0.0139882274201861,NaN,0.999750798254478,-0.00246240168907174,-0.0224101442770873,1.220703125e-05,29.616081877718,29.6160940847492,,,100.639999866486,28,0.24518000935659,0.279380566251599
2011-06-01T04:32:23Z,1306902743,103,54.654714,24.4234003,30.2,0,-1.4,38.4,-162042.62,-191815.75,39.4,Air+FixedWing,Blue,Enemies,Su-33,Blue Su-33 #001,ru,[51☭] holimoli,0.015625,0,4.59156729809457e-05,30.1999988555908,2.19999885559082,0.015625,0,NaN,NaN,0,0.0139882274201861,NaN,0.999676671993967,0.00123120084453587,-0.0254431985355062,1.220703125e-05,29.616081877718,29.6160940847492,,,101.639999866486,28,0.24518000935659,0.279380566251599
2011-06-01T04:32:24Z,1306902744,103,54.654714,24.4234003,30.2,0,-1.4,38.4,-162042.62,-191815.75,39.4,Air+FixedWing,Blue,Enemies,Su-33,Blue Su-33 #001,ru,[51☭] holimoli,0,0,0,30.1999988555908,2.19999885559082,0,0,NaN,NaN,0,0.0139882274201861,NaN,0.999676671993967,0.00123120084453587,-0.0254431985355062,0,29.616081877718,29.616081877718,,,102.639999866486,28,0.24518000935659,0.279380566251599
2011-06-01T04:32:25Z,1306902745,103,54.654714,24.4234003,30.2,0,-1.4,38.4,-162042.64,-191815.75,39.4,Air+FixedWing,Blue,Enemies,Su-33,Blue Su-33 #001,ru,[51☭] holimoli,0.015625,0,4.59156729809457e-05,30.1999988555908,2.19999885559082,0.015625,0,NaN,NaN,0,0.0139882274201861,NaN,0.999750798254478,-0.00246240168907174,-0.0224101442770873,1.220703125e-05,29.616081877718,29.6160940847492,,,103.639999866486,28,0.24518000935659,0.279380566251599
2011-06-01T04:32:26Z,1306902746,103,54.654714,24.4234003,30.2,0,-1.4,38.4,-162042.62,-191815.75,39.4,Air+FixedWing,Blue,Enemies,Su-33,Blue Su-33 #001,ru,[51☭] holimoli,0.015625,0,4.59156729809457e-05,30.1999988555908,2.19999885559082,0.015625,0,NaN,NaN,0,0.0139882274201861,NaN,0.999651963240463,0.00246240168907174,-0.0264542166216458,1.220703125e-05,29.616081877718,29.6160940847492,,,104.639999866486,28,0.24518000935659,0.279380566251599
2011-06-01T04:32:27Z,1306902747,103,54.654714,24.4234003,30.2,0,-1.4,38.4,-162042.64,-191815.75,39.4,Air+FixedWing,Blue,Enemies,Su-33,Blue Su-33 #001,ru,[51☭] holimoli,0.015625,0,4.59156729809457e-05,30.1999988555908,2.19999885559082,0.015625,0,NaN,NaN,0,0.0139882274201861,NaN,0.999750798254478,-0.00246240168907174,-0.0224101442770873,1.220703125e-05,29.616081877718,29.6160940847492,,,105.639999866486,28,0.24518000935659,0.279380566251599
2011-06-01T04:32:28Z,1306902748,103,54.654714,24.4234003,30.2,0,-1.4,38.4,-162042.62,-191815.75,39.4,Air+FixedWing,Blue,Enemies,Su-33,Blue Su-33 #001,ru,[51☭] holimoli,0.015625,0,4.59156729809457e-05,30.1999988555908,2.19999885559082,0.015625,0,NaN,NaN,0,0.0139882274201861,NaN,0.999651963240463,0.00246240168907174,-0.0264542166216458,1.220703125e-05,29.616081877718,29.6160940847492,,,106.639999866486,28,0.24518000935659,0.279380566251599
2011-06-01T04:32:29Z,1306902749,103,54.654714,24.4234003,30.2,0,-1.4,38.4,-162042.64,-191815.75,39.4,Air+FixedWing,Blue,Enemies,Su-33,Blue Su-33 #001,ru,[51☭] holimoli,0.015625,0,4.59156729809457e-05,30.1999988555908,2.19999885559082,0.015625,0,NaN,NaN,0,0.0139882274201861,NaN,0.999726089500975,-0.00123120084453587,-0.0234211623632269,1.220703125e-05,29.616081877718,29.6160940847492,,,107.639999866486,28,0.24518000935659,0.279380566251599
2011-06-01T04:32:30Z,1306902750,103,54.654714,24.4234003,30.2,0,-1.4,38.4,-162042.64,-191815.75,39.4,Air+FixedWing,Blue,Enemies,Su-33,Blue Su-33 #001,ru,[51☭] holimoli,0,0,0,30.1999988555908,2.19999885559082,0,0,NaN,NaN,0,0.0139882274201861,NaN,0.999701380747471,0,-0.0244321804493666,0,29.616081877718,29.616081877718,,,108.639999866486,28,0.24518000935659,0.279380566251599
2011-06-01T04:32:31Z,1306902751,103,54.654714,24.4234003,30.2,0,-1.4,38.4,-162042.64,-191815.75,39.4,Air+FixedWing,Blue,Enemies,Su-33,Blue Su-33 #001,ru,[51☭] holimoli,0,0,0,30.1999988555908,2.19999885559082,0,0,NaN,NaN,0,0.0139882274201861,NaN,0.999726089500975,-0.00123120084453587,-0.0234211623632269,0,29.616081877718,29.616081877718,,,109.639999866486,28,0.24518000935659,0.279380566251599
2011-06-01T04:32:32Z,1306902752,103,54.654714,24.4234003,30.2,0,-1.4,38.4,-162042.62,-191815.75,39.4,Air+FixedWing,Blue,Enemies,Su-33,Blue Su-33 #001,ru,[51☭] holimoli,0.015625,0,4.59156729809457e-05,30.1999988555908,2.19999885559082,0.015625,0,NaN,NaN,0,0.0139882274201861,NaN,0.999676671993967,0.00123120084453587,-0.0254431985355062,1.220703125e-05,29.616081877718,29.6160940847492,,,110.639999866486,28,0.24518000935659,0.279380566251599
2011-06-01T04:32:33Z,1306902753,103,54.654714,24.4234003,30.2,0,-1.4,38.4,-162042.62,-191815.75,39.4,Air+FixedWing,Blue,Enemies,Su-33,Blue Su-33 #001,ru,[51☭] holimoli,0,0,0,30.1999988555908,2.19999885559082,0,0,NaN,NaN,0,0.0139882274201861,NaN,0.999676671993967,0.00123120084453587,-0.0254431985355062,0,29.616081877718,29.616081877718,,,111.639999866486,28,0.24518000935659,0.279380566251599
2011-06-01T04:32:34Z,1306902754,103,54.654714,24.4234003,30.2,0,-1.4,38.4,-162042.64,-191815.75,39.4,Air+FixedWing,Blue,Enemies,Su-33,Blue Su-33 #001,ru,[51☭] holimoli,0.015625,0,4.59156729809457e-05,30.1999988555908,2.19999885559082,0.015625,0,NaN,NaN,0,0.0139882274201861,NaN,0.999726089500975,-0.00123120084453587,-0.0234211623632269,1.220703125e-05,29.616081877718,29.6160940847492,,,112.639999866486,28,0.24518000935659,0.279380566251599
2011-06-01T04:32:35Z,1306902755,103,54.654714,24.4234003,30.2,0,-1.4,38.4,-162042.64,-191815.75,39.4,Air+FixedWing,Blue,Enemies,Su-33,Blue Su-33 #001,ru,[51☭] holimoli,0,0,0,30.1999988555908,2.19999885559082,0,0,NaN,NaN,0,0.0139882274201861,NaN,0.999726089500975,-0.00123120084453587,-0.0234211623632269,0,29.616081877718,29.616081877718,,,113.639999866486,28,0.24518000935659,0.279380566251599
2011-06-01T04:32:36Z,1306902756,103,54.654714,24.4234003,30.2,0,-1.4,38.4,-162042.62,-191815.75,39.4,Air+FixedWing,Blue,Enemies,Su-33,Blue Su-33 #001,ru,[51☭] holimoli,0.015625,0,4.59156729809457e-05,30.1999988555908,2.19999885559082,0.015625,0,NaN,NaN,0,0.0139882274201861,NaN,0.999651963240463,0.00246240168907174,-0.0264542166216458,1.220703125e-05,29.616081877718,29.6160940847492,,,114.639999866486,28,0.24518000935659,0.279380566251599
2011-06-01T04:32:37Z,1306902757,103,54.654714,24.4234003,30.2,0,-1.4,38.4,-162042.64,-191815.75,39.4,Air+FixedWing,Blue,Enemies,Su-33,Blue Su-33 #001,ru,[51☭] holimoli,0.015625,0,4.59156729809457e-05,30.1999988555908,2.19999885559082,0.015625,0,NaN,NaN,0,0.0139882274201861,NaN,0.999726089500975,-0.00123120084453587,-0.0234211623632269,1.220703125e-05,29.616081877718,29.6160940847492,,,115.639999866486,28,0.24518000935659,0.279380566251599
2011-06-01T04:32:38Z,1306902758,103,54.654714,24.4234003,30.2,0,-1.4,38.4,-162042.64,-191815.75,39.4,Air+FixedWing,Blue,Enemies,Su-33,Blue Su-33 #001,ru,[51☭] holimoli,0,0,0,30.1999988555908,2.19999885559082,0,0,NaN,NaN,0,0.0139882274201861,NaN,0.999726089500975,-0.00123120084453587,-0.0234211623632269,0,29.616081877718,29.616081877718,,,116.639999866486,28,0.24518000935659,0.279380566251599
2011-06-01T04:32:39Z,1306902759,103,54.654714,24.4234003,30.2,0,-1.4,38.4,-162042.62,-191815.75,39.4,Air+FixedWing,Blue,Enemies,Su-33,Blue Su-33 #001,ru,[51☭] holimoli,0.015625,0,4.59156729809457e-05,30.1999988555908,2.19999885559082,0.015625,0,NaN,NaN,0,0.0139882274201861,NaN,0.999676671993967,0.00123120084453587,-0.0254431985355062,1.220703125e-05,29.616081877718,29.6160940847492,,,117.639999866486,28,0.24518000935659,0.279380566251599
2011-06-01T04:32:40Z,1306902760,103,54.654714,24.4234003,30.2,0,-1.4,38.4,-162042.62,-191815.75,39.4,Air+FixedWing,Blue,Enemies,Su-33,Blue Su-33 #001,ru,[51☭] holimoli,0,0,0,30.1999988555908,2.19999885559082,0,0,NaN,NaN,0,0.0139882274201861,NaN,0.999676671993967,0.00123120084453587,-0.0254431985355062,0,29.616081877718,29.616081877718,,,118.639999866486,28,0.24518000935659,0.279380566251599
2011-06-01T04:32:41Z,1306902761,103,54.654714,24.4234003,30.2,0,-1.4,38.4,-162042.64,-191815.75,39.4,Air+FixedWing,Blue,Enemies,Su-33,Blue Su-33 #001,ru,[51☭] holimoli,0.015625,0,4.59156729809457e-05,30.1999988555908,2.19999885559082,0.015625,0,NaN,NaN,0,0.0139882274201861,NaN,0.999726089500975,-0.00123120084453587,-0.0234211623632269,1.220703125e-05,29.616081877718,29.6160940847492,,,119.639999866486,28,0.24518000935659,0.279380566251599
2011-06-01T04:32:42Z,1306902762,103,54.654714,24.4234003,30.2,0,-1.4,38.4,-162042.64,-191815.75,39.4,Air+FixedWing,Blue,Enemies,Su-33,Blue Su-33 #001,ru,[51☭] holimoli,0,0,0,30.1999988555908,2.19999885559082,0,0,NaN,NaN,0,0.0139882274201861,NaN,0.999726089500975,-0.00123120084453587,-0.0234211623632269,0,29.616081877718,29.616081877718,,,120.639999866486,28,0.24518000935659,0.279380566251599
2011-06-01T04:32:43Z,1306902763,103,54.654714,24.4234003,30.2,0,-1.4,38.4,-162042.62,-191815.75,39.4,Air+FixedWing,Blue,Enemies,Su-33,Blue Su-33 #001,ru,[51☭] holimoli,0.015625,0,4.59156729809457e-05,30.1999988555908,2.19999885559082,0.015625,0,NaN,NaN,0,0.0139882274201861,NaN,0.999651963240463,0.00246240168907174,-0.0264542166216458,1.220703125e-05,29.616081877718,29.6160940847492,,,121.639999866486,28,0.24518000935659,0.279380566251599
2011-06-01T04:32:44Z,1306902764,103,54.654714,24.4234003,30.2,0,-1.4,38.4,-162042.64,-191815.75,39.4,Air+FixedWing,Blue,Enemies,Su-33,Blue Su-33 #001,ru,[51☭] holimoli,0.015625,0,4.59156729809457e-05,30.1999988555908,2.19999885559082,0.015625,0,NaN,NaN,0,0.0139882274201861,NaN,0.999750798254478,-0.00246240168907174,-0.0224101442770873,1.220703125e-05,29.616081877718,29.6160940847492,,,122.639999866486,28,0.24518000935659,0.279380566251599
2011-06-01T04:32:45Z,1306902765,103,54.654714,24.4234003,30.2,0,-1.4,38.4,-162042.62,-191815.75,39.4,Air+FixedWing,Blue,Enemies,Su-33,Blue Su-33 #001,ru,[51☭] holimoli,0.015625,0,4.59156729809457e-05,30.1999988555908,2.19999885559082,0.015625,0,NaN,NaN,0,0.0139882274201861,NaN,0.999676671993967,0.00123120084453587,-0.0254431985355062,1.220703125e-05,29.616081877718,29.6160940847492,,,123.639999866486,28,0.24518000935659,0.279380566251599
2011-06-01T04:32:46Z,1306902766,103,54.654714,24.4234003,30.2,0,-1.4,38.4,-162042.62,-191815.75,39.4,Air+FixedWing,Blue,Enemies,Su-33,Blue Su-33 #001,ru,[51☭] holimoli,0,0,0,30.1999988555908,2.19999885559082,0,0,NaN,NaN,0,0.0139882274201861,NaN,0.999676671993967,0.00123120084453587,-0.0254431985355062,0,29.616081877718,29.616081877718,,,124.639999866486,28,0.24518000935659,0.279380566251599
2011-06-01T04:32:47Z,1306902767,103,54.654714,24.4234003,30.2,0,-1.4,38.4,-162042.64,-191815.75,39.4,Air+FixedWing,Blue,Enemies,Su-33,Blue Su-33 #001,ru,[51☭] holimoli,0.015625,0,4.59156729809457e-05,30.1999988555908,2.19999885559082,0.015625,0,NaN,NaN,0,0.0139882274201861,NaN,0.999726089500975,-0.00123120084453587,-0.0234211623632269,1.220703125e-05,29.616081877718,29.6160940847492,,,125.639999866486,28,0.24518000935659,0.279380566251599
2011-06-01T04:32:48Z,1306902768,103,54.654714,24.4234003,30.2,0,-1.4,38.4,-162042.64,-191815.75,39.4,Air+FixedWing,Blue,Enemies,Su-33,Blue Su-33 #001,ru,[51☭] holimoli,0,0,0,30.1999988555908,2.19999885559082,0,0,NaN,NaN,0,0.0139882274201861,NaN,0.999701380747471,0,-0.0244321804493666,0,29.616081877718,29.616081877718,,,126.639999866486,28,0.24518000935659,0.279380566251599
2011-06-01T04:32:49Z,1306902769,103,54.654714,24.4234003,30.2,0,-1.4,38.4,-162042.64,-191815.75,39.4,Air+FixedWing,Blue,Enemies,Su-33,Blue Su-33 #001,ru,[51☭] holimoli,0,0,0,30.1999988555908,2.19999885559082,0,0,NaN,NaN,0,0.0139882274201861,NaN,0.999726089500975,-0.00123120084453587,-0.0234211623632269,0,29.616081877718,29.616081877718,,,127.639999866486,28,0.24518000935659,0.279380566251599
2011-06-01T04:32:50Z,1306902770,103,54.654714,24.4234003,30.2,0,-1.4,38.4,-162042.62,-191815.75,39.4,Air+FixedWing,Blue,Enemies,Su-33,Blue Su-33 #001,ru,[51☭] holimoli,0.015625,0,4.59156729809457e-05,30.1999988555908,2.19999885559082,0.015625,0,NaN,NaN,0,0.0139882274201861,NaN,0.999651963240463,0.00246240168907174,-0.0264542166216458,1.220703125e-05,29.616081877718,29.6160940847492,,,128.639999866486,28,0.24518000935659,0.279380566251599
2011-06-01T04:32:51Z,1306902771,103,54.654714,24.4234003,30.2,0,-1.4,38.4,-162042.64,-191815.75,39.4,Air+FixedWing,Blue,Enemies,Su-33,Blue Su-33 #001,ru,[51☭] holimoli,0.015625,0,4.59156729809457e-05,30.1999988555908,2.19999885559082,0.015625,0,NaN,NaN,0,0.0139882274201861,NaN,0.999750798254478,-0.00246240168907174,-0.0224101442770873,1.220703125e-05,29.616081877718,29.6160940847492,,,129.639999866486,28,0.24518000935659,0.279380566251599
2011-06-01T04:32:52Z,1306902772,103,54.654714,24.4234003,30.2,0,-1.4,38.4,-162042.62,-191815.75,39.4,Air+FixedWing,Blue,Enemies,Su-33,Blue Su-33 #001,ru,[51☭] holimoli,0.015625,0,4.59156729809457e-05,30.1999988555908,2.19999885559082,0.015625,0,NaN,NaN,0,0.0139882274201861,NaN,0.999676671993967,0.00123120084453587,-0.0254431985355062,1.220703125e-05,29.616081877718,29.6160940847492,,,130.639999866486,28,0.24518000935659,0.279380566251599
2011-06-01T04:32:53Z,1306902773,103,54.654714,24.4234003,30.2,0,-1.4,38.4,-162042.62,-191815.75,39.4,Air+FixedWing,Blue,Enemies,Su-33,Blue Su-33 #001,ru,[51☭] holimoli,0,0,0,30.1999988555908,2.19999885559082,0,0,NaN,NaN,0,0.0139882274201861,NaN,0.999701380747471,0,-0.0244321804493666,0,29.616081877718,29.616081877718,,,131.639999866486,28,0.24518000935659,0.279380566251599
2011-06-01T04:32:54Z,1306902774,103,54.654714,24.4234003,30.2,0,-1.4,38.4,-162042.62,-191815.75,39.4,Air+FixedWing,Blue,Enemies,Su-33,Blue Su-33 #001,ru,[51☭] holimoli,0,0,0,30.1999988555908,2.19999885559082,0,0,NaN,NaN,0,0.0139882274201861,NaN,0.999676671993967,0.00123120084453587,-0.0254431985355062,0,29.616081877718,29.616081877718,,,132.639999866486,28,0.24518000935659,0.279380566251599
2011-06-01T04:32:55Z,1306902775,103,54.654714,24.4234003,30.2,0,-1.4,38.4,-162042.64,-191815.75,39.4,Air+FixedWing,Blue,Enemies,Su-33,Blue Su-33 #001,ru,[51☭] holimoli,0.015625,0,4.59156729809457e-05,30.1999988555908,2.19999885559082,0.015625,0,NaN,NaN,0,0.0139882274201861,NaN,0.999750798254478,-0.00246240168907174,-0.0224101442770873,1.220703125e-05,29.616081877718,29.6160940847492,,,133.639999866486,28,0.24518000935659,0.279380566251599
2011-06-01T04:32:56Z,1306902776,103,54.654714,24.4234003,30.2,0,-1.4,38.4,-162042.62,-191815.75,39.4,Air+FixedWing,Blue,Enemies,Su-33,Blue Su-33 #001,ru,[51☭] holimoli,0.015625,0,4.59156729809457e-05,30.1999988555908,2.19999885559082,0.015625,0,NaN,NaN,0,0.0139882274201861,NaN,0.999676671993967,0.00123120084453587,-0.0254431985355062,1.220703125e-05,29.616081877718,29.6160940847492,,,134.639999866486,28,0.24518000935659,0.279380566251599
2011-06-01T04:32:57Z,1306902777,103,54.654714,24.4234003,30.2,0,-1.4,38.4,-162042.62,-191815.75,39.4,Air+FixedWing,Blue,Enemies,Su-33,Blue Su-33 #001,ru,[51☭] holimoli,0,0,0,30.1999988555908,2.19999885559082,0,0,NaN,NaN,0,0.0139882274201861,NaN,0.999676671993967,0.00123120084453587,-0.0254431985355062,0,29.616081877718,29.616081877718,,,135.639999866486,28,0.24518000935659,0.279380566251599
2011-06-01T04:32:58Z,1306902778,103,54.654714,24.4234003,30.2,0,-1.4,38.4,-162042.64,-191815.75,39.4,Air+FixedWing,Blue,Enemies,Su-33,Blue Su-33 #001,ru,[51☭] holimoli,0.015625,0,4.59156729809457e-05,30.1999988555908,2.19999885559082,0.015625,0,NaN,NaN,0,0.0139882274201861,NaN,0.999750798254478,-0.00246240168907174,-0.0224101442770873,1.220703125e-05,29.616081877718,29.6160940847492,,,136.639999866486,28,0.24518000935659,0.279380566251599
2011-06-01T04:32:59Z,1306902779,103,54.654714,24.4234003,30.2,0,-1.4,38.4,-162042.62,-191815.75,39.4,Air+FixedWing,Blue,Enemies,Su-33,Blue Su-33 #001,ru,[51☭] holimoli,0.015625,0,4.59156729809457e-05,30.1999988555908,2.19999885559082,0.015625,0,NaN,NaN,0,0.0139882274201861,NaN,0.999676671993967,0.00123120084453587,-0.0254431985355062,1.220703125e-05,29.616081877718,29.6160940847492,,,137.639999866486,28,0.24518000935659,0.279380566251599
2011-06-01T04:33:00Z,1306902780,103,54.654714,24.4234003,30.2,0,-1.4,38.4,-162042.62,-191815.75,39.4,Air+FixedWing,Blue,Enemies,Su-33,Blue Su-33 #001,ru,[51☭] holimoli,0,0,0,30.1999988555908,2.19999885559082,0,0,NaN,NaN,0,0.0139882274201861,NaN,0.999676671993967,0.00123120084453587,-0.0254431985355062,0,29.616081877718,29.616081877718,,,138.639999866486,28,0.24518000935659,0.279380566251599
2011-06-01T04:33:01Z,1306902781,103,54.654714,24.4234003,30.2,0,-1.4,38.4,-162042.64,-191815.75,39.4,Air+FixedWing,Blue,Enemies,Su-33,Blue Su-33 #001,ru,[51☭] holimoli,0.015625,0,4.59156729809457e-05,30.1999988555908,2.19999885559082,0.015625,0,NaN,NaN,0,0.0139882274201861,NaN,0.999750798254478,-0.00246240168907174,-0.0224101442770873,1.220703125e-05,29.616081877718,29.6160940847492,,,139.639999866486,28,0.24518000935659,0.279380566251599
2011-06-01T04:33:02Z,1306902782,103,54.654714,24.4234003,30.2,0,-1.4,38.4,-162042.62,-191815.75,39.4,Air+FixedWing,Blue,Enemies,Su-33,Blue Su-33 #001,ru,[51☭] holimoli,0.015625,0,4.59156729809457e-05,30.1999988555908,2.19999885559082,0.015625,0,NaN,NaN,0,0.0139882274201861,NaN,0.999676671993967,0.00123120084453587,-0.0254431985355062,1.220703125e-05,29.616081877718,29.6160940847492,,,140.639999866486,28,0.24518000935659,0.279380566251599
