ISOTime,UnixTime,Id,Longitude,Latitude,Altitude,Roll,Pitch,Yaw,U,V,Heading,Type,Color,Coalition,Name,Group,Country,Pilot,TAS,CAS,M,ASL,AGL,GS,VS,AOA,AOS,RRT,TRT,TRD,G,LatG,LonG,Ek,Ep,Em,FFW,FFV,RelativeTime,Elev,GroundDistance,AirDistance
2011-06-01T04:31:33Z,1306902693,105,54.6541721,24.4237817,30.24,-0.1,-0.9,38.4,-162096.89,-191772.56,39.4,Air+FixedWing,Blue,Enemies,Su-33,Blue Su-33 #002,ru,[100☭] BlackPixxel,0.280727927525499,0.262722313404083,0.00082494831890854,30.2396965026855,2.23969650268555,NaN,NaN,NaN,NaN,NaN,NaN,NaN,NaN,NaN,NaN,NaN,29.6550119708061,NaN,,,0.190000057220459,28,NaN,NaN
2011-06-01T04:31:34Z,1306902694,105,54.6541722,24.4237818,30.21,-0.1,-1.5,38.4,-162096.88,-191772.55,39.4,Air+FixedWing,Blue,Enemies,Su-33,Blue Su-33 #002,ru,[100☭] BlackPixxel,0.0370164544292309,0,0.00010877667891298,30.2099990844727,2.20999908447266,0.0220970869120796,-0.0296974182128906,NaN,NaN,0,NaN,NaN,1.00262471654704,-0.00152992523764268,-0.0284979742347418,6.85108949255664e-05,29.6258887521744,29.6259572630693,,,1.19000005722046,28,0.0154402423804163,0.0334714809884483
2011-06-01T04:31:35Z,1306902695,105,54.6541722,24.4237819,30.21,-0.1,-1.5,38.4,-162096.88,-191772.55,39.4,Air+FixedWing,Blue,Enemies,Su-33,Blue Su-33 #002,ru,[100☭] BlackPixxel,0,0,0,30.2099990844727,2.20999908447266,0,0,NaN,NaN,0,0.0221173298063182,NaN,0.99965578370746,-0.00174462503716849,-0.0261769499629736,0,29.6258887521744,29.6258887521744,,,2.19000005722046,28,0.0258037063088222,0.0438349942812758
2011-06-01T04:31:36Z,1306902696,105,54.6541722,24.4237819,30.21,-0.1,-1.5,38.4,-162096.88,-191772.55,39.4,Air+FixedWing,Blue,Enemies,Su-33,Blue Su-33 #002,ru,[100☭] BlackPixxel,0,0,0,30.2099990844727,2.20999908447266,0,0,NaN,NaN,0,0.0221173298063182,NaN,0.99965578370746,-0.00174462503716849,-0.0261769499629736,0,29.6258887521744,29.6258887521744,,,3.19000005722046,28,0.0261577759047917,0.0441890656860966
2011-06-01T04:31:37Z,1306902697,105,54.6541722,24.4237819,30.21,-0.1,-1.5,38.4,-162096.88,-191772.55,39.4,Air+FixedWing,Blue,Enemies,Su-33,Blue Su-33 #002,ru,[100☭] BlackPixxel,0,0,0,30.2099990844727,2.20999908447266,0,0,NaN,NaN,0,0.0221173298063182,NaN,0.99965578370746,-0.00174462503716849,-0.0261769499629736,0,29.6258887521744,29.6258887521744,,,4.19000005722046,28,0.0265118451881588,0.0445431362414346
2011-06-01T04:31:38Z,1306902698,105,54.6541722,24.4237819,30.21,-0.1,-1.5,38.4,-162096.88,-191772.55,39.4,Air+FixedWing,Blue,Enemies,Su-33,Blue Su-33 #002,ru,[100☭] BlackPixxel,0,0,0,30.2099990844727,2.20999908447266,0,0,NaN,NaN,0,0.0221173298063182,NaN,0.99965578370746,-0.00174462503716849,-0.0261769499629736,0,29.6258887521744,29.6258887521744,,,5.19000005722046,28,0.0268659152081187,0.0448972079588577
2011-06-01T04:31:39Z,1306902699,105,54.6541722,24.4237819,30.21,-0.1,-1.5,38.4,-162096.88,-191772.55,39.4,Air+FixedWing,Blue,Enemies,Su-33,Blue Su-33 #002,ru,[100☭] BlackPixxel,0,0,0,30.2099990844727,2.20999908447266,0,0,NaN,NaN,0,0.0221173298063182,NaN,0.99965578370746,-0.00174462503716849,-0.0261769499629736,0,29.6258887521744,29.6258887521744,,,6.19000005722046,28,0.0272199843800978,0.0452512780887054
2011-06-01T04:31:40Z,1306902700,105,54.6541722,24.4237819,30.21,-0.1,-1.5,38.4,-162096.88,-191772.55,39.4,Air+FixedWing,Blue,Enemies,Su-33,Blue Su-33 #002,ru,[100☭] BlackPixxel,0,0,0,30.2099990844727,2.20999908447266,0,0,NaN,NaN,0,0.0221173298063182,NaN,0.99965578370746,-0.00174462503716849,-0.0261769499629736,0,29.6258887521744,29.6258887521744,,,7.19000005722046,28,0.0275740541988435,0.0456053503430106
2011-06-01T04:31:41Z,1306902701,105,54.6541722,24.4237819,30.21,-0.1,-1.5,38.4,-162096.88,-191772.55,39.4,Air+FixedWing,Blue,Enemies,Su-33,Blue Su-33 #002,ru,[100☭] BlackPixxel,0,0,0,30.2099990844727,2.20999908447266,0,0,NaN,NaN,0,0.0221173298063182,NaN,0.99965578370746,-0.00174462503716849,-0.0261769499629736,0,29.6258887521744,29.6258887521744,,,8.19000005722046,28,0.0279281233708226,0.0459594208983486
2011-06-01T04:31:42Z,1306902702,105,54.6541722,24.4237819,30.21,-0.1,-1.5,38.4,-162096.88,-191772.55,39.4,Air+FixedWing,Blue,Enemies,Su-33,Blue Su-33 #002,ru,[100☭] BlackPixxel,0,0,0,30.2099990844727,2.20999908447266,0,0,NaN,NaN,0,0.0221173298063182,NaN,0.99965578370746,-0.00174462503716849,-0.0261769499629736,0,29.6258887521744,29.6258887521744,,,9.19000005722046,28,0.0282821930781799,0.0463134931526537
2011-06-01T04:31:43Z,1306902703,105,54.6541722,24.4237819,30.21,-0.1,-1.5,38.4,-162096.88,-191772.55,39.4,Air+FixedWing,Blue,Enemies,Su-33,Blue Su-33 #002,ru,[100☭] BlackPixxel,0,0,0,30.2099990844727,2.20999908447266,0,0,NaN,NaN,0,0.0221173298063182,NaN,0.99965578370746,-0.00174462503716849,-0.0261769499629736,0,29.6258887521744,29.6258887521744,,,10.1900000572205,28,0.0286362630996427,0.0466675641319822
2011-06-01T04:31:44Z,1306902704,105,54.6541722,24.4237819,30.21,-0.1,-1.5,38.4,-162096.88,-191772.55,39.4,Air+FixedWing,Blue,Enemies,Su-33,Blue Su-33 #002,ru,[100☭] BlackPixxel,0,0,0,30.2099990844727,2.20999908447266,0,0,NaN,NaN,0,0.0221173298063182,NaN,0.99965578370746,-0.00174462503716849,-0.0261769499629736,0,29.6258887521744,29.6258887521744,,,11.1900000572205,28,0.0289903322701214,0.0470216354254151
2011-06-01T04:31:45Z,1306902705,105,54.6541722,24.4237819,30.21,-0.1,-1.5,38.4,-162096.88,-191772.55,39.4,Air+FixedWing,Blue,Enemies,Su-33,Blue Su-33 #002,ru,[100☭] BlackPixxel,0,0,0,30.2099990844727,2.20999908447266,0,0,NaN,NaN,0,0.0221173298063182,NaN,0.99965578370746,-0.00174462503716849,-0.0261769499629736,0,29.6258887521744,29.6258887521744,,,12.1900000572205,28,0.0293444020888671,0.0473757073656143
2011-06-01T04:31:46Z,1306902706,105,54.6541722,24.4237819,30.21,-0.1,-1.5,38.4,-162096.88,-191772.55,39.4,Air+FixedWing,Blue,Enemies,Su-33,Blue Su-33 #002,ru,[100☭] BlackPixxel,0,0,0,30.2099990844727,2.20999908447266,0,0,NaN,NaN,0,0.0221173298063182,NaN,0.99965578370746,-0.00174462503716849,-0.0261769499629736,0,29.6258887521744,29.6258887521744,,,13.1900000572205,28,0.0296984721103298,0.0477297779209523
2011-06-01T04:31:47Z,1306902707,105,54.6541722,24.4237819,30.21,-0.1,-1.5,38.4,-162096.88,-191772.55,39.4,Air+FixedWing,Blue,Enemies,Su-33,Blue Su-33 #002,ru,[100☭] BlackPixxel,0,0,0,30.2099990844727,2.20999908447266,0,0,NaN,NaN,0,0.0221173298063182,NaN,0.99965578370746,-0.00174462503716849,-0.0261769499629736,0,29.6258887521744,29.6258887521744,,,14.1900000572205,28,0.0300525413921959,0.0480838496383754
2011-06-01T04:31:48Z,1306902708,105,54.6541722,24.4237819,30.21,-0.1,-1.5,38.4,-162096.88,-191772.55,39.4,Air+FixedWing,Blue,Enemies,Su-33,Blue Su-33 #002,ru,[100☭] BlackPixxel,0,0,0,30.2099990844727,2.20999908447266,0,0,NaN,NaN,0,0.0221173298063182,NaN,0.99965578370746,-0.00174462503716849,-0.0261769499629736,0,29.6258887521744,29.6258887521744,,,15.1900000572205,28,0.0304066109881653,0.0484379207290919
2011-06-01T04:31:49Z,1306902709,105,54.6541722,24.4237819,30.21,-0.1,-1.5,38.4,-162096.88,-191772.55,39.4,Air+FixedWing,Blue,Enemies,Su-33,Blue Su-33 #002,ru,[100☭] BlackPixxel,0,0,0,30.2099990844727,2.20999908447266,0,0,NaN,NaN,0,0.0221173298063182,NaN,0.99965578370746,-0.00174462503716849,-0.0261769499629736,0,29.6258887521744,29.6258887521744,,,16.1900000572205,28,0.0307606805856383,0.0487919915985346
2011-06-01T04:31:50Z,1306902710,105,54.6541722,24.4237819,30.21,-0.1,-1.5,38.4,-162096.88,-191772.55,39.4,Air+FixedWing,Blue,Enemies,Su-33,Blue Su-33 #002,ru,[100☭] BlackPixxel,0,0,0,30.2099990844727,2.20999908447266,0,0,NaN,NaN,0,0.0221173298063182,NaN,0.99965578370746,-0.00174462503716849,-0.0261769499629736,0,29.6258887521744,29.6258887521744,,,17.1900000572205,28,0.031114750404384,0.0491460634273455
2011-06-01T04:31:51Z,1306902711,105,54.6541722,24.4237818,30.21,-0.1,-1.5,38.4,-162096.88,-191772.55,39.4,Air+FixedWing,Blue,Enemies,Su-33,Blue Su-33 #002,ru,[100☭] BlackPixxel,0,0,0,30.2099990844727,2.20999908447266,0,0,NaN,NaN,0,0.0221173298063182,NaN,0.99965578370746,-0.00174462503716849,-0.0261769499629736,0,29.6258887521744,29.6258887521744,,,18.1900000572205,28,0.0314688195763631,0.0495001344081762
2011-06-01T04:31:52Z,1306902712,105,54.6541722,24.4237818,30.21,-0.1,-1.5,38.4,-162096.88,-191772.55,39.4,Air+FixedWing,Blue,Enemies,Su-33,Blue Su-33 #002,ru,[100☭] BlackPixxel,0,0,0,30.2099990844727,2.20999908447266,0,0,NaN,NaN,0,0.0221173298063182,NaN,0.99965578370746,-0.00174462503716849,-0.0261769499629736,0,29.6258887521744,29.6258887521744,,,19.1900000572205,28,0.0318228897077107,0.0498542058114953
2011-06-01T04:31:53Z,1306902713,105,54.6541722,24.4237818,30.21,-0.1,-1.5,38.4,-162096.88,-191772.55,39.4,Air+FixedWing,Blue,Enemies,Su-33,Blue Su-33 #002,ru,[100☭] BlackPixxel,0,0,0,30.2099990844727,2.20999908447266,0,0,NaN,NaN,0,0.0221173298063182,NaN,0.99965578370746,-0.00174462503716849,-0.0261769499629736,0,29.6258887521744,29.6258887521744,,,20.1900000572205,28,0.0321769593036802,0.0502082775289184
2011-06-01T04:31:54Z,1306902714,105,54.6541722,24.4237818,30.21,-0.1,-1.5,38.4,-162096.88,-191772.55,39.4,Air+FixedWing,Blue,Enemies,Su-33,Blue Su-33 #002,ru,[100☭] BlackPixxel,0,0,0,30.2099990844727,2.20999908447266,0,0,NaN,NaN,0,0.0221173298063182,NaN,0.99965578370746,-0.00174462503716849,-0.0261769499629736,0,29.6258887521744,29.6258887521744,,,21.1900000572205,28,0.0325310288996496,0.0505623481956445
2011-06-01T04:31:55Z,1306902715,105,54.6541722,24.4237818,30.21,-0.1,-1.5,38.4,-162096.88,-191772.55,39.4,Air+FixedWing,Blue,Enemies,Su-33,Blue Su-33 #002,ru,[100☭] BlackPixxel,0,0,0,30.2099990844727,2.20999908447266,0,0,NaN,NaN,0,0.0221173298063182,NaN,0.99965578370746,-0.00174462503716849,-0.0261769499629736,0,29.6258887521744,29.6258887521744,,,22.1900000572205,28,0.0328850987183953,0.0509164199130676
2011-06-01T04:31:56Z,1306902716,105,54.6541722,24.4237818,30.21,-0.1,-1.5,38.4,-162096.88,-191772.55,39.4,Air+FixedWing,Blue,Enemies,Su-33,Blue Su-33 #002,ru,[100☭] BlackPixxel,0,0,0,30.2099990844727,2.20999908447266,0,0,NaN,NaN,0,0.0221173298063182,NaN,0.99965578370746,-0.00174462503716849,-0.0261769499629736,0,29.6258887521744,29.6258887521744,,,23.1900000572205,28,0.0332391678903745,0.0512704908938984
2011-06-01T04:31:57Z,1306902717,105,54.6541722,24.4237818,30.21,-0.1,-1.5,38.4,-162096.88,-191772.55,39.4,Air+FixedWing,Blue,Enemies,Su-33,Blue Su-33 #002,ru,[100☭] BlackPixxel,0,0,0,30.2099990844727,2.20999908447266,0,0,NaN,NaN,0,0.0221173298063182,NaN,0.99965578370746,-0.00174462503716849,-0.0261769499629736,0,29.6258887521744,29.6258887521744,,,24.1900000572205,28,0.0335932375977317,0.0516245627227093
2011-06-01T04:31:58Z,1306902718,105,54.6541722,24.4237818,30.21,-0.1,-1.5,38.4,-162096.88,-191772.55,39.4,Air+FixedWing,Blue,Enemies,Su-33,Blue Su-33 #002,ru,[100☭] BlackPixxel,0,0,0,30.2099990844727,2.20999908447266,0,0,NaN,NaN,0,0.0221173298063182,NaN,0.99965578370746,-0.00174462503716849,-0.0261769499629736,0,29.6258887521744,29.6258887521744,,,25.1900000572205,28,0.0339473077305828,0.05197863412753
2011-06-01T04:31:59Z,1306902719,105,54.6541722,24.4237818,30.21,-0.1,-1.5,38.4,-162096.88,-191772.55,39.4,Air+FixedWing,Blue,Enemies,Su-33,Blue Su-33 #002,ru,[100☭] BlackPixxel,0,0,0,30.2099990844727,2.20999908447266,0,0,NaN,NaN,0,0.0221173298063182,NaN,0.99965578370746,-0.00174462503716849,-0.0261769499629736,0,29.6258887521744,29.6258887521744,,,26.1900000572205,28,0.0343013765884582,0.052332704682868
2011-06-01T04:32:00Z,1306902720,105,54.6541722,24.4237818,30.21,-0.1,-1.5,38.4,-162096.88,-191772.55,39.4,Air+FixedWing,Blue,Enemies,Su-33,Blue Su-33 #002,ru,[100☭] BlackPixxel,0,0,0,30.2099990844727,2.20999908447266,0,0,NaN,NaN,0,0.0221173298063182,NaN,0.99965578370746,-0.00174462503716849,-0.0261769499629736,0,29.6258887521744,29.6258887521744,,,27.1900000572205,28,0.0346554461844276,0.0526867765116789
2011-06-01T04:32:01Z,1306902721,105,54.6541722,24.4237818,30.21,-0.1,-1.5,38.4,-162096.88,-191772.55,39.4,Air+FixedWing,Blue,Enemies,Su-33,Blue Su-33 #002,ru,[100☭] BlackPixxel,0,0,0,30.2099990844727,2.20999908447266,0,0,NaN,NaN,0,0.0221173298063182,NaN,0.99965578370746,-0.00174462503716849,-0.0261769499629736,0,29.6258887521744,29.6258887521744,,,28.1900000572205,28,0.0350095162058904,0.0530408470670169
2011-06-01T04:32:02Z,1306902722,105,54.6541722,24.4237818,30.21,-0.1,-1.5,38.4,-162096.88,-191772.55,39.4,Air+FixedWing,Blue,Enemies,Su-33,Blue Su-33 #002,ru,[100☭] BlackPixxel,0,0,0,30.2099990844727,2.20999908447266,0,0,NaN,NaN,0,0.0221173298063182,NaN,0.99965578370746,-0.00174462503716849,-0.0261769499629736,0,29.6258887521744,29.6258887521744,,,29.1900000572205,28,0.035363586337238,0.0533949192099338
2011-06-01T04:32:03Z,1306902723,105,54.6541722,24.4237818,30.21,-0.1,-1.5,38.4,-162096.88,-191772.55,39.4,Air+FixedWing,Blue,Enemies,Su-33,Blue Su-33 #002,ru,[100☭] BlackPixxel,0,0,0,30.2099990844727,2.20999908447266,0,0,NaN,NaN,0,0.0221173298063182,NaN,0.99965578370746,-0.00174462503716849,-0.0261769499629736,0,29.6258887521744,29.6258887521744,,,30.1900000572205,28,0.0357176555077167,0.0537489902991511
2011-06-01T04:32:04Z,1306902724,105,54.6541722,24.4237818,30.21,-0.1,-1.5,38.4,-162096.88,-191772.55,39.4,Air+FixedWing,Blue,Enemies,Su-33,Blue Su-33 #002,ru,[100☭] BlackPixxel,0,0,0,30.2099990844727,2.20999908447266,0,0,NaN,NaN,0,0.0221173298063182,NaN,0.99965578370746,-0.00174462503716849,-0.0261769499629736,0,29.6258887521744,29.6258887521744,,,31.1900000572205,28,0.0360717249024723,0.0541030611685938
2011-06-01T04:32:05Z,1306902725,105,54.6541722,24.4237818,30.21,-0.1,-1.5,38.4,-162096.88,-191772.55,39.4,Air+FixedWing,Blue,Enemies,Su-33,Blue Su-33 #002,ru,[100☭] BlackPixxel,0,0,0,30.2099990844727,2.20999908447266,0,0,NaN,NaN,0,0.0221173298063182,NaN,0.99965578370746,-0.00174462503716849,-0.0261769499629736,0,29.6258887521744,29.6258887521744,,,32.1900000572205,28,0.0364257949239351,0.0544571329974047
2011-06-01T04:32:06Z,1306902726,105,54.6541722,24.4237818,30.21,-0.1,-1.5,38.4,-162096.88,-191772.55,39.4,Air+FixedWing,Blue,Enemies,Su-33,Blue Su-33 #002,ru,[100☭] BlackPixxel,0,0,0,30.2099990844727,2.20999908447266,0,0,NaN,NaN,0,0.0484566469995765,NaN,0.99965578370746,-0.00174462503716849,-0.0261769499629736,0,29.6258887521744,29.6258887521744,,,33.1900000572205,28,0.0367798640959142,0.0548112034413551
2011-06-01T04:32:07Z,1306902727,105,54.6541721,24.4237819,30.21,-0.1,-1.3,38.4,-162096.88,-191772.55,39.4,Air+FixedWing,Blue,Enemies,Su-33,Blue Su-33 #002,ru,[100☭] BlackPixxel,0,0,0,30.2099990844727,2.20999908447266,0,0,NaN,NaN,0,0.0541761800424684,NaN,0.999736786294179,-0.00174476640497045,-0.0228729601949453,0,29.6258887521744,29.6258887521744,,,34.1900000572205,28,0.051751320068933,0.0697827301827399
2011-06-01T04:32:08Z,1306902728,105,54.6541721,24.4237819,30.21,-0.1,-1.4,38.4,-162096.88,-191772.55,39.4,Air+FixedWing,Blue,Enemies,Su-33,Blue Su-33 #002,ru,[100☭] BlackPixxel,0,0,0,30.2099990844727,2.20999908447266,0,0,NaN,NaN,0,0.0197823405926261,NaN,0.99969989107624,-0.00174470201448523,-0.0244321804493666,0,29.6258887521744,29.6258887521744,,,35.1900000572205,28,0.0556704840366744,0.0737019131501719
2011-06-01T04:32:09Z,1306902729,105,54.6541722,24.4237819,30.21,-0.1,-1.4,38.4,-162096.88,-191772.55,39.4,Air+FixedWing,Blue,Enemies,Su-33,Blue Su-33 #002,ru,[100☭] BlackPixxel,0,0,0,30.2099990844727,2.20999908447266,0,0,NaN,NaN,0,0.0541761800424684,NaN,0.999683499824329,-0.00174467340804996,-0.0250968616455793,0,29.6258887521744,29.6258887521744,,,36.1900000572205,28,0.0618870946224689,0.0799185528052448
2011-06-01T04:32:10Z,1306902730,105,54.6541721,24.4237819,30.21,-0.1,-1.5,38.4,-162096.88,-191772.55,39.4,Air+FixedWing,Blue,Enemies,Su-33,Blue Su-33 #002,ru,[100☭] BlackPixxel,0,0,0,30.2099990844727,2.20999908447266,0,0,NaN,NaN,0,0.0139882274201861,NaN,0.998650268953857,-0.0017428701871751,-0.0256139912369944,0,29.6258887521744,29.6258887521744,,,37.1900000572205,28,0.0720228691760048,0.0900543754277494
2011-06-01T04:32:11Z,1306902731,105,54.6541721,24.4237819,30.2,-0.1,-1.4,38.4,-162096.88,-191772.55,39.4,Air+FixedWing,Blue,Enemies,Su-33,Blue Su-33 #002,ru,[100☭] BlackPixxel,0.0100002288818359,0,2.93867033006712e-05,30.1999988555908,2.19999885559082,0,-0.0100002288818359,NaN,NaN,0.00952321803391506,0.0221173298063182,NaN,1.00071950345901,-0.00166331560842183,-0.0244570949030551,5.00022888445528e-06,29.616081877718,29.6160868779469,,,38.1900000572205,28,0.0725055229211463,0.100066244081856
2011-06-01T04:32:12Z,1306902732,105,54.6541722,24.4237819,30.2,-0,-1.5,38.4,-162096.88,-191772.55,39.4,Air+FixedWing,Blue,Enemies,Su-33,Blue Su-33 #002,ru,[100☭] BlackPixxel,0,0,0,30.1999988555908,2.19999885559082,0,0,NaN,NaN,0.0421832483139988,0.0541761800424684,NaN,0.999657213728746,-0.000434316101897115,-0.0261769499629736,0,29.616081877718,29.616081877718,,,39.1900000572205,28,0.0821586437295413,0.109719410901127
2011-06-01T04:32:13Z,1306902733,105,54.6541722,24.4237819,30.2,-0.1,-1.5,38.4,-162096.88,-191772.55,39.4,Air+FixedWing,Blue,Enemies,Su-33,Blue Su-33 #002,ru,[100☭] BlackPixxel,0,0,0,30.1999988555908,2.19999885559082,0,0,NaN,NaN,0.0421832483139988,0.0221173298063182,NaN,0.999656617886543,-0.00117044507386304,-0.0261769499629736,0,29.616081877718,29.616081877718,,,40.1900000572205,28,0.0821586437295413,0.109719410901127
2011-06-01T04:32:14Z,1306902734,105,54.6541722,24.4237819,30.2,-0.1,-1.5,38.4,-162096.88,-191772.55,39.4,Air+FixedWing,Blue,Enemies,Su-33,Blue Su-33 #002,ru,[100☭] BlackPixxel,0,0,0,30.1999988555908,2.19999885559082,0,0,NaN,NaN,0.00431667955544806,0.0221173298063182,NaN,0.999656081628562,-0.00157628413710221,-0.0261769499629736,0,29.616081877718,29.616081877718,,,41.1900000572205,28,0.0821586437295413,0.109719410901127
2011-06-01T04:32:15Z,1306902735,105,54.6541722,24.4237819,30.2,-0,-1.5,38.4,-162096.88,-191772.55,39.4,Air+FixedWing,Blue,Enemies,Su-33,Blue Su-33 #002,ru,[100☭] BlackPixxel,0,0,0,30.1999988555908,2.19999885559082,0,0,NaN,NaN,0.0438570115165155,0.0221173298063182,NaN,0.999656975391865,-0.000811097820396015,-0.0261769499629736,0,29.616081877718,29.616081877718,,,42.1900000572205,28,0.0821586437295413,0.109719410901127
2011-06-01T04:32:16Z,1306902736,105,54.6541722,24.4237819,30.2,-0,-1.5,38.4,-162096.88,-191772.55,39.4,Air+FixedWing,Blue,Enemies,Su-33,Blue Su-33 #002,ru,[100☭] BlackPixxel,0,0,0,30.1999988555908,2.19999885559082,0,0,NaN,NaN,0.0438570048464089,0.0221173298063182,NaN,0.999657213728746,-4.59111545635313e-05,-0.0261769499629736,0,29.616081877718,29.616081877718,,,43.1900000572205,28,0.0821586437295413,0.109719410901127
2011-06-01T04:32:17Z,1306902737,105,54.6541722,24.4237819,30.2,-0,-1.5,38.4,-162096.88,-191772.55,39.4,Air+FixedWing,Blue,Enemies,Su-33,Blue Su-33 #002,ru,[100☭] BlackPixxel,0,0,0,30.1999988555908,2.19999885559082,0,0,NaN,NaN,0.173541446431684,0.0221173298063182,NaN,0.999657273312966,-3.75188058811828e-05,-0.0261769499629736,0,29.616081877718,29.616081877718,,,44.1900000572205,28,0.0821586437295413,0.109719410901127
2011-06-01T04:32:18Z,1306902738,105,54.6541722,24.4237819,30.2,-0.1,-1.5,38.4,-162096.88,-191772.55,39.4,Air+FixedWing,Blue,Enemies,Su-33,Blue Su-33 #002,ru,[100☭] BlackPixxel,0,0,0,30.1999988555908,2.19999885559082,0,0,NaN,NaN,0.0537672491463404,0.0221173298063182,NaN,0.999656796639204,-0.000975489636616405,-0.0261769499629736,0,29.616081877718,29.616081877718,,,45.1900000572205,28,0.0821586437295413,0.109719410901127
2011-06-01T04:32:19Z,1306902739,105,54.6541721,24.4237819,30.2,-0.1,-1.5,38.4,-162096.88,-191772.55,39.4,Air+FixedWing,Blue,Enemies,Su-33,Blue Su-33 #002,ru,[100☭] BlackPixxel,0,0,0,30.1999988555908,2.19999885559082,0,0,NaN,NaN,0.0344241534168643,0.0221173298063182,NaN,0.99965578370746,-0.00174462503716849,-0.0261769499629736,0,29.616081877718,29.616081877718,,,46.1900000572205,28,0.0908464540090277,0.118407261997744
2011-06-01T04:32:20Z,1306902740,105,54.6541722,24.4237819,30.2,-0.1,-1.5,38.4,-162096.88,-191772.55,39.4,Air+FixedWing,Blue,Enemies,Su-33,Blue Su-33 #002,ru,[100☭] BlackPixxel,0,0,0,30.1999988555908,2.19999885559082,0,0,NaN,NaN,0.0537280822803186,0.0221173298063182,NaN,0.999656439133883,-0.00127592031570161,-0.0261769499629736,0,29.616081877718,29.616081877718,,,47.1900000572205,28,0.0995342642885141,0.127095113094362
2011-06-01T04:32:21Z,1306902741,105,54.6541722,24.4237819,30.2,0,-1.5,38.4,-162096.88,-191772.55,39.4,Air+FixedWing,Blue,Enemies,Su-33,Blue Su-33 #002,ru,[100☭] BlackPixxel,0,0,0,30.1999988555908,2.19999885559082,0,0,NaN,NaN,0.081161276947517,0.0221173298063182,NaN,0.999657273312966,8.30823470349281e-05,-0.0261769499629736,0,29.616081877718,29.616081877718,,,48.1900000572205,28,0.0995342642885141,0.127095113094362
2011-06-01T04:32:22Z,1306902742,105,54.6541722,24.4237819,30.2,0,-1.5,38.4,-162096.88,-191772.55,39.4,Air+FixedWing,Blue,Enemies,Su-33,Blue Su-33 #002,ru,[100☭] BlackPixxel,0,0,0,30.1999988555908,2.19999885559082,0,0,NaN,NaN,0.163651332513506,0.0221173298063182,NaN,0.999595774247408,0.00031729021125763,-0.0261753411133291,0,29.616081877718,29.616081877718,,,49.1900000572205,28,0.0995342642885141,0.127095113094362
2011-06-01T04:32:23Z,1306902743,105,54.6541722,24.4237819,30.2,0,-1.5,38.4,-162096.88,-191772.55,39.4,Air+FixedWing,Blue,Enemies,Su-33,Blue Su-33 #002,ru,[100☭] BlackPixxel,0.00060272216796875,0,1.77116120159108e-06,30.1993961334229,2.19939613342285,0,-0.00060272216796875,NaN,NaN,0.131412839631045,0.0221173298063182,NaN,0.998787593498173,0,-0.0261541765944297,1.81637005880475e-08,29.6154908091831,29.6154908273468,,,50.1900000572205,28,0.0995342642885141,0.127697836045771
2011-06-01T04:32:24Z,1306902744,105,54.6541721,24.4237819,30.19,-0.1,-1.5,38.4,-162096.88,-191772.55,39.4,Air+FixedWing,Blue,Enemies,Su-33,Blue Su-33 #002,ru,[100☭] BlackPixxel,0.00913429260253906,0,2.68420573460642e-05,30.1902618408203,2.19026184082031,0,-0.00913429260253906,NaN,NaN,0.199987938897973,0.0221173298063182,NaN,1.00154546503215,-0.00275924454110315,-0.0274581024413403,4.17176506743999e-06,29.6065331281281,29.6065372998931,,,51.1900000572205,28,0.10967003884205,0.141342255328201
2011-06-01T04:32:25Z,1306902745,105,54.6541722,24.4237818,30.2,0,-1.5,38.4,-162096.88,-191772.56,39.4,Air+FixedWing,Blue,Enemies,Su-33,Blue Su-33 #002,ru,[100☭] BlackPixxel,0.0184105969930659,0,5.41014368587262e-05,30.1999988555908,2.19999885559082,0.015625,0.00973701477050781,NaN,NaN,0.199987938897973,0.0221173298063182,NaN,0.997777832813356,0.00202263988885673,-0.0236644887974416,1.69475040820544e-05,29.616081877718,29.6160988252221,,,52.1900000572205,28,0.124725078317234,0.159271722211845
2011-06-01T04:32:26Z,1306902746,105,54.6541722,24.4237819,30.19,0,-1.5,38.4,-162096.88,-191772.55,39.4,Air+FixedWing,Blue,Enemies,Su-33,Blue Su-33 #002,ru,[100☭] BlackPixxel,0.0181999755239689,0,5.34824983383517e-05,30.1906661987305,2.19066619873047,0.015625,-0.00933265686035156,NaN,NaN,0.146657861879153,0.0221173298063182,NaN,1.00152772400619,-0.00101131994442837,-0.0274575525813352,1.65619554536534e-05,29.606929667778,29.6069462297335,,,53.1900000572205,28,0.135857027434578,0.173798246876073
2011-06-01T04:32:27Z,1306902747,105,54.6541722,24.4237819,30.2,-0,-1.5,38.4,-162096.88,-191772.55,39.4,Air+FixedWing,Blue,Enemies,Su-33,Blue Su-33 #002,ru,[100☭] BlackPixxel,0.00933265686035156,0,2.742497410837e-05,30.1999988555908,2.19999885559082,0,0.00933265686035156,NaN,NaN,0.0123489820193831,0.0221173298063182,NaN,0.99870593341058,-0.000107812215594028,-0.0261520382499655,4.35492420365335e-06,29.616081877718,29.6160862326422,,,54.1900000572205,28,0.135857027434578,0.183130903422187
2011-06-01T04:32:28Z,1306902748,105,54.6541722,24.4237819,30.2,-0.1,-1.5,38.4,-162096.88,-191772.55,39.4,Air+FixedWing,Blue,Enemies,Su-33,Blue Su-33 #002,ru,[100☭] BlackPixxel,0,0,0,30.1999988555908,2.19999885559082,0,0,NaN,NaN,0.0515269470985762,0.0221173298063182,NaN,0.999656856223424,-0.0010072065381552,-0.0261769499629736,0,29.616081877718,29.616081877718,,,55.1900000572205,28,0.135857027434578,0.183130903422187
2011-06-01T04:32:29Z,1306902749,105,54.6541722,24.4237819,30.2,-0.1,-1.5,38.4,-162096.88,-191772.55,39.4,Air+FixedWing,Blue,Enemies,Su-33,Blue Su-33 #002,ru,[100☭] BlackPixxel,0,0,0,30.1999988555908,2.19999885559082,0,0,NaN,NaN,0.0330034740695016,0.0541761800424684,NaN,0.999669731172723,-0.00174464937864433,-0.0256355088204145,0,29.616081877718,29.616081877718,,,56.1900000572205,28,0.135857027434578,0.183130903422187
2011-06-01T04:32:30Z,1306902750,105,54.6541722,24.4237819,30.2,-0,-1.5,38.4,-162096.88,-191772.55,39.4,Air+FixedWing,Blue,Enemies,Su-33,Blue Su-33 #002,ru,[100☭] BlackPixxel,0,0,0,30.1999988555908,2.19999885559082,0,0,NaN,NaN,0.0468837858348228,0.0221173298063182,NaN,0.999657034976085,-0.000664618568568316,-0.0261769499629736,0,29.616081877718,29.616081877718,,,57.1900000572205,28,0.135857027434578,0.183130903422187
2011-06-01T04:32:31Z,1306902751,105,54.6541722,24.4237819,30.2,0,-1.5,38.4,-162096.88,-191772.55,39.4,Air+FixedWing,Blue,Enemies,Su-33,Blue Su-33 #002,ru,[100☭] BlackPixxel,0,0,0,30.1999988555908,2.19999885559082,0,0,NaN,NaN,0.0825347252699647,0.0139882274201861,NaN,0.999679684658066,0,-0.02530462667346,0,29.616081877718,29.616081877718,,,58.1900000572205,28,0.135857027434578,0.183130903422187
2011-06-01T04:32:32Z,1306902752,105,54.6541722,24.4237819,30.2,0.1,-1.4,38.4,-162096.88,-191772.55,39.4,Air+FixedWing,Blue,Enemies,Su-33,Blue Su-33 #002,ru,[100☭] BlackPixxel,0,0,0,30.1999988555908,2.19999885559082,0,0,NaN,NaN,0.0571550229746667,0.0541761800424684,NaN,0.999700606118431,0.00124632191358489,-0.0244321804493666,0,29.616081877718,29.616081877718,,,59.1900000572205,28,0.135857027434578,0.183130903422187
2011-06-01T04:32:33Z,1306902753,105,54.6541722,24.4237818,30.2,0,-1.4,38.4,-162096.88,-191772.55,39.4,Air+FixedWing,Blue,Enemies,Su-33,Blue Su-33 #002,ru,[100☭] BlackPixxel,0,0,0,30.1999988555908,2.19999885559082,0,0,NaN,NaN,0,0.0139882274201861,NaN,0.999701380747471,0,-0.0244321804493666,0,29.616081877718,29.616081877718,,,60.1900000572205,28,0.146988976551923,0.194262904760497
2011-06-01T04:32:34Z,1306902754,105,54.6541721,24.4237819,30.2,-0.1,-1.4,38.4,-162096.88,-191772.55,39.4,Air+FixedWing,Blue,Enemies,Su-33,Blue Su-33 #002,ru,[100☭] BlackPixxel,0,0,0,30.1999988555908,2.19999885559082,0,0,NaN,NaN,0.199987938897973,0.0139882274201861,NaN,0.99969989107624,-0.00174470201448523,-0.0244321804493666,0,29.616081877718,29.616081877718,,,61.1900000572205,28,0.161549130944059,0.208823127865364
2011-06-01T04:32:35Z,1306902755,105,54.6541721,24.4237819,30.2,-0.1,-1.4,38.4,-162096.88,-191772.55,39.4,Air+FixedWing,Blue,Enemies,Su-33,Blue Su-33 #002,ru,[100☭] BlackPixxel,0,0,0,30.1999988555908,2.19999885559082,0,0,NaN,NaN,0,0.0139882274201861,NaN,0.99969989107624,-0.00174470201448523,-0.0244321804493666,0,29.616081877718,29.616081877718,,,62.1900000572205,28,0.162299927610848,0.209573927508854
2011-06-01T04:32:36Z,1306902756,105,54.6541722,24.4237819,30.2,-0.1,-1.4,38.4,-162096.88,-191772.55,39.4,Air+FixedWing,Blue,Enemies,Su-33,Blue Su-33 #002,ru,[100☭] BlackPixxel,0,0,0,30.1999988555908,2.19999885559082,0,0,NaN,NaN,0,0.0139882274201861,NaN,0.99969989107624,-0.00174470201448523,-0.0244321804493666,0,29.616081877718,29.616081877718,,,63.1900000572205,28,0.168574458052583,0.215848487019867
2011-06-01T04:32:37Z,1306902757,105,54.6541721,24.4237819,30.2,-0.1,-1.4,38.4,-162096.88,-191772.55,39.4,Air+FixedWing,Blue,Enemies,Su-33,Blue Su-33 #002,ru,[100☭] BlackPixxel,0,0,0,30.1999988555908,2.19999885559082,0,0,NaN,NaN,0,0.0139882274201861,NaN,0.99969989107624,-0.00174470201448523,-0.0244321804493666,0,29.616081877718,29.616081877718,,,64.1900000572205,28,0.174782762192202,0.222056820228764
2011-06-01T04:32:38Z,1306902758,105,54.6541721,24.4237819,30.2,-0.1,-1.4,38.4,-162096.88,-191772.55,39.4,Air+FixedWing,Blue,Enemies,Su-33,Blue Su-33 #002,ru,[100☭] BlackPixxel,0,0,0,30.1999988555908,2.19999885559082,0,0,NaN,NaN,0,0.0139882274201861,NaN,0.99969989107624,-0.00174470201448523,-0.0244321804493666,0,29.616081877718,29.616081877718,,,65.1900000572205,28,0.174858885456504,0.222132943872897
2011-06-01T04:32:39Z,1306902759,105,54.6541721,24.4237819,30.2,-0.1,-1.4,38.4,-162096.88,-191772.55,39.4,Air+FixedWing,Blue,Enemies,Su-33,Blue Su-33 #002,ru,[100☭] BlackPixxel,0,0,0,30.1999988555908,2.19999885559082,0,0,NaN,NaN,0,0.0139882274201861,NaN,0.99969989107624,-0.00174470201448523,-0.0244321804493666,0,29.616081877718,29.616081877718,,,66.1900000572205,28,0.174935008120104,0.222209066536497
2011-06-01T04:32:40Z,1306902760,105,54.6541721,24.4237819,30.2,-0.1,-1.4,38.4,-162096.88,-191772.55,39.4,Air+FixedWing,Blue,Enemies,Su-33,Blue Su-33 #002,ru,[100☭] BlackPixxel,0,0,0,30.1999988555908,2.19999885559082,0,0,NaN,NaN,0,0.0139882274201861,NaN,0.99969989107624,-0.00174470201448523,-0.0244321804493666,0,29.616081877718,29.616081877718,,,67.1900000572205,28,0.175011131384406,0.222285190719405
2011-06-01T04:32:41Z,1306902761,105,54.6541721,24.4237819,30.2,-0.1,-1.4,38.4,-162096.88,-191772.55,39.4,Air+FixedWing,Blue,Enemies,Su-33,Blue Su-33 #002,ru,[100☭] BlackPixxel,0,0,0,30.1999988555908,2.19999885559082,0,0,NaN,NaN,0,0.0139882274201861,NaN,0.99969989107624,-0.00174470201448523,-0.0244321804493666,0,29.616081877718,29.616081877718,,,68.1900000572205,28,0.175087253509221,0.22236131284422
2011-06-01T04:32:42Z,1306902762,105,54.6541721,24.4237819,30.2,-0.1,-1.4,38.4,-162096.88,-191772.55,39.4,Air+FixedWing,Blue,Enemies,Su-33,Blue Su-33 #002,ru,[100☭] BlackPixxel,0,0,0,30.1999988555908,2.19999885559082,0,0,NaN,NaN,0,0.0139882274201861,NaN,0.99969989107624,-0.00174470201448523,-0.0244321804493666,0,29.616081877718,29.616081877718,,,69.1900000572205,28,0.1751633773123,0.222437437027127
2011-06-01T04:32:43Z,1306902763,105,54.6541721,24.4237819,30.2,-0.1,-1.4,38.4,-162096.88,-191772.55,39.4,Air+FixedWing,Blue,Enemies,Su-33,Blue Su-33 #002,ru,[100☭] BlackPixxel,0,0,0,30.1999988555908,2.19999885559082,0,0,NaN,NaN,0,0.0139882274201861,NaN,0.99969989107624,-0.00174470201448523,-0.0244321804493666,0,29.616081877718,29.616081877718,,,70.1900000572205,28,0.175239499057288,0.222513559151942
2011-06-01T04:32:44Z,1306902764,105,54.6541721,24.4237819,30.2,-0.1,-1.4,38.4,-162096.88,-191772.55,39.4,Air+FixedWing,Blue,Enemies,Su-33,Blue Su-33 #002,ru,[100☭] BlackPixxel,0,0,0,30.1999988555908,2.19999885559082,0,0,NaN,NaN,0,0.0139882274201861,NaN,0.99969989107624,-0.00174470201448523,-0.0244321804493666,0,29.616081877718,29.616081877718,,,71.1900000572205,28,0.175315623240195,0.222589683334849
2011-06-01T04:32:45Z,1306902765,105,54.6541721,24.4237819,30.2,-0.1,-1.4,38.4,-162096.88,-191772.55,39.4,Air+FixedWing,Blue,Enemies,Su-33,Blue Su-33 #002,ru,[100☭] BlackPixxel,0,0,0,30.1999988555908,2.19999885559082,0,0,NaN,NaN,0,0.0139882274201861,NaN,0.99969989107624,-0.00174470201448523,-0.0244321804493666,0,29.616081877718,29.616081877718,,,72.1900000572205,28,0.175391746504497,0.222665806978982
2011-06-01T04:32:46Z,1306902766,105,54.6541721,24.4237819,30.2,-0.1,-1.4,38.4,-162096.88,-191772.55,39.4,Air+FixedWing,Blue,Enemies,Su-33,Blue Su-33 #002,ru,[100☭] BlackPixxel,0,0,0,30.1999988555908,2.19999885559082,0,0,NaN,NaN,0,0.0139882274201861,NaN,0.99969989107624,-0.00174470201448523,-0.0244321804493666,0,29.616081877718,29.616081877718,,,73.1900000572205,28,0.175467868629312,0.222741929642583
2011-06-01T04:32:47Z,1306902767,105,54.6541721,24.4237819,30.2,-0.1,-1.4,38.4,-162096.88,-191772.55,39.4,Air+FixedWing,Blue,Enemies,Su-33,Blue Su-33 #002,ru,[100☭] BlackPixxel,0,0,0,30.1999988555908,2.19999885559082,0,0,NaN,NaN,0,0.0139882274201861,NaN,0.99969989107624,-0.00174470201448523,-0.0244321804493666,0,29.616081877718,29.616081877718,,,74.1900000572205,28,0.175543991893614,0.22281805382549
2011-06-01T04:32:48Z,1306902768,105,54.6541721,24.4237819,30.2,-0.1,-1.4,38.4,-162096.88,-191772.55,39.4,Air+FixedWing,Blue,Enemies,Su-33,Blue Su-33 #002,ru,[100☭] BlackPixxel,0,0,0,30.1999988555908,2.19999885559082,0,0,NaN,NaN,0,0.0139882274201861,NaN,0.99969989107624,-0.00174470201448523,-0.0244321804493666,0,29.616081877718,29.616081877718,,,75.1900000572205,28,0.17562011417739,0.222894175950305
2011-06-01T04:32:49Z,1306902769,105,54.6541721,24.4237819,30.2,-0.1,-1.4,38.4,-162096.88,-191772.55,39.4,Air+FixedWing,Blue,Enemies,Su-33,Blue Su-33 #002,ru,[100☭] BlackPixxel,0,0,0,30.1999988555908,2.19999885559082,0,0,NaN,NaN,0,0.0139882274201861,NaN,0.99969989107624,-0.00174470201448523,-0.0244321804493666,0,29.616081877718,29.616081877718,,,76.1900000572205,28,0.175696237821523,0.222970300133212
2011-06-01T04:32:50Z,1306902770,105,54.6541721,24.4237819,30.2,-0.1,-1.4,38.4,-162096.88,-191772.55,39.4,Air+FixedWing,Blue,Enemies,Su-33,Blue Su-33 #002,ru,[100☭] BlackPixxel,0,0,0,30.1999988555908,2.19999885559082,0,0,NaN,NaN,0,0.0139882274201861,NaN,0.99969989107624,-0.00174470201448523,-0.0244321804493666,0,29.616081877718,29.616081877718,,,77.1900000572205,28,0.175772360105298,0.223046422258027
2011-06-01T04:32:51Z,1306902771,105,54.6541721,24.4237819,30.2,-0.1,-1.4,38.4,-162096.88,-191772.55,39.4,Air+FixedWing,Blue,Enemies,Su-33,Blue Su-33 #002,ru,[100☭] BlackPixxel,0,0,0,30.1999988555908,2.19999885559082,0,0,NaN,NaN,0,0.0139882274201861,NaN,0.99969989107624,-0.00174470201448523,-0.0244321804493666,0,29.616081877718,29.616081877718,,,78.1900000572205,28,0.175848483749431,0.223122546440935
2011-06-01T04:32:52Z,1306902772,105,54.6541721,24.4237819,30.2,-0.1,-1.4,38.4,-162096.88,-191772.55,39.4,Air+FixedWing,Blue,Enemies,Su-33,Blue Su-33 #002,ru,[100☭] BlackPixxel,0,0,0,30.1999988555908,2.19999885559082,0,0,NaN,NaN,0,0.0139882274201861,NaN,0.99969989107624,-0.00174470201448523,-0.0244321804493666,0,29.616081877718,29.616081877718,,,79.1900000572205,28,0.175924607013733,0.223198670623842
2011-06-01T04:32:53Z,1306902773,105,54.6541721,24.4237819,30.2,-0.1,-1.4,38.4,-162096.88,-191772.55,39.4,Air+FixedWing,Blue,Enemies,Su-33,Blue Su-33 #002,ru,[100☭] BlackPixxel,0,0,0,30.1999988555908,2.19999885559082,0,0,NaN,NaN,0,0.0139882274201861,NaN,0.99969989107624,-0.00174470201448523,-0.0244321804493666,0,29.616081877718,29.616081877718,,,80.1900000572205,28,0.176000729297509,0.223274792748657
2011-06-01T04:32:54Z,1306902774,105,54.6541721,24.4237819,30.2,-0.1,-1.4,38.4,-162096.88,-191772.55,39.4,Air+FixedWing,Blue,Enemies,Su-33,Blue Su-33 #002,ru,[100☭] BlackPixxel,0,0,0,30.1999988555908,2.19999885559082,0,0,NaN,NaN,0,0.0139882274201861,NaN,0.99969989107624,-0.00174470201448523,-0.0244321804493666,0,29.616081877718,29.616081877718,,,81.1900000572205,28,0.176076852941642,0.223350917311394
2011-06-01T04:32:55Z,1306902775,105,54.6541721,24.4237819,30.2,-0.1,-1.4,38.4,-162096.88,-191772.55,39.4,Air+FixedWing,Blue,Enemies,Su-33,Blue Su-33 #002,ru,[100☭] BlackPixxel,0,0,0,30.1999988555908,2.19999885559082,0,0,NaN,NaN,0,0.0139882274201861,NaN,0.99969989107624,-0.00174470201448523,-0.0244321804493666,0,29.616081877718,29.616081877718,,,82.1900000572205,28,0.176152974686629,0.223427039595169
2011-06-01T04:32:56Z,1306902776,105,54.6541721,24.4237819,30.2,-0.1,-1.4,38.4,-162096.88,-191772.55,39.4,Air+FixedWing,Blue,Enemies,Su-33,Blue Su-33 #002,ru,[100☭] BlackPixxel,0,0,0,30.1999988555908,2.19999885559082,0,0,NaN,NaN,0,0.0139882274201861,NaN,0.99969989107624,-0.00174470201448523,-0.0244321804493666,0,29.616081877718,29.616081877718,,,83.1900000572205,28,0.176229098330762,0.223503163619134
2011-06-01T04:32:57Z,1306902777,105,54.6541721,24.4237819,30.2,-0.1,-1.4,38.4,-162096.88,-191772.55,39.4,Air+FixedWing,Blue,Enemies,Su-33,Blue Su-33 #002,ru,[100☭] BlackPixxel,0,0,0,30.1999988555908,2.19999885559082,0,0,NaN,NaN,0,0.0139882274201861,NaN,0.99969989107624,-0.00174470201448523,-0.0244321804493666,0,29.616081877718,29.616081877718,,,84.1900000572205,28,0.176305220614538,0.223579286282734
2011-06-01T04:32:58Z,1306902778,105,54.6541721,24.4237819,30.2,-0.1,-1.4,38.4,-162096.88,-191772.55,39.4,Air+FixedWing,Blue,Enemies,Su-33,Blue Su-33 #002,ru,[100☭] BlackPixxel,0,0,0,30.1999988555908,2.19999885559082,0,0,NaN,NaN,0,0.0139882274201861,NaN,0.99969989107624,-0.00174470201448523,-0.0244321804493666,0,29.616081877718,29.616081877718,,,85.1900000572205,28,0.176381345177275,0.223655410306699
2011-06-01T04:32:59Z,1306902779,105,54.6541721,24.4237819,30.2,-0.1,-1.4,38.4,-162096.88,-191772.55,39.4,Air+FixedWing,Blue,Enemies,Su-33,Blue Su-33 #002,ru,[100☭] BlackPixxel,0,0,0,30.1999988555908,2.19999885559082,0,0,NaN,NaN,0,0.0139882274201861,NaN,0.99969989107624,-0.00174470201448523,-0.0244321804493666,0,29.616081877718,29.616081877718,,,86.1900000572205,28,0.176457468441577,0.223731534489607
2011-06-01T04:33:00Z,1306902780,105,54.6541721,24.4237819,30.2,-0.1,-1.4,38.4,-162096.88,-191772.55,39.4,Air+FixedWing,Blue,Enemies,Su-33,Blue Su-33 #002,ru,[100☭] BlackPixxel,0,0,0,30.1999988555908,2.19999885559082,0,0,NaN,NaN,0,0.0139882274201861,NaN,0.99969989107624,-0.00174470201448523,-0.0244321804493666,0,29.616081877718,29.616081877718,,,87.1900000572205,28,0.176533589806738,0.223807656773383
2011-06-01T04:33:01Z,1306902781,105,54.6541721,24.4237819,30.2,-0.1,-1.4,38.4,-162096.88,-191772.55,39.4,Air+FixedWing,Blue,Enemies,Su-33,Blue Su-33 #002,ru,[100☭] BlackPixxel,0,0,0,30.1999988555908,2.19999885559082,0,0,NaN,NaN,0,0.0139882274201861,NaN,0.99969989107624,-0.00174470201448523,-0.0244321804493666,0,29.616081877718,29.616081877718,,,88.1900000572205,28,0.176609713830703,0.223883780797347
2011-06-01T04:33:02Z,1306902782,105,54.6541721,24.4237819,30.2,-0.1,-1.4,38.4,-162096.88,-191772.55,39.4,Air+FixedWing,Blue,Enemies,Su-33,Blue Su-33 #002,ru,[100☭] BlackPixxel,0,0,0,30.1999988555908,2.19999885559082,0,0,NaN,NaN,0,0.0139882274201861,NaN,0.99969989107624,-0.00174470201448523,-0.0244321804493666,0,29.616081877718,29.616081877718,,,89.1900000572205,28,0.17668583557569,0.223959902922162
2011-06-01T04:33:03Z,1306902783,105,54.6541721,24.4237819,30.2,-0.1,-1.4,38.4,-162096.88,-191772.55,39.4,Air+FixedWing,Blue,Enemies,Su-33,Blue Su-33 #002,ru,[100☭] BlackPixxel,0,0,0,30.1999988555908,2.19999885559082,0,0,NaN,NaN,0,0.0139882274201861,NaN,0.99969989107624,-0.00174470201448523,-0.0244321804493666,0,29.616081877718,29.616081877718,,,90.1900000572205,28,0.17676196029738,0.224036027643852
2011-06-01T04:33:04Z,1306902784,105,54.6541721,24.4237819,30.2,-0.1,-1.4,38.4,-162096.88,-191772.55,39.4,Air+FixedWing,Blue,Enemies,Su-33,Blue Su-33 #002,ru,[100☭] BlackPixxel,0,0,0,30.1999988555908,2.19999885559082,0,0,NaN,NaN,0,0.0139882274201861,NaN,0.99969989107624,-0.00174470201448523,-0.0244321804493666,0,29.616081877718,29.616081877718,,,91.1900000572205,28,0.176838081662542,0.224112149388839
2011-06-01T04:33:05Z,1306902785,105,54.6541721,24.4237819,30.2,-0.1,-1.4,38.4,-162096.88,-191772.55,39.4,Air+FixedWing,Blue,Enemies,Su-33,Blue Su-33 #002,ru,[100☭] BlackPixxel,0,0,0,30.1999988555908,2.19999885559082,0,0,NaN,NaN,0,0.0139882274201861,NaN,0.99969989107624,-0.00174470201448523,-0.0244321804493666,0,29.616081877718,29.616081877718,,,92.1900000572205,28,0.176914205686506,0.224188273412804
2011-06-01T04:33:06Z,1306902786,105,54.6541721,24.4237819,30.2,-0.1,-1.4,38.4,-162096.88,-191772.55,39.4,Air+FixedWing,Blue,Enemies,Su-33,Blue Su-33 #002,ru,[100☭] BlackPixxel,0,0,0,30.1999988555908,2.19999885559082,0,0,NaN,NaN,0,0.0139882274201861,NaN,0.99969989107624,-0.00174470201448523,-0.0244321804493666,0,29.616081877718,29.616081877718,,,93.1900000572205,28,0.176990328950808,0.224264397595712
2011-06-01T04:33:07Z,1306902787,105,54.6541721,24.4237819,30.2,-0.1,-1.4,38.4,-162096.88,-191772.55,39.4,Air+FixedWing,Blue,Enemies,Su-33,Blue Su-33 #002,ru,[100☭] BlackPixxel,0,0,0,30.1999988555908,2.19999885559082,0,0,NaN,NaN,0,0.0139882274201861,NaN,0.99969989107624,-0.00174470201448523,-0.0244321804493666,0,29.616081877718,29.616081877718,,,94.1900000572205,28,0.177066451234584,0.224340520259312
2011-06-01T04:33:08Z,1306902788,105,54.6541721,24.4237819,30.2,-0.1,-1.4,38.4,-162096.88,-191772.55,39.4,Air+FixedWing,Blue,Enemies,Su-33,Blue Su-33 #002,ru,[100☭] BlackPixxel,0,0,0,30.1999988555908,2.19999885559082,0,0,NaN,NaN,0,0.0139882274201861,NaN,0.99969989107624,-0.00174470201448523,-0.0244321804493666,0,29.616081877718,29.616081877718,,,95.1900000572205,28,0.177142574878717,0.224416643903445
2011-06-01T04:33:09Z,1306902789,105,54.6541721,24.4237819,30.2,-0.1,-1.4,38.4,-162096.88,-191772.55,39.4,Air+FixedWing,Blue,Enemies,Su-33,Blue Su-33 #002,ru,[100☭] BlackPixxel,0,0,0,30.1999988555908,2.19999885559082,0,0,NaN,NaN,0,0.0139882274201861,NaN,0.99969989107624,-0.00174470201448523,-0.0244321804493666,0,29.616081877718,29.616081877718,,,96.1900000572205,28,0.177218696623705,0.22449276602826
2011-06-01T04:33:10Z,1306902790,105,54.6541721,24.4237819,30.2,-0.1,-1.4,38.4,-162096.88,-191772.55,39.4,Air+FixedWing,Blue,Enemies,Su-33,Blue Su-33 #002,ru,[100☭] BlackPixxel,0,0,0,30.1999988555908,2.19999885559082,0,0,NaN,NaN,0,0.0139882274201861,NaN,0.99969989107624,-0.00174470201448523,-0.0244321804493666,0,29.616081877718,29.616081877718,,,97.1900000572205,28,0.177294820806612,0.224568890749949
2011-06-01T04:33:11Z,1306902791,105,54.6541721,24.4237819,30.2,-0.1,-1.4,38.4,-162096.88,-191772.55,39.4,Air+FixedWing,Blue,Enemies,Su-33,Blue Su-33 #002,ru,[100☭] BlackPixxel,0,0,0,30.1999988555908,2.19999885559082,0,0,NaN,NaN,0,0.0139882274201861,NaN,0.99969989107624,-0.00174470201448523,-0.0244321804493666,0,29.616081877718,29.616081877718,,,98.1900000572205,28,0.1773709425516,0.224645012874764
2011-06-01T04:33:12Z,1306902792,105,54.6541721,24.4237819,30.2,-0.1,-1.4,38.4,-162096.88,-191772.55,39.4,Air+FixedWing,Blue,Enemies,Su-33,Blue Su-33 #002,ru,[100☭] BlackPixxel,0,0,0,30.1999988555908,2.19999885559082,0,0,NaN,NaN,0,0.0139882274201861,NaN,0.99969989107624,-0.00174470201448523,-0.0244321804493666,0,29.616081877718,29.616081877718,,,99.1900000572205,28,0.177447066195733,0.224721136898729
2011-06-01T04:33:13Z,1306902793,105,54.6541721,24.4237819,30.2,-0.1,-1.4,38.4,-162096.88,-191772.55,39.4,Air+FixedWing,Blue,Enemies,Su-33,Blue Su-33 #002,ru,[100☭] BlackPixxel,0,0,0,30.1999988555908,2.19999885559082,0,0,NaN,NaN,0,0.0139882274201861,NaN,0.99969989107624,-0.00174470201448523,-0.0244321804493666,0,29.616081877718,29.616081877718,,,100.19000005722,28,0.177523189998812,0.224797261081637
2011-06-01T04:33:14Z,1306902794,105,54.6541721,24.4237819,30.2,-0.1,-1.4,38.4,-162096.88,-191772.55,39.4,Air+FixedWing,Blue,Enemies,Su-33,Blue Su-33 #002,ru,[100☭] BlackPixxel,0,0,0,30.1999988555908,2.19999885559082,0,0,NaN,NaN,0,0.0139882274201861,NaN,0.99969989107624,-0.00174470201448523,-0.0244321804493666,0,29.616081877718,29.616081877718,,,101.19000005722,28,0.1775993117438,0.224873383745237
2011-06-01T04:33:15Z,1306902795,105,54.6541721,24.4237819,30.2,-0.1,-1.4,38.4,-162096.88,-191772.55,39.4,Air+FixedWing,Blue,Enemies,Su-33,Blue Su-33 #002,ru,[100☭] BlackPixxel,0,0,0,30.1999988555908,2.19999885559082,0,0,NaN,NaN,0,0.0139882274201861,NaN,0.99969989107624,-0.00174470201448523,-0.0244321804493666,0,29.616081877718,29.616081877718,,,102.19000005722,28,0.177675435387932,0.22494950738937
2011-06-01T04:33:16Z,1306902796,105,54.6541721,24.4237819,30.2,-0.1,-1.4,38.4,-162096.88,-191772.55,39.4,Air+FixedWing,Blue,Enemies,Su-33,Blue Su-33 #002,ru,[100☭] BlackPixxel,0,0,0,30.1999988555908,2.19999885559082,0,0,NaN,NaN,0,0.0139882274201861,NaN,0.99969989107624,-0.00174470201448523,-0.0244321804493666,0,29.616081877718,29.616081877718,,,103.19000005722,28,0.17775155713292,0.225025629514184
2011-06-01T04:33:17Z,1306902797,105,54.6541721,24.4237819,30.2,-0.1,-1.4,38.4,-162096.88,-191772.55,39.4,Air+FixedWing,Blue,Enemies,Su-33,Blue Su-33 #002,ru,[100☭] BlackPixxel,0,0,0,30.1999988555908,2.19999885559082,0,0,NaN,NaN,0,0.0139882274201861,NaN,0.99969989107624,-0.00174470201448523,-0.0244321804493666,0,29.616081877718,29.616081877718,,,104.19000005722,28,0.17782768185461,0.225101754235874
2011-06-01T04:33:18Z,1306902798,105,54.6541721,24.4237819,30.2,-0.1,-1.4,38.4,-162096.88,-191772.55,39.4,Air+FixedWing,Blue,Enemies,Su-33,Blue Su-33 #002,ru,[100☭] BlackPixxel,0,0,0,30.1999988555908,2.19999885559082,0,0,NaN,NaN,0,0.0139882274201861,NaN,0.99969989107624,-0.00174470201448523,-0.0244321804493666,0,29.616081877718,29.616081877718,,,105.19000005722,28,0.177903803599597,0.225177876360689
2011-06-01T04:33:19Z,1306902799,105,54.6541721,24.4237819,30.2,-0.1,-1.4,38.4,-162096.88,-191772.55,39.4,Air+FixedWing,Blue,Enemies,Su-33,Blue Su-33 #002,ru,[100☭] BlackPixxel,0,0,0,30.1999988555908,2.19999885559082,0,0,NaN,NaN,0,0.0139882274201861,NaN,0.99969989107624,-0.00174470201448523,-0.0244321804493666,0,29.616081877718,29.616081877718,,,106.19000005722,28,0.177979926863899,0.225254000004822
2011-06-01T04:33:20Z,1306902800,105,54.6541721,24.4237819,30.2,-0.1,-1.4,38.4,-162096.88,-191772.55,39.4,Air+FixedWing,Blue,Enemies,Su-33,Blue Su-33 #002,ru,[100☭] BlackPixxel,0,0,0,30.1999988555908,2.19999885559082,0,0,NaN,NaN,0,0.0139882274201861,NaN,0.99969989107624,-0.00174470201448523,-0.0244321804493666,0,29.616081877718,29.616081877718,,,107.19000005722,28,0.178056050508032,0.225330124187729
2011-06-01T04:33:21Z,1306902801,105,54.6541721,24.4237819,30.2,-0.1,-1.4,38.4,-162096.88,-191772.55,39.4,Air+FixedWing,Blue,Enemies,Su-33,Blue Su-33 #002,ru,[100☭] BlackPixxel,0,0,0,30.1999988555908,2.19999885559082,0,0,NaN,NaN,0,0.0139882274201861,NaN,0.99969989107624,-0.00174470201448523,-0.0244321804493666,0,29.616081877718,29.616081877718,,,108.19000005722,28,0.178132172791808,0.22540624685133
2011-06-01T04:33:22Z,1306902802,105,54.6541721,24.4237819,30.2,-0.1,-1.4,38.4,-162096.88,-191772.55,39.4,Air+FixedWing,Blue,Enemies,Su-33,Blue Su-33 #002,ru,[100☭] BlackPixxel,0,0,0,30.1999988555908,2.19999885559082,0,0,NaN,NaN,0,0.0139882274201861,NaN,0.99969989107624,-0.00174470201448523,-0.0244321804493666,0,29.616081877718,29.616081877718,,,109.19000005722,28,0.178208296435941,0.225482370495463
2011-06-01T04:33:23Z,1306902803,105,54.6541721,24.4237819,30.2,-0.1,-1.4,38.4,-162096.88,-191772.55,39.4,Air+FixedWing,Blue,Enemies,Su-33,Blue Su-33 #002,ru,[100☭] BlackPixxel,0,0,0,30.1999988555908,2.19999885559082,0,0,NaN,NaN,0,0.0139882274201861,NaN,0.99969989107624,-0.00174470201448523,-0.0244321804493666,0,29.616081877718,29.616081877718,,,110.19000005722,28,0.17828442023902,0.22555849467837
2011-06-01T04:33:24Z,1306902804,105,54.6541721,24.4237819,30.2,-0.1,-1.4,38.4,-162096.88,-191772.55,39.4,Air+FixedWing,Blue,Enemies,Su-33,Blue Su-33 #002,ru,[100☭] BlackPixxel,0,0,0,30.1999988555908,2.19999885559082,0,0,NaN,NaN,0,0.0139882274201861,NaN,0.99969989107624,-0.00174470201448523,-0.0244321804493666,0,29.616081877718,29.616081877718,,,111.19000005722,28,0.178360541984008,0.22563461734197
2011-06-01T04:33:25Z,1306902805,105,54.6541721,24.4237819,30.2,-0.1,-1.4,38.4,-162096.88,-191772.55,39.4,Air+FixedWing,Blue,Enemies,Su-33,Blue Su-33 #002,ru,[100☭] BlackPixxel,0,0,0,30.1999988555908,2.19999885559082,0,0,NaN,NaN,0,0.0139882274201861,NaN,0.99969989107624,-0.00174470201448523,-0.0244321804493666,0,29.616081877718,29.616081877718,,,112.19000005722,28,0.178436664108822,0.225710739466785
2011-06-01T04:33:26Z,1306902806,105,54.6541721,24.4237819,30.2,-0.1,-1.4,38.4,-162096.88,-191772.55,39.4,Air+FixedWing,Blue,Enemies,Su-33,Blue Su-33 #002,ru,[100☭] BlackPixxel,0,0,0,30.1999988555908,2.19999885559082,0,0,NaN,NaN,0,0.0139882274201861,NaN,0.99969989107624,-0.00174470201448523,-0.0244321804493666,0,29.616081877718,29.616081877718,,,113.19000005722,28,0.178512787373124,0.225786863110918
2011-06-01T04:33:27Z,1306902807,105,54.6541721,24.4237819,30.2,-0.1,-1.4,38.4,-162096.88,-191772.55,39.4,Air+FixedWing,Blue,Enemies,Su-33,Blue Su-33 #002,ru,[100☭] BlackPixxel,0,0,0,30.1999988555908,2.19999885559082,0,0,NaN,NaN,0,0.0139882274201861,NaN,0.99969989107624,-0.00174470201448523,-0.0244321804493666,0,29.616081877718,29.616081877718,,,114.19000005722,28,0.178588911556032,0.225862987293825
2011-06-01T04:33:28Z,1306902808,105,54.6541721,24.4237819,30.2,-0.1,-1.4,38.4,-162096.88,-191772.55,39.4,Air+FixedWing,Blue,Enemies,Su-33,Blue Su-33 #002,ru,[100☭] BlackPixxel,0,0,0,30.1999988555908,2.19999885559082,0,0,NaN,NaN,0,0.0139882274201861,NaN,0.99969989107624,-0.00174470201448523,-0.0244321804493666,0,29.616081877718,29.616081877718,,,115.19000005722,28,0.178665033839808,0.225939109957426
2011-06-01T04:33:29Z,1306902809,105,54.6541721,24.4237819,30.2,-0.1,-1.4,38.4,-162096.88,-191772.55,39.4,Air+FixedWing,Blue,Enemies,Su-33,Blue Su-33 #002,ru,[100☭] BlackPixxel,0,0,0,30.1999988555908,2.19999885559082,0,0,NaN,NaN,0,0.0139882274201861,NaN,0.99969989107624,-0.00174470201448523,-0.0244321804493666,0,29.616081877718,29.616081877718,,,116.19000005722,28,0.17874115710411,0.226015233601559
2011-06-01T04:33:30Z,1306902810,105,54.6541721,24.4237819,30.2,-0.1,-1.4,38.4,-162096.88,-191772.55,39.4,Air+FixedWing,Blue,Enemies,Su-33,Blue Su-33 #002,ru,[100☭] BlackPixxel,0,0,0,30.1999988555908,2.19999885559082,0,0,NaN,NaN,0,0.0139882274201861,NaN,0.99969989107624,-0.00174470201448523,-0.0244321804493666,0,29.616081877718,29.616081877718,,,117.19000005722,28,0.178817280748243,0.226091357784466
2011-06-01T04:33:31Z,1306902811,105,54.6541721,24.4237819,30.2,-0.1,-1.4,38.4,-162096.88,-191772.55,39.4,Air+FixedWing,Blue,Enemies,Su-33,Blue Su-33 #002,ru,[100☭] BlackPixxel,0,0,0,30.1999988555908,2.19999885559082,0,0,NaN,NaN,0,0.0139882274201861,NaN,0.99969989107624,-0.00174470201448523,-0.0244321804493666,0,29.616081877718,29.616081877718,,,118.19000005722,28,0.17889340249323,0.226167479909281
2011-06-01T04:33:32Z,1306902812,105,54.6541721,24.4237819,30.2,-0.1,-1.4,38.4,-162096.88,-191772.55,39.4,Air+FixedWing,Blue,Enemies,Su-33,Blue Su-33 #002,ru,[100☭] BlackPixxel,0,0,0,30.1999988555908,2.19999885559082,0,0,NaN,NaN,0,0.0139882274201861,NaN,0.99969989107624,-0.00174470201448523,-0.0244321804493666,0,29.616081877718,29.616081877718,,,119.19000005722,28,0.17896952515683,0.226243602572881
2011-06-01T04:33:33Z,1306902813,105,54.6541721,24.4237819,30.2,-0.1,-1.4,38.4,-162096.88,-191772.55,39.4,Air+FixedWing,Blue,Enemies,Su-33,Blue Su-33 #002,ru,[100☭] BlackPixxel,0,0,0,30.1999988555908,2.19999885559082,0,0,NaN,NaN,0,0.0139882274201861,NaN,0.99969989107624,-0.00174470201448523,-0.0244321804493666,0,29.616081877718,29.616081877718,,,120.19000005722,28,0.179045648421132,0.226319726217014
2011-06-01T04:33:34Z,1306902814,105,54.6541721,24.4237819,30.2,-0.1,-1.4,38.4,-162096.88,-191772.55,39.4,Air+FixedWing,Blue,Enemies,Su-33,Blue Su-33 #002,ru,[100☭] BlackPixxel,0,0,0,30.1999988555908,2.19999885559082,0,0,NaN,NaN,0,0.0139882274201861,NaN,0.99969989107624,-0.00174470201448523,-0.0244321804493666,0,29.616081877718,29.616081877718,,,121.19000005722,28,0.179121772065265,0.226395850399921
2011-06-01T04:33:35Z,1306902815,105,54.6541721,24.4237819,30.2,-0.1,-1.4,38.4,-162096.88,-191772.55,39.4,Air+FixedWing,Blue,Enemies,Su-33,Blue Su-33 #002,ru,[100☭] BlackPixxel,0,0,0,30.1999988555908,2.19999885559082,0,0,NaN,NaN,0,0.0139882274201861,NaN,0.99969989107624,-0.00174470201448523,-0.0244321804493666,0,29.616081877718,29.616081877718,,,122.19000005722,28,0.179197893810253,0.226471972524736
2011-06-01T04:33:36Z,1306902816,105,54.6541721,24.4237819,30.2,-0.1,-1.4,38.4,-162096.88,-191772.55,39.4,Air+FixedWing,Blue,Enemies,Su-33,Blue Su-33 #002,ru,[100☭] BlackPixxel,0,0,0,30.1999988555908,2.19999885559082,0,0,NaN,NaN,0,0.0139882274201861,NaN,0.99969989107624,-0.00174470201448523,-0.0244321804493666,0,29.616081877718,29.616081877718,,,123.19000005722,28,0.179274017613332,0.226548096707644
2011-06-01T04:33:37Z,1306902817,105,54.6541721,24.4237819,30.2,-0.1,-1.4,38.4,-162096.88,-191772.55,39.4,Air+FixedWing,Blue,Enemies,Su-33,Blue Su-33 #002,ru,[100☭] BlackPixxel,0,0,0,30.1999988555908,2.19999885559082,0,0,NaN,NaN,0,0.0139882274201861,NaN,0.99969989107624,-0.00174470201448523,-0.0244321804493666,0,29.616081877718,29.616081877718,,,124.19000005722,28,0.17935014179624,0.226624221270381
2011-06-01T04:33:38Z,1306902818,105,54.6541721,24.4237819,30.2,-0.1,-1.4,38.4,-162096.88,-191772.55,39.4,Air+FixedWing,Blue,Enemies,Su-33,Blue Su-33 #002,ru,[100☭] BlackPixxel,0,0,0,30.1999988555908,2.19999885559082,0,0,NaN,NaN,0,0.0139882274201861,NaN,0.99969989107624,-0.00174470201448523,-0.0244321804493666,0,29.616081877718,29.616081877718,,,125.19000005722,28,0.179426263541227,0.226700343395195
2011-06-01T04:33:39Z,1306902819,105,54.6541721,24.4237819,30.2,-0.1,-1.4,38.4,-162096.88,-191772.55,39.4,Air+FixedWing,Blue,Enemies,Su-33,Blue Su-33 #002,ru,[100☭] BlackPixxel,0,0,0,30.1999988555908,2.19999885559082,0,0,NaN,NaN,0,0.0139882274201861,NaN,0.99969989107624,-0.00174470201448523,-0.0244321804493666,0,29.616081877718,29.616081877718,,,126.19000005722,28,0.179502385286215,0.226776465678971
2011-06-01T04:33:40Z,1306902820,105,54.6541721,24.4237819,30.2,-0.1,-1.4,38.4,-162096.88,-191772.55,39.4,Air+FixedWing,Blue,Enemies,Su-33,Blue Su-33 #002,ru,[100☭] BlackPixxel,0,0,0,30.1999988555908,2.19999885559082,0,0,NaN,NaN,0,0.0139882274201861,NaN,0.99969989107624,-0.00174470201448523,-0.0244321804493666,0,29.616081877718,29.616081877718,,,127.19000005722,28,0.179578508930348,0.226852589702936
2011-06-01T04:33:41Z,1306902821,105,54.6541721,24.4237819,30.2,-0.1,-1.4,38.4,-162096.88,-191772.55,39.4,Air+FixedWing,Blue,Enemies,Su-33,Blue Su-33 #002,ru,[100☭] BlackPixxel,0,0,0,30.1999988555908,2.19999885559082,0,0,NaN,NaN,0,0.0139882274201861,NaN,0.99969989107624,-0.00174470201448523,-0.0244321804493666,0,29.616081877718,29.616081877718,,,128.19000005722,28,0.179654632733427,0.226928713885843
2011-06-01T04:33:42Z,1306902822,105,54.6541721,24.4237819,30.2,-0.1,-1.4,38.4,-162096.88,-191772.55,39.4,Air+FixedWing,Blue,Enemies,Su-33,Blue Su-33 #002,ru,[100☭] BlackPixxel,0,0,0,30.1999988555908,2.19999885559082,0,0,NaN,NaN,0,0.0139882274201861,NaN,0.99969989107624,-0.00174470201448523,-0.0244321804493666,0,29.616081877718,29.616081877718,,,129.19000005722,28,0.179730754858242,0.227004836549444
2011-06-01T04:33:43Z,1306902823,105,54.6541722,24.4237819,30.2,-0.1,-1.4,38.4,-162096.88,-191772.55,39.4,Air+FixedWing,Blue,Enemies,Su-33,Blue Su-33 #002,ru,[100☭] BlackPixxel,0,0,0,30.1999988555908,2.19999885559082,0,0,NaN,NaN,0,0.0139882274201861,NaN,0.99969989107624,-0.00174470201448523,-0.0244321804493666,0,29.616081877718,29.616081877718,,,130.19000005722,28,0.179806878661321,0.227080960193576
2011-06-01T04:33:44Z,1306902824,105,54.6541722,24.4237819,30.2,-0.1,-1.4,38.4,-162096.88,-191772.55,39.4,Air+FixedWing,Blue,Enemies,Su-33,Blue Su-33 #002,ru,[100☭] BlackPixxel,0,0,0,30.1999988555908,2.19999885559082,0,0,NaN,NaN,0,0.0139882274201861,NaN,0.99969989107624,-0.00174470201448523,-0.0244321804493666,0,29.616081877718,29.616081877718,,,131.19000005722,28,0.179883002685286,0.227157084756313
2011-06-01T04:33:45Z,1306902825,105,54.6541722,24.4237819,30.2,-0.1,-1.4,38.4,-162096.88,-191772.55,39.4,Air+FixedWing,Blue,Enemies,Su-33,Blue Su-33 #002,ru,[100☭] BlackPixxel,0,0,0,30.1999988555908,2.19999885559082,0,0,NaN,NaN,0,0.0139882274201861,NaN,0.99969989107624,-0.00174470201448523,-0.0244321804493666,0,29.616081877718,29.616081877718,,,132.19000005722,28,0.179959124050447,0.227233206501301
2011-06-01T04:33:46Z,1306902826,105,54.6541722,24.4237819,30.2,-0.1,-1.4,38.4,-162096.88,-191772.55,39.4,Air+FixedWing,Blue,Enemies,Su-33,Blue Su-33 #002,ru,[100☭] BlackPixxel,0,0,0,30.1999988555908,2.19999885559082,0,0,NaN,NaN,0,0.0139882274201861,NaN,0.99969989107624,-0.00174470201448523,-0.0244321804493666,0,29.616081877718,29.616081877718,,,133.19000005722,28,0.180035245795435,0.227309329164901
2011-06-01T04:33:47Z,1306902827,105,54.6541722,24.4237819,30.2,-0.1,-1.4,38.4,-162096.88,-191772.55,39.4,Air+FixedWing,Blue,Enemies,Su-33,Blue Su-33 #002,ru,[100☭] BlackPixxel,0,0,0,30.1999988555908,2.19999885559082,0,0,NaN,NaN,0,0.0139882274201861,NaN,0.99969989107624,-0.00174470201448523,-0.0244321804493666,0,29.616081877718,29.616081877718,,,134.19000005722,28,0.180111369978342,0.227385453347808
2011-06-01T04:33:48Z,1306902828,105,54.6541722,24.4237819,30.2,-0.1,-1.4,38.4,-162096.88,-191772.55,39.4,Air+FixedWing,Blue,Enemies,Su-33,Blue Su-33 #002,ru,[100☭] BlackPixxel,0,0,0,30.1999988555908,2.19999885559082,0,0,NaN,NaN,0,0.0139882274201861,NaN,0.99969989107624,-0.00174470201448523,-0.0244321804493666,0,29.616081877718,29.616081877718,,,135.19000005722,28,0.180187494541079,0.227461577371773
2011-06-01T04:33:49Z,1306902829,105,54.6541722,24.4237819,30.2,-0.1,-1.4,38.4,-162096.88,-191772.55,39.4,Air+FixedWing,Blue,Enemies,Su-33,Blue Su-33 #002,ru,[100☭] BlackPixxel,0,0,0,30.1999988555908,2.19999885559082,0,0,NaN,NaN,0,0.0139882274201861,NaN,0.99969989107624,-0.00174470201448523,-0.0244321804493666,0,29.616081877718,29.616081877718,,,136.19000005722,28,0.180263615367457,0.227537699655549
2011-06-01T04:33:50Z,1306902830,105,54.6541722,24.4237819,30.2,-0.1,-1.4,38.4,-162096.88,-191772.55,39.4,Air+FixedWing,Blue,Enemies,Su-33,Blue Su-33 #002,ru,[100☭] BlackPixxel,0,0,0,30.1999988555908,2.19999885559082,0,0,NaN,NaN,0,0.0139882274201861,NaN,0.99969989107624,-0.00174470201448523,-0.0244321804493666,0,29.616081877718,29.616081877718,,,137.19000005722,28,0.180339739170537,0.227613823838457
2011-06-01T04:33:51Z,1306902831,105,54.6541722,24.4237819,30.2,-0.1,-1.4,38.4,-162096.88,-191772.55,39.4,Air+FixedWing,Blue,Enemies,Su-33,Blue Su-33 #002,ru,[100☭] BlackPixxel,0,0,0,30.1999988555908,2.19999885559082,0,0,NaN,NaN,0,0.0139882274201861,NaN,0.99969989107624,-0.00174470201448523,-0.0244321804493666,0,29.616081877718,29.616081877718,,,138.19000005722,28,0.180415863194501,0.227689947862421
2011-06-01T04:33:52Z,1306902832,105,54.6541722,24.4237819,30.2,-0.1,-1.4,38.4,-162096.88,-191772.55,39.4,Air+FixedWing,Blue,Enemies,Su-33,Blue Su-33 #002,ru,[100☭] BlackPixxel,0,0,0,30.1999988555908,2.19999885559082,0,0,NaN,NaN,0,0.0139882274201861,NaN,0.99969989107624,-0.00174470201448523,-0.0244321804493666,0,29.616081877718,29.616081877718,,,139.19000005722,28,0.180491985478277,0.227766070526022
2011-06-01T04:33:53Z,1306902833,105,54.6541722,24.4237819,30.2,-0.1,-1.4,38.4,-162096.88,-191772.55,39.4,Air+FixedWing,Blue,Enemies,Su-33,Blue Su-33 #002,ru,[100☭] BlackPixxel,0,0,0,30.1999988555908,2.19999885559082,0,0,NaN,NaN,0,0.0139882274201861,NaN,0.99969989107624,-0.00174470201448523,-0.0244321804493666,0,29.616081877718,29.616081877718,,,140.19000005722,28,0.18056810912241,0.227842194549986
2011-06-01T04:33:54Z,1306902834,105,54.6541722,24.4237819,30.2,-0.1,-1.4,38.4,-162096.88,-191772.55,39.4,Air+FixedWing,Blue,Enemies,Su-33,Blue Su-33 #002,ru,[100☭] BlackPixxel,0,0,0,30.1999988555908,2.19999885559082,0,0,NaN,NaN,0,0.0139882274201861,NaN,0.99969989107624,-0.00174470201448523,-0.0244321804493666,0,29.616081877718,29.616081877718,,,141.19000005722,28,0.180644230867398,0.227918316833762
2011-06-01T04:33:55Z,1306902835,105,54.6541722,24.4237819,30.2,-0.1,-1.4,38.4,-162096.88,-191772.55,39.4,Air+FixedWing,Blue,Enemies,Su-33,Blue Su-33 #002,ru,[100☭] BlackPixxel,0,0,0,30.1999988555908,2.19999885559082,0,0,NaN,NaN,0,0.0139882274201861,NaN,0.99969989107624,-0.00174470201448523,-0.0244321804493666,0,29.616081877718,29.616081877718,,,142.19000005722,28,0.180720354670477,0.227994441396499
2011-06-01T04:33:56Z,1306902836,105,54.6541722,24.4237819,30.2,-0.1,-1.4,38.4,-162096.88,-191772.55,39.4,Air+FixedWing,Blue,Enemies,Su-33,Blue Su-33 #002,ru,[100☭] BlackPixxel,0,0,0,30.1999988555908,2.19999885559082,0,0,NaN,NaN,0,0.0139882274201861,NaN,0.99969989107624,-0.00174470201448523,-0.0244321804493666,0,29.616081877718,29.616081877718,,,143.19000005722,28,0.180796476795292,0.228070563521314
2011-06-01T04:33:57Z,1306902837,105,54.6541722,24.4237819,30.2,-0.1,-1.4,38.4,-162096.88,-191772.55,39.4,Air+FixedWing,Blue,Enemies,Su-33,Blue Su-33 #002,ru,[100☭] BlackPixxel,0,0,0,30.1999988555908,2.19999885559082,0,0,NaN,NaN,0,0.0139882274201861,NaN,0.99969989107624,-0.00174470201448523,-0.0244321804493666,0,29.616081877718,29.616081877718,,,144.19000005722,28,0.180872600598371,0.228146687704221
