ISOTime,UnixTime,Id,Longitude,Latitude,Altitude,Roll,Pitch,Yaw,U,V,Heading,Type,Color,Coalition,Name,Group,Country,Pilot,TAS,CAS,M,ASL,AGL,GS,VS,AOA,AOS,RRT,TRT,TRD,G,LatG,LonG,Ek,Ep,Em,FFW,FFV,RelativeTime,Elev,GroundDistance,AirDistance
2011-06-01T04:32:11Z,1306902731,106,54.6578428,24.4241321,30.17,0.1,-0,217.1,-161723.89,-191740.05,218.1,Air+FixedWing,Blue,Enemies,J-11A,Blue J-11A #001,cn,[51☭] Rich (P),0.223244993043624,0.262722313404083,0.000656028235522546,30.1747608184814,2.17476081848145,NaN,NaN,NaN,NaN,0.476171120299082,NaN,NaN,NaN,NaN,NaN,NaN,29.5913318180561,NaN,,,0.789999961853027,28,NaN,NaN
2011-06-01T04:32:12Z,1306902732,106,54.6578425,24.4241317,30.23,0.1,-0.2,217.1,-161723.92,-191740.09,218.1,Air+FixedWing,Blue,Enemies,J-11A,Blue J-11A #001,cn,[51☭] Rich (P),0.0792341583716252,0,0.000232837821066818,30.2304763793945,2.23047637939453,0.0563367386791248,0.0557155609130859,NaN,NaN,0,0.0984159489567691,NaN,0.99629468338484,4.33076960151831e-05,-0.00739432748746407,0.000313902592642989,29.6459701185989,29.6462840211916,,,1.78999996185303,28,0.0446341202531322,0.0713894059805242
2011-06-01T04:32:13Z,1306902733,106,54.6578425,24.4241317,30.25,0,-0.4,217.1,-161723.94,-191740.09,218.1,Air+FixedWing,Blue,Enemies,J-11A,Blue J-11A #001,cn,[51☭] Rich (P),0.0250062469504379,0,7.34834754808212e-05,30.25,2.25,0.015625,0.0195236206054688,NaN,NaN,0.0190698881626756,0.234068475102648,NaN,0.996224889761059,0.00250765746039622,-0.00868953280715194,3.12656193273142e-05,29.66511625,29.6651475156193,,,2.78999996185303,28,0.0518031856087068,0.0921876676831398
2011-06-01T04:32:14Z,1306902734,106,54.6578425,24.4241318,30.23,0,-0.3,217.1,-161723.92,-191740.09,218.1,Air+FixedWing,Blue,Enemies,J-11A,Blue J-11A #001,cn,[51☭] Rich (P),0.0231955088071171,0,6.81624186467883e-05,30.2328567504883,2.23285675048828,0.015625,-0.0171432495117188,NaN,NaN,0,0.0242283218322616,NaN,1.00246553644911,-0.00125382873019811,-0.0047657125836159,2.69015814410523e-05,29.6483044652176,29.648331366799,,,3.78999996185303,28,0.0597545805909967,0.111085187365359
2011-06-01T04:32:15Z,1306902735,106,54.6578425,24.4241317,30.24,0,-0.3,217.1,-161723.92,-191740.09,218.1,Air+FixedWing,Blue,Enemies,J-11A,Blue J-11A #001,cn,[51☭] Rich (P),0.00714302062988281,0,2.09905118191458e-05,30.2399997711182,2.23999977111816,0,0.00714302062988281,NaN,NaN,0,0.0431146153104601,NaN,0.999257796576521,-0,-0.00523215063223051,2.55113718594657e-06,29.6553093755436,29.6553119266808,,,4.78999996185303,28,0.0677059755732867,0.121773873512333
2011-06-01T04:32:16Z,1306902736,106,54.6578425,24.4241317,30.24,0,-0.3,217.1,-161723.92,-191740.09,218.1,Air+FixedWing,Blue,Enemies,J-11A,Blue J-11A #001,cn,[51☭] Rich (P),0,0,0,30.2399997711182,2.23999977111816,0,0,NaN,NaN,0,0.0197823405926261,NaN,0.999986171723233,-0,-0.00523596443235874,0,29.6553093755436,29.6553093755436,,,5.78999996185303,28,0.0677059755732867,0.121773873512333
2011-06-01T04:32:17Z,1306902737,106,54.6578425,24.4241317,30.24,0,-0.3,217.1,-161723.92,-191740.09,218.1,Air+FixedWing,Blue,Enemies,J-11A,Blue J-11A #001,cn,[51☭] Rich (P),0,0,0,30.2399997711182,2.23999977111816,0,0,NaN,NaN,0,0,NaN,0.99999131934229,-0.00125382873019811,-0.00425285044389657,0,29.6553093755436,29.6553093755436,,,6.78999996185303,28,0.0677059755732867,0.121773873512333
2011-06-01T04:32:18Z,1306902738,106,54.6578425,24.4241317,30.24,0,-0.3,217.1,-161723.94,-191740.09,218.1,Air+FixedWing,Blue,Enemies,J-11A,Blue J-11A #001,cn,[51☭] Rich (P),0.015625,0,4.59156936775547e-05,30.2399997711182,2.23999977111816,0.015625,0,NaN,NaN,0,0,NaN,0.999981024104175,0.00125382873019811,-0.00621907842082091,1.220703125e-05,29.6553093755436,29.6553215825748,,,7.78999996185303,28,0.0677059755732867,0.121773873512333
2011-06-01T04:32:19Z,1306902739,106,54.6578425,24.4241317,30.24,0,-0.3,217.1,-161723.94,-191740.09,218.1,Air+FixedWing,Blue,Enemies,J-11A,Blue J-11A #001,cn,[51☭] Rich (P),0,0,0,30.2399997711182,2.23999977111816,0,0,NaN,NaN,0,0,NaN,0.999986171723233,-0,-0.00523596443235874,0,29.6553093755436,29.6553093755436,,,8.78999996185303,28,0.0677059755732867,0.121773873512333
2011-06-01T04:32:20Z,1306902740,106,54.6578425,24.4241317,30.24,-0.1,-0.3,217.1,-161723.94,-191740.09,218.1,Air+FixedWing,Blue,Enemies,J-11A,Blue J-11A #001,cn,[51☭] Rich (P),0,0,0,30.2399997711182,2.23999977111816,0,0,NaN,NaN,0.066935853866125,0,NaN,0.999985098854399,-0.00148472171236945,-0.00523596443235874,0,29.6553093755436,29.6553093755436,,,9.78999996185303,28,0.0677059755732867,0.121773873512333
2011-06-01T04:32:21Z,1306902741,106,54.6578425,24.4241317,30.24,-0,-0.3,217.1,-161723.94,-191740.09,218.1,Air+FixedWing,Blue,Enemies,J-11A,Blue J-11A #001,cn,[51☭] Rich (P),0,0,0,30.2399997711182,2.23999977111816,0,0,NaN,NaN,0.0746223513229016,0,NaN,0.999986171723233,-0.000182334500671948,-0.00523596443235874,0,29.6553093755436,29.6553093755436,,,10.789999961853,28,0.0677059755732867,0.121773873512333
2011-06-01T04:32:22Z,1306902742,106,54.6578425,24.4241317,30.24,0,-0.3,217.1,-161723.94,-191740.09,218.1,Air+FixedWing,Blue,Enemies,J-11A,Blue J-11A #001,cn,[51☭] Rich (P),0,0,0,30.2399997711182,2.23999977111816,0,0,NaN,NaN,0,0,NaN,0.999981024104175,0.00125382873019811,-0.00621907842082091,0,29.6553093755436,29.6553093755436,,,11.789999961853,28,0.0677059755732867,0.121773873512333
2011-06-01T04:32:23Z,1306902743,106,54.6578425,24.4241317,30.24,0,-0.3,217.1,-161723.92,-191740.09,218.1,Air+FixedWing,Blue,Enemies,J-11A,Blue J-11A #001,cn,[51☭] Rich (P),0.015625,0,4.59156936775547e-05,30.2399997711182,2.23999977111816,0.015625,0,NaN,NaN,0,0,NaN,0.99999131934229,-0.00125382873019811,-0.00425285044389657,1.220703125e-05,29.6553093755436,29.6553215825748,,,12.789999961853,28,0.0677059755732867,0.121773873512333
2011-06-01T04:32:24Z,1306902744,106,54.6578425,24.4241317,30.24,0,-0.3,217.1,-161723.92,-191740.09,218.1,Air+FixedWing,Blue,Enemies,J-11A,Blue J-11A #001,cn,[51☭] Rich (P),0,0,0,30.2399997711182,2.23999977111816,0,0,NaN,NaN,0,0,NaN,0.99999131934229,-0.00125382873019811,-0.00425285044389657,0,29.6553093755436,29.6553093755436,,,13.789999961853,28,0.0677059755732867,0.121773873512333
2011-06-01T04:32:25Z,1306902745,106,54.6578425,24.4241317,30.24,0,-0.3,217.1,-161723.94,-191740.09,218.1,Air+FixedWing,Blue,Enemies,J-11A,Blue J-11A #001,cn,[51☭] Rich (P),0.015625,0,4.59156936775547e-05,30.2399997711182,2.23999977111816,0.015625,0,NaN,NaN,0,0,NaN,0.999975876485117,0.00250765746039622,-0.00720219240928309,1.220703125e-05,29.6553093755436,29.6553215825748,,,14.789999961853,28,0.0677059755732867,0.121773873512333
2011-06-01T04:32:26Z,1306902746,106,54.6578425,24.4241317,30.24,0,-0.3,217.1,-161723.92,-191740.09,218.1,Air+FixedWing,Blue,Enemies,J-11A,Blue J-11A #001,cn,[51☭] Rich (P),0.015625,0,4.59156936775547e-05,30.2399997711182,2.23999977111816,0.015625,0,NaN,NaN,0,0,NaN,0.99999131934229,-0.00125382873019811,-0.00425285044389657,1.220703125e-05,29.6553093755436,29.6553215825748,,,15.789999961853,28,0.0677059755732867,0.121773873512333
2011-06-01T04:32:27Z,1306902747,106,54.6578425,24.4241317,30.24,0,-0.3,217.1,-161723.92,-191740.09,218.1,Air+FixedWing,Blue,Enemies,J-11A,Blue J-11A #001,cn,[51☭] Rich (P),0,0,0,30.2399997711182,2.23999977111816,0,0,NaN,NaN,0,0,NaN,0.99999131934229,-0.00125382873019811,-0.00425285044389657,0,29.6553093755436,29.6553093755436,,,16.789999961853,28,0.0677059755732867,0.121773873512333
2011-06-01T04:32:28Z,1306902748,106,54.6578425,24.4241317,30.24,0,-0.3,217.1,-161723.94,-191740.09,218.1,Air+FixedWing,Blue,Enemies,J-11A,Blue J-11A #001,cn,[51☭] Rich (P),0.015625,0,4.59156936775547e-05,30.2399997711182,2.23999977111816,0.015625,0,NaN,NaN,0,0,NaN,0.999981024104175,0.00125382873019811,-0.00621907842082091,1.220703125e-05,29.6553093755436,29.6553215825748,,,17.789999961853,28,0.0677059755732867,0.121773873512333
2011-06-01T04:32:29Z,1306902749,106,54.6578425,24.4241317,30.24,0,-0.3,217.1,-161723.94,-191740.09,218.1,Air+FixedWing,Blue,Enemies,J-11A,Blue J-11A #001,cn,[51☭] Rich (P),0,0,0,30.2399997711182,2.23999977111816,0,0,NaN,NaN,0,0,NaN,0.999981024104175,0.00125382873019811,-0.00621907842082091,0,29.6553093755436,29.6553093755436,,,18.789999961853,28,0.0677059755732867,0.121773873512333
2011-06-01T04:32:30Z,1306902750,106,54.6578425,24.4241317,30.24,0,-0.3,217.1,-161723.92,-191740.09,218.1,Air+FixedWing,Blue,Enemies,J-11A,Blue J-11A #001,cn,[51☭] Rich (P),0.015625,0,4.59156936775547e-05,30.2399997711182,2.23999977111816,0.015625,0,NaN,NaN,0,0,NaN,0.99999131934229,-0.00125382873019811,-0.00425285044389657,1.220703125e-05,29.6553093755436,29.6553215825748,,,19.789999961853,28,0.0677059755732867,0.121773873512333
2011-06-01T04:32:31Z,1306902751,106,54.6578425,24.4241317,30.24,0,-0.3,217.1,-161723.92,-191740.09,218.1,Air+FixedWing,Blue,Enemies,J-11A,Blue J-11A #001,cn,[51☭] Rich (P),0,0,0,30.2399997711182,2.23999977111816,0,0,NaN,NaN,0,0,NaN,0.99999131934229,-0.00125382873019811,-0.00425285044389657,0,29.6553093755436,29.6553093755436,,,20.789999961853,28,0.0677059755732867,0.121773873512333
2011-06-01T04:32:32Z,1306902752,106,54.6578425,24.4241317,30.24,0,-0.3,217.1,-161723.94,-191740.09,218.1,Air+FixedWing,Blue,Enemies,J-11A,Blue J-11A #001,cn,[51☭] Rich (P),0.015625,0,4.59156936775547e-05,30.2399997711182,2.23999977111816,0.015625,0,NaN,NaN,0,0,NaN,0.999981024104175,0.00125382873019811,-0.00621907842082091,1.220703125e-05,29.6553093755436,29.6553215825748,,,21.789999961853,28,0.0677059755732867,0.121773873512333
2011-06-01T04:32:33Z,1306902753,106,54.6578425,24.4241317,30.24,0,-0.3,217.1,-161723.94,-191740.09,218.1,Air+FixedWing,Blue,Enemies,J-11A,Blue J-11A #001,cn,[51☭] Rich (P),0,0,0,30.2399997711182,2.23999977111816,0,0,NaN,NaN,0,0,NaN,0.999986171723233,-0,-0.00523596443235874,0,29.6553093755436,29.6553093755436,,,22.789999961853,28,0.0677059755732867,0.121773873512333
2011-06-01T04:32:34Z,1306902754,106,54.6578425,24.4241317,30.24,0,-0.3,217.1,-161723.94,-191740.09,218.1,Air+FixedWing,Blue,Enemies,J-11A,Blue J-11A #001,cn,[51☭] Rich (P),0,0,0,30.2399997711182,2.23999977111816,0,0,NaN,NaN,0,0,NaN,0.999986171723233,-0,-0.00523596443235874,0,29.6553093755436,29.6553093755436,,,23.789999961853,28,0.0677059755732867,0.121773873512333
2011-06-01T04:32:35Z,1306902755,106,54.6578425,24.4241317,30.24,0,-0.3,217.1,-161723.94,-191740.09,218.1,Air+FixedWing,Blue,Enemies,J-11A,Blue J-11A #001,cn,[51☭] Rich (P),0,0,0,30.2399997711182,2.23999977111816,0,0,NaN,NaN,0,0,NaN,0.999981024104175,0.00125382873019811,-0.00621907842082091,0,29.6553093755436,29.6553093755436,,,24.789999961853,28,0.0677059755732867,0.121773873512333
2011-06-01T04:32:36Z,1306902756,106,54.6578425,24.4241317,30.24,0,-0.3,217.1,-161723.92,-191740.09,218.1,Air+FixedWing,Blue,Enemies,J-11A,Blue J-11A #001,cn,[51☭] Rich (P),0.015625,0,4.59156936775547e-05,30.2399997711182,2.23999977111816,0.015625,0,NaN,NaN,0,0,NaN,0.99999131934229,-0.00125382873019811,-0.00425285044389657,1.220703125e-05,29.6553093755436,29.6553215825748,,,25.789999961853,28,0.0677059755732867,0.121773873512333
2011-06-01T04:32:37Z,1306902757,106,54.6578425,24.4241317,30.24,0,-0.3,217.1,-161723.92,-191740.09,218.1,Air+FixedWing,Blue,Enemies,J-11A,Blue J-11A #001,cn,[51☭] Rich (P),0,0,0,30.2399997711182,2.23999977111816,0,0,NaN,NaN,0,0,NaN,0.999986171723233,-0,-0.00523596443235874,0,29.6553093755436,29.6553093755436,,,26.789999961853,28,0.0677059755732867,0.121773873512333
2011-06-01T04:32:38Z,1306902758,106,54.6578425,24.4241317,30.24,0,-0.3,217.1,-161723.92,-191740.09,218.1,Air+FixedWing,Blue,Enemies,J-11A,Blue J-11A #001,cn,[51☭] Rich (P),0,0,0,30.2399997711182,2.23999977111816,0,0,NaN,NaN,0,0,NaN,0.99999131934229,-0.00125382873019811,-0.00425285044389657,0,29.6553093755436,29.6553093755436,,,27.789999961853,28,0.0677059755732867,0.121773873512333
2011-06-01T04:32:39Z,1306902759,106,54.6578425,24.4241317,30.24,0,-0.3,217.1,-161723.94,-191740.09,218.1,Air+FixedWing,Blue,Enemies,J-11A,Blue J-11A #001,cn,[51☭] Rich (P),0.015625,0,4.59156936775547e-05,30.2399997711182,2.23999977111816,0.015625,0,NaN,NaN,0,0,NaN,0.999975876485117,0.00250765746039622,-0.00720219240928309,1.220703125e-05,29.6553093755436,29.6553215825748,,,28.789999961853,28,0.0677059755732867,0.121773873512333
2011-06-01T04:32:40Z,1306902760,106,54.6578425,24.4241317,30.24,0,-0.3,217.1,-161723.92,-191740.09,218.1,Air+FixedWing,Blue,Enemies,J-11A,Blue J-11A #001,cn,[51☭] Rich (P),0.015625,0,4.59156936775547e-05,30.2399997711182,2.23999977111816,0.015625,0,NaN,NaN,0,0,NaN,0.999996466961348,-0.00250765746039622,-0.0032697364554344,1.220703125e-05,29.6553093755436,29.6553215825748,,,29.789999961853,28,0.0677059755732867,0.121773873512333
2011-06-01T04:32:41Z,1306902761,106,54.6578425,24.4241317,30.24,0,-0.3,217.1,-161723.94,-191740.09,218.1,Air+FixedWing,Blue,Enemies,J-11A,Blue J-11A #001,cn,[51☭] Rich (P),0.015625,0,4.59156936775547e-05,30.2399997711182,2.23999977111816,0.015625,0,NaN,NaN,0,0,NaN,0.999981024104175,0.00125382873019811,-0.00621907842082091,1.220703125e-05,29.6553093755436,29.6553215825748,,,30.789999961853,28,0.0677059755732867,0.121773873512333
2011-06-01T04:32:42Z,1306902762,106,54.6578425,24.4241317,30.24,0,-0.3,217.1,-161723.94,-191740.09,218.1,Air+FixedWing,Blue,Enemies,J-11A,Blue J-11A #001,cn,[51☭] Rich (P),0,0,0,30.2399997711182,2.23999977111816,0,0,NaN,NaN,0,0,NaN,0.999986171723233,-0,-0.00523596443235874,0,29.6553093755436,29.6553093755436,,,31.789999961853,28,0.0677059755732867,0.121773873512333
2011-06-01T04:32:43Z,1306902763,106,54.6578425,24.4241317,30.24,0,-0.3,217.1,-161723.94,-191740.09,218.1,Air+FixedWing,Blue,Enemies,J-11A,Blue J-11A #001,cn,[51☭] Rich (P),0,0,0,30.2399997711182,2.23999977111816,0,0,NaN,NaN,0,0,NaN,0.999981024104175,0.00125382873019811,-0.00621907842082091,0,29.6553093755436,29.6553093755436,,,32.789999961853,28,0.0677059755732867,0.121773873512333
2011-06-01T04:32:44Z,1306902764,106,54.6578425,24.4241317,30.24,0,-0.3,217.1,-161723.92,-191740.09,218.1,Air+FixedWing,Blue,Enemies,J-11A,Blue J-11A #001,cn,[51☭] Rich (P),0.015625,0,4.59156936775547e-05,30.2399997711182,2.23999977111816,0.015625,0,NaN,NaN,0,0,NaN,0.99999131934229,-0.00125382873019811,-0.00425285044389657,1.220703125e-05,29.6553093755436,29.6553215825748,,,33.789999961853,28,0.0677059755732867,0.121773873512333
2011-06-01T04:32:45Z,1306902765,106,54.6578425,24.4241317,30.24,0,-0.3,217.1,-161723.92,-191740.09,218.1,Air+FixedWing,Blue,Enemies,J-11A,Blue J-11A #001,cn,[51☭] Rich (P),0,0,0,30.2399997711182,2.23999977111816,0,0,NaN,NaN,0,0,NaN,0.99999131934229,-0.00125382873019811,-0.00425285044389657,0,29.6553093755436,29.6553093755436,,,34.789999961853,28,0.0677059755732867,0.121773873512333
2011-06-01T04:32:46Z,1306902766,106,54.6578425,24.4241317,30.24,0,-0.3,217.1,-161723.94,-191740.09,218.1,Air+FixedWing,Blue,Enemies,J-11A,Blue J-11A #001,cn,[51☭] Rich (P),0.015625,0,4.59156936775547e-05,30.2399997711182,2.23999977111816,0.015625,0,NaN,NaN,0,0,NaN,0.999975876485117,0.00250765746039622,-0.00720219240928309,1.220703125e-05,29.6553093755436,29.6553215825748,,,35.789999961853,28,0.0677059755732867,0.121773873512333
2011-06-01T04:32:47Z,1306902767,106,54.6578425,24.4241317,30.24,0,-0.3,217.1,-161723.92,-191740.09,218.1,Air+FixedWing,Blue,Enemies,J-11A,Blue J-11A #001,cn,[51☭] Rich (P),0.015625,0,4.59156936775547e-05,30.2399997711182,2.23999977111816,0.015625,0,NaN,NaN,0,0,NaN,0.999996466961348,-0.00250765746039622,-0.0032697364554344,1.220703125e-05,29.6553093755436,29.6553215825748,,,36.789999961853,28,0.0677059755732867,0.121773873512333
2011-06-01T04:32:48Z,1306902768,106,54.6578425,24.4241317,30.24,0,-0.3,217.1,-161723.94,-191740.09,218.1,Air+FixedWing,Blue,Enemies,J-11A,Blue J-11A #001,cn,[51☭] Rich (P),0.015625,0,4.59156936775547e-05,30.2399997711182,2.23999977111816,0.015625,0,NaN,NaN,0,0,NaN,0.999975876485117,0.00250765746039622,-0.00720219240928309,1.220703125e-05,29.6553093755436,29.6553215825748,,,37.789999961853,28,0.0677059755732867,0.121773873512333
2011-06-01T04:32:49Z,1306902769,106,54.6578425,24.4241317,30.24,0,-0.3,217.1,-161723.92,-191740.09,218.1,Air+FixedWing,Blue,Enemies,J-11A,Blue J-11A #001,cn,[51☭] Rich (P),0.015625,0,4.59156936775547e-05,30.2399997711182,2.23999977111816,0.015625,0,NaN,NaN,0,0,NaN,0.999996466961348,-0.00250765746039622,-0.0032697364554344,1.220703125e-05,29.6553093755436,29.6553215825748,,,38.789999961853,28,0.0677059755732867,0.121773873512333
2011-06-01T04:32:50Z,1306902770,106,54.6578425,24.4241317,30.24,0,-0.3,217.1,-161723.94,-191740.09,218.1,Air+FixedWing,Blue,Enemies,J-11A,Blue J-11A #001,cn,[51☭] Rich (P),0.015625,0,4.59156936775547e-05,30.2399997711182,2.23999977111816,0.015625,0,NaN,NaN,0,0,NaN,0.999981024104175,0.00125382873019811,-0.00621907842082091,1.220703125e-05,29.6553093755436,29.6553215825748,,,39.789999961853,28,0.0677059755732867,0.121773873512333
2011-06-01T04:32:51Z,1306902771,106,54.6578425,24.4241317,30.24,0,-0.3,217.1,-161723.94,-191740.09,218.1,Air+FixedWing,Blue,Enemies,J-11A,Blue J-11A #001,cn,[51☭] Rich (P),0,0,0,30.2399997711182,2.23999977111816,0,0,NaN,NaN,0,0,NaN,0.999986171723233,-0,-0.00523596443235874,0,29.6553093755436,29.6553093755436,,,40.789999961853,28,0.0677059755732867,0.121773873512333
2011-06-01T04:32:52Z,1306902772,106,54.6578425,24.4241317,30.24,0,-0.3,217.1,-161723.94,-191740.09,218.1,Air+FixedWing,Blue,Enemies,J-11A,Blue J-11A #001,cn,[51☭] Rich (P),0,0,0,30.2399997711182,2.23999977111816,0,0,NaN,NaN,0,0,NaN,0.999981024104175,0.00125382873019811,-0.00621907842082091,0,29.6553093755436,29.6553093755436,,,41.789999961853,28,0.0677059755732867,0.121773873512333
2011-06-01T04:32:53Z,1306902773,106,54.6578425,24.4241317,30.24,0,-0.3,217.1,-161723.92,-191740.09,218.1,Air+FixedWing,Blue,Enemies,J-11A,Blue J-11A #001,cn,[51☭] Rich (P),0.015625,0,4.59156936775547e-05,30.2399997711182,2.23999977111816,0.015625,0,NaN,NaN,0,0,NaN,0.99999131934229,-0.00125382873019811,-0.00425285044389657,1.220703125e-05,29.6553093755436,29.6553215825748,,,42.789999961853,28,0.0677059755732867,0.121773873512333
2011-06-01T04:32:54Z,1306902774,106,54.6578425,24.4241317,30.24,0,-0.3,217.1,-161723.92,-191740.09,218.1,Air+FixedWing,Blue,Enemies,J-11A,Blue J-11A #001,cn,[51☭] Rich (P),0,0,0,30.2399997711182,2.23999977111816,0,0,NaN,NaN,0,0,NaN,0.999986171723233,-0,-0.00523596443235874,0,29.6553093755436,29.6553093755436,,,43.789999961853,28,0.0677059755732867,0.121773873512333
2011-06-01T04:32:55Z,1306902775,106,54.6578425,24.4241317,30.24,0,-0.3,217.1,-161723.92,-191740.09,218.1,Air+FixedWing,Blue,Enemies,J-11A,Blue J-11A #001,cn,[51☭] Rich (P),0,0,0,30.2399997711182,2.23999977111816,0,0,NaN,NaN,0,0,NaN,0.999986171723233,-0,-0.00523596443235874,0,29.6553093755436,29.6553093755436,,,44.789999961853,28,0.0677059755732867,0.121773873512333
2011-06-01T04:32:56Z,1306902776,106,54.6578425,24.4241317,30.24,0,-0.3,217.1,-161723.92,-191740.09,218.1,Air+FixedWing,Blue,Enemies,J-11A,Blue J-11A #001,cn,[51☭] Rich (P),0,0,0,30.2399997711182,2.23999977111816,0,0,NaN,NaN,0,0,NaN,0.999986171723233,-0,-0.00523596443235874,0,29.6553093755436,29.6553093755436,,,45.789999961853,28,0.0677059755732867,0.121773873512333
2011-06-01T04:32:57Z,1306902777,106,54.6578425,24.4241317,30.24,0,-0.3,217.1,-161723.92,-191740.09,218.1,Air+FixedWing,Blue,Enemies,J-11A,Blue J-11A #001,cn,[51☭] Rich (P),0,0,0,30.2399997711182,2.23999977111816,0,0,NaN,NaN,0,0,NaN,0.99999131934229,-0.00125382873019811,-0.00425285044389657,0,29.6553093755436,29.6553093755436,,,46.789999961853,28,0.0677059755732867,0.121773873512333
2011-06-01T04:32:58Z,1306902778,106,54.6578425,24.4241317,30.24,0,-0.3,217.1,-161723.94,-191740.09,218.1,Air+FixedWing,Blue,Enemies,J-11A,Blue J-11A #001,cn,[51☭] Rich (P),0.015625,0,4.59156936775547e-05,30.2399997711182,2.23999977111816,0.015625,0,NaN,NaN,0,0,NaN,0.999981024104175,0.00125382873019811,-0.00621907842082091,1.220703125e-05,29.6553093755436,29.6553215825748,,,47.789999961853,28,0.0677059755732867,0.121773873512333
2011-06-01T04:32:59Z,1306902779,106,54.6578425,24.4241317,30.24,0,-0.3,217.1,-161723.94,-191740.09,218.1,Air+FixedWing,Blue,Enemies,J-11A,Blue J-11A #001,cn,[51☭] Rich (P),0,0,0,30.2399997711182,2.23999977111816,0,0,NaN,NaN,0,0,NaN,0.999986171723233,-0,-0.00523596443235874,0,29.6553093755436,29.6553093755436,,,48.789999961853,28,0.0677059755732867,0.121773873512333
2011-06-01T04:33:00Z,1306902780,106,54.6578425,24.4241317,30.24,0,-0.3,217.1,-161723.94,-191740.09,218.1,Air+FixedWing,Blue,Enemies,J-11A,Blue J-11A #001,cn,[51☭] Rich (P),0,0,0,30.2399997711182,2.23999977111816,0,0,NaN,NaN,0,0,NaN,0.999981024104175,0.00125382873019811,-0.00621907842082091,0,29.6553093755436,29.6553093755436,,,49.789999961853,28,0.0677059755732867,0.121773873512333
2011-06-01T04:33:01Z,1306902781,106,54.6578425,24.4241317,30.24,0,-0.3,217.1,-161723.92,-191740.09,218.1,Air+FixedWing,Blue,Enemies,J-11A,Blue J-11A #001,cn,[51☭] Rich (P),0.015625,0,4.59156936775547e-05,30.2399997711182,2.23999977111816,0.015625,0,NaN,NaN,0,0,NaN,0.999996466961348,-0.00250765746039622,-0.0032697364554344,1.220703125e-05,29.6553093755436,29.6553215825748,,,50.789999961853,28,0.0677059755732867,0.121773873512333
2011-06-01T04:33:02Z,1306902782,106,54.6578425,24.4241317,30.24,0,-0.3,217.1,-161723.94,-191740.09,218.1,Air+FixedWing,Blue,Enemies,J-11A,Blue J-11A #001,cn,[51☭] Rich (P),0.015625,0,4.59156936775547e-05,30.2399997711182,2.23999977111816,0.015625,0,NaN,NaN,0,0,NaN,0.999981024104175,0.00125382873019811,-0.00621907842082091,1.220703125e-05,29.6553093755436,29.6553215825748,,,51.789999961853,28,0.0677059755732867,0.121773873512333
2011-06-01T04:33:03Z,1306902783,106,54.6578425,24.4241317,30.24,0,-0.3,217.1,-161723.94,-191740.09,218.1,Air+FixedWing,Blue,Enemies,J-11A,Blue J-11A #001,cn,[51☭] Rich (P),0,0,0,30.2399997711182,2.23999977111816,0,0,NaN,NaN,0,0,NaN,0.999981024104175,0.00125382873019811,-0.00621907842082091,0,29.6553093755436,29.6553093755436,,,52.789999961853,28,0.0677059755732867,0.121773873512333
2011-06-01T04:33:04Z,1306902784,106,54.6578425,24.4241317,30.24,0,-0.3,217.1,-161723.92,-191740.09,218.1,Air+FixedWing,Blue,Enemies,J-11A,Blue J-11A #001,cn,[51☭] Rich (P),0.015625,0,4.59156936775547e-05,30.2399997711182,2.23999977111816,0.015625,0,NaN,NaN,0,0,NaN,0.99999131934229,-0.00125382873019811,-0.00425285044389657,1.220703125e-05,29.6553093755436,29.6553215825748,,,53.789999961853,28,0.0677059755732867,0.121773873512333
2011-06-01T04:33:05Z,1306902785,106,54.6578425,24.4241317,30.24,0,-0.3,217.1,-161723.92,-191740.09,218.1,Air+FixedWing,Blue,Enemies,J-11A,Blue J-11A #001,cn,[51☭] Rich (P),0,0,0,30.2399997711182,2.23999977111816,0,0,NaN,NaN,0,0,NaN,0.999986171723233,-0,-0.00523596443235874,0,29.6553093755436,29.6553093755436,,,54.789999961853,28,0.0677059755732867,0.121773873512333
2011-06-01T04:33:06Z,1306902786,106,54.6578425,24.4241317,30.24,0,-0.3,217.1,-161723.92,-191740.09,218.1,Air+FixedWing,Blue,Enemies,J-11A,Blue J-11A #001,cn,[51☭] Rich (P),0,0,0,30.2399997711182,2.23999977111816,0,0,NaN,NaN,0,0,NaN,0.999986171723233,-0,-0.00523596443235874,0,29.6553093755436,29.6553093755436,,,55.789999961853,28,0.0677059755732867,0.121773873512333
2011-06-01T04:33:07Z,1306902787,106,54.6578425,24.4241317,30.24,0,-0.3,217.1,-161723.92,-191740.09,218.1,Air+FixedWing,Blue,Enemies,J-11A,Blue J-11A #001,cn,[51☭] Rich (P),0,0,0,30.2399997711182,2.23999977111816,0,0,NaN,NaN,0,0,NaN,0.99999131934229,-0.00125382873019811,-0.00425285044389657,0,29.6553093755436,29.6553093755436,,,56.789999961853,28,0.0677059755732867,0.121773873512333
2011-06-01T04:33:08Z,1306902788,106,54.6578425,24.4241317,30.24,0,-0.3,217.1,-161723.94,-191740.09,218.1,Air+FixedWing,Blue,Enemies,J-11A,Blue J-11A #001,cn,[51☭] Rich (P),0.015625,0,4.59156936775547e-05,30.2399997711182,2.23999977111816,0.015625,0,NaN,NaN,0,0,NaN,0.999981024104175,0.00125382873019811,-0.00621907842082091,1.220703125e-05,29.6553093755436,29.6553215825748,,,57.789999961853,28,0.0677059755732867,0.121773873512333
2011-06-01T04:33:09Z,1306902789,106,54.6578425,24.4241317,30.24,0,-0.3,217.1,-161723.94,-191740.09,218.1,Air+FixedWing,Blue,Enemies,J-11A,Blue J-11A #001,cn,[51☭] Rich (P),0,0,0,30.2399997711182,2.23999977111816,0,0,NaN,NaN,0,0,NaN,0.999986171723233,-0,-0.00523596443235874,0,29.6553093755436,29.6553093755436,,,58.789999961853,28,0.0677059755732867,0.121773873512333
2011-06-01T04:33:10Z,1306902790,106,54.6578425,24.4241317,30.24,0,-0.3,217.1,-161723.94,-191740.09,218.1,Air+FixedWing,Blue,Enemies,J-11A,Blue J-11A #001,cn,[51☭] Rich (P),0,0,0,30.2399997711182,2.23999977111816,0,0,NaN,NaN,0,0,NaN,0.999981024104175,0.00125382873019811,-0.00621907842082091,0,29.6553093755436,29.6553093755436,,,59.789999961853,28,0.0677059755732867,0.121773873512333
2011-06-01T04:33:11Z,1306902791,106,54.6578425,24.4241317,30.24,0,-0.3,217.1,-161723.92,-191740.09,218.1,Air+FixedWing,Blue,Enemies,J-11A,Blue J-11A #001,cn,[51☭] Rich (P),0.015625,0,4.59156936775547e-05,30.2399997711182,2.23999977111816,0.015625,0,NaN,NaN,0,0,NaN,0.99999131934229,-0.00125382873019811,-0.00425285044389657,1.220703125e-05,29.6553093755436,29.6553215825748,,,60.789999961853,28,0.0677059755732867,0.121773873512333
2011-06-01T04:33:12Z,1306902792,106,54.6578425,24.4241317,30.24,0,-0.3,217.1,-161723.92,-191740.09,218.1,Air+FixedWing,Blue,Enemies,J-11A,Blue J-11A #001,cn,[51☭] Rich (P),0,0,0,30.2399997711182,2.23999977111816,0,0,NaN,NaN,0,0,NaN,0.999986171723233,-0,-0.00523596443235874,0,29.6553093755436,29.6553093755436,,,61.789999961853,28,0.0677059755732867,0.121773873512333
2011-06-01T04:33:13Z,1306902793,106,54.6578425,24.4241317,30.24,0,-0.3,217.1,-161723.92,-191740.09,218.1,Air+FixedWing,Blue,Enemies,J-11A,Blue J-11A #001,cn,[51☭] Rich (P),0,0,0,30.2399997711182,2.23999977111816,0,0,NaN,NaN,0,0,NaN,0.99999131934229,-0.00125382873019811,-0.00425285044389657,0,29.6553093755436,29.6553093755436,,,62.789999961853,28,0.0677059755732867,0.121773873512333
2011-06-01T04:33:14Z,1306902794,106,54.6578425,24.4241317,30.24,0,-0.3,217.1,-161723.94,-191740.09,218.1,Air+FixedWing,Blue,Enemies,J-11A,Blue J-11A #001,cn,[51☭] Rich (P),0.015625,0,4.59156936775547e-05,30.2399997711182,2.23999977111816,0.015625,0,NaN,NaN,0,0,NaN,0.999981024104175,0.00125382873019811,-0.00621907842082091,1.220703125e-05,29.6553093755436,29.6553215825748,,,63.789999961853,28,0.0677059755732867,0.121773873512333
2011-06-01T04:33:15Z,1306902795,106,54.6578425,24.4241317,30.24,0,-0.3,217.1,-161723.94,-191740.09,218.1,Air+FixedWing,Blue,Enemies,J-11A,Blue J-11A #001,cn,[51☭] Rich (P),0,0,0,30.2399997711182,2.23999977111816,0,0,NaN,NaN,0,0,NaN,0.999986171723233,-0,-0.00523596443235874,0,29.6553093755436,29.6553093755436,,,64.789999961853,28,0.0677059755732867,0.121773873512333
2011-06-01T04:33:16Z,1306902796,106,54.6578425,24.4241317,30.24,0,-0.3,217.1,-161723.94,-191740.09,218.1,Air+FixedWing,Blue,Enemies,J-11A,Blue J-11A #001,cn,[51☭] Rich (P),0,0,0,30.2399997711182,2.23999977111816,0,0,NaN,NaN,0,0,NaN,0.999981024104175,0.00125382873019811,-0.00621907842082091,0,29.6553093755436,29.6553093755436,,,65.789999961853,28,0.0677059755732867,0.121773873512333
2011-06-01T04:33:17Z,1306902797,106,54.6578425,24.4241317,30.24,0,-0.3,217.1,-161723.92,-191740.09,218.1,Air+FixedWing,Blue,Enemies,J-11A,Blue J-11A #001,cn,[51☭] Rich (P),0.015625,0,4.59156936775547e-05,30.2399997711182,2.23999977111816,0.015625,0,NaN,NaN,0,0,NaN,0.99999131934229,-0.00125382873019811,-0.00425285044389657,1.220703125e-05,29.6553093755436,29.6553215825748,,,66.789999961853,28,0.0677059755732867,0.121773873512333
2011-06-01T04:33:18Z,1306902798,106,54.6578425,24.4241317,30.24,0,-0.3,217.1,-161723.92,-191740.09,218.1,Air+FixedWing,Blue,Enemies,J-11A,Blue J-11A #001,cn,[51☭] Rich (P),0,0,0,30.2399997711182,2.23999977111816,0,0,NaN,NaN,0,0,NaN,0.999986171723233,-0,-0.00523596443235874,0,29.6553093755436,29.6553093755436,,,67.789999961853,28,0.0677059755732867,0.121773873512333
2011-06-01T04:33:19Z,1306902799,106,54.6578425,24.4241317,30.24,0,-0.3,217.1,-161723.92,-191740.09,218.1,Air+FixedWing,Blue,Enemies,J-11A,Blue J-11A #001,cn,[51☭] Rich (P),0,0,0,30.2399997711182,2.23999977111816,0,0,NaN,NaN,0,0,NaN,0.999986171723233,-0,-0.00523596443235874,0,29.6553093755436,29.6553093755436,,,68.789999961853,28,0.0677059755732867,0.121773873512333
2011-06-01T04:33:20Z,1306902800,106,54.6578425,24.4241317,30.24,0,-0.3,217.1,-161723.92,-191740.09,218.1,Air+FixedWing,Blue,Enemies,J-11A,Blue J-11A #001,cn,[51☭] Rich (P),0,0,0,30.2399997711182,2.23999977111816,0,0,NaN,NaN,0,0,NaN,0.99999131934229,-0.00125382873019811,-0.00425285044389657,0,29.6553093755436,29.6553093755436,,,69.789999961853,28,0.0677059755732867,0.121773873512333
2011-06-01T04:33:21Z,1306902801,106,54.6578425,24.4241317,30.24,0,-0.3,217.1,-161723.94,-191740.09,218.1,Air+FixedWing,Blue,Enemies,J-11A,Blue J-11A #001,cn,[51☭] Rich (P),0.015625,0,4.59156936775547e-05,30.2399997711182,2.23999977111816,0.015625,0,NaN,NaN,0,0,NaN,0.999981024104175,0.00125382873019811,-0.00621907842082091,1.220703125e-05,29.6553093755436,29.6553215825748,,,70.789999961853,28,0.0677059755732867,0.121773873512333
2011-06-01T04:33:22Z,1306902802,106,54.6578425,24.4241317,30.24,0,-0.3,217.1,-161723.94,-191740.09,218.1,Air+FixedWing,Blue,Enemies,J-11A,Blue J-11A #001,cn,[51☭] Rich (P),0,0,0,30.2399997711182,2.23999977111816,0,0,NaN,NaN,0,0,NaN,0.999981024104175,0.00125382873019811,-0.00621907842082091,0,29.6553093755436,29.6553093755436,,,71.789999961853,28,0.0677059755732867,0.121773873512333
2011-06-01T04:33:23Z,1306902803,106,54.6578425,24.4241317,30.24,0,-0.3,217.1,-161723.92,-191740.09,218.1,Air+FixedWing,Blue,Enemies,J-11A,Blue J-11A #001,cn,[51☭] Rich (P),0.015625,0,4.59156936775547e-05,30.2399997711182,2.23999977111816,0.015625,0,NaN,NaN,0,0,NaN,0.99999131934229,-0.00125382873019811,-0.00425285044389657,1.220703125e-05,29.6553093755436,29.6553215825748,,,72.789999961853,28,0.0677059755732867,0.121773873512333
2011-06-01T04:33:24Z,1306902804,106,54.6578425,24.4241318,30.24,0,-0.2,217.1,-161723.92,-191740.09,218.1,Air+FixedWing,Blue,Enemies,J-11A,Blue J-11A #001,cn,[51☭] Rich (P),0,0,0,30.2399997711182,2.23999977111816,0,0,NaN,NaN,0,0.0139882274201861,NaN,0.999997173267015,-0.00125382873019811,-0.00250753038403222,0,29.6553093755436,29.6553093755436,,,73.789999961853,28,0.0794885635190457,0.133556517111766
2011-06-01T04:33:25Z,1306902805,106,54.6578425,24.4241318,30.24,0,-0.3,217.1,-161723.94,-191740.09,218.1,Air+FixedWing,Blue,Enemies,J-11A,Blue J-11A #001,cn,[51☭] Rich (P),0.015625,0,4.59156936775547e-05,30.2399997711182,2.23999977111816,0.015625,0,NaN,NaN,0,0,NaN,0.999975876485117,0.00250765746039622,-0.00720219240928309,1.220703125e-05,29.6553093755436,29.6553215825748,,,74.789999961853,28,0.086262718266381,0.140330703893052
2011-06-01T04:33:26Z,1306902806,106,54.6578425,24.4241317,30.24,0,-0.3,217.1,-161723.92,-191740.09,218.1,Air+FixedWing,Blue,Enemies,J-11A,Blue J-11A #001,cn,[51☭] Rich (P),0.015625,0,4.59156936775547e-05,30.2399997711182,2.23999977111816,0.015625,0,NaN,NaN,0,0.0139882274201861,NaN,0.99999131934229,-0.00125382873019811,-0.00425285044389657,1.220703125e-05,29.6553093755436,29.6553215825748,,,75.789999961853,28,0.0918286926107033,0.145896704559846
2011-06-01T04:33:27Z,1306902807,106,54.6578425,24.4241318,30.24,0,-0.3,217.1,-161723.92,-191740.09,218.1,Air+FixedWing,Blue,Enemies,J-11A,Blue J-11A #001,cn,[51☭] Rich (P),0,0,0,30.2399997711182,2.23999977111816,0,0,NaN,NaN,0,0,NaN,0.99999131934229,-0.00125382873019811,-0.00425285044389657,0,29.6553093755436,29.6553093755436,,,76.789999961853,28,0.101296049983257,0.155364106942513
2011-06-01T04:33:28Z,1306902808,106,54.6578425,24.4241318,30.24,0,-0.3,217.1,-161723.94,-191740.09,218.1,Air+FixedWing,Blue,Enemies,J-11A,Blue J-11A #001,cn,[51☭] Rich (P),0.015625,0,4.59156936775547e-05,30.2399997711182,2.23999977111816,0.015625,0,NaN,NaN,0,0,NaN,0.999981024104175,0.00125382873019811,-0.00621907842082091,1.220703125e-05,29.6553093755436,29.6553215825748,,,77.789999961853,28,0.101457828518431,0.155525886011535
2011-06-01T04:33:29Z,1306902809,106,54.6578425,24.4241317,30.24,0,-0.3,217.1,-161723.94,-191740.09,218.1,Air+FixedWing,Blue,Enemies,J-11A,Blue J-11A #001,cn,[51☭] Rich (P),0,0,0,30.2399997711182,2.23999977111816,0,0,NaN,NaN,0,0,NaN,0.999986171723233,-0,-0.00523596443235874,0,29.6553093755436,29.6553093755436,,,78.789999961853,28,0.107023802864266,0.161091886791222
2011-06-01T04:33:30Z,1306902810,106,54.6578425,24.4241317,30.24,0,-0.3,217.1,-161723.94,-191740.09,218.1,Air+FixedWing,Blue,Enemies,J-11A,Blue J-11A #001,cn,[51☭] Rich (P),0,0,0,30.2399997711182,2.23999977111816,0,0,NaN,NaN,0,0,NaN,0.999986171723233,-0,-0.00523596443235874,0,29.6553093755436,29.6553093755436,,,79.789999961853,28,0.107183554081549,0.161251638967861
2011-06-01T04:33:31Z,1306902811,106,54.6578425,24.4241317,30.24,0,-0.3,217.1,-161723.94,-191740.09,218.1,Air+FixedWing,Blue,Enemies,J-11A,Blue J-11A #001,cn,[51☭] Rich (P),0,0,0,30.2399997711182,2.23999977111816,0,0,NaN,NaN,0,0,NaN,0.999986171723233,-0,-0.00523596443235874,0,29.6553093755436,29.6553093755436,,,80.789999961853,28,0.108140271551051,0.162208360680281
2011-06-01T04:33:32Z,1306902812,106,54.6578425,24.4241317,30.24,0,-0.3,217.1,-161723.94,-191740.09,218.1,Air+FixedWing,Blue,Enemies,J-11A,Blue J-11A #001,cn,[51☭] Rich (P),0,0,0,30.2399997711182,2.23999977111816,0,0,NaN,NaN,0,0,NaN,0.999979606722385,-0.000983127468807834,-0.0064897759704376,0,29.6553093755436,29.6553093755436,,,81.789999961853,28,0.108320529830886,0.162388619809608
2011-06-01T04:33:33Z,1306902813,106,54.6578425,24.4241318,30.24,0.1,-0.2,217.1,-161723.94,-191740.08,218.1,Air+FixedWing,Blue,Enemies,J-11A,Blue J-11A #001,cn,[51☭] Rich (P),0.015625,0,4.59156936775547e-05,30.2399997711182,2.23999977111816,0.015625,0,NaN,NaN,0.20000001179094,0.0279764548403722,NaN,0.999997035512867,0.00371158408121676,-0.00148175096784596,1.220703125e-05,29.6553093755436,29.6553215825748,,,82.789999961853,28,0.116325527254729,0.170393654808451
2011-06-01T04:33:34Z,1306902814,106,54.6578425,24.4241318,30.24,0.1,-0.3,217.1,-161723.94,-191740.09,218.1,Air+FixedWing,Blue,Enemies,J-11A,Blue J-11A #001,cn,[51☭] Rich (P),0.015625,0,4.59156936775547e-05,30.2399997711182,2.23999977111816,0.015625,0,NaN,NaN,0,0,NaN,0.999979832516195,0.000762166865962115,-0.0064897759704376,1.220703125e-05,29.6553093755436,29.6553215825748,,,83.789999961853,28,0.120036172501954,0.174104317247078
2011-06-01T04:33:35Z,1306902815,106,54.6578425,24.4241318,30.24,0.1,-0.3,217.1,-161723.94,-191740.09,218.1,Air+FixedWing,Blue,Enemies,J-11A,Blue J-11A #001,cn,[51☭] Rich (P),0,0,0,30.2399997711182,2.23999977111816,0,0,NaN,NaN,0,0.0279764548403722,NaN,0.998957621920173,0.00299734259685397,-0.00621373910064139,0,29.6553093755436,29.6553093755436,,,84.789999961853,28,0.123746817749178,0.177814979685705
2011-06-01T04:33:36Z,1306902816,106,54.6578426,24.4241318,30.23,-0.1,-0.2,217.1,-161723.92,-191740.09,218.1,Air+FixedWing,Blue,Enemies,J-11A,Blue J-11A #001,cn,[51☭] Rich (P),0.0185511509801712,0,5.45144876662451e-05,30.2299995422363,2.22999954223633,0.015625,-0.0100002288818359,NaN,NaN,0.399975877795947,0.0513960362511687,NaN,1.00203420124192,-0.00425643744001581,-0.00153152815401364,1.72072601344553e-05,29.6455025010872,29.6455197083473,,,85.789999961853,28,0.132157332555408,0.190881808521965
2011-06-01T04:33:37Z,1306902817,106,54.6578425,24.4241318,30.24,0,-0.2,217.1,-161723.94,-191740.09,218.1,Air+FixedWing,Blue,Enemies,J-11A,Blue J-11A #001,cn,[51☭] Rich (P),0.0185511509801712,0,5.45144938093829e-05,30.2399997711182,2.23999977111816,0.015625,0.0100002288818359,NaN,NaN,0.0952324671537349,0.0171320104161963,NaN,0.997947412340853,0.00250765746039622,-0.0054497752957065,1.72072601344553e-05,29.6553093755436,29.6553265828037,,,86.789999961853,28,0.140567847361639,0.203948637358225
2011-06-01T04:33:38Z,1306902818,106,54.6578426,24.4241318,30.23,0,-0.2,217.1,-161723.92,-191740.09,218.1,Air+FixedWing,Blue,Enemies,J-11A,Blue J-11A #001,cn,[51☭] Rich (P),0.0185511509801712,0,5.45144876662451e-05,30.2299995422363,2.22999954223633,0.015625,-0.0100002288818359,NaN,NaN,0,0.0171320104161963,NaN,1.00101690609858,-0.00125382873019811,-0.00251108993943686,1.72072601344553e-05,29.6455025010872,29.6455197083473,,,87.789999961853,28,0.148531646286364,0.216732504139712
2011-06-01T04:33:39Z,1306902819,106,54.6578425,24.4241318,30.23,0,-0.2,217.1,-161723.92,-191740.09,218.1,Air+FixedWing,Blue,Enemies,J-11A,Blue J-11A #001,cn,[51☭] Rich (P),0,0,0,30.2299995422363,2.22999954223633,0,0,NaN,NaN,0,0.0171320104161963,NaN,0.999997173267015,-0.00125382873019811,-0.00250753038403222,0,29.6455025010872,29.6455025010872,,,88.789999961853,28,0.15649544521109,0.224696340145213
2011-06-01T04:33:40Z,1306902820,106,54.6578425,24.4241318,30.23,0,-0.2,217.1,-161723.94,-191740.09,218.1,Air+FixedWing,Blue,Enemies,J-11A,Blue J-11A #001,cn,[51☭] Rich (P),0.015625,0,4.59156885033999e-05,30.2299995422363,2.22999954223633,0.015625,0,NaN,NaN,0,0.0171320104161963,NaN,0.999986878003973,0.00250765746039622,-0.00545689440651578,1.220703125e-05,29.6455025010872,29.6455147081184,,,89.789999961853,28,0.15649544521109,0.224696340145213
2011-06-01T04:33:41Z,1306902821,106,54.6578425,24.4241318,30.23,0,-0.2,217.1,-161723.92,-191740.09,218.1,Air+FixedWing,Blue,Enemies,J-11A,Blue J-11A #001,cn,[51☭] Rich (P),0.015625,0,4.59156885033999e-05,30.2299995422363,2.22999954223633,0.015625,0,NaN,NaN,0,0.0171320104161963,NaN,0.999997173267015,-0.00125382873019811,-0.00250753038403222,1.220703125e-05,29.6455025010872,29.6455147081184,,,90.789999961853,28,0.15649544521109,0.224696340145213
2011-06-01T04:33:42Z,1306902822,106,54.6578426,24.4241318,30.23,0,-0.2,217.1,-161723.92,-191740.09,218.1,Air+FixedWing,Blue,Enemies,J-11A,Blue J-11A #001,cn,[51☭] Rich (P),0,0,0,30.2299995422363,2.22999954223633,0,0,NaN,NaN,0,0.0171320104161963,NaN,0.999993741512668,-0,-0.00349065172486007,0,29.6455025010872,29.6455025010872,,,91.789999961853,28,0.163105713901455,0.231306639583128
2011-06-01T04:33:43Z,1306902823,106,54.6578426,24.4241318,30.23,0,-0.2,217.1,-161723.92,-191740.09,218.1,Air+FixedWing,Blue,Enemies,J-11A,Blue J-11A #001,cn,[51☭] Rich (P),0,0,0,30.2299995422363,2.22999954223633,0,0,NaN,NaN,0,0.0171320104161963,NaN,0.999993741512668,-0,-0.00349065172486007,0,29.6455025010872,29.6455025010872,,,92.789999961853,28,0.164806757143295,0.233007690836461
2011-06-01T04:33:44Z,1306902824,106,54.6578425,24.4241318,30.23,0,-0.2,217.1,-161723.92,-191740.09,218.1,Air+FixedWing,Blue,Enemies,J-11A,Blue J-11A #001,cn,[51☭] Rich (P),0,0,0,30.2299995422363,2.22999954223633,0,0,NaN,NaN,0,0.0171320104161963,NaN,0.999997173267015,-0.00125382873019811,-0.00250753038403222,0,29.6455025010872,29.6455025010872,,,93.789999961853,28,0.171563921575893,0.239764886776301
2011-06-01T04:33:45Z,1306902825,106,54.6578425,24.4241318,30.23,0.1,-0.2,217.1,-161723.94,-191740.09,218.1,Air+FixedWing,Blue,Enemies,J-11A,Blue J-11A #001,cn,[51☭] Rich (P),0.015625,0,4.59156885033999e-05,30.2299995422363,2.22999954223633,0.015625,0,NaN,NaN,0.20000001179094,0.0171320104161963,NaN,0.999981011222066,0.00425295951444846,-0.00545689440651578,1.220703125e-05,29.6455025010872,29.6455147081184,,,94.789999961853,28,0.1731180690755,0.24131904152771
2011-06-01T04:33:46Z,1306902826,106,54.6578425,24.4241318,30.23,0,-0.2,217.1,-161723.92,-191740.09,218.1,Air+FixedWing,Blue,Enemies,J-11A,Blue J-11A #001,cn,[51☭] Rich (P),0.015625,0,4.59156885033999e-05,30.2299995422363,2.22999954223633,0.015625,0,NaN,NaN,0.0285775114873334,0.0171320104161963,NaN,1.00000060502136,-0.00250765746039622,-0.00152440904320437,1.220703125e-05,29.6455025010872,29.6455147081184,,,95.789999961853,28,0.176210279952632,0.244411267587678
2011-06-01T04:33:47Z,1306902827,106,54.6578425,24.4241318,30.23,0,-0.2,217.1,-161723.94,-191740.09,218.1,Air+FixedWing,Blue,Enemies,J-11A,Blue J-11A #001,cn,[51☭] Rich (P),0.015625,0,4.59156885033999e-05,30.2299995422363,2.22999954223633,0.015625,0,NaN,NaN,0,0.0171320104161963,NaN,0.999986878003973,0.00250765746039622,-0.00545689440651578,1.220703125e-05,29.6455025010872,29.6455147081184,,,96.789999961853,28,0.179302490829764,0.247503493647647
2011-06-01T04:33:48Z,1306902828,106,54.6578425,24.4241318,30.23,-0.1,-0.2,217.1,-161723.92,-191740.09,218.1,Air+FixedWing,Blue,Enemies,J-11A,Blue J-11A #001,cn,[51☭] Rich (P),0.015625,0,4.59156885033999e-05,30.2299995422363,2.22999954223633,0.015625,0,NaN,NaN,0.166656615748311,0.0171320104161963,NaN,0.999994396086526,-0.00270817687030218,-0.00250753038403222,1.220703125e-05,29.6455025010872,29.6455147081184,,,97.789999961853,28,0.179302490829764,0.247503493647647
2011-06-01T04:33:49Z,1306902829,106,54.6578426,24.4241318,30.23,0,-0.2,217.1,-161723.92,-191740.09,218.1,Air+FixedWing,Blue,Enemies,J-11A,Blue J-11A #001,cn,[51☭] Rich (P),0,0,0,30.2299995422363,2.22999954223633,0,0,NaN,NaN,0,0.0171320104161963,NaN,0.999993741512668,-0,-0.00349065172486007,0,29.6455025010872,29.6455025010872,,,98.789999961853,28,0.185717519761752,0.253918552947339
2011-06-01T04:33:50Z,1306902830,106,54.6578426,24.4241318,30.23,0,-0.2,217.1,-161723.92,-191740.09,218.1,Air+FixedWing,Blue,Enemies,J-11A,Blue J-11A #001,cn,[51☭] Rich (P),0,0,0,30.2299995422363,2.22999954223633,0,0,NaN,NaN,0,0.0171320104161963,NaN,0.999993741512668,-0,-0.00349065172486007,0,29.6455025010872,29.6455025010872,,,99.789999961853,28,0.189399328721154,0.257600379228149
2011-06-01T04:33:51Z,1306902831,106,54.6578426,24.4241318,30.23,0,-0.2,217.1,-161723.92,-191740.09,218.1,Air+FixedWing,Blue,Enemies,J-11A,Blue J-11A #001,cn,[51☭] Rich (P),0,0,0,30.2299995422363,2.22999954223633,0,0,NaN,NaN,0,0.0171320104161963,NaN,0.999993741512668,-0,-0.00349065172486007,0,29.6455025010872,29.6455025010872,,,100.789999961853,28,0.189454128625434,0.257655179671149
2011-06-01T04:33:52Z,1306902832,106,54.6578426,24.4241318,30.23,0,-0.2,217.1,-161723.92,-191740.09,218.1,Air+FixedWing,Blue,Enemies,J-11A,Blue J-11A #001,cn,[51☭] Rich (P),0,0,0,30.2299995422363,2.22999954223633,0,0,NaN,NaN,0,0.0171320104161963,NaN,0.999993741512668,-0,-0.00349065172486007,0,29.6455025010872,29.6455025010872,,,101.789999961853,28,0.189508927549054,0.257709978435881
2011-06-01T04:33:53Z,1306902833,106,54.6578426,24.4241318,30.23,0,-0.2,217.1,-161723.92,-191740.09,218.1,Air+FixedWing,Blue,Enemies,J-11A,Blue J-11A #001,cn,[51☭] Rich (P),0,0,0,30.2299995422363,2.22999954223633,0,0,NaN,NaN,0,0.0171320104161963,NaN,0.999993741512668,-0,-0.00349065172486007,0,29.6455025010872,29.6455025010872,,,102.789999961853,28,0.189563728371903,0.257764779797457
2011-06-01T04:33:54Z,1306902834,106,54.6578426,24.4241318,30.23,0,-0.2,217.1,-161723.92,-191740.09,218.1,Air+FixedWing,Blue,Enemies,J-11A,Blue J-11A #001,cn,[51☭] Rich (P),0,0,0,30.2299995422363,2.22999954223633,0,0,NaN,NaN,0,0.0171320104161963,NaN,0.999993741512668,-0,-0.00349065172486007,0,29.6455025010872,29.6455025010872,,,103.789999961853,28,0.189618527295523,0.257819578721077
2011-06-01T04:33:55Z,1306902835,106,54.6578426,24.4241318,30.23,0,-0.2,217.1,-161723.92,-191740.09,218.1,Air+FixedWing,Blue,Enemies,J-11A,Blue J-11A #001,cn,[51☭] Rich (P),0,0,0,30.2299995422363,2.22999954223633,0,0,NaN,NaN,0,0.0171320104161963,NaN,0.999993741512668,-0,-0.00349065172486007,0,29.6455025010872,29.6455025010872,,,104.789999961853,28,0.189673327358676,0.257874379164077
2011-06-01T04:33:56Z,1306902836,106,54.6578426,24.4241318,30.23,0,-0.2,217.1,-161723.92,-191740.09,218.1,Air+FixedWing,Blue,Enemies,J-11A,Blue J-11A #001,cn,[51☭] Rich (P),0,0,0,30.2299995422363,2.22999954223633,0,0,NaN,NaN,0,0.0171320104161963,NaN,0.999993741512668,-0,-0.00349065172486007,0,29.6455025010872,29.6455025010872,,,105.789999961853,28,0.189728126282297,0.25792917846754
2011-06-01T04:33:57Z,1306902837,106,54.6578426,24.4241318,30.23,0,-0.2,217.1,-161723.92,-191740.09,218.1,Air+FixedWing,Blue,Enemies,J-11A,Blue J-11A #001,cn,[51☭] Rich (P),0,0,0,30.2299995422363,2.22999954223633,0,0,NaN,NaN,0,0.0171320104161963,NaN,0.999993741512668,-0,-0.00349065172486007,0,29.6455025010872,29.6455025010872,,,106.789999961853,28,0.189782926186577,0.257983978910541
2011-06-01T04:33:58Z,1306902838,106,54.6578426,24.4241318,30.23,0,-0.2,217.1,-161723.92,-191740.09,218.1,Air+FixedWing,Blue,Enemies,J-11A,Blue J-11A #001,cn,[51☭] Rich (P),0,0,0,30.2299995422363,2.22999954223633,0,0,NaN,NaN,0,0.0171320104161963,NaN,0.999993741512668,-0,-0.00349065172486007,0,29.6455025010872,29.6455025010872,,,107.789999961853,28,0.189837727548152,0.258038780272116
2011-06-01T04:33:59Z,1306902839,106,54.6578426,24.4241318,30.23,0,-0.2,217.1,-161723.92,-191740.09,218.1,Air+FixedWing,Blue,Enemies,J-11A,Blue J-11A #001,cn,[51☭] Rich (P),0,0,0,30.2299995422363,2.22999954223633,0,0,NaN,NaN,0,0.0171320104161963,NaN,0.999993741512668,-0,-0.00349065172486007,0,29.6455025010872,29.6455025010872,,,108.789999961853,28,0.189892525933037,0.258093579036848
2011-06-01T04:34:00Z,1306902840,106,54.6578426,24.4241318,30.23,0,-0.2,217.1,-161723.92,-191740.09,218.1,Air+FixedWing,Blue,Enemies,J-11A,Blue J-11A #001,cn,[51☭] Rich (P),0,0,0,30.2299995422363,2.22999954223633,0,0,NaN,NaN,0,0.0171320104161963,NaN,0.999993741512668,-0,-0.00349065172486007,0,29.6455025010872,29.6455025010872,,,109.789999961853,28,0.189947325015566,0.258148378499214
2011-06-01T04:34:01Z,1306902841,106,54.6578426,24.4241318,30.23,0,-0.2,217.1,-161723.92,-191740.09,218.1,Air+FixedWing,Blue,Enemies,J-11A,Blue J-11A #001,cn,[51☭] Rich (P),0,0,0,30.2299995422363,2.22999954223633,0,0,NaN,NaN,0,0.0171320104161963,NaN,0.999993741512668,-0,-0.00349065172486007,0,29.6455025010872,29.6455025010872,,,110.789999961853,28,0.190002124919845,0.258203178403494
2011-06-01T04:34:02Z,1306902842,106,54.6578426,24.4241318,30.23,0,-0.2,217.1,-161723.92,-191740.09,218.1,Air+FixedWing,Blue,Enemies,J-11A,Blue J-11A #001,cn,[51☭] Rich (P),0,0,0,30.2299995422363,2.22999954223633,0,0,NaN,NaN,0,0.0171320104161963,NaN,0.999993741512668,-0,-0.00349065172486007,0,29.6455025010872,29.6455025010872,,,111.789999961853,28,0.190056925362846,0.258257978846494
2011-06-01T04:34:03Z,1306902843,106,54.6578426,24.4241318,30.23,0,-0.2,217.1,-161723.92,-191740.09,218.1,Air+FixedWing,Blue,Enemies,J-11A,Blue J-11A #001,cn,[51☭] Rich (P),0,0,0,30.2299995422363,2.22999954223633,0,0,NaN,NaN,0,0.0171320104161963,NaN,0.999993741512668,-0,-0.00349065172486007,0,29.6455025010872,29.6455025010872,,,112.789999961853,28,0.190111723906624,0.258312777770114
2011-06-01T04:34:04Z,1306902844,106,54.6578426,24.4241318,30.23,0,-0.2,217.1,-161723.92,-191740.09,218.1,Air+FixedWing,Blue,Enemies,J-11A,Blue J-11A #001,cn,[51☭] Rich (P),0,0,0,30.2299995422363,2.22999954223633,0,0,NaN,NaN,0,0.0171320104161963,NaN,0.999993741512668,-0,-0.00349065172486007,0,29.6455025010872,29.6455025010872,,,113.789999961853,28,0.190166524349625,0.258367578751845
2011-06-01T04:34:05Z,1306902845,106,54.6578426,24.4241318,30.23,0,-0.2,217.1,-161723.92,-191740.09,218.1,Air+FixedWing,Blue,Enemies,J-11A,Blue J-11A #001,cn,[51☭] Rich (P),0,0,0,30.2299995422363,2.22999954223633,0,0,NaN,NaN,0,0.0171320104161963,NaN,0.999993741512668,-0,-0.00349065172486007,0,29.6455025010872,29.6455025010872,,,114.789999961853,28,0.190221323653088,0.258422378435153
2011-06-01T04:34:06Z,1306902846,106,54.6578426,24.4241318,30.23,0,-0.2,217.1,-161723.92,-191740.09,218.1,Air+FixedWing,Blue,Enemies,J-11A,Blue J-11A #001,cn,[51☭] Rich (P),0,0,0,30.2299995422363,2.22999954223633,0,0,NaN,NaN,0,0.0171320104161963,NaN,0.999993741512668,-0,-0.00349065172486007,0,29.6455025010872,29.6455025010872,,,115.789999961853,28,0.190276124096088,0.258477178878153
2011-06-01T04:34:07Z,1306902847,106,54.6578426,24.4241318,30.23,0,-0.2,217.1,-161723.92,-191740.09,218.1,Air+FixedWing,Blue,Enemies,J-11A,Blue J-11A #001,cn,[51☭] Rich (P),0,0,0,30.2299995422363,2.22999954223633,0,0,NaN,NaN,0,0.0171320104161963,NaN,0.999993741512668,-0,-0.00349065172486007,0,29.6455025010872,29.6455025010872,,,116.789999961853,28,0.190330922480973,0.258531977263038
2011-06-01T04:34:08Z,1306902848,106,54.6578426,24.4241318,30.23,0,-0.2,217.1,-161723.92,-191740.09,218.1,Air+FixedWing,Blue,Enemies,J-11A,Blue J-11A #001,cn,[51☭] Rich (P),0,0,0,30.2299995422363,2.22999954223633,0,0,NaN,NaN,0,0.0171320104161963,NaN,0.999993741512668,-0,-0.00349065172486007,0,29.6455025010872,29.6455025010872,,,117.789999961853,28,0.190385722544127,0.258586778085887
2011-06-01T04:34:09Z,1306902849,106,54.6578426,24.4241318,30.23,0,-0.2,217.1,-161723.92,-191740.09,218.1,Air+FixedWing,Blue,Enemies,J-11A,Blue J-11A #001,cn,[51☭] Rich (P),0,0,0,30.2299995422363,2.22999954223633,0,0,NaN,NaN,0,0.0171320104161963,NaN,0.999993741512668,-0,-0.00349065172486007,0,29.6455025010872,29.6455025010872,,,118.789999961853,28,0.190440522987127,0.258641579067617
2011-06-01T04:34:10Z,1306902850,106,54.6578426,24.4241318,30.23,0,-0.2,217.1,-161723.92,-191740.09,218.1,Air+FixedWing,Blue,Enemies,J-11A,Blue J-11A #001,cn,[51☭] Rich (P),0,0,0,30.2299995422363,2.22999954223633,0,0,NaN,NaN,0,0.0171320104161963,NaN,0.999993741512668,-0,-0.00349065172486007,0,29.6455025010872,29.6455025010872,,,119.789999961853,28,0.190495321910747,0.258696377452503
2011-06-01T04:34:11Z,1306902851,106,54.6578426,24.4241318,30.23,0,-0.2,217.1,-161723.92,-191740.09,218.1,Air+FixedWing,Blue,Enemies,J-11A,Blue J-11A #001,cn,[51☭] Rich (P),0,0,0,30.2299995422363,2.22999954223633,0,0,NaN,NaN,0,0.0171320104161963,NaN,0.999993741512668,-0,-0.00349065172486007,0,29.6455025010872,29.6455025010872,,,120.789999961853,28,0.190550120834368,0.258751176914869
2011-06-01T04:34:12Z,1306902852,106,54.6578426,24.4241318,30.23,0,-0.2,217.1,-161723.92,-191740.09,218.1,Air+FixedWing,Blue,Enemies,J-11A,Blue J-11A #001,cn,[51☭] Rich (P),0,0,0,30.2299995422363,2.22999954223633,0,0,NaN,NaN,0,0.0171320104161963,NaN,0.999993741512668,-0,-0.00349065172486007,0,29.6455025010872,29.6455025010872,,,121.789999961853,28,0.1906049211185,0.258805977578854
2011-06-01T04:34:13Z,1306902853,106,54.6578426,24.4241318,30.23,0,-0.2,217.1,-161723.92,-191740.09,218.1,Air+FixedWing,Blue,Enemies,J-11A,Blue J-11A #001,cn,[51☭] Rich (P),0,0,0,30.2299995422363,2.22999954223633,0,0,NaN,NaN,0,0.0171320104161963,NaN,0.999993741512668,-0,-0.00349065172486007,0,29.6455025010872,29.6455025010872,,,122.789999961853,28,0.190659721720387,0.258860778560585
2011-06-01T04:34:14Z,1306902854,106,54.6578426,24.4241318,30.23,0,-0.2,217.1,-161723.92,-191740.09,218.1,Air+FixedWing,Blue,Enemies,J-11A,Blue J-11A #001,cn,[51☭] Rich (P),0,0,0,30.2299995422363,2.22999954223633,0,0,NaN,NaN,0,0.0171320104161963,NaN,0.999993741512668,-0,-0.00349065172486007,0,29.6455025010872,29.6455025010872,,,123.789999961853,28,0.190714520644008,0.258915577484205
2011-06-01T04:34:15Z,1306902855,106,54.6578426,24.4241318,30.23,0,-0.2,217.1,-161723.92,-191740.09,218.1,Air+FixedWing,Blue,Enemies,J-11A,Blue J-11A #001,cn,[51☭] Rich (P),0,0,0,30.2299995422363,2.22999954223633,0,0,NaN,NaN,0,0.0171320104161963,NaN,0.999993741512668,-0,-0.00349065172486007,0,29.6455025010872,29.6455025010872,,,124.789999961853,28,0.190769320548288,0.258970377927205
2011-06-01T04:34:16Z,1306902856,106,54.6578426,24.4241318,30.23,0,-0.2,217.1,-161723.92,-191740.09,218.1,Air+FixedWing,Blue,Enemies,J-11A,Blue J-11A #001,cn,[51☭] Rich (P),0,0,0,30.2299995422363,2.22999954223633,0,0,NaN,NaN,0,0.0171320104161963,NaN,0.999993741512668,-0,-0.00349065172486007,0,29.6455025010872,29.6455025010872,,,125.789999961853,28,0.190824119471908,0.259025176312091
2011-06-01T04:34:17Z,1306902857,106,54.6578426,24.4241318,30.23,0,-0.2,217.1,-161723.92,-191740.09,218.1,Air+FixedWing,Blue,Enemies,J-11A,Blue J-11A #001,cn,[51☭] Rich (P),0,0,0,30.2299995422363,2.22999954223633,0,0,NaN,NaN,0,0.0171320104161963,NaN,0.999993741512668,-0,-0.00349065172486007,0,29.6455025010872,29.6455025010872,,,126.789999961853,28,0.190878919535061,0.259079977673666
2011-06-01T04:34:18Z,1306902858,106,54.6578426,24.4241318,30.23,0,-0.2,217.1,-161723.92,-191740.09,218.1,Air+FixedWing,Blue,Enemies,J-11A,Blue J-11A #001,cn,[51☭] Rich (P),0,0,0,30.2299995422363,2.22999954223633,0,0,NaN,NaN,0,0.0171320104161963,NaN,0.999993741512668,-0,-0.00349065172486007,0,29.6455025010872,29.6455025010872,,,127.789999961853,28,0.190933718458682,0.259134776597287
2011-06-01T04:34:19Z,1306902859,106,54.6578426,24.4241318,30.23,0,-0.2,217.1,-161723.92,-191740.09,218.1,Air+FixedWing,Blue,Enemies,J-11A,Blue J-11A #001,cn,[51☭] Rich (P),0,0,0,30.2299995422363,2.22999954223633,0,0,NaN,NaN,0,0.0171320104161963,NaN,0.999993741512668,-0,-0.00349065172486007,0,29.6455025010872,29.6455025010872,,,128.789999961853,28,0.19098851928153,0.259189577420135
2011-06-01T04:34:20Z,1306902860,106,54.6578426,24.4241318,30.23,0,-0.2,217.1,-161723.92,-191740.09,218.1,Air+FixedWing,Blue,Enemies,J-11A,Blue J-11A #001,cn,[51☭] Rich (P),0,0,0,30.2299995422363,2.22999954223633,0,0,NaN,NaN,0,0.0171320104161963,NaN,0.999993741512668,-0,-0.00349065172486007,0,29.6455025010872,29.6455025010872,,,129.789999961853,28,0.19104331972453,0.259244377863135
2011-06-01T04:34:21Z,1306902861,106,54.6578426,24.4241318,30.23,0,-0.2,217.1,-161723.92,-191740.09,218.1,Air+FixedWing,Blue,Enemies,J-11A,Blue J-11A #001,cn,[51☭] Rich (P),0,0,0,30.2299995422363,2.22999954223633,0,0,NaN,NaN,0,0.0171320104161963,NaN,0.999993741512668,-0,-0.00349065172486007,0,29.6455025010872,29.6455025010872,,,130.789999961853,28,0.191098118109415,0.259299177166598
2011-06-01T04:34:22Z,1306902862,106,54.6578426,24.4241318,30.23,0,-0.2,217.1,-161723.92,-191740.09,218.1,Air+FixedWing,Blue,Enemies,J-11A,Blue J-11A #001,cn,[51☭] Rich (P),0,0,0,30.2299995422363,2.22999954223633,0,0,NaN,NaN,0,0.0171320104161963,NaN,0.999993741512668,-0,-0.00349065172486007,0,29.6455025010872,29.6455025010872,,,131.789999961853,28,0.191152916653194,0.259353976090219
2011-06-01T04:34:23Z,1306902863,106,54.6578426,24.4241318,30.23,0,-0.2,217.1,-161723.92,-191740.09,218.1,Air+FixedWing,Blue,Enemies,J-11A,Blue J-11A #001,cn,[51☭] Rich (P),0,0,0,30.2299995422363,2.22999954223633,0,0,NaN,NaN,0,0.0171320104161963,NaN,0.999993741512668,-0,-0.00349065172486007,0,29.6455025010872,29.6455025010872,,,132.789999961853,28,0.191207717096194,0.259408776533219
2011-06-01T04:34:24Z,1306902864,106,54.6578426,24.4241318,30.23,0,-0.2,217.1,-161723.92,-191740.09,218.1,Air+FixedWing,Blue,Enemies,J-11A,Blue J-11A #001,cn,[51☭] Rich (P),0,0,0,30.2299995422363,2.22999954223633,0,0,NaN,NaN,0,0.0171320104161963,NaN,0.999993741512668,-0,-0.00349065172486007,0,29.6455025010872,29.6455025010872,,,133.789999961853,28,0.191262517919043,0.259463577735917
2011-06-01T04:34:25Z,1306902865,106,54.6578426,24.4241318,30.23,0,-0.2,217.1,-161723.92,-191740.09,218.1,Air+FixedWing,Blue,Enemies,J-11A,Blue J-11A #001,cn,[51☭] Rich (P),0,0,0,30.2299995422363,2.22999954223633,0,0,NaN,NaN,0,0.0171320104161963,NaN,0.999993741512668,-0,-0.00349065172486007,0,29.6455025010872,29.6455025010872,,,134.789999961853,28,0.191317316842663,0.259518376659537
2011-06-01T04:34:26Z,1306902866,106,54.6578426,24.4241318,30.23,0,-0.2,217.1,-161723.92,-191740.09,218.1,Air+FixedWing,Blue,Enemies,J-11A,Blue J-11A #001,cn,[51☭] Rich (P),0,0,0,30.2299995422363,2.22999954223633,0,0,NaN,NaN,0,0.0171320104161963,NaN,0.999993741512668,-0,-0.00349065172486007,0,29.6455025010872,29.6455025010872,,,135.789999961853,28,0.191372117285663,0.259573177102537
2011-06-01T04:34:27Z,1306902867,106,54.6578426,24.4241318,30.23,0,-0.2,217.1,-161723.92,-191740.09,218.1,Air+FixedWing,Blue,Enemies,J-11A,Blue J-11A #001,cn,[51☭] Rich (P),0,0,0,30.2299995422363,2.22999954223633,0,0,NaN,NaN,0,0.0171320104161963,NaN,0.999993741512668,-0,-0.00349065172486007,0,29.6455025010872,29.6455025010872,,,136.789999961853,28,0.191426915829442,0.259627976026158
2011-06-01T04:34:28Z,1306902868,106,54.6578426,24.4241318,30.23,0,-0.2,217.1,-161723.92,-191740.09,218.1,Air+FixedWing,Blue,Enemies,J-11A,Blue J-11A #001,cn,[51☭] Rich (P),0,0,0,30.2299995422363,2.22999954223633,0,0,NaN,NaN,0,0.0171320104161963,NaN,0.999993741512668,-0,-0.00349065172486007,0,29.6455025010872,29.6455025010872,,,137.789999961853,28,0.191481716272442,0.259682776469158
2011-06-01T04:34:29Z,1306902869,106,54.6578426,24.4241318,30.23,0,-0.2,217.1,-161723.92,-191740.09,218.1,Air+FixedWing,Blue,Enemies,J-11A,Blue J-11A #001,cn,[51☭] Rich (P),0,0,0,30.2299995422363,2.22999954223633,0,0,NaN,NaN,0,0.0171320104161963,NaN,0.999993741512668,-0,-0.00349065172486007,0,29.6455025010872,29.6455025010872,,,138.789999961853,28,0.191536514657328,0.259737575392778
2011-06-01T04:34:30Z,1306902870,106,54.6578426,24.4241318,30.23,0,-0.2,217.1,-161723.92,-191740.09,218.1,Air+FixedWing,Blue,Enemies,J-11A,Blue J-11A #001,cn,[51☭] Rich (P),0,0,0,30.2299995422363,2.22999954223633,0,0,NaN,NaN,0,0.0171320104161963,NaN,0.999993741512668,-0,-0.00349065172486007,0,29.6455025010872,29.6455025010872,,,139.789999961853,28,0.191591315259215,0.259792376215627
2011-06-01T04:34:31Z,1306902871,106,54.6578426,24.4241318,30.23,0,-0.2,217.1,-161723.92,-191740.09,218.1,Air+FixedWing,Blue,Enemies,J-11A,Blue J-11A #001,cn,[51☭] Rich (P),0,0,0,30.2299995422363,2.22999954223633,0,0,NaN,NaN,0,0.0171320104161963,NaN,0.999993741512668,-0,-0.00349065172486007,0,29.6455025010872,29.6455025010872,,,140.789999961853,28,0.1916461159232,0.259847177038475
2011-06-01T04:34:32Z,1306902872,106,54.6578426,24.4241318,30.23,0,-0.2,217.1,-161723.92,-191740.09,218.1,Air+FixedWing,Blue,Enemies,J-11A,Blue J-11A #001,cn,[51☭] Rich (P),0,0,0,30.2299995422363,2.22999954223633,0,0,NaN,NaN,0,0.0171320104161963,NaN,0.999993741512668,-0,-0.00349065172486007,0,29.6455025010872,29.6455025010872,,,141.789999961853,28,0.191700914466979,0.259901975962095
2011-06-01T04:34:33Z,1306902873,106,54.6578426,24.4241318,30.23,0,-0.2,217.1,-161723.92,-191740.09,218.1,Air+FixedWing,Blue,Enemies,J-11A,Blue J-11A #001,cn,[51☭] Rich (P),0,0,0,30.2299995422363,2.22999954223633,0,0,NaN,NaN,0,0.0171320104161963,NaN,0.999993741512668,-0,-0.00349065172486007,0,29.6455025010872,29.6455025010872,,,142.789999961853,28,0.191755714909979,0.259956777323671
2011-06-01T04:34:34Z,1306902874,106,54.6578426,24.4241318,30.23,0,-0.2,217.1,-161723.92,-191740.09,218.1,Air+FixedWing,Blue,Enemies,J-11A,Blue J-11A #001,cn,[51☭] Rich (P),0,0,0,30.2299995422363,2.22999954223633,0,0,NaN,NaN,0,0.0171320104161963,NaN,0.999993741512668,-0,-0.00349065172486007,0,29.6455025010872,29.6455025010872,,,143.789999961853,28,0.1918105138336,0.260011575708556
2011-06-01T04:34:35Z,1306902875,106,54.6578426,24.4241318,30.23,0,-0.2,217.1,-161723.92,-191740.09,218.1,Air+FixedWing,Blue,Enemies,J-11A,Blue J-11A #001,cn,[51☭] Rich (P),0,0,0,30.2299995422363,2.22999954223633,0,0,NaN,NaN,0,0.0171320104161963,NaN,0.999993741512668,-0,-0.00349065172486007,0,29.6455025010872,29.6455025010872,,,144.789999961853,28,0.19186531373788,0.260066376151556
2011-06-01T04:34:36Z,1306902876,106,54.6578426,24.4241318,30.23,0,-0.2,217.1,-161723.92,-191740.09,218.1,Air+FixedWing,Blue,Enemies,J-11A,Blue J-11A #001,cn,[51☭] Rich (P),0,0,0,30.2299995422363,2.22999954223633,0,0,NaN,NaN,0,0.0171320104161963,NaN,0.999993741512668,-0,-0.00349065172486007,0,29.6455025010872,29.6455025010872,,,145.789999961853,28,0.191920112281659,0.260121175075177
2011-06-01T04:34:37Z,1306902877,106,54.6578426,24.4241318,30.23,0,-0.2,217.1,-161723.92,-191740.09,218.1,Air+FixedWing,Blue,Enemies,J-11A,Blue J-11A #001,cn,[51☭] Rich (P),0,0,0,30.2299995422363,2.22999954223633,0,0,NaN,NaN,0,0.0171320104161963,NaN,0.999993741512668,-0,-0.00349065172486007,0,29.6455025010872,29.6455025010872,,,146.789999961853,28,0.191974913643234,0.260175976816598
2011-06-01T04:34:38Z,1306902878,106,54.6578426,24.4241318,30.23,0,-0.2,217.1,-161723.92,-191740.09,218.1,Air+FixedWing,Blue,Enemies,J-11A,Blue J-11A #001,cn,[51☭] Rich (P),0,0,0,30.2299995422363,2.22999954223633,0,0,NaN,NaN,0,0.0171320104161963,NaN,0.999993741512668,-0,-0.00349065172486007,0,29.6455025010872,29.6455025010872,,,147.789999961853,28,0.192029714086234,0.260230777259598
