ISOTime,UnixTime,Id,Longitude,Latitude,Altitude,Roll,Pitch,Yaw,U,V,Heading,Type,Color,Coalition,Name,Group,Country,Pilot,TAS,CAS,M,ASL,AGL,GS,VS,AOA,AOS,RRT,TRT,TRD,G,LatG,LonG,Ek,Ep,Em,FFW,FFV,RelativeTime,Elev,GroundDistance,AirDistance
2011-06-01T04:33:05Z,1306902785,10B,54.6548289,24.4262615,30.31,-0.2,-0.9,217.1,-162025.61,-191498.98,218.1,Air+FixedWing,Blue,Enemies,J-11A,Blue J-11A #006,cn,[51☭] Yambo (P),0.047615641636098,0,0.000139923649428033,30.3133335113525,2.31333351135254,NaN,NaN,NaN,NaN,NaN,NaN,NaN,NaN,NaN,NaN,NaN,29.7272252079105,NaN,,,0.139999866485596,28,NaN,NaN
2011-06-01T04:33:06Z,1306902786,10B,54.6548293,24.426262,30.23,0,-0.1,217.2,-162025.56,-191498.92,218.1,Air+FixedWing,Blue,Enemies,J-11A,Blue J-11A #006,cn,[51☭] Yambo (P),0.111140121957464,0,0.00032659682985481,30.2342853546143,2.23428535461426,0.078125,-0.0790481567382812,NaN,NaN,0,NaN,NaN,1.01274612241664,-0.000641080099533834,0.0129080122841004,0.000617606335435994,29.6497054472828,29.6503230536182,,,1.1399998664856,28,0.06245007793954,0.100740559720237
2011-06-01T04:33:07Z,1306902787,10B,54.6548289,24.4262615,30.28,-0.1,-0.5,217.2,-162025.61,-191498.97,218.1,Air+FixedWing,Blue,Enemies,J-11A,Blue J-11A #006,cn,[51☭] Yambo (P),0.0805248312398934,0,0.000236630729674334,30.2799987792969,2.27999877929688,0.0662912607362388,0.0457134246826172,NaN,NaN,0,0.0407823424976854,NaN,0.990147428288838,-0.000374522303104286,-0.0201553123943237,0.000324212422310666,29.6945350028992,29.6948592153215,,,2.1399998664856,28,0.123184760425397,0.176756702140037
2011-06-01T04:33:08Z,1306902788,10B,54.6548292,24.4262619,30.23,0,-0.4,217.2,-162025.58,-191498.94,218.1,Air+FixedWing,Blue,Enemies,J-11A,Blue J-11A #006,cn,[51☭] Yambo (P),0.0663746419356644,0,0.00019504879360118,30.2304763793945,2.23047637939453,0.0441941738241592,-0.0495223999023438,NaN,NaN,0.199987938897973,0.0609732788135823,NaN,1.00602741527203,-0.000541402522780556,-0.00263320395441628,0.000220279654604383,29.6459701185989,29.6461903982535,,,3.1399998664856,28,0.174936863224874,0.248386121132924
2011-06-01T04:33:09Z,1306902789,10B,54.6548292,24.4262618,30.24,0,-0.4,217.2,-162025.58,-191498.94,218.2,Air+FixedWing,Blue,Enemies,J-11A,Blue J-11A #006,cn,[51☭] Yambo (P),0.00952339172363281,0,2.79854807778358e-05,30.2399997711182,2.23999977111816,0,0.00952339172363281,NaN,NaN,0,0.158875923045969,NaN,0.999013211580031,0.000985314227753558,-0.00572240026466384,4.5347494960879e-06,29.6553093755436,29.6553139102931,,,4.1399998664856,28,0.185665367755674,0.262731744154307
2011-06-01T04:33:10Z,1306902790,10B,54.6548291,24.4262618,30.24,0,-0.3,217.2,-162025.58,-191498.95,218.2,Air+FixedWing,Blue,Enemies,J-11A,Blue J-11A #006,cn,[51☭] Yambo (P),0.015625,0,4.59156936775547e-05,30.2399997711182,2.23999977111816,0.015625,0,NaN,NaN,0,0.0523391626455858,NaN,0.99996838400809,-0.00197062845550712,-0.0083219818545684,1.220703125e-05,29.6553093755436,29.6553215825748,,,5.1399998664856,28,0.19415733782624,0.271223754282346
2011-06-01T04:33:11Z,1306902791,10B,54.6548292,24.4262618,30.24,0,-0.3,217.2,-162025.58,-191498.94,218.2,Air+FixedWing,Blue,Enemies,J-11A,Blue J-11A #006,cn,[51☭] Yambo (P),0.015625,0,4.59156936775547e-05,30.2399997711182,2.23999977111816,0.015625,0,NaN,NaN,0,0.0523391626455858,NaN,0.999999283737357,0.00197062845550712,-0.00273177666053926,1.220703125e-05,29.6553093755436,29.6553215825748,,,6.1399998664856,28,0.204292913290216,0.281359376896686
2011-06-01T04:33:12Z,1306902792,10B,54.6548292,24.4262618,30.24,0,-0.3,217.2,-162025.58,-191498.95,218.1,Air+FixedWing,Blue,Enemies,J-11A,Blue J-11A #006,cn,[51☭] Yambo (P),0.015625,0,4.59156936775547e-05,30.2399997711182,2.23999977111816,0.015625,0,NaN,NaN,0,0.0504352774299245,NaN,0.999973041721537,-0.00196625493761567,-0.00774358750851646,1.220703125e-05,29.6553093755436,29.6553215825748,,,7.1399998664856,28,0.204292913290216,0.281359376896686
2011-06-01T04:33:13Z,1306902793,10B,54.6548292,24.4262618,30.24,0,-0.3,217.2,-162025.58,-191498.94,218.1,Air+FixedWing,Blue,Enemies,J-11A,Blue J-11A #006,cn,[51☭] Yambo (P),0.015625,0,4.59156936775547e-05,30.2399997711182,2.23999977111816,0.015625,0,NaN,NaN,0,0.0504352774299245,NaN,0.999992736724081,0.000983127468807834,-0.00398215289427988,1.220703125e-05,29.6553093755436,29.6553215825748,,,8.1399998664856,28,0.204292913290216,0.281359376896686
2011-06-01T04:33:14Z,1306902794,10B,54.6548292,24.4262618,30.24,0,-0.3,217.2,-162025.58,-191498.94,218.1,Air+FixedWing,Blue,Enemies,J-11A,Blue J-11A #006,cn,[51☭] Yambo (P),0,0,0,30.2399997711182,2.23999977111816,0,0,NaN,NaN,0,0,NaN,0.999992736724081,0.000983127468807834,-0.00398215289427988,0,29.6553093755436,29.6553093755436,,,9.1399998664856,28,0.204292913290216,0.281359376896686
2011-06-01T04:33:15Z,1306902795,10B,54.6548292,24.4262618,30.24,0,-0.3,217.2,-162025.58,-191498.95,218.1,Air+FixedWing,Blue,Enemies,J-11A,Blue J-11A #006,cn,[51☭] Yambo (P),0.015625,0,4.59156936775547e-05,30.2399997711182,2.23999977111816,0.015625,0,NaN,NaN,0,0,NaN,0.999979606722385,-0.000983127468807834,-0.0064897759704376,1.220703125e-05,29.6553093755436,29.6553215825748,,,10.1399998664856,28,0.204292913290216,0.281359376896686
2011-06-01T04:33:16Z,1306902796,10B,54.6548292,24.4262618,30.24,0,-0.3,217.2,-162025.58,-191498.95,218.1,Air+FixedWing,Blue,Enemies,J-11A,Blue J-11A #006,cn,[51☭] Yambo (P),0,0,0,30.2399997711182,2.23999977111816,0,0,NaN,NaN,0,0,NaN,0.999986171723233,-0,-0.00523596443235874,0,29.6553093755436,29.6553093755436,,,11.1399998664856,28,0.204292913290216,0.281359376896686
2011-06-01T04:33:17Z,1306902797,10B,54.6548292,24.4262618,30.24,0,-0.3,217.2,-162025.58,-191498.95,218.1,Air+FixedWing,Blue,Enemies,J-11A,Blue J-11A #006,cn,[51☭] Yambo (P),0,0,0,30.2399997711182,2.23999977111816,0,0,NaN,NaN,0,0,NaN,0.999986171723233,-0,-0.00523596443235874,0,29.6553093755436,29.6553093755436,,,12.1399998664856,28,0.204292913290216,0.281359376896686
2011-06-01T04:33:18Z,1306902798,10B,54.6548292,24.4262618,30.24,0,-0.3,217.2,-162025.58,-191498.95,218.1,Air+FixedWing,Blue,Enemies,J-11A,Blue J-11A #006,cn,[51☭] Yambo (P),0,0,0,30.2399997711182,2.23999977111816,0,0,NaN,NaN,0,0,NaN,0.999986171723233,-0,-0.00523596443235874,0,29.6553093755436,29.6553093755436,,,13.1399998664856,28,0.204292913290216,0.281359376896686
2011-06-01T04:33:19Z,1306902799,10B,54.6548292,24.4262618,30.24,0,-0.3,217.2,-162025.58,-191498.95,218.1,Air+FixedWing,Blue,Enemies,J-11A,Blue J-11A #006,cn,[51☭] Yambo (P),0,0,0,30.2399997711182,2.23999977111816,0,0,NaN,NaN,0,0,NaN,0.999979606722385,-0.000983127468807834,-0.0064897759704376,0,29.6553093755436,29.6553093755436,,,14.1399998664856,28,0.204292913290216,0.281359376896686
2011-06-01T04:33:20Z,1306902800,10B,54.6548292,24.4262618,30.24,0,-0.3,217.2,-162025.58,-191498.94,218.1,Air+FixedWing,Blue,Enemies,J-11A,Blue J-11A #006,cn,[51☭] Yambo (P),0.015625,0,4.59156936775547e-05,30.2399997711182,2.23999977111816,0.015625,0,NaN,NaN,0,0,NaN,0.999992736724081,0.000983127468807834,-0.00398215289427988,1.220703125e-05,29.6553093755436,29.6553215825748,,,15.1399998664856,28,0.204292913290216,0.281359376896686
2011-06-01T04:33:21Z,1306902801,10B,54.6548292,24.4262618,30.24,0,-0.3,217.2,-162025.58,-191498.94,218.1,Air+FixedWing,Blue,Enemies,J-11A,Blue J-11A #006,cn,[51☭] Yambo (P),0,0,0,30.2399997711182,2.23999977111816,0,0,NaN,NaN,0,0,NaN,0.999992736724081,0.000983127468807834,-0.00398215289427988,0,29.6553093755436,29.6553093755436,,,16.1399998664856,28,0.204292913290216,0.281359376896686
2011-06-01T04:33:22Z,1306902802,10B,54.6548292,24.4262618,30.24,0,-0.3,217.2,-162025.58,-191498.95,218.1,Air+FixedWing,Blue,Enemies,J-11A,Blue J-11A #006,cn,[51☭] Yambo (P),0.015625,0,4.59156936775547e-05,30.2399997711182,2.23999977111816,0.015625,0,NaN,NaN,0,0,NaN,0.999973041721537,-0.00196625493761567,-0.00774358750851646,1.220703125e-05,29.6553093755436,29.6553215825748,,,17.1399998664856,28,0.204292913290216,0.281359376896686
2011-06-01T04:33:23Z,1306902803,10B,54.6548292,24.4262618,30.24,0,-0.3,217.2,-162025.58,-191498.94,218.1,Air+FixedWing,Blue,Enemies,J-11A,Blue J-11A #006,cn,[51☭] Yambo (P),0.015625,0,4.59156936775547e-05,30.2399997711182,2.23999977111816,0.015625,0,NaN,NaN,0,0,NaN,0.999999301724929,0.00196625493761567,-0.00272834135620102,1.220703125e-05,29.6553093755436,29.6553215825748,,,18.1399998664856,28,0.204292913290216,0.281359376896686
2011-06-01T04:33:24Z,1306902804,10B,54.6548292,24.4262618,30.24,0,-0.3,217.2,-162025.58,-191498.95,218.1,Air+FixedWing,Blue,Enemies,J-11A,Blue J-11A #006,cn,[51☭] Yambo (P),0.015625,0,4.59156936775547e-05,30.2399997711182,2.23999977111816,0.015625,0,NaN,NaN,0,0,NaN,0.999973041721537,-0.00196625493761567,-0.00774358750851646,1.220703125e-05,29.6553093755436,29.6553215825748,,,19.1399998664856,28,0.204292913290216,0.281359376896686
2011-06-01T04:33:25Z,1306902805,10B,54.6548292,24.4262618,30.24,0,-0.3,217.2,-162025.58,-191498.94,218.1,Air+FixedWing,Blue,Enemies,J-11A,Blue J-11A #006,cn,[51☭] Yambo (P),0.015625,0,4.59156936775547e-05,30.2399997711182,2.23999977111816,0.015625,0,NaN,NaN,0,0,NaN,0.999999301724929,0.00196625493761567,-0.00272834135620102,1.220703125e-05,29.6553093755436,29.6553215825748,,,20.1399998664856,28,0.204292913290216,0.281359376896686
2011-06-01T04:33:26Z,1306902806,10B,54.6548292,24.4262618,30.24,0,-0.3,217.2,-162025.58,-191498.95,218.1,Air+FixedWing,Blue,Enemies,J-11A,Blue J-11A #006,cn,[51☭] Yambo (P),0.015625,0,4.59156936775547e-05,30.2399997711182,2.23999977111816,0.015625,0,NaN,NaN,0,0,NaN,0.999979606722385,-0.000983127468807834,-0.0064897759704376,1.220703125e-05,29.6553093755436,29.6553215825748,,,21.1399998664856,28,0.204292913290216,0.281359376896686
2011-06-01T04:33:27Z,1306902807,10B,54.6548292,24.4262618,30.24,0,-0.3,217.2,-162025.58,-191498.95,218.1,Air+FixedWing,Blue,Enemies,J-11A,Blue J-11A #006,cn,[51☭] Yambo (P),0,0,0,30.2399997711182,2.23999977111816,0,0,NaN,NaN,0,0,NaN,0.999979606722385,-0.000983127468807834,-0.0064897759704376,0,29.6553093755436,29.6553093755436,,,22.1399998664856,28,0.204292913290216,0.281359376896686
2011-06-01T04:33:28Z,1306902808,10B,54.6548292,24.4262618,30.24,0,-0.3,217.2,-162025.58,-191498.94,218.1,Air+FixedWing,Blue,Enemies,J-11A,Blue J-11A #006,cn,[51☭] Yambo (P),0.015625,0,4.59156936775547e-05,30.2399997711182,2.23999977111816,0.015625,0,NaN,NaN,0,0,NaN,0.999999301724929,0.00196625493761567,-0.00272834135620102,1.220703125e-05,29.6553093755436,29.6553215825748,,,23.1399998664856,28,0.204292913290216,0.281359376896686
2011-06-01T04:33:29Z,1306902809,10B,54.6548292,24.4262618,30.24,0,-0.3,217.2,-162025.58,-191498.95,218.1,Air+FixedWing,Blue,Enemies,J-11A,Blue J-11A #006,cn,[51☭] Yambo (P),0.015625,0,4.59156936775547e-05,30.2399997711182,2.23999977111816,0.015625,0,NaN,NaN,0,0,NaN,0.999979606722385,-0.000983127468807834,-0.0064897759704376,1.220703125e-05,29.6553093755436,29.6553215825748,,,24.1399998664856,28,0.204292913290216,0.281359376896686
2011-06-01T04:33:30Z,1306902810,10B,54.6548292,24.4262618,30.24,0,-0.3,217.2,-162025.58,-191498.95,218.1,Air+FixedWing,Blue,Enemies,J-11A,Blue J-11A #006,cn,[51☭] Yambo (P),0,0,0,30.2399997711182,2.23999977111816,0,0,NaN,NaN,0,0,NaN,0.999979606722385,-0.000983127468807834,-0.0064897759704376,0,29.6553093755436,29.6553093755436,,,25.1399998664856,28,0.204292913290216,0.281359376896686
2011-06-01T04:33:31Z,1306902811,10B,54.6548292,24.4262618,30.24,0,-0.3,217.2,-162025.58,-191498.94,218.1,Air+FixedWing,Blue,Enemies,J-11A,Blue J-11A #006,cn,[51☭] Yambo (P),0.015625,0,4.59156936775547e-05,30.2399997711182,2.23999977111816,0.015625,0,NaN,NaN,0,0,NaN,0.999992736724081,0.000983127468807834,-0.00398215289427988,1.220703125e-05,29.6553093755436,29.6553215825748,,,26.1399998664856,28,0.204292913290216,0.281359376896686
2011-06-01T04:33:32Z,1306902812,10B,54.6548292,24.4262618,30.24,0,-0.3,217.2,-162025.58,-191498.94,218.1,Air+FixedWing,Blue,Enemies,J-11A,Blue J-11A #006,cn,[51☭] Yambo (P),0,0,0,30.2399997711182,2.23999977111816,0,0,NaN,NaN,0,0,NaN,0.999992736724081,0.000983127468807834,-0.00398215289427988,0,29.6553093755436,29.6553093755436,,,27.1399998664856,28,0.204292913290216,0.281359376896686
2011-06-01T04:33:33Z,1306902813,10B,54.6548292,24.4262618,30.24,0,-0.3,217.2,-162025.58,-191498.95,218.1,Air+FixedWing,Blue,Enemies,J-11A,Blue J-11A #006,cn,[51☭] Yambo (P),0.015625,0,4.59156936775547e-05,30.2399997711182,2.23999977111816,0.015625,0,NaN,NaN,0,0,NaN,0.999973041721537,-0.00196625493761567,-0.00774358750851646,1.220703125e-05,29.6553093755436,29.6553215825748,,,28.1399998664856,28,0.204292913290216,0.281359376896686
2011-06-01T04:33:34Z,1306902814,10B,54.6548292,24.4262618,30.24,0,-0.3,217.2,-162025.58,-191498.94,218.1,Air+FixedWing,Blue,Enemies,J-11A,Blue J-11A #006,cn,[51☭] Yambo (P),0.015625,0,4.59156936775547e-05,30.2399997711182,2.23999977111816,0.015625,0,NaN,NaN,0,0,NaN,0.999992736724081,0.000983127468807834,-0.00398215289427988,1.220703125e-05,29.6553093755436,29.6553215825748,,,29.1399998664856,28,0.204292913290216,0.281359376896686
2011-06-01T04:33:35Z,1306902815,10B,54.6548292,24.4262618,30.24,0,-0.3,217.2,-162025.58,-191498.94,218.1,Air+FixedWing,Blue,Enemies,J-11A,Blue J-11A #006,cn,[51☭] Yambo (P),0,0,0,30.2399997711182,2.23999977111816,0,0,NaN,NaN,0,0,NaN,0.999992736724081,0.000983127468807834,-0.00398215289427988,0,29.6553093755436,29.6553093755436,,,30.1399998664856,28,0.204292913290216,0.281359376896686
2011-06-01T04:33:36Z,1306902816,10B,54.6548292,24.4262618,30.24,0,-0.3,217.2,-162025.58,-191498.95,218.1,Air+FixedWing,Blue,Enemies,J-11A,Blue J-11A #006,cn,[51☭] Yambo (P),0.015625,0,4.59156936775547e-05,30.2399997711182,2.23999977111816,0.015625,0,NaN,NaN,0,0,NaN,0.999973041721537,-0.00196625493761567,-0.00774358750851646,1.220703125e-05,29.6553093755436,29.6553215825748,,,31.1399998664856,28,0.204292913290216,0.281359376896686
2011-06-01T04:33:37Z,1306902817,10B,54.6548292,24.4262618,30.24,0,-0.3,217.2,-162025.58,-191498.94,218.1,Air+FixedWing,Blue,Enemies,J-11A,Blue J-11A #006,cn,[51☭] Yambo (P),0.015625,0,4.59156936775547e-05,30.2399997711182,2.23999977111816,0.015625,0,NaN,NaN,0,0,NaN,0.999999301724929,0.00196625493761567,-0.00272834135620102,1.220703125e-05,29.6553093755436,29.6553215825748,,,32.1399998664856,28,0.204292913290216,0.281359376896686
2011-06-01T04:33:38Z,1306902818,10B,54.6548292,24.4262618,30.24,0,-0.3,217.2,-162025.58,-191498.95,218.1,Air+FixedWing,Blue,Enemies,J-11A,Blue J-11A #006,cn,[51☭] Yambo (P),0.015625,0,4.59156936775547e-05,30.2399997711182,2.23999977111816,0.015625,0,NaN,NaN,0,0,NaN,0.999973041721537,-0.00196625493761567,-0.00774358750851646,1.220703125e-05,29.6553093755436,29.6553215825748,,,33.1399998664856,28,0.204292913290216,0.281359376896686
2011-06-01T04:33:39Z,1306902819,10B,54.6548292,24.4262618,30.24,0,-0.3,217.2,-162025.58,-191498.94,218.1,Air+FixedWing,Blue,Enemies,J-11A,Blue J-11A #006,cn,[51☭] Yambo (P),0.015625,0,4.59156936775547e-05,30.2399997711182,2.23999977111816,0.015625,0,NaN,NaN,0,0,NaN,0.999999301724929,0.00196625493761567,-0.00272834135620102,1.220703125e-05,29.6553093755436,29.6553215825748,,,34.1399998664856,28,0.204292913290216,0.281359376896686
2011-06-01T04:33:40Z,1306902820,10B,54.6548292,24.4262618,30.24,0,-0.3,217.2,-162025.58,-191498.95,218.1,Air+FixedWing,Blue,Enemies,J-11A,Blue J-11A #006,cn,[51☭] Yambo (P),0.015625,0,4.59156936775547e-05,30.2399997711182,2.23999977111816,0.015625,0,NaN,NaN,0,0,NaN,0.999973041721537,-0.00196625493761567,-0.00774358750851646,1.220703125e-05,29.6553093755436,29.6553215825748,,,35.1399998664856,28,0.204292913290216,0.281359376896686
2011-06-01T04:33:41Z,1306902821,10B,54.6548292,24.4262618,30.24,0,-0.3,217.2,-162025.58,-191498.94,218.1,Air+FixedWing,Blue,Enemies,J-11A,Blue J-11A #006,cn,[51☭] Yambo (P),0.015625,0,4.59156936775547e-05,30.2399997711182,2.23999977111816,0.015625,0,NaN,NaN,0,0,NaN,0.999999301724929,0.00196625493761567,-0.00272834135620102,1.220703125e-05,29.6553093755436,29.6553215825748,,,36.1399998664856,28,0.204292913290216,0.281359376896686
2011-06-01T04:33:42Z,1306902822,10B,54.6548292,24.4262618,30.24,0,-0.3,217.2,-162025.58,-191498.95,218.1,Air+FixedWing,Blue,Enemies,J-11A,Blue J-11A #006,cn,[51☭] Yambo (P),0.015625,0,4.59156936775547e-05,30.2399997711182,2.23999977111816,0.015625,0,NaN,NaN,0,0,NaN,0.999973041721537,-0.00196625493761567,-0.00774358750851646,1.220703125e-05,29.6553093755436,29.6553215825748,,,37.1399998664856,28,0.204292913290216,0.281359376896686
2011-06-01T04:33:43Z,1306902823,10B,54.6548292,24.4262618,30.24,0,-0.3,217.2,-162025.58,-191498.94,218.1,Air+FixedWing,Blue,Enemies,J-11A,Blue J-11A #006,cn,[51☭] Yambo (P),0.015625,0,4.59156936775547e-05,30.2399997711182,2.23999977111816,0.015625,0,NaN,NaN,0,0,NaN,0.999999301724929,0.00196625493761567,-0.00272834135620102,1.220703125e-05,29.6553093755436,29.6553215825748,,,38.1399998664856,28,0.204292913290216,0.281359376896686
2011-06-01T04:33:44Z,1306902824,10B,54.6548292,24.4262618,30.24,0,-0.3,217.2,-162025.58,-191498.95,218.1,Air+FixedWing,Blue,Enemies,J-11A,Blue J-11A #006,cn,[51☭] Yambo (P),0.015625,0,4.59156936775547e-05,30.2399997711182,2.23999977111816,0.015625,0,NaN,NaN,0,0,NaN,0.999979606722385,-0.000983127468807834,-0.0064897759704376,1.220703125e-05,29.6553093755436,29.6553215825748,,,39.1399998664856,28,0.204292913290216,0.281359376896686
2011-06-01T04:33:45Z,1306902825,10B,54.6548292,24.4262618,30.24,0,-0.3,217.2,-162025.58,-191498.95,218.1,Air+FixedWing,Blue,Enemies,J-11A,Blue J-11A #006,cn,[51☭] Yambo (P),0,0,0,30.2399997711182,2.23999977111816,0,0,NaN,NaN,0,0,NaN,0.999979606722385,-0.000983127468807834,-0.0064897759704376,0,29.6553093755436,29.6553093755436,,,40.1399998664856,28,0.204292913290216,0.281359376896686
2011-06-01T04:33:46Z,1306902826,10B,54.6548292,24.4262618,30.24,0,-0.3,217.2,-162025.58,-191498.94,218.1,Air+FixedWing,Blue,Enemies,J-11A,Blue J-11A #006,cn,[51☭] Yambo (P),0.015625,0,4.59156936775547e-05,30.2399997711182,2.23999977111816,0.015625,0,NaN,NaN,0,0,NaN,0.999992736724081,0.000983127468807834,-0.00398215289427988,1.220703125e-05,29.6553093755436,29.6553215825748,,,41.1399998664856,28,0.204292913290216,0.281359376896686
2011-06-01T04:33:47Z,1306902827,10B,54.6548292,24.4262618,30.24,0,-0.3,217.2,-162025.58,-191498.94,218.1,Air+FixedWing,Blue,Enemies,J-11A,Blue J-11A #006,cn,[51☭] Yambo (P),0,0,0,30.2399997711182,2.23999977111816,0,0,NaN,NaN,0,0,NaN,0.999986171723233,-0,-0.00523596443235874,0,29.6553093755436,29.6553093755436,,,42.1399998664856,28,0.204292913290216,0.281359376896686
2011-06-01T04:33:48Z,1306902828,10B,54.6548292,24.4262618,30.24,0,-0.3,217.2,-162025.58,-191498.94,218.1,Air+FixedWing,Blue,Enemies,J-11A,Blue J-11A #006,cn,[51☭] Yambo (P),0,0,0,30.2399997711182,2.23999977111816,0,0,NaN,NaN,0,0,NaN,0.999992736724081,0.000983127468807834,-0.00398215289427988,0,29.6553093755436,29.6553093755436,,,43.1399998664856,28,0.204292913290216,0.281359376896686
2011-06-01T04:33:49Z,1306902829,10B,54.6548292,24.4262618,30.24,0,-0.3,217.2,-162025.58,-191498.95,218.1,Air+FixedWing,Blue,Enemies,J-11A,Blue J-11A #006,cn,[51☭] Yambo (P),0.015625,0,4.59156936775547e-05,30.2399997711182,2.23999977111816,0.015625,0,NaN,NaN,0,0,NaN,0.999979606722385,-0.000983127468807834,-0.0064897759704376,1.220703125e-05,29.6553093755436,29.6553215825748,,,44.1399998664856,28,0.204292913290216,0.281359376896686
2011-06-01T04:33:50Z,1306902830,10B,54.6548292,24.4262618,30.24,0,-0.3,217.2,-162025.58,-191498.95,218.1,Air+FixedWing,Blue,Enemies,J-11A,Blue J-11A #006,cn,[51☭] Yambo (P),0,0,0,30.2399997711182,2.23999977111816,0,0,NaN,NaN,0,0,NaN,0.999979606722385,-0.000983127468807834,-0.0064897759704376,0,29.6553093755436,29.6553093755436,,,45.1399998664856,28,0.204292913290216,0.281359376896686
2011-06-01T04:33:51Z,1306902831,10B,54.6548292,24.4262618,30.24,0,-0.3,217.2,-162025.58,-191498.94,218.1,Air+FixedWing,Blue,Enemies,J-11A,Blue J-11A #006,cn,[51☭] Yambo (P),0.015625,0,4.59156936775547e-05,30.2399997711182,2.23999977111816,0.015625,0,NaN,NaN,0,0,NaN,0.999999301724929,0.00196625493761567,-0.00272834135620102,1.220703125e-05,29.6553093755436,29.6553215825748,,,46.1399998664856,28,0.204292913290216,0.281359376896686
2011-06-01T04:33:52Z,1306902832,10B,54.6548292,24.4262618,30.24,0,-0.3,217.2,-162025.58,-191498.95,218.1,Air+FixedWing,Blue,Enemies,J-11A,Blue J-11A #006,cn,[51☭] Yambo (P),0.015625,0,4.59156936775547e-05,30.2399997711182,2.23999977111816,0.015625,0,NaN,NaN,0,0,NaN,0.999973041721537,-0.00196625493761567,-0.00774358750851646,1.220703125e-05,29.6553093755436,29.6553215825748,,,47.1399998664856,28,0.204292913290216,0.281359376896686
2011-06-01T04:33:53Z,1306902833,10B,54.6548292,24.4262618,30.24,0,-0.3,217.2,-162025.58,-191498.94,218.1,Air+FixedWing,Blue,Enemies,J-11A,Blue J-11A #006,cn,[51☭] Yambo (P),0.015625,0,4.59156936775547e-05,30.2399997711182,2.23999977111816,0.015625,0,NaN,NaN,0,0,NaN,0.999992736724081,0.000983127468807834,-0.00398215289427988,1.220703125e-05,29.6553093755436,29.6553215825748,,,48.1399998664856,28,0.204292913290216,0.281359376896686
2011-06-01T04:33:54Z,1306902834,10B,54.6548292,24.4262618,30.24,0,-0.3,217.2,-162025.58,-191498.94,218.1,Air+FixedWing,Blue,Enemies,J-11A,Blue J-11A #006,cn,[51☭] Yambo (P),0,0,0,30.2399997711182,2.23999977111816,0,0,NaN,NaN,0,0,NaN,0.999992736724081,0.000983127468807834,-0.00398215289427988,0,29.6553093755436,29.6553093755436,,,49.1399998664856,28,0.204292913290216,0.281359376896686
2011-06-01T04:33:55Z,1306902835,10B,54.6548292,24.4262618,30.24,0,-0.3,217.2,-162025.58,-191498.95,218.1,Air+FixedWing,Blue,Enemies,J-11A,Blue J-11A #006,cn,[51☭] Yambo (P),0.015625,0,4.59156936775547e-05,30.2399997711182,2.23999977111816,0.015625,0,NaN,NaN,0,0,NaN,0.999979606722385,-0.000983127468807834,-0.0064897759704376,1.220703125e-05,29.6553093755436,29.6553215825748,,,50.1399998664856,28,0.204292913290216,0.281359376896686
2011-06-01T04:33:56Z,1306902836,10B,54.6548292,24.4262618,30.24,0,-0.3,217.2,-162025.58,-191498.95,218.1,Air+FixedWing,Blue,Enemies,J-11A,Blue J-11A #006,cn,[51☭] Yambo (P),0,0,0,30.2399997711182,2.23999977111816,0,0,NaN,NaN,0,0,NaN,0.999979606722385,-0.000983127468807834,-0.0064897759704376,0,29.6553093755436,29.6553093755436,,,51.1399998664856,28,0.204292913290216,0.281359376896686
2011-06-01T04:33:57Z,1306902837,10B,54.6548292,24.4262618,30.24,0,-0.3,217.2,-162025.58,-191498.94,218.1,Air+FixedWing,Blue,Enemies,J-11A,Blue J-11A #006,cn,[51☭] Yambo (P),0.015625,0,4.59156936775547e-05,30.2399997711182,2.23999977111816,0.015625,0,NaN,NaN,0,0,NaN,0.999992736724081,0.000983127468807834,-0.00398215289427988,1.220703125e-05,29.6553093755436,29.6553215825748,,,52.1399998664856,28,0.204292913290216,0.281359376896686
2011-06-01T04:33:58Z,1306902838,10B,54.6548292,24.4262618,30.24,0,-0.3,217.2,-162025.58,-191498.94,218.1,Air+FixedWing,Blue,Enemies,J-11A,Blue J-11A #006,cn,[51☭] Yambo (P),0,0,0,30.2399997711182,2.23999977111816,0,0,NaN,NaN,0,0,NaN,0.999992736724081,0.000983127468807834,-0.00398215289427988,0,29.6553093755436,29.6553093755436,,,53.1399998664856,28,0.204292913290216,0.281359376896686
2011-06-01T04:33:59Z,1306902839,10B,54.6548292,24.4262618,30.24,0,-0.3,217.2,-162025.58,-191498.95,218.1,Air+FixedWing,Blue,Enemies,J-11A,Blue J-11A #006,cn,[51☭] Yambo (P),0.015625,0,4.59156936775547e-05,30.2399997711182,2.23999977111816,0.015625,0,NaN,NaN,0,0,NaN,0.999973041721537,-0.00196625493761567,-0.00774358750851646,1.220703125e-05,29.6553093755436,29.6553215825748,,,54.1399998664856,28,0.204292913290216,0.281359376896686
2011-06-01T04:34:00Z,1306902840,10B,54.6548292,24.4262618,30.24,0,-0.3,217.2,-162025.58,-191498.94,218.1,Air+FixedWing,Blue,Enemies,J-11A,Blue J-11A #006,cn,[51☭] Yambo (P),0.015625,0,4.59156936775547e-05,30.2399997711182,2.23999977111816,0.015625,0,NaN,NaN,0,0,NaN,0.999999301724929,0.00196625493761567,-0.00272834135620102,1.220703125e-05,29.6553093755436,29.6553215825748,,,55.1399998664856,28,0.204292913290216,0.281359376896686
2011-06-01T04:34:01Z,1306902841,10B,54.6548292,24.4262618,30.24,0,-0.3,217.2,-162025.58,-191498.95,218.1,Air+FixedWing,Blue,Enemies,J-11A,Blue J-11A #006,cn,[51☭] Yambo (P),0.015625,0,4.59156936775547e-05,30.2399997711182,2.23999977111816,0.015625,0,NaN,NaN,0,0,NaN,0.999973041721537,-0.00196625493761567,-0.00774358750851646,1.220703125e-05,29.6553093755436,29.6553215825748,,,56.1399998664856,28,0.204292913290216,0.281359376896686
2011-06-01T04:34:02Z,1306902842,10B,54.6548292,24.4262618,30.24,0,-0.3,217.2,-162025.58,-191498.94,218.1,Air+FixedWing,Blue,Enemies,J-11A,Blue J-11A #006,cn,[51☭] Yambo (P),0.015625,0,4.59156936775547e-05,30.2399997711182,2.23999977111816,0.015625,0,NaN,NaN,0,0,NaN,0.999999301724929,0.00196625493761567,-0.00272834135620102,1.220703125e-05,29.6553093755436,29.6553215825748,,,57.1399998664856,28,0.204292913290216,0.281359376896686
2011-06-01T04:34:03Z,1306902843,10B,54.6548292,24.4262618,30.24,0,-0.3,217.2,-162025.58,-191498.95,218.1,Air+FixedWing,Blue,Enemies,J-11A,Blue J-11A #006,cn,[51☭] Yambo (P),0.015625,0,4.59156936775547e-05,30.2399997711182,2.23999977111816,0.015625,0,NaN,NaN,0,0,NaN,0.999979606722385,-0.000983127468807834,-0.0064897759704376,1.220703125e-05,29.6553093755436,29.6553215825748,,,58.1399998664856,28,0.204292913290216,0.281359376896686
2011-06-01T04:34:04Z,1306902844,10B,54.6548292,24.4262618,30.24,0,-0.3,217.2,-162025.58,-191498.95,218.1,Air+FixedWing,Blue,Enemies,J-11A,Blue J-11A #006,cn,[51☭] Yambo (P),0,0,0,30.2399997711182,2.23999977111816,0,0,NaN,NaN,0,0,NaN,0.999979606722385,-0.000983127468807834,-0.0064897759704376,0,29.6553093755436,29.6553093755436,,,59.1399998664856,28,0.204292913290216,0.281359376896686
2011-06-01T04:34:05Z,1306902845,10B,54.6548292,24.4262618,30.24,0,-0.3,217.2,-162025.58,-191498.94,218.1,Air+FixedWing,Blue,Enemies,J-11A,Blue J-11A #006,cn,[51☭] Yambo (P),0.015625,0,4.59156936775547e-05,30.2399997711182,2.23999977111816,0.015625,0,NaN,NaN,0,0,NaN,0.999999301724929,0.00196625493761567,-0.00272834135620102,1.220703125e-05,29.6553093755436,29.6553215825748,,,60.1399998664856,28,0.204292913290216,0.281359376896686
2011-06-01T04:34:06Z,1306902846,10B,54.6548292,24.4262618,30.24,0,-0.3,217.2,-162025.58,-191498.95,218.1,Air+FixedWing,Blue,Enemies,J-11A,Blue J-11A #006,cn,[51☭] Yambo (P),0.015625,0,4.59156936775547e-05,30.2399997711182,2.23999977111816,0.015625,0,NaN,NaN,0,0,NaN,0.999973041721537,-0.00196625493761567,-0.00774358750851646,1.220703125e-05,29.6553093755436,29.6553215825748,,,61.1399998664856,28,0.204292913290216,0.281359376896686
2011-06-01T04:34:07Z,1306902847,10B,54.6548292,24.4262618,30.24,0,-0.3,217.2,-162025.58,-191498.94,218.1,Air+FixedWing,Blue,Enemies,J-11A,Blue J-11A #006,cn,[51☭] Yambo (P),0.015625,0,4.59156936775547e-05,30.2399997711182,2.23999977111816,0.015625,0,NaN,NaN,0,0,NaN,0.999999301724929,0.00196625493761567,-0.00272834135620102,1.220703125e-05,29.6553093755436,29.6553215825748,,,62.1399998664856,28,0.204292913290216,0.281359376896686
2011-06-01T04:34:08Z,1306902848,10B,54.6548292,24.4262618,30.24,0,-0.3,217.2,-162025.58,-191498.95,218.1,Air+FixedWing,Blue,Enemies,J-11A,Blue J-11A #006,cn,[51☭] Yambo (P),0.015625,0,4.59156936775547e-05,30.2399997711182,2.23999977111816,0.015625,0,NaN,NaN,0,0,NaN,0.999973041721537,-0.00196625493761567,-0.00774358750851646,1.220703125e-05,29.6553093755436,29.6553215825748,,,63.1399998664856,28,0.204292913290216,0.281359376896686
2011-06-01T04:34:09Z,1306902849,10B,54.6548292,24.4262618,30.24,0,-0.3,217.2,-162025.58,-191498.94,218.1,Air+FixedWing,Blue,Enemies,J-11A,Blue J-11A #006,cn,[51☭] Yambo (P),0.015625,0,4.59156936775547e-05,30.2399997711182,2.23999977111816,0.015625,0,NaN,NaN,0,0,NaN,0.999999301724929,0.00196625493761567,-0.00272834135620102,1.220703125e-05,29.6553093755436,29.6553215825748,,,64.1399998664856,28,0.204292913290216,0.281359376896686
2011-06-01T04:34:10Z,1306902850,10B,54.6548292,24.4262618,30.24,0,-0.3,217.2,-162025.58,-191498.95,218.1,Air+FixedWing,Blue,Enemies,J-11A,Blue J-11A #006,cn,[51☭] Yambo (P),0.015625,0,4.59156936775547e-05,30.2399997711182,2.23999977111816,0.015625,0,NaN,NaN,0,0.0342640208323925,NaN,0.999973048268348,-0.00196784849164602,-0.00774233714925884,1.220703125e-05,29.6553093755436,29.6553215825748,,,65.1399998664856,28,0.204292913290216,0.281359376896686
2011-06-01T04:34:11Z,1306902851,10B,54.6548292,24.4262618,30.24,0,-0.3,217.2,-162025.58,-191498.94,218.2,Air+FixedWing,Blue,Enemies,J-11A,Blue J-11A #006,cn,[51☭] Yambo (P),0.015625,0,4.59156936775547e-05,30.2399997711182,2.23999977111816,0.015625,0,NaN,NaN,0,0.0541761800424684,NaN,0.999999284775618,0.001970375378205,-0.00273157895522635,1.220703125e-05,29.6553093755436,29.6553215825748,,,66.1399998664856,28,0.204292913290216,0.281359376896686
2011-06-01T04:34:12Z,1306902852,10B,54.6548292,24.4262618,30.24,0,-0.3,217.2,-162025.58,-191498.95,218.1,Air+FixedWing,Blue,Enemies,J-11A,Blue J-11A #006,cn,[51☭] Yambo (P),0.015625,0,4.59156936775547e-05,30.2399997711182,2.23999977111816,0.015625,0,NaN,NaN,0,0.00989117029631303,NaN,0.999979606722385,-0.000983127468807834,-0.0064897759704376,1.220703125e-05,29.6553093755436,29.6553215825748,,,67.1399998664856,28,0.204292913290216,0.281359376896686
2011-06-01T04:34:13Z,1306902853,10B,54.6548292,24.4262618,30.24,0,-0.3,217.2,-162025.58,-191498.95,218.1,Air+FixedWing,Blue,Enemies,J-11A,Blue J-11A #006,cn,[51☭] Yambo (P),0,0,0,30.2399997711182,2.23999977111816,0,0,NaN,NaN,0,0.0419646855956116,NaN,0.999979608819294,-0.000983637860356023,-0.00648937541236631,0,29.6553093755436,29.6553093755436,,,68.1399998664856,28,0.204292913290216,0.281359376896686
2011-06-01T04:34:14Z,1306902854,10B,54.6548292,24.4262618,30.24,0,-0.3,217.2,-162025.58,-191498.94,218.1,Air+FixedWing,Blue,Enemies,J-11A,Blue J-11A #006,cn,[51☭] Yambo (P),0.015625,0,4.59156936775547e-05,30.2399997711182,2.23999977111816,0.015625,0,NaN,NaN,0,0.0370093733476075,NaN,0.999999296332735,0.00196756756213961,-0.00272937121796947,1.220703125e-05,29.6553093755436,29.6553215825748,,,69.1399998664856,28,0.204292913290216,0.281359376896686
2011-06-01T04:34:15Z,1306902855,10B,54.6548292,24.4262618,30.24,0,-0.3,217.2,-162025.58,-191498.95,218.1,Air+FixedWing,Blue,Enemies,J-11A,Blue J-11A #006,cn,[51☭] Yambo (P),0.015625,0,4.59156936775547e-05,30.2399997711182,2.23999977111816,0.015625,0,NaN,NaN,0.161902804085982,0.0504352774299245,NaN,0.999973041721537,-0.00196625493761567,-0.00774358750851646,1.220703125e-05,29.6553093755436,29.6553215825748,,,70.1399998664856,28,0.204292913290216,0.281359376896686
2011-06-01T04:34:16Z,1306902856,10B,54.6548292,24.4262618,30.24,0,-0.3,217.2,-162025.58,-191498.94,218.1,Air+FixedWing,Blue,Enemies,J-11A,Blue J-11A #006,cn,[51☭] Yambo (P),0.015625,0,4.59156936775547e-05,30.2399997711182,2.23999977111816,0.015625,0,NaN,NaN,0,0.0197823405926261,NaN,0.99999273658684,0.000983160396846642,-0.00398217938061238,1.220703125e-05,29.6553093755436,29.6553215825748,,,71.1399998664856,28,0.204292913290216,0.281359376896686
2011-06-01T04:34:17Z,1306902857,10B,54.6548292,24.4262618,30.24,0,-0.3,217.2,-162025.58,-191498.94,218.2,Air+FixedWing,Blue,Enemies,J-11A,Blue J-11A #006,cn,[51☭] Yambo (P),0,0,0,30.2399997711182,2.23999977111816,0,0,NaN,NaN,0,0.0383083399245797,NaN,0.999986171723233,-0,-0.00523596443235874,0,29.6553093755436,29.6553093755436,,,72.1399998664856,28,0.204292913290216,0.281359376896686
2011-06-01T04:34:18Z,1306902858,10B,54.6548292,24.4262618,30.24,0,-0.3,217.2,-162025.58,-191498.94,218.1,Air+FixedWing,Blue,Enemies,J-11A,Blue J-11A #006,cn,[51☭] Yambo (P),0,0,0,30.2399997711182,2.23999977111816,0,0,NaN,NaN,0,0.0279764548403722,NaN,0.999986171723233,-0,-0.00523596443235874,0,29.6553093755436,29.6553093755436,,,73.1399998664856,28,0.204292913290216,0.281359376896686
2011-06-01T04:34:19Z,1306902859,10B,54.6548292,24.4262618,30.24,0,-0.3,217.2,-162025.58,-191498.94,218.2,Air+FixedWing,Blue,Enemies,J-11A,Blue J-11A #006,cn,[51☭] Yambo (P),0,0,0,30.2399997711182,2.23999977111816,0,0,NaN,NaN,0,0.0221173298063182,NaN,0.999986171723233,-0,-0.00523596443235874,0,29.6553093755436,29.6553093755436,,,74.1399998664856,28,0.204292913290216,0.281359376896686
2011-06-01T04:34:20Z,1306902860,10B,54.6548292,24.4262618,30.24,0,-0.3,217.2,-162025.58,-191498.94,218.1,Air+FixedWing,Blue,Enemies,J-11A,Blue J-11A #006,cn,[51☭] Yambo (P),0,0,0,30.2399997711182,2.23999977111816,0,0,NaN,NaN,0,0.0484566469995765,NaN,0.998966446517843,-0,-0.00523062511354302,0,29.6553093755436,29.6553093755436,,,75.1399998664856,28,0.204292913290216,0.281359376896686
2011-06-01T04:34:21Z,1306902861,10B,54.6548291,24.4262619,30.23,0.1,-0.3,217.2,-162025.58,-191498.94,218.1,Air+FixedWing,Blue,Enemies,J-11A,Blue J-11A #006,cn,[51☭] Yambo (P),0.0100002288818359,0,2.93867132352692e-05,30.2299995422363,2.22999954223633,0,-0.0100002288818359,NaN,NaN,0.199987938897973,0.0197823405926261,NaN,1.00100440538076,0.0017470841488041,-0.00524130375253827,5.00022888445528e-06,29.6455025010872,29.6455075013161,,,76.1399998664856,28,0.218715616298882,0.298909901825689
2011-06-01T04:34:22Z,1306902862,10B,54.6548291,24.4262619,30.23,0.1,-0.3,217.2,-162025.58,-191498.94,218.1,Air+FixedWing,Blue,Enemies,J-11A,Blue J-11A #006,cn,[51☭] Yambo (P),0,0,0,30.2299995422363,2.22999954223633,0,0,NaN,NaN,0,0,NaN,0.99998468162763,0.00174530439271087,-0.00523596443235874,0,29.6455025010872,29.6455025010872,,,77.1399998664856,28,0.219680908835519,0.299875198478519
2011-06-01T04:34:23Z,1306902863,10B,54.6548292,24.4262619,30.23,0.1,-0.3,217.2,-162025.58,-191498.94,218.1,Air+FixedWing,Blue,Enemies,J-11A,Blue J-11A #006,cn,[51☭] Yambo (P),0,0,0,30.2299995422363,2.22999954223633,0,0,NaN,NaN,0.00950762332465775,0.0726849788369981,NaN,0.999985337275607,0.00166220069095158,-0.00515285972505808,0,29.6455025010872,29.6455025010872,,,78.1399998664856,28,0.229830336241905,0.310024673809927
2011-06-01T04:34:24Z,1306902864,10B,54.6548292,24.4262618,30.23,0,-0.2,217.2,-162025.58,-191498.94,218.1,Air+FixedWing,Blue,Enemies,J-11A,Blue J-11A #006,cn,[51☭] Yambo (P),0,0,0,30.2299995422363,2.22999954223633,0,0,NaN,NaN,0.0857090223361951,0.0523391626455858,NaN,0.999998117049799,0.000983544097815743,-0.00223715759146382,0,29.6455025010872,29.6455025010872,,,79.1399998664856,28,0.240432193282529,0.320626581375544
2011-06-01T04:34:25Z,1306902865,10B,54.6548292,24.4262618,30.23,0,-0.2,217.2,-162025.58,-191498.95,218.2,Air+FixedWing,Blue,Enemies,J-11A,Blue J-11A #006,cn,[51☭] Yambo (P),0.015625,0,4.59156885033999e-05,30.2299995422363,2.22999954223633,0.015625,0,NaN,NaN,0,0.0197823405926261,NaN,0.999985000148754,-0.00197062845550712,-0.00599485822462464,1.220703125e-05,29.6455025010872,29.6455147081184,,,80.1399998664856,28,0.243810713455372,0.324005116652774
2011-06-01T04:34:26Z,1306902866,10B,54.6548292,24.4262618,30.23,0,-0.2,217.2,-162025.58,-191498.94,218.2,Air+FixedWing,Blue,Enemies,J-11A,Blue J-11A #006,cn,[51☭] Yambo (P),0.015625,0,4.59156885033999e-05,30.2299995422363,2.22999954223633,0.015625,0,NaN,NaN,0,0.0197823405926261,NaN,0.999998112194625,0.000985314227753558,-0.00223854847497779,1.220703125e-05,29.6455025010872,29.6455147081184,,,81.1399998664856,28,0.247189233628215,0.327383651930003
2011-06-01T04:34:27Z,1306902867,10B,54.6548292,24.4262618,30.23,0.1,-0.2,217.2,-162025.58,-191498.94,218.1,Air+FixedWing,Blue,Enemies,J-11A,Blue J-11A #006,cn,[51☭] Yambo (P),0,0,0,30.2299995422363,2.22999954223633,0,0,NaN,NaN,0.0475927581366489,0.0395646845203054,NaN,0.999992907052814,0.00132979175434561,-0.00349065172486007,0,29.6455025010872,29.6455025010872,,,82.1399998664856,28,0.247189233628215,0.327383651930003
2011-06-01T04:34:28Z,1306902868,10B,54.6548292,24.4262619,30.23,0,-0.2,217.2,-162025.58,-191498.94,218.1,Air+FixedWing,Blue,Enemies,J-11A,Blue J-11A #006,cn,[51☭] Yambo (P),0,0,0,30.2299995422363,2.22999954223633,0,0,NaN,NaN,0.123817669273991,0.0171320104161963,NaN,0.999993741512668,-0,-0.00349065172486007,0,29.6455025010872,29.6455025010872,,,83.1399998664856,28,0.257309187940122,0.337503654646994
2011-06-01T04:34:29Z,1306902869,10B,54.6548292,24.4262618,30.23,0,-0.2,217.2,-162025.58,-191498.94,218.1,Air+FixedWing,Blue,Enemies,J-11A,Blue J-11A #006,cn,[51☭] Yambo (P),0,0,0,30.2299995422363,2.22999954223633,0,0,NaN,NaN,0,0.0523391626455858,NaN,0.999993741512668,-0,-0.00349065172486007,0,29.6455025010872,29.6455025010872,,,84.1399998664856,28,0.267429142252028,0.347623657363984
2011-06-01T04:34:30Z,1306902870,10B,54.6548292,24.4262618,30.23,0,-0.2,217.2,-162025.58,-191498.94,218.2,Air+FixedWing,Blue,Enemies,J-11A,Blue J-11A #006,cn,[51☭] Yambo (P),0,0,0,30.2299995422363,2.22999954223633,0,0,NaN,NaN,0,0.0523391626455858,NaN,0.999993741512668,-0,-0.00349065172486007,0,29.6455025010872,29.6455025010872,,,85.1399998664856,28,0.267429142252028,0.347623657363984
2011-06-01T04:34:31Z,1306902871,10B,54.6548292,24.4262618,30.23,0,-0.2,217.2,-162025.58,-191498.94,218.2,Air+FixedWing,Blue,Enemies,J-11A,Blue J-11A #006,cn,[51☭] Yambo (P),0,0,0,30.2299995422363,2.22999954223633,0,0,NaN,NaN,0,0.0139882274201861,NaN,0.999993741512668,-0,-0.00349065172486007,0,29.6455025010872,29.6455025010872,,,86.1399998664856,28,0.271634326394836,0.351828860886311
2011-06-01T04:34:32Z,1306902872,10B,54.6548291,24.4262618,30.23,0,-0.2,217.2,-162025.58,-191498.94,218.2,Air+FixedWing,Blue,Enemies,J-11A,Blue J-11A #006,cn,[51☭] Yambo (P),0,0,0,30.2299995422363,2.22999954223633,0,0,NaN,NaN,0,0.0484566469995765,NaN,0.999993741512668,-0,-0.00349065172486007,0,29.6455025010872,29.6455025010872,,,87.1399998664856,28,0.277025590017337,0.357220150221562
2011-06-01T04:34:33Z,1306902873,10B,54.6548292,24.4262619,30.23,0.1,-0.2,217.2,-162025.58,-191498.94,218.2,Air+FixedWing,Blue,Enemies,J-11A,Blue J-11A #006,cn,[51☭] Yambo (P),0,0,0,30.2299995422363,2.22999954223633,0,0,NaN,NaN,0,0.0139882274201861,NaN,0.999992251405786,0.00174531760448032,-0.00349065172486007,0,29.6455025010872,29.6455025010872,,,88.1399998664856,28,0.291722939695577,0.371917570105002
2011-06-01T04:34:34Z,1306902874,10B,54.6548292,24.4262619,30.23,0,-0.2,217.2,-162025.58,-191498.94,218.2,Air+FixedWing,Blue,Enemies,J-11A,Blue J-11A #006,cn,[51☭] Yambo (P),0,0,0,30.2299995422363,2.22999954223633,0,0,NaN,NaN,0.125019782567913,0.0484566469995765,NaN,0.999993622304117,0.000589114745452951,-0.00349065172486007,0,29.6455025010872,29.6455025010872,,,89.1399998664856,28,0.291722939695577,0.371917570105002
2011-06-01T04:34:35Z,1306902875,10B,54.6548292,24.4262619,30.23,0,-0.2,217.2,-162025.58,-191498.94,218.2,Air+FixedWing,Blue,Enemies,J-11A,Blue J-11A #006,cn,[51☭] Yambo (P),0,0,0,30.2299995422363,2.22999954223633,0,0,NaN,NaN,0.192010277947398,0.0139882274201861,NaN,0.999993741512668,-0,-0.00349065172486007,0,29.6455025010872,29.6455025010872,,,90.1399998664856,28,0.292783124441974,0.372977760053683
2011-06-01T04:34:36Z,1306902876,10B,54.6548292,24.4262619,30.23,0,-0.2,217.2,-162025.58,-191498.94,218.2,Air+FixedWing,Blue,Enemies,J-11A,Blue J-11A #006,cn,[51☭] Yambo (P),0,0,0,30.2299995422363,2.22999954223633,0,0,NaN,NaN,0,0.0139882274201861,NaN,0.999993741512668,-0,-0.00349065172486007,0,29.6455025010872,29.6455025010872,,,91.1399998664856,28,0.293843309188371,0.374037950002363
2011-06-01T04:34:37Z,1306902877,10B,54.6548292,24.4262618,30.23,0,-0.2,217.2,-162025.58,-191498.94,218.2,Air+FixedWing,Blue,Enemies,J-11A,Blue J-11A #006,cn,[51☭] Yambo (P),0,0,0,30.2299995422363,2.22999954223633,0,0,NaN,NaN,0,0.0139882274201861,NaN,0.999998112194625,0.000985314227753558,-0.00223854847497779,0,29.6455025010872,29.6455025010872,,,92.1399998664856,28,0.302324796734649,0.382519478408739
2011-06-01T04:34:38Z,1306902878,10B,54.6548292,24.4262618,30.23,0,-0.2,217.2,-162025.58,-191498.95,218.2,Air+FixedWing,Blue,Enemies,J-11A,Blue J-11A #006,cn,[51☭] Yambo (P),0.015625,0,4.59156885033999e-05,30.2299995422363,2.22999954223633,0.015625,0,NaN,NaN,0,0.0139882274201861,NaN,0.999985000148754,-0.00197062845550712,-0.00599485822462464,1.220703125e-05,29.6455025010872,29.6455147081184,,,93.1399998664856,28,0.304975257751901,0.385169952173261
2011-06-01T04:34:39Z,1306902879,10B,54.6548292,24.4262618,30.23,0,-0.2,217.2,-162025.58,-191498.94,218.2,Air+FixedWing,Blue,Enemies,J-11A,Blue J-11A #006,cn,[51☭] Yambo (P),0.015625,0,4.59156885033999e-05,30.2299995422363,2.22999954223633,0.015625,0,NaN,NaN,0,0.0139882274201861,NaN,1.00000248287658,0.00197062845550712,-0.000986445225095502,1.220703125e-05,29.6455025010872,29.6455147081184,,,94.1399998664856,28,0.304975257751901,0.385169952173261
2011-06-01T04:34:40Z,1306902880,10B,54.6548292,24.4262618,30.23,0,-0.2,217.2,-162025.58,-191498.95,218.2,Air+FixedWing,Blue,Enemies,J-11A,Blue J-11A #006,cn,[51☭] Yambo (P),0.015625,0,4.59156885033999e-05,30.2299995422363,2.22999954223633,0.015625,0,NaN,NaN,0,0.0139882274201861,NaN,0.999989370830711,-0.000985314227753558,-0.00474275497474236,1.220703125e-05,29.6455025010872,29.6455147081184,,,95.1399998664856,28,0.304975257751901,0.385169952173261
2011-06-01T04:34:41Z,1306902881,10B,54.6548292,24.4262618,30.23,0,-0.2,217.2,-162025.58,-191498.95,218.2,Air+FixedWing,Blue,Enemies,J-11A,Blue J-11A #006,cn,[51☭] Yambo (P),0,0,0,30.2299995422363,2.22999954223633,0,0,NaN,NaN,0,0.0139882274201861,NaN,0.999993741512668,-0,-0.00349065172486007,0,29.6455025010872,29.6455025010872,,,96.1399998664856,28,0.304975257751901,0.385169952173261
2011-06-01T04:34:42Z,1306902882,10B,54.6548292,24.4262618,30.23,0,-0.2,217.2,-162025.58,-191498.95,218.2,Air+FixedWing,Blue,Enemies,J-11A,Blue J-11A #006,cn,[51☭] Yambo (P),0,0,0,30.2299995422363,2.22999954223633,0,0,NaN,NaN,0,0.0139882274201861,NaN,0.999993741512668,-0,-0.00349065172486007,0,29.6455025010872,29.6455025010872,,,97.1399998664856,28,0.304975257751901,0.385169952173261
2011-06-01T04:34:43Z,1306902883,10B,54.6548292,24.4262618,30.23,0,-0.2,217.2,-162025.58,-191498.95,218.2,Air+FixedWing,Blue,Enemies,J-11A,Blue J-11A #006,cn,[51☭] Yambo (P),0,0,0,30.2299995422363,2.22999954223633,0,0,NaN,NaN,0,0.0139882274201861,NaN,0.999989370830711,-0.000985314227753558,-0.00474275497474236,0,29.6455025010872,29.6455025010872,,,98.1399998664856,28,0.304975257751901,0.385169952173261
2011-06-01T04:34:44Z,1306902884,10B,54.6548292,24.4262618,30.23,0,-0.2,217.2,-162025.58,-191498.94,218.2,Air+FixedWing,Blue,Enemies,J-11A,Blue J-11A #006,cn,[51☭] Yambo (P),0.015625,0,4.59156885033999e-05,30.2299995422363,2.22999954223633,0.015625,0,NaN,NaN,0,0.0139882274201861,NaN,0.999998112194625,0.000985314227753558,-0.00223854847497779,1.220703125e-05,29.6455025010872,29.6455147081184,,,99.1399998664856,28,0.304975257751901,0.385169952173261
2011-06-01T04:34:45Z,1306902885,10B,54.6548292,24.4262618,30.23,0,-0.2,217.2,-162025.58,-191498.94,218.2,Air+FixedWing,Blue,Enemies,J-11A,Blue J-11A #006,cn,[51☭] Yambo (P),0,0,0,30.2299995422363,2.22999954223633,0,0,NaN,NaN,0,0.0139882274201861,NaN,0.999993741512668,-0,-0.00349065172486007,0,29.6455025010872,29.6455025010872,,,100.139999866486,28,0.304975257751901,0.385169952173261
2011-06-01T04:34:46Z,1306902886,10B,54.6548292,24.4262618,30.23,0,-0.2,217.2,-162025.58,-191498.94,218.2,Air+FixedWing,Blue,Enemies,J-11A,Blue J-11A #006,cn,[51☭] Yambo (P),0,0,0,30.2299995422363,2.22999954223633,0,0,NaN,NaN,0,0.0139882274201861,NaN,0.999993741512668,-0,-0.00349065172486007,0,29.6455025010872,29.6455025010872,,,101.139999866486,28,0.304975257751901,0.385169952173261
2011-06-01T04:34:47Z,1306902887,10B,54.6548292,24.4262618,30.23,0,-0.2,217.2,-162025.58,-191498.94,218.2,Air+FixedWing,Blue,Enemies,J-11A,Blue J-11A #006,cn,[51☭] Yambo (P),0,0,0,30.2299995422363,2.22999954223633,0,0,NaN,NaN,0,0.0139882274201861,NaN,0.999993741512668,-0,-0.00349065172486007,0,29.6455025010872,29.6455025010872,,,102.139999866486,28,0.304975257751901,0.385169952173261
2011-06-01T04:34:48Z,1306902888,10B,54.6548292,24.4262618,30.23,0,-0.2,217.2,-162025.58,-191498.94,218.2,Air+FixedWing,Blue,Enemies,J-11A,Blue J-11A #006,cn,[51☭] Yambo (P),0,0,0,30.2299995422363,2.22999954223633,0,0,NaN,NaN,0,0.0139882274201861,NaN,0.999998112194625,0.000985314227753558,-0.00223854847497779,0,29.6455025010872,29.6455025010872,,,103.139999866486,28,0.304975257751901,0.385169952173261
2011-06-01T04:34:49Z,1306902889,10B,54.6548292,24.4262618,30.23,0,-0.2,217.2,-162025.58,-191498.95,218.2,Air+FixedWing,Blue,Enemies,J-11A,Blue J-11A #006,cn,[51☭] Yambo (P),0.015625,0,4.59156885033999e-05,30.2299995422363,2.22999954223633,0.015625,0,NaN,NaN,0,0.0139882274201861,NaN,0.999985000148754,-0.00197062845550712,-0.00599485822462464,1.220703125e-05,29.6455025010872,29.6455147081184,,,104.139999866486,28,0.304975257751901,0.385169952173261
2011-06-01T04:34:50Z,1306902890,10B,54.6548292,24.4262618,30.23,0,-0.2,217.2,-162025.58,-191498.94,218.2,Air+FixedWing,Blue,Enemies,J-11A,Blue J-11A #006,cn,[51☭] Yambo (P),0.015625,0,4.59156885033999e-05,30.2299995422363,2.22999954223633,0.015625,0,NaN,NaN,0,0.0139882274201861,NaN,0.999998112194625,0.000985314227753558,-0.00223854847497779,1.220703125e-05,29.6455025010872,29.6455147081184,,,105.139999866486,28,0.304975257751901,0.385169952173261
2011-06-01T04:34:51Z,1306902891,10B,54.6548292,24.4262618,30.23,0,-0.2,217.2,-162025.58,-191498.94,218.2,Air+FixedWing,Blue,Enemies,J-11A,Blue J-11A #006,cn,[51☭] Yambo (P),0,0,0,30.2299995422363,2.22999954223633,0,0,NaN,NaN,0,0.0139882274201861,NaN,0.999998112194625,0.000985314227753558,-0.00223854847497779,0,29.6455025010872,29.6455025010872,,,106.139999866486,28,0.304975257751901,0.385169952173261
2011-06-01T04:34:52Z,1306902892,10B,54.6548292,24.4262618,30.23,0,-0.2,217.2,-162025.58,-191498.95,218.2,Air+FixedWing,Blue,Enemies,J-11A,Blue J-11A #006,cn,[51☭] Yambo (P),0.015625,0,4.59156885033999e-05,30.2299995422363,2.22999954223633,0.015625,0,NaN,NaN,0,0.0139882274201861,NaN,0.999989370830711,-0.000985314227753558,-0.00474275497474236,1.220703125e-05,29.6455025010872,29.6455147081184,,,107.139999866486,28,0.304975257751901,0.385169952173261
2011-06-01T04:34:53Z,1306902893,10B,54.6548292,24.4262618,30.23,0,-0.2,217.2,-162025.58,-191498.95,218.2,Air+FixedWing,Blue,Enemies,J-11A,Blue J-11A #006,cn,[51☭] Yambo (P),0,0,0,30.2299995422363,2.22999954223633,0,0,NaN,NaN,0,0.0139882274201861,NaN,0.999993741512668,-0,-0.00349065172486007,0,29.6455025010872,29.6455025010872,,,108.139999866486,28,0.304975257751901,0.385169952173261
2011-06-01T04:34:54Z,1306902894,10B,54.6548292,24.4262618,30.23,0,-0.2,217.2,-162025.58,-191498.95,218.2,Air+FixedWing,Blue,Enemies,J-11A,Blue J-11A #006,cn,[51☭] Yambo (P),0,0,0,30.2299995422363,2.22999954223633,0,0,NaN,NaN,0,0.0139882274201861,NaN,0.999989370830711,-0.000985314227753558,-0.00474275497474236,0,29.6455025010872,29.6455025010872,,,109.139999866486,28,0.304975257751901,0.385169952173261
2011-06-01T04:34:55Z,1306902895,10B,54.6548292,24.4262618,30.23,0,-0.2,217.2,-162025.58,-191498.94,218.2,Air+FixedWing,Blue,Enemies,J-11A,Blue J-11A #006,cn,[51☭] Yambo (P),0.015625,0,4.59156885033999e-05,30.2299995422363,2.22999954223633,0.015625,0,NaN,NaN,0,0.0139882274201861,NaN,0.999998112194625,0.000985314227753558,-0.00223854847497779,1.220703125e-05,29.6455025010872,29.6455147081184,,,110.139999866486,28,0.304975257751901,0.385169952173261
2011-06-01T04:34:56Z,1306902896,10B,54.6548292,24.4262618,30.23,0,-0.2,217.2,-162025.58,-191498.94,218.2,Air+FixedWing,Blue,Enemies,J-11A,Blue J-11A #006,cn,[51☭] Yambo (P),0,0,0,30.2299995422363,2.22999954223633,0,0,NaN,NaN,0,0.0139882274201861,NaN,0.999993741512668,-0,-0.00349065172486007,0,29.6455025010872,29.6455025010872,,,111.139999866486,28,0.304975257751901,0.385169952173261
2011-06-01T04:34:57Z,1306902897,10B,54.6548292,24.4262618,30.23,0,-0.2,217.2,-162025.58,-191498.94,218.2,Air+FixedWing,Blue,Enemies,J-11A,Blue J-11A #006,cn,[51☭] Yambo (P),0,0,0,30.2299995422363,2.22999954223633,0,0,NaN,NaN,0,0.0139882274201861,NaN,0.999998112194625,0.000985314227753558,-0.00223854847497779,0,29.6455025010872,29.6455025010872,,,112.139999866486,28,0.304975257751901,0.385169952173261
2011-06-01T04:34:58Z,1306902898,10B,54.6548292,24.4262618,30.23,0,-0.2,217.2,-162025.58,-191498.95,218.2,Air+FixedWing,Blue,Enemies,J-11A,Blue J-11A #006,cn,[51☭] Yambo (P),0.015625,0,4.59156885033999e-05,30.2299995422363,2.22999954223633,0.015625,0,NaN,NaN,0,0.0139882274201861,NaN,0.999989370830711,-0.000985314227753558,-0.00474275497474236,1.220703125e-05,29.6455025010872,29.6455147081184,,,113.139999866486,28,0.304975257751901,0.385169952173261
2011-06-01T04:34:59Z,1306902899,10B,54.6548292,24.4262618,30.23,0,-0.2,217.2,-162025.58,-191498.95,218.2,Air+FixedWing,Blue,Enemies,J-11A,Blue J-11A #006,cn,[51☭] Yambo (P),0,0,0,30.2299995422363,2.22999954223633,0,0,NaN,NaN,0,0.0139882274201861,NaN,0.999993741512668,-0,-0.00349065172486007,0,29.6455025010872,29.6455025010872,,,114.139999866486,28,0.304975257751901,0.385169952173261
2011-06-01T04:35:00Z,1306902900,10B,54.6548292,24.4262618,30.23,0,-0.2,217.2,-162025.58,-191498.95,218.2,Air+FixedWing,Blue,Enemies,J-11A,Blue J-11A #006,cn,[51☭] Yambo (P),0,0,0,30.2299995422363,2.22999954223633,0,0,NaN,NaN,0,0.0139882274201861,NaN,0.999993741512668,-0,-0.00349065172486007,0,29.6455025010872,29.6455025010872,,,115.139999866486,28,0.304975257751901,0.385169952173261
2011-06-01T04:35:01Z,1306902901,10B,54.6548292,24.4262618,30.23,0,-0.2,217.2,-162025.58,-191498.95,218.2,Air+FixedWing,Blue,Enemies,J-11A,Blue J-11A #006,cn,[51☭] Yambo (P),0,0,0,30.2299995422363,2.22999954223633,0,0,NaN,NaN,0,0.0139882274201861,NaN,0.999989370830711,-0.000985314227753558,-0.00474275497474236,0,29.6455025010872,29.6455025010872,,,116.139999866486,28,0.304975257751901,0.385169952173261
2011-06-01T04:35:02Z,1306902902,10B,54.6548292,24.4262618,30.23,0,-0.2,217.2,-162025.58,-191498.94,218.2,Air+FixedWing,Blue,Enemies,J-11A,Blue J-11A #006,cn,[51☭] Yambo (P),0.015625,0,4.59156885033999e-05,30.2299995422363,2.22999954223633,0.015625,0,NaN,NaN,0,0.0139882274201861,NaN,1.00000248287658,0.00197062845550712,-0.000986445225095502,1.220703125e-05,29.6455025010872,29.6455147081184,,,117.139999866486,28,0.304975257751901,0.385169952173261
2011-06-01T04:35:03Z,1306902903,10B,54.6548292,24.4262618,30.23,0,-0.2,217.2,-162025.58,-191498.95,218.2,Air+FixedWing,Blue,Enemies,J-11A,Blue J-11A #006,cn,[51☭] Yambo (P),0.015625,0,4.59156885033999e-05,30.2299995422363,2.22999954223633,0.015625,0,NaN,NaN,0,0.0139882274201861,NaN,0.999985000148754,-0.00197062845550712,-0.00599485822462464,1.220703125e-05,29.6455025010872,29.6455147081184,,,118.139999866486,28,0.304975257751901,0.385169952173261
2011-06-01T04:35:04Z,1306902904,10B,54.6548292,24.4262618,30.23,0,-0.2,217.2,-162025.58,-191498.94,218.2,Air+FixedWing,Blue,Enemies,J-11A,Blue J-11A #006,cn,[51☭] Yambo (P),0.015625,0,4.59156885033999e-05,30.2299995422363,2.22999954223633,0.015625,0,NaN,NaN,0,0.0139882274201861,NaN,1.00000248287658,0.00197062845550712,-0.000986445225095502,1.220703125e-05,29.6455025010872,29.6455147081184,,,119.139999866486,28,0.304975257751901,0.385169952173261
2011-06-01T04:35:05Z,1306902905,10B,54.6548292,24.4262618,30.23,0,-0.2,217.2,-162025.58,-191498.95,218.2,Air+FixedWing,Blue,Enemies,J-11A,Blue J-11A #006,cn,[51☭] Yambo (P),0.015625,0,4.59156885033999e-05,30.2299995422363,2.22999954223633,0.015625,0,NaN,NaN,0,0.0139882274201861,NaN,0.999989370830711,-0.000985314227753558,-0.00474275497474236,1.220703125e-05,29.6455025010872,29.6455147081184,,,120.139999866486,28,0.304975257751901,0.385169952173261
2011-06-01T04:35:06Z,1306902906,10B,54.6548292,24.4262618,30.23,0,-0.2,217.2,-162025.58,-191498.95,218.2,Air+FixedWing,Blue,Enemies,J-11A,Blue J-11A #006,cn,[51☭] Yambo (P),0,0,0,30.2299995422363,2.22999954223633,0,0,NaN,NaN,0,0.0139882274201861,NaN,0.999989370830711,-0.000985314227753558,-0.00474275497474236,0,29.6455025010872,29.6455025010872,,,121.139999866486,28,0.304975257751901,0.385169952173261
2011-06-01T04:35:07Z,1306902907,10B,54.6548292,24.4262618,30.23,0,-0.2,217.2,-162025.58,-191498.94,218.2,Air+FixedWing,Blue,Enemies,J-11A,Blue J-11A #006,cn,[51☭] Yambo (P),0.015625,0,4.59156885033999e-05,30.2299995422363,2.22999954223633,0.015625,0,NaN,NaN,0,0.0139882274201861,NaN,0.999998112194625,0.000985314227753558,-0.00223854847497779,1.220703125e-05,29.6455025010872,29.6455147081184,,,122.139999866486,28,0.304975257751901,0.385169952173261
2011-06-01T04:35:08Z,1306902908,10B,54.6548292,24.4262618,30.23,0,-0.2,217.2,-162025.58,-191498.94,218.2,Air+FixedWing,Blue,Enemies,J-11A,Blue J-11A #006,cn,[51☭] Yambo (P),0,0,0,30.2299995422363,2.22999954223633,0,0,NaN,NaN,0,0.0139882274201861,NaN,0.999998112194625,0.000985314227753558,-0.00223854847497779,0,29.6455025010872,29.6455025010872,,,123.139999866486,28,0.304975257751901,0.385169952173261
2011-06-01T04:35:09Z,1306902909,10B,54.6548292,24.4262618,30.23,0,-0.2,217.2,-162025.58,-191498.95,218.2,Air+FixedWing,Blue,Enemies,J-11A,Blue J-11A #006,cn,[51☭] Yambo (P),0.015625,0,4.59156885033999e-05,30.2299995422363,2.22999954223633,0.015625,0,NaN,NaN,0,0.0139882274201861,NaN,0.999985000148754,-0.00197062845550712,-0.00599485822462464,1.220703125e-05,29.6455025010872,29.6455147081184,,,124.139999866486,28,0.304975257751901,0.385169952173261
2011-06-01T04:35:10Z,1306902910,10B,54.6548292,24.4262618,30.23,0,-0.2,217.2,-162025.58,-191498.94,218.2,Air+FixedWing,Blue,Enemies,J-11A,Blue J-11A #006,cn,[51☭] Yambo (P),0.015625,0,4.59156885033999e-05,30.2299995422363,2.22999954223633,0.015625,0,NaN,NaN,0,0.0139882274201861,NaN,1.00000248287658,0.00197062845550712,-0.000986445225095502,1.220703125e-05,29.6455025010872,29.6455147081184,,,125.139999866486,28,0.304975257751901,0.385169952173261
2011-06-01T04:35:11Z,1306902911,10B,54.6548292,24.4262618,30.23,0,-0.2,217.2,-162025.58,-191498.95,218.2,Air+FixedWing,Blue,Enemies,J-11A,Blue J-11A #006,cn,[51☭] Yambo (P),0.015625,0,4.59156885033999e-05,30.2299995422363,2.22999954223633,0.015625,0,NaN,NaN,0,0.0139882274201861,NaN,0.999985000148754,-0.00197062845550712,-0.00599485822462464,1.220703125e-05,29.6455025010872,29.6455147081184,,,126.139999866486,28,0.304975257751901,0.385169952173261
2011-06-01T04:35:12Z,1306902912,10B,54.6548292,24.4262618,30.23,0,-0.2,217.2,-162025.58,-191498.94,218.2,Air+FixedWing,Blue,Enemies,J-11A,Blue J-11A #006,cn,[51☭] Yambo (P),0.015625,0,4.59156885033999e-05,30.2299995422363,2.22999954223633,0.015625,0,NaN,NaN,0,0.0139882274201861,NaN,1.00000248287658,0.00197062845550712,-0.000986445225095502,1.220703125e-05,29.6455025010872,29.6455147081184,,,127.139999866486,28,0.304975257751901,0.385169952173261
2011-06-01T04:35:13Z,1306902913,10B,54.6548292,24.4262618,30.23,0,-0.2,217.2,-162025.58,-191498.95,218.2,Air+FixedWing,Blue,Enemies,J-11A,Blue J-11A #006,cn,[51☭] Yambo (P),0.015625,0,4.59156885033999e-05,30.2299995422363,2.22999954223633,0.015625,0,NaN,NaN,0,0.0139882274201861,NaN,0.999985000148754,-0.00197062845550712,-0.00599485822462464,1.220703125e-05,29.6455025010872,29.6455147081184,,,128.139999866486,28,0.304975257751901,0.385169952173261
2011-06-01T04:35:14Z,1306902914,10B,54.6548292,24.4262618,30.23,0,-0.2,217.2,-162025.58,-191498.94,218.2,Air+FixedWing,Blue,Enemies,J-11A,Blue J-11A #006,cn,[51☭] Yambo (P),0.015625,0,4.59156885033999e-05,30.2299995422363,2.22999954223633,0.015625,0,NaN,NaN,0,0.0139882274201861,NaN,0.999998112194625,0.000985314227753558,-0.00223854847497779,1.220703125e-05,29.6455025010872,29.6455147081184,,,129.139999866486,28,0.304975257751901,0.385169952173261
2011-06-01T04:35:15Z,1306902915,10B,54.6548292,24.4262618,30.23,0,-0.2,217.2,-162025.58,-191498.94,218.2,Air+FixedWing,Blue,Enemies,J-11A,Blue J-11A #006,cn,[51☭] Yambo (P),0,0,0,30.2299995422363,2.22999954223633,0,0,NaN,NaN,0,0.0139882274201861,NaN,0.999998112194625,0.000985314227753558,-0.00223854847497779,0,29.6455025010872,29.6455025010872,,,130.139999866486,28,0.304975257751901,0.385169952173261
2011-06-01T04:35:16Z,1306902916,10B,54.6548292,24.4262618,30.23,0,-0.2,217.2,-162025.58,-191498.95,218.2,Air+FixedWing,Blue,Enemies,J-11A,Blue J-11A #006,cn,[51☭] Yambo (P),0.015625,0,4.59156885033999e-05,30.2299995422363,2.22999954223633,0.015625,0,NaN,NaN,0,0.0139882274201861,NaN,0.999989370830711,-0.000985314227753558,-0.00474275497474236,1.220703125e-05,29.6455025010872,29.6455147081184,,,131.139999866486,28,0.304975257751901,0.385169952173261
2011-06-01T04:35:17Z,1306902917,10B,54.6548292,24.4262618,30.23,0,-0.2,217.2,-162025.58,-191498.95,218.2,Air+FixedWing,Blue,Enemies,J-11A,Blue J-11A #006,cn,[51☭] Yambo (P),0,0,0,30.2299995422363,2.22999954223633,0,0,NaN,NaN,0,0.0139882274201861,NaN,0.999993741512668,-0,-0.00349065172486007,0,29.6455025010872,29.6455025010872,,,132.139999866486,28,0.304975257751901,0.385169952173261
2011-06-01T04:35:18Z,1306902918,10B,54.6548292,24.4262618,30.23,0,-0.2,217.2,-162025.58,-191498.95,218.2,Air+FixedWing,Blue,Enemies,J-11A,Blue J-11A #006,cn,[51☭] Yambo (P),0,0,0,30.2299995422363,2.22999954223633,0,0,NaN,NaN,0,0.0139882274201861,NaN,0.999989370830711,-0.000985314227753558,-0.00474275497474236,0,29.6455025010872,29.6455025010872,,,133.139999866486,28,0.304975257751901,0.385169952173261
2011-06-01T04:35:19Z,1306902919,10B,54.6548292,24.4262618,30.23,0,-0.2,217.2,-162025.58,-191498.94,218.2,Air+FixedWing,Blue,Enemies,J-11A,Blue J-11A #006,cn,[51☭] Yambo (P),0.015625,0,4.59156885033999e-05,30.2299995422363,2.22999954223633,0.015625,0,NaN,NaN,0,0.0139882274201861,NaN,0.999998112194625,0.000985314227753558,-0.00223854847497779,1.220703125e-05,29.6455025010872,29.6455147081184,,,134.139999866486,28,0.304975257751901,0.385169952173261
2011-06-01T04:35:20Z,1306902920,10B,54.6548292,24.4262618,30.23,0,-0.2,217.2,-162025.58,-191498.94,218.2,Air+FixedWing,Blue,Enemies,J-11A,Blue J-11A #006,cn,[51☭] Yambo (P),0,0,0,30.2299995422363,2.22999954223633,0,0,NaN,NaN,0,0.0139882274201861,NaN,0.999993741512668,-0,-0.00349065172486007,0,29.6455025010872,29.6455025010872,,,135.139999866486,28,0.304975257751901,0.385169952173261
2011-06-01T04:35:21Z,1306902921,10B,54.6548292,24.4262618,30.23,0,-0.2,217.2,-162025.58,-191498.94,218.2,Air+FixedWing,Blue,Enemies,J-11A,Blue J-11A #006,cn,[51☭] Yambo (P),0,0,0,30.2299995422363,2.22999954223633,0,0,NaN,NaN,0,0.0139882274201861,NaN,0.999998112194625,0.000985314227753558,-0.00223854847497779,0,29.6455025010872,29.6455025010872,,,136.139999866486,28,0.304975257751901,0.385169952173261
2011-06-01T04:35:22Z,1306902922,10B,54.6548292,24.4262618,30.23,0,-0.2,217.2,-162025.58,-191498.95,218.2,Air+FixedWing,Blue,Enemies,J-11A,Blue J-11A #006,cn,[51☭] Yambo (P),0.015625,0,4.59156885033999e-05,30.2299995422363,2.22999954223633,0.015625,0,NaN,NaN,0,0.0139882274201861,NaN,0.999989370830711,-0.000985314227753558,-0.00474275497474236,1.220703125e-05,29.6455025010872,29.6455147081184,,,137.139999866486,28,0.304975257751901,0.385169952173261
2011-06-01T04:35:23Z,1306902923,10B,54.6548292,24.4262618,30.23,0,-0.2,217.2,-162025.58,-191498.95,218.2,Air+FixedWing,Blue,Enemies,J-11A,Blue J-11A #006,cn,[51☭] Yambo (P),0,0,0,30.2299995422363,2.22999954223633,0,0,NaN,NaN,0,0.0139882274201861,NaN,0.999989370830711,-0.000985314227753558,-0.00474275497474236,0,29.6455025010872,29.6455025010872,,,138.139999866486,28,0.304975257751901,0.385169952173261
2011-06-01T04:35:24Z,1306902924,10B,54.6548292,24.4262618,30.23,0,-0.2,217.2,-162025.58,-191498.94,218.2,Air+FixedWing,Blue,Enemies,J-11A,Blue J-11A #006,cn,[51☭] Yambo (P),0.015625,0,4.59156885033999e-05,30.2299995422363,2.22999954223633,0.015625,0,NaN,NaN,0,0.0139882274201861,NaN,1.00000248287658,0.00197062845550712,-0.000986445225095502,1.220703125e-05,29.6455025010872,29.6455147081184,,,139.139999866486,28,0.304975257751901,0.385169952173261
2011-06-01T04:35:25Z,1306902925,10B,54.6548292,24.4262618,30.23,0,-0.2,217.2,-162025.58,-191498.95,218.2,Air+FixedWing,Blue,Enemies,J-11A,Blue J-11A #006,cn,[51☭] Yambo (P),0.015625,0,4.59156885033999e-05,30.2299995422363,2.22999954223633,0.015625,0,NaN,NaN,0,0.0139882274201861,NaN,0.999985000148754,-0.00197062845550712,-0.00599485822462464,1.220703125e-05,29.6455025010872,29.6455147081184,,,140.139999866486,28,0.304975257751901,0.385169952173261
