ISOTime,UnixTime,Id,Longitude,Latitude,Altitude,Roll,Pitch,Yaw,U,V,Heading,Type,Color,Coalition,Name,Group,Country,Pilot,TAS,CAS,M,ASL,AGL,GS,VS,AOA,AOS,RRT,TRT,TRD,G,LatG,LonG,Ek,Ep,Em,FFW,FFV,RelativeTime,Elev,GroundDistance,AirDistance
2011-06-01T04:33:27Z,1306902807,10D,54.6572349,24.4245608,30.25,-0.1,0.4,217.1,-161784.77,-191691.52,218.1,Air+FixedWing,Blue,Enemies,J-11A,Blue J-11A #002,cn,[51☭] Teknetinium,0.144706942126889,0,0.000425236488116727,30.2466659545898,2.24666595458984,NaN,NaN,NaN,NaN,0.209513758273467,NaN,NaN,NaN,NaN,NaN,NaN,29.6618466683578,NaN,,,0.700000047683716,28,NaN,NaN
2011-06-01T04:33:28Z,1306902808,10D,54.6572346,24.4245603,30.28,-0.1,-0.4,217.1,-161784.8,-191691.58,218.1,Air+FixedWing,Blue,Enemies,J-11A,Blue J-11A #002,cn,[51☭] Teknetinium,0.0770152283662988,0,0.000226317388168198,30.2790470123291,2.2790470123291,0.0698771242968684,0.0323810577392578,NaN,NaN,0,0.176385112983297,NaN,0.99275778842429,-0.00261603779990838,-0.0182216248075023,0.000296567270015657,29.6936016383457,29.6938982056157,,,1.70000004768372,28,0.0673910522131126,0.074767171176264
2011-06-01T04:33:29Z,1306902809,10D,54.6572348,24.4245605,30.24,0,-0.5,217.1,-161784.77,-191691.55,218.1,Air+FixedWing,Blue,Enemies,J-11A,Blue J-11A #002,cn,[51☭] Teknetinium,0.0580369438903359,0,0.000170547621155135,30.2414283752441,2.24142837524414,0.0441941738241592,-0.0376186370849609,NaN,NaN,0,0.135981235669792,NaN,1.00368995191779,-0.000541402522780556,-0.00453534246502202,0.0001684143428065,29.6567103576088,29.6568787719516,,,2.70000004768372,28,0.0945757885798156,0.121180302654797
2011-06-01T04:33:30Z,1306902810,10D,54.6572347,24.4245606,30.24,0,-0.4,217.1,-161784.77,-191691.55,218.1,Air+FixedWing,Blue,Enemies,J-11A,Blue J-11A #002,cn,[51☭] Teknetinium,0.00142860412597656,0,4.19810236382916e-06,30.2399997711182,2.23999977111816,0,-0.00142860412597656,NaN,NaN,0,0.0740187600354282,NaN,1.00025815579122,-0.000983127468807834,-0.00823709299405419,1.02045487437863e-07,29.6553093755436,29.6553094775891,,,3.70000004768372,28,0.108182787604849,0.134862155873791
2011-06-01T04:33:31Z,1306902811,10D,54.6572348,24.4245606,30.24,0,-0.3,217.1,-161784.77,-191691.53,218.1,Air+FixedWing,Blue,Enemies,J-11A,Blue J-11A #002,cn,[51☭] Teknetinium,0.0156901731905278,0,4.61072126439478e-05,30.2414283752441,2.24142837524414,0.015625,0.00142860412597656,NaN,NaN,0,0,NaN,0.999713099285302,0.000712426207417556,-0.00174370184768755,1.23090767374379e-05,29.6567103576088,29.6567226666855,,,4.70000004768372,28,0.114457273869078,0.141297252289781
2011-06-01T04:33:32Z,1306902812,10D,54.6572347,24.4245606,30.24,0.1,-0.3,217.1,-161784.78,-191691.55,218.1,Air+FixedWing,Blue,Enemies,J-11A,Blue J-11A #002,cn,[51☭] Teknetinium,0.0221432192724716,0,6.50701614815828e-05,30.2399997711182,2.23999977111816,0.0220970869120796,-0.00142860412597656,NaN,NaN,0,0,NaN,1.00010598631798,0.00228691951055646,-0.00971057824546646,2.45161079874379e-05,29.6553093755436,29.6553338916516,,,5.70000004768372,28,0.124592985886496,0.151533195954899
2011-06-01T04:33:33Z,1306902813,10D,54.6572347,24.4245606,30.24,0.1,-0.3,217.1,-161784.77,-191691.53,218.1,Air+FixedWing,Blue,Enemies,J-11A,Blue J-11A #002,cn,[51☭] Teknetinium,0.0220970869120796,0,6.49345967245665e-05,30.2399997711182,2.23999977111816,0.0220970869120796,0,NaN,NaN,0,0,NaN,0.999996866693392,0.00147462395922331,-0.00299903890581771,2.44140625e-05,29.6553093755436,29.6553337896061,,,6.70000004768372,28,0.124592985886496,0.151533195954899
2011-06-01T04:33:34Z,1306902814,10D,54.6572347,24.4245606,30.24,0.1,-0.3,217.1,-161784.77,-191691.53,218.1,Air+FixedWing,Blue,Enemies,J-11A,Blue J-11A #002,cn,[51☭] Teknetinium,0,0,0,30.2399997711182,2.23999977111816,0,0,NaN,NaN,0,0,NaN,0.999992017581957,0.000491486432474553,-0.00425285044389657,0,29.6553093755436,29.6553093755436,,,7.70000004768372,28,0.124592985886496,0.151533195954899
2011-06-01T04:33:35Z,1306902815,10D,54.6572347,24.4245606,30.24,0.1,-0.3,217.1,-161784.78,-191691.53,218.1,Air+FixedWing,Blue,Enemies,J-11A,Blue J-11A #002,cn,[51☭] Teknetinium,0.015625,0,4.59156936775547e-05,30.2399997711182,2.23999977111816,0.015625,0,NaN,NaN,0,0,NaN,0.999977345673304,0.00299912235294719,-0.00621907842082091,1.220703125e-05,29.6553093755436,29.6553215825748,,,8.70000004768372,28,0.124592985886496,0.151533195954899
2011-06-01T04:33:36Z,1306902816,10D,54.6572347,24.4245606,30.24,0.1,-0.3,217.1,-161784.78,-191691.53,218.1,Air+FixedWing,Blue,Enemies,J-11A,Blue J-11A #002,cn,[51☭] Teknetinium,0,0,0,30.2399997711182,2.23999977111816,0,0,NaN,NaN,0,0,NaN,0.99998468162763,0.00174530439271087,-0.00523596443235874,0,29.6553093755436,29.6553093755436,,,9.70000004768372,28,0.124592985886496,0.151533195954899
2011-06-01T04:33:37Z,1306902817,10D,54.6572347,24.4245606,30.24,0.1,-0.3,217.1,-161784.78,-191691.53,218.1,Air+FixedWing,Blue,Enemies,J-11A,Blue J-11A #002,cn,[51☭] Teknetinium,0,0,0,30.2399997711182,2.23999977111816,0,0,NaN,NaN,0,0,NaN,0.999989530739065,0.00272844191945963,-0.00398215289427988,0,29.6553093755436,29.6553093755436,,,10.7000000476837,28,0.124592985886496,0.151533195954899
2011-06-01T04:33:38Z,1306902818,10D,54.6572347,24.4245606,30.24,0.1,-0.3,217.1,-161784.78,-191691.55,218.1,Air+FixedWing,Blue,Enemies,J-11A,Blue J-11A #002,cn,[51☭] Teknetinium,0.015625,0,4.59156936775547e-05,30.2399997711182,2.23999977111816,0.015625,0,NaN,NaN,0,0,NaN,0.999979832516195,0.000762166865962115,-0.0064897759704376,1.220703125e-05,29.6553093755436,29.6553215825748,,,11.7000000476837,28,0.124592985886496,0.151533195954899
2011-06-01T04:33:39Z,1306902819,10D,54.6572347,24.4245606,30.24,0.1,-0.3,217.1,-161784.78,-191691.55,218.1,Air+FixedWing,Blue,Enemies,J-11A,Blue J-11A #002,cn,[51☭] Teknetinium,0,0,0,30.2399997711182,2.23999977111816,0,0,NaN,NaN,0,0,NaN,0.99998468162763,0.00174530439271087,-0.00523596443235874,0,29.6553093755436,29.6553093755436,,,12.7000000476837,28,0.124592985886496,0.151533195954899
2011-06-01T04:33:40Z,1306902820,10D,54.6572347,24.4245606,30.24,0.1,-0.3,217.1,-161784.78,-191691.55,218.1,Air+FixedWing,Blue,Enemies,J-11A,Blue J-11A #002,cn,[51☭] Teknetinium,0,0,0,30.2399997711182,2.23999977111816,0,0,NaN,NaN,0,0,NaN,0.999977345673304,0.00299912235294719,-0.00621907842082091,0,29.6553093755436,29.6553093755436,,,13.7000000476837,28,0.124592985886496,0.151533195954899
2011-06-01T04:33:41Z,1306902821,10D,54.6572347,24.4245606,30.24,0.1,-0.3,217.1,-161784.77,-191691.55,218.1,Air+FixedWing,Blue,Enemies,J-11A,Blue J-11A #002,cn,[51☭] Teknetinium,0.015625,0,4.59156936775547e-05,30.2399997711182,2.23999977111816,0.015625,0,NaN,NaN,0,0,NaN,0.999999353536283,-0.000762331527761767,-0.0032697364554344,1.220703125e-05,29.6553093755436,29.6553215825748,,,14.7000000476837,28,0.124592985886496,0.151533195954899
2011-06-01T04:33:42Z,1306902822,10D,54.6572347,24.4245606,30.24,0.1,-0.3,217.1,-161784.78,-191691.55,218.1,Air+FixedWing,Blue,Enemies,J-11A,Blue J-11A #002,cn,[51☭] Teknetinium,0.015625,0,4.59156936775547e-05,30.2399997711182,2.23999977111816,0.015625,0,NaN,NaN,0,0,NaN,0.999970009718977,0.00425294031318351,-0.00720219240928309,1.220703125e-05,29.6553093755436,29.6553215825748,,,15.7000000476837,28,0.124592985886496,0.151533195954899
2011-06-01T04:33:43Z,1306902823,10D,54.6572347,24.4245606,30.24,0.1,-0.3,217.1,-161784.77,-191691.55,218.1,Air+FixedWing,Blue,Enemies,J-11A,Blue J-11A #002,cn,[51☭] Teknetinium,0.015625,0,4.59156936775547e-05,30.2399997711182,2.23999977111816,0.015625,0,NaN,NaN,0,0,NaN,0.999992017581957,0.000491486432474553,-0.00425285044389657,1.220703125e-05,29.6553093755436,29.6553215825748,,,16.7000000476837,28,0.124592985886496,0.151533195954899
2011-06-01T04:33:44Z,1306902824,10D,54.6572347,24.4245606,30.24,0.1,-0.3,217.1,-161784.77,-191691.55,218.1,Air+FixedWing,Blue,Enemies,J-11A,Blue J-11A #002,cn,[51☭] Teknetinium,0,0,0,30.2399997711182,2.23999977111816,0,0,NaN,NaN,0,0,NaN,0.999987168470522,-0.000491651094274206,-0.00550666198197543,0,29.6553093755436,29.6553093755436,,,17.7000000476837,28,0.124592985886496,0.151533195954899
2011-06-01T04:33:45Z,1306902825,10D,54.6572347,24.4245606,30.24,0.1,-0.3,217.1,-161784.78,-191691.53,218.1,Air+FixedWing,Blue,Enemies,J-11A,Blue J-11A #002,cn,[51☭] Teknetinium,0.0220970869120796,0,6.49345967245665e-05,30.2399997711182,2.23999977111816,0.0220970869120796,0,NaN,NaN,0,0,NaN,0.999979707941847,0.00621921536668103,-0.00469456933312537,2.44140625e-05,29.6553093755436,29.6553337896061,,,18.7000000476837,28,0.124592985886496,0.151533195954899
2011-06-01T04:33:46Z,1306902826,10D,54.6572347,24.4245606,30.24,0.1,-0.3,217.1,-161784.77,-191691.55,218.1,Air+FixedWing,Blue,Enemies,J-11A,Blue J-11A #002,cn,[51☭] Teknetinium,0.0220970869120796,0,6.49345967245665e-05,30.2399997711182,2.23999977111816,0.0220970869120796,0,NaN,NaN,0,0,NaN,0.999982319359087,-0.00147478862102297,-0.00676047352005429,2.44140625e-05,29.6553093755436,29.6553337896061,,,19.7000000476837,28,0.124592985886496,0.151533195954899
2011-06-01T04:33:47Z,1306902827,10D,54.6572347,24.4245606,30.24,0.1,-0.3,217.1,-161784.77,-191691.53,218.1,Air+FixedWing,Blue,Enemies,J-11A,Blue J-11A #002,cn,[51☭] Teknetinium,0.015625,0,4.59156936775547e-05,30.2399997711182,2.23999977111816,0.015625,0,NaN,NaN,0,0,NaN,0.999996866693392,0.00147462395922331,-0.00299903890581771,1.220703125e-05,29.6553093755436,29.6553215825748,,,20.7000000476837,28,0.124592985886496,0.151533195954899
2011-06-01T04:33:48Z,1306902828,10D,54.6572347,24.4245606,30.24,0.1,-0.3,217.1,-161784.78,-191691.53,218.1,Air+FixedWing,Blue,Enemies,J-11A,Blue J-11A #002,cn,[51☭] Teknetinium,0.015625,0,4.59156936775547e-05,30.2399997711182,2.23999977111816,0.015625,0,NaN,NaN,0,0,NaN,0.999974858830412,0.00523607783993227,-0.00594838087120423,1.220703125e-05,29.6553093755436,29.6553215825748,,,21.7000000476837,28,0.124592985886496,0.151533195954899
2011-06-01T04:33:49Z,1306902829,10D,54.6572347,24.4245606,30.24,0.1,-0.3,217.1,-161784.77,-191691.55,218.1,Air+FixedWing,Blue,Enemies,J-11A,Blue J-11A #002,cn,[51☭] Teknetinium,0.0220970869120796,0,6.49345967245665e-05,30.2399997711182,2.23999977111816,0.0220970869120796,0,NaN,NaN,0,0,NaN,0.999987168470522,-0.000491651094274206,-0.00550666198197543,2.44140625e-05,29.6553093755436,29.6553337896061,,,22.7000000476837,28,0.124592985886496,0.151533195954899
2011-06-01T04:33:50Z,1306902830,10D,54.6572347,24.4245606,30.24,0.1,-0.3,217.1,-161784.77,-191691.55,218.1,Air+FixedWing,Blue,Enemies,J-11A,Blue J-11A #002,cn,[51☭] Teknetinium,0,0,0,30.2399997711182,2.23999977111816,0,0,NaN,NaN,0,0,NaN,0.999987168470522,-0.000491651094274206,-0.00550666198197543,0,29.6553093755436,29.6553093755436,,,23.7000000476837,28,0.124592985886496,0.151533195954899
2011-06-01T04:33:51Z,1306902831,10D,54.6572347,24.4245606,30.24,0.1,-0.3,217.1,-161784.78,-191691.53,218.1,Air+FixedWing,Blue,Enemies,J-11A,Blue J-11A #002,cn,[51☭] Teknetinium,0.0220970869120796,0,6.49345967245665e-05,30.2399997711182,2.23999977111816,0.0220970869120796,0,NaN,NaN,0,0,NaN,0.999974858830412,0.00523607783993227,-0.00594838087120423,2.44140625e-05,29.6553093755436,29.6553337896061,,,24.7000000476837,28,0.124592985886496,0.151533195954899
2011-06-01T04:33:52Z,1306902832,10D,54.6572347,24.4245606,30.24,0.1,-0.3,217.1,-161784.77,-191691.53,218.1,Air+FixedWing,Blue,Enemies,J-11A,Blue J-11A #002,cn,[51☭] Teknetinium,0.015625,0,4.59156936775547e-05,30.2399997711182,2.23999977111816,0.015625,0,NaN,NaN,0,0,NaN,0.999992017581957,0.000491486432474553,-0.00425285044389657,1.220703125e-05,29.6553093755436,29.6553215825748,,,25.7000000476837,28,0.124592985886496,0.151533195954899
2011-06-01T04:33:53Z,1306902833,10D,54.6572347,24.4245606,30.24,0.1,-0.3,217.1,-161784.77,-191691.53,218.1,Air+FixedWing,Blue,Enemies,J-11A,Blue J-11A #002,cn,[51☭] Teknetinium,0,0,0,30.2399997711182,2.23999977111816,0,0,NaN,NaN,0,0,NaN,0.999992017581957,0.000491486432474553,-0.00425285044389657,0,29.6553093755436,29.6553093755436,,,26.7000000476837,28,0.124592985886496,0.151533195954899
2011-06-01T04:33:54Z,1306902834,10D,54.6572347,24.4245606,30.24,0.1,-0.3,217.1,-161784.78,-191691.53,218.1,Air+FixedWing,Blue,Enemies,J-11A,Blue J-11A #002,cn,[51☭] Teknetinium,0.015625,0,4.59156936775547e-05,30.2399997711182,2.23999977111816,0.015625,0,NaN,NaN,0,0,NaN,0.999977345673304,0.00299912235294719,-0.00621907842082091,1.220703125e-05,29.6553093755436,29.6553215825748,,,27.7000000476837,28,0.124592985886496,0.151533195954899
2011-06-01T04:33:55Z,1306902835,10D,54.6572347,24.4245606,30.24,0.1,-0.3,217.1,-161784.78,-191691.53,218.1,Air+FixedWing,Blue,Enemies,J-11A,Blue J-11A #002,cn,[51☭] Teknetinium,0,0,0,30.2399997711182,2.23999977111816,0,0,NaN,NaN,0,0,NaN,0.999977345673304,0.00299912235294719,-0.00621907842082091,0,29.6553093755436,29.6553093755436,,,28.7000000476837,28,0.124592985886496,0.151533195954899
2011-06-01T04:33:56Z,1306902836,10D,54.6572347,24.4245606,30.24,0.1,-0.3,217.1,-161784.77,-191691.53,218.1,Air+FixedWing,Blue,Enemies,J-11A,Blue J-11A #002,cn,[51☭] Teknetinium,0.015625,0,4.59156936775547e-05,30.2399997711182,2.23999977111816,0.015625,0,NaN,NaN,0,0,NaN,0.999992017581957,0.000491486432474553,-0.00425285044389657,1.220703125e-05,29.6553093755436,29.6553215825748,,,29.7000000476837,28,0.124592985886496,0.151533195954899
2011-06-01T04:33:57Z,1306902837,10D,54.6572347,24.4245606,30.24,0.1,-0.3,217.1,-161784.77,-191691.53,218.1,Air+FixedWing,Blue,Enemies,J-11A,Blue J-11A #002,cn,[51☭] Teknetinium,0,0,0,30.2399997711182,2.23999977111816,0,0,NaN,NaN,0,0,NaN,0.999996866693392,0.00147462395922331,-0.00299903890581771,0,29.6553093755436,29.6553093755436,,,30.7000000476837,28,0.124592985886496,0.151533195954899
2011-06-01T04:33:58Z,1306902838,10D,54.6572347,24.4245606,30.24,0.1,-0.3,217.1,-161784.78,-191691.55,218.1,Air+FixedWing,Blue,Enemies,J-11A,Blue J-11A #002,cn,[51☭] Teknetinium,0.0220970869120796,0,6.49345967245665e-05,30.2399997711182,2.23999977111816,0.0220970869120796,0,NaN,NaN,0,0,NaN,0.999960311496108,0.002286665259686,-0.00970981548544081,2.44140625e-05,29.6553093755436,29.6553337896061,,,31.7000000476837,28,0.124592985886496,0.151533195954899
2011-06-01T04:33:59Z,1306902839,10D,54.6572348,24.4245606,30.24,0.1,-0.2,217.1,-161784.77,-191691.53,218.1,Air+FixedWing,Blue,Enemies,J-11A,Blue J-11A #002,cn,[51☭] Teknetinium,0.0220970869120796,0,6.49345967245665e-05,30.2399997711182,2.23999977111816,0.0220970869120796,0,NaN,NaN,0,0,NaN,1.00000053228933,0.00147463035690155,-0.00125370946913538,2.44140625e-05,29.6553093755436,29.6553337896061,,,32.7000000476837,28,0.134728697903914,0.161668955661434
2011-06-01T04:34:00Z,1306902840,10D,54.6572348,24.4245606,30.24,0.1,-0.3,217.1,-161784.77,-191691.53,218.1,Air+FixedWing,Blue,Enemies,J-11A,Blue J-11A #002,cn,[51☭] Teknetinium,0,0,0,30.2399997711182,2.23999977111816,0,0,NaN,NaN,0,0,NaN,0.999989530739065,0.00272844191945963,-0.00398215289427988,0,29.6553093755436,29.6553093755436,,,33.7000000476837,28,0.134728697903914,0.161668955661434
2011-06-01T04:34:01Z,1306902841,10D,54.6572348,24.4245606,30.24,0.1,-0.3,217.1,-161784.77,-191691.55,218.1,Air+FixedWing,Blue,Enemies,J-11A,Blue J-11A #002,cn,[51☭] Teknetinium,0.015625,0,4.59156936775547e-05,30.2399997711182,2.23999977111816,0.015625,0,NaN,NaN,0,0,NaN,0.999982319359087,-0.00147478862102297,-0.00676047352005429,1.220703125e-05,29.6553093755436,29.6553215825748,,,34.7000000476837,28,0.134728697903914,0.161668955661434
2011-06-01T04:34:02Z,1306902842,10D,54.6572347,24.4245606,30.24,0.1,-0.3,217.1,-161784.78,-191691.53,218.1,Air+FixedWing,Blue,Enemies,J-11A,Blue J-11A #002,cn,[51☭] Teknetinium,0.0220970869120796,0,6.49345967245665e-05,30.2399997711182,2.23999977111816,0.0220970869120796,0,NaN,NaN,0,0,NaN,0.999979707941847,0.00621921536668103,-0.00469456933312537,2.44140625e-05,29.6553093755436,29.6553337896061,,,35.7000000476837,28,0.144864409921332,0.171804715367969
2011-06-01T04:34:03Z,1306902843,10D,54.6572347,24.4245606,30.24,0.1,-0.3,217.1,-161784.77,-191691.55,218.1,Air+FixedWing,Blue,Enemies,J-11A,Blue J-11A #002,cn,[51☭] Teknetinium,0.0220970869120796,0,6.49345967245665e-05,30.2399997711182,2.23999977111816,0.0220970869120796,0,NaN,NaN,0,0,NaN,0.999982319359087,-0.00147478862102297,-0.00676047352005429,2.44140625e-05,29.6553093755436,29.6553337896061,,,36.7000000476837,28,0.144864409921332,0.171804715367969
2011-06-01T04:34:04Z,1306902844,10D,54.6572347,24.4245606,30.24,0.1,-0.3,217.1,-161784.77,-191691.53,218.1,Air+FixedWing,Blue,Enemies,J-11A,Blue J-11A #002,cn,[51☭] Teknetinium,0.015625,0,4.59156936775547e-05,30.2399997711182,2.23999977111816,0.015625,0,NaN,NaN,0,0,NaN,0.9999943798505,0.00371157944620839,-0.00272834135620102,1.220703125e-05,29.6553093755436,29.6553215825748,,,37.7000000476837,28,0.144864409921332,0.171804715367969
2011-06-01T04:34:05Z,1306902845,10D,54.6572348,24.4245606,30.24,0.1,-0.3,217.1,-161784.77,-191691.55,218.1,Air+FixedWing,Blue,Enemies,J-11A,Blue J-11A #002,cn,[51☭] Teknetinium,0.015625,0,4.59156936775547e-05,30.2399997711182,2.23999977111816,0.015625,0,NaN,NaN,0,0,NaN,0.999974983404761,-0.000220970660786644,-0.00774358750851646,1.220703125e-05,29.6553093755436,29.6553215825748,,,38.7000000476837,28,0.155000121938749,0.181940475074504
2011-06-01T04:34:06Z,1306902846,10D,54.6572348,24.4245606,30.24,0.1,-0.3,217.1,-161784.77,-191691.53,218.1,Air+FixedWing,Blue,Enemies,J-11A,Blue J-11A #002,cn,[51☭] Teknetinium,0.015625,0,4.59156936775547e-05,30.2399997711182,2.23999977111816,0.015625,0,NaN,NaN,0,0,NaN,0.999989530739065,0.00272844191945963,-0.00398215289427988,1.220703125e-05,29.6553093755436,29.6553215825748,,,39.7000000476837,28,0.155000121938749,0.181940475074504
2011-06-01T04:34:07Z,1306902847,10D,54.6572348,24.4245606,30.24,0.1,-0.3,217.1,-161784.77,-191691.53,218.1,Air+FixedWing,Blue,Enemies,J-11A,Blue J-11A #002,cn,[51☭] Teknetinium,0,0,0,30.2399997711182,2.23999977111816,0,0,NaN,NaN,0,0,NaN,0.999992017581957,0.000491486432474553,-0.00425285044389657,0,29.6553093755436,29.6553093755436,,,40.7000000476837,28,0.155000121938749,0.181940475074504
2011-06-01T04:34:08Z,1306902848,10D,54.6572347,24.4245607,30.24,0.3,-0.2,217.1,-161784.78,-191691.53,218.1,Air+FixedWing,Blue,Enemies,J-11A,Blue J-11A #002,cn,[51☭] Teknetinium,0.015625,0,4.59156936775547e-05,30.2399997711182,2.23999977111816,0.015625,0,NaN,NaN,0.276190651920513,0,NaN,0.999961349991883,0.00757730405669763,-0.00545689440651578,1.220703125e-05,29.6553093755436,29.6553215825748,,,41.7000000476837,28,0.170055118799594,0.196995543262078
2011-06-01T04:34:09Z,1306902849,10D,54.6572347,24.4245606,30.24,0.2,-0.2,217.1,-161784.77,-191691.53,218.1,Air+FixedWing,Blue,Enemies,J-11A,Blue J-11A #002,cn,[51☭] Teknetinium,0.015625,0,4.59156936775547e-05,30.2399997711182,2.23999977111816,0.015625,0,NaN,NaN,0,0,NaN,1.0000032038962,0.000983012161988799,-0.00160761935455165,1.220703125e-05,29.6553093755436,29.6553215825748,,,42.7000000476837,28,0.181187067583084,0.208127544580642
2011-06-01T04:34:10Z,1306902850,10D,54.6572347,24.4245606,30.24,0.2,-0.2,217.1,-161784.78,-191691.53,218.1,Air+FixedWing,Blue,Enemies,J-11A,Blue J-11A #002,cn,[51☭] Teknetinium,0.015625,0,4.59156936775547e-05,30.2399997711182,2.23999977111816,0.015625,0,NaN,NaN,0,0.0513960362511687,NaN,0.998949384340177,0.00697781171132084,-0.00504642625266481,1.220703125e-05,29.6553093755436,29.6553215825748,,,43.7000000476837,28,0.181187067583084,0.208127544580642
2011-06-01T04:34:11Z,1306902851,10D,54.6572348,24.4245606,30.23,0,-0.2,217.1,-161784.77,-191691.55,218.1,Air+FixedWing,Blue,Enemies,J-11A,Blue J-11A #002,cn,[51☭] Teknetinium,0.0242546042575241,0,7.12746786471496e-05,30.2299995422363,2.22999954223633,0.0220970869120796,-0.0100002288818359,NaN,NaN,0.229439714599068,0.0513960362511687,NaN,1.00100866368674,-0.00306125758307663,-0.00501873176923053,2.94142913844553e-05,29.6455025010872,29.6455319153786,,,44.7000000476837,28,0.191322779600502,0.222366161376612
2011-06-01T04:34:12Z,1306902852,10D,54.6572348,24.4245606,30.23,0.1,-0.2,217.1,-161784.77,-191691.53,218.1,Air+FixedWing,Blue,Enemies,J-11A,Blue J-11A #002,cn,[51☭] Teknetinium,0.015625,0,4.59156885033999e-05,30.2299995422363,2.22999954223633,0.015625,0,NaN,NaN,0,0.0171320104161963,NaN,0.999997572989163,0.00371158501929092,-0.000983009895066396,1.220703125e-05,29.6455025010872,29.6455147081184,,,45.7000000476837,28,0.191322779600502,0.222366161376612
2011-06-01T04:34:13Z,1306902853,10D,54.6572348,24.4245606,30.23,0.1,-0.2,217.1,-161784.77,-191691.55,218.1,Air+FixedWing,Blue,Enemies,J-11A,Blue J-11A #002,cn,[51☭] Teknetinium,0.015625,0,4.59156885033999e-05,30.2299995422363,2.22999954223633,0.015625,0,NaN,NaN,0,0.0171320104161963,NaN,0.999992549914269,-0.00147477076531434,-0.0050151722138259,1.220703125e-05,29.6455025010872,29.6455147081184,,,46.7000000476837,28,0.191322779600502,0.222366161376612
2011-06-01T04:34:14Z,1306902854,10D,54.6572347,24.4245607,30.23,0.1,-0.2,217.1,-161784.78,-191691.53,218.1,Air+FixedWing,Blue,Enemies,J-11A,Blue J-11A #002,cn,[51☭] Teknetinium,0.0220970869120796,0,6.49345894072065e-05,30.2299995422363,2.22999954223633,0.0220970869120796,0,NaN,NaN,0,0.0171320104161963,NaN,0.999983672013754,0.00523609322185375,-0.00420307349161894,2.44140625e-05,29.6455025010872,29.6455269151497,,,47.7000000476837,28,0.206377776461347,0.237421230051059
2011-06-01T04:34:15Z,1306902855,10D,54.6572347,24.4245606,30.23,0.1,-0.2,217.1,-161784.77,-191691.53,218.1,Air+FixedWing,Blue,Enemies,J-11A,Blue J-11A #002,cn,[51☭] Teknetinium,0.015625,0,4.59156885033999e-05,30.2299995422363,2.22999954223633,0.015625,0,NaN,NaN,0,0.0171320104161963,NaN,1.00000053228933,0.00147463035690155,-0.00125370946913538,1.220703125e-05,29.6455025010872,29.6455147081184,,,48.7000000476837,28,0.217735306579282,0.248778814407709
2011-06-01T04:34:16Z,1306902856,10D,54.6572348,24.4245606,30.23,0.1,-0.2,217.1,-161784.77,-191691.55,218.1,Air+FixedWing,Blue,Enemies,J-11A,Blue J-11A #002,cn,[51☭] Teknetinium,0.015625,0,4.59156885033999e-05,30.2299995422363,2.22999954223633,0.015625,0,NaN,NaN,0,0.0171320104161963,NaN,0.999989590614097,0.000762183897075025,-0.00474447263975691,1.220703125e-05,29.6455025010872,29.6455147081184,,,49.7000000476837,28,0.225618639717693,0.256662184626894
2011-06-01T04:34:17Z,1306902857,10D,54.6572348,24.4245606,30.23,0,-0.2,217.1,-161784.77,-191691.55,218.1,Air+FixedWing,Blue,Enemies,J-11A,Blue J-11A #002,cn,[51☭] Teknetinium,0,0,0,30.2299995422363,2.22999954223633,0,0,NaN,NaN,0.141958651709545,0.0171320104161963,NaN,0.999989743785304,-0.000476424562728409,-0.00474447263975691,0,29.6455025010872,29.6455025010872,,,50.7000000476837,28,0.225618639717693,0.256662184626894
2011-06-01T04:34:18Z,1306902858,10D,54.6572348,24.4245606,30.23,0.1,-0.2,217.1,-161784.77,-191691.53,218.1,Air+FixedWing,Blue,Enemies,J-11A,Blue J-11A #002,cn,[51☭] Teknetinium,0.015625,0,4.59156885033999e-05,30.2299995422363,2.22999954223633,0.015625,0,NaN,NaN,0,0.0171320104161963,NaN,0.999994912197474,0.00272845131188562,-0.00223683080996323,1.220703125e-05,29.6455025010872,29.6455147081184,,,51.7000000476837,28,0.226064165374831,0.257107712342143
2011-06-01T04:34:19Z,1306902859,10D,54.6572347,24.4245606,30.23,0.1,-0.2,217.1,-161784.77,-191691.53,218.1,Air+FixedWing,Blue,Enemies,J-11A,Blue J-11A #002,cn,[51☭] Teknetinium,0,0,0,30.2299995422363,2.22999954223633,0,0,NaN,NaN,0,0.0171320104161963,NaN,0.999997871497646,0.000491496649496256,-0.00250753038403222,0,29.6455025010872,29.6455025010872,,,52.7000000476837,28,0.231633237170299,0.26267681076894
2011-06-01T04:34:20Z,1306902860,10D,54.6572347,24.4245606,30.23,0.2,-0.2,217.1,-161784.78,-191691.53,218.1,Air+FixedWing,Blue,Enemies,J-11A,Blue J-11A #002,cn,[51☭] Teknetinium,0.015625,0,4.59156885033999e-05,30.2299995422363,2.22999954223633,0.015625,0,NaN,NaN,0.152383881600725,0.0171320104161963,NaN,0.999974517543064,0.00558273072571424,-0.00545689440651578,1.220703125e-05,29.6455025010872,29.6455147081184,,,53.7000000476837,28,0.233341089165962,0.264384670237357
2011-06-01T04:34:21Z,1306902861,10D,54.6572348,24.4245606,30.23,0.1,-0.2,217.1,-161784.77,-191691.53,218.1,Air+FixedWing,Blue,Enemies,J-11A,Blue J-11A #002,cn,[51☭] Teknetinium,0.015625,0,4.59156885033999e-05,30.2299995422363,2.22999954223633,0.015625,0,NaN,NaN,0,0.0171320104161963,NaN,1.00000053228933,0.00147463035690155,-0.00125370946913538,1.220703125e-05,29.6455025010872,29.6455147081184,,,54.7000000476837,28,0.24106353861423,0.272107155847819
2011-06-01T04:34:22Z,1306902862,10D,54.6572348,24.4245606,30.23,0.1,-0.2,217.1,-161784.77,-191691.55,218.1,Air+FixedWing,Blue,Enemies,J-11A,Blue J-11A #002,cn,[51☭] Teknetinium,0.015625,0,4.59156885033999e-05,30.2299995422363,2.22999954223633,0.015625,0,NaN,NaN,0,0.0171320104161963,NaN,0.999989590614097,0.000762183897075025,-0.00474447263975691,1.220703125e-05,29.6455025010872,29.6455147081184,,,55.7000000476837,28,0.24106353861423,0.272107155847819
2011-06-01T04:34:23Z,1306902863,10D,54.6572348,24.4245606,30.23,0,-0.2,217.1,-161784.77,-191691.55,218.1,Air+FixedWing,Blue,Enemies,J-11A,Blue J-11A #002,cn,[51☭] Teknetinium,0,0,0,30.2299995422363,2.22999954223633,0,0,NaN,NaN,0.199987938897973,0.0171320104161963,NaN,0.999989364834839,-0.000983127468807834,-0.00474447263975691,0,29.6455025010872,29.6455025010872,,,56.7000000476837,28,0.24106353861423,0.272107155847819
2011-06-01T04:34:24Z,1306902864,10D,54.6572348,24.4245606,30.23,0.1,-0.2,217.1,-161784.77,-191691.53,218.1,Air+FixedWing,Blue,Enemies,J-11A,Blue J-11A #002,cn,[51☭] Teknetinium,0.015625,0,4.59156885033999e-05,30.2299995422363,2.22999954223633,0.015625,0,NaN,NaN,0,0.0171320104161963,NaN,0.999994912197474,0.00272845131188562,-0.00223683080996323,1.220703125e-05,29.6455025010872,29.6455147081184,,,57.7000000476837,28,0.246285934716745,0.277329576576851
2011-06-01T04:34:25Z,1306902865,10D,54.6572348,24.4245606,30.23,0.1,-0.2,217.1,-161784.77,-191691.53,218.1,Air+FixedWing,Blue,Enemies,J-11A,Blue J-11A #002,cn,[51☭] Teknetinium,0,0,0,30.2299995422363,2.22999954223633,0,0,NaN,NaN,0,0.0171320104161963,NaN,0.999992251405786,0.00174531760448032,-0.00349065172486007,0,29.6455025010872,29.6455025010872,,,58.7000000476837,28,0.251508975321939,0.282552641806927
2011-06-01T04:34:26Z,1306902866,10D,54.6572348,24.4245606,30.23,0.1,-0.2,217.1,-161784.77,-191691.53,218.1,Air+FixedWing,Blue,Enemies,J-11A,Blue J-11A #002,cn,[51☭] Teknetinium,0,0,0,30.2299995422363,2.22999954223633,0,0,NaN,NaN,0,0.0171320104161963,NaN,0.999992251405786,0.00174531760448032,-0.00349065172486007,0,29.6455025010872,29.6455025010872,,,59.7000000476837,28,0.25164131259467,0.282684979998241
2011-06-01T04:34:27Z,1306902867,10D,54.6572348,24.4245606,30.23,0.1,-0.2,217.1,-161784.77,-191691.53,218.1,Air+FixedWing,Blue,Enemies,J-11A,Blue J-11A #002,cn,[51☭] Teknetinium,0,0,0,30.2299995422363,2.22999954223633,0,0,NaN,NaN,0,0.0171320104161963,NaN,0.999992251405786,0.00174531760448032,-0.00349065172486007,0,29.6455025010872,29.6455025010872,,,60.7000000476837,28,0.251773650247243,0.282817318410501
2011-06-01T04:34:28Z,1306902868,10D,54.6572348,24.4245606,30.23,0.1,-0.2,217.1,-161784.77,-191691.53,218.1,Air+FixedWing,Blue,Enemies,J-11A,Blue J-11A #002,cn,[51☭] Teknetinium,0,0,0,30.2299995422363,2.22999954223633,0,0,NaN,NaN,0,0.0171320104161963,NaN,0.999992251405786,0.00174531760448032,-0.00349065172486007,0,29.6455025010872,29.6455025010872,,,61.7000000476837,28,0.251905987519974,0.282949656063074
2011-06-01T04:34:29Z,1306902869,10D,54.6572348,24.4245606,30.23,0.1,-0.2,217.1,-161784.77,-191691.53,218.1,Air+FixedWing,Blue,Enemies,J-11A,Blue J-11A #002,cn,[51☭] Teknetinium,0,0,0,30.2299995422363,2.22999954223633,0,0,NaN,NaN,0,0.0171320104161963,NaN,0.999992251405786,0.00174531760448032,-0.00349065172486007,0,29.6455025010872,29.6455025010872,,,62.7000000476837,28,0.252038324633811,0.283081994095491
2011-06-01T04:34:30Z,1306902870,10D,54.6572348,24.4245606,30.23,0.1,-0.2,217.1,-161784.77,-191691.53,218.1,Air+FixedWing,Blue,Enemies,J-11A,Blue J-11A #002,cn,[51☭] Teknetinium,0,0,0,30.2299995422363,2.22999954223633,0,0,NaN,NaN,0,0.0171320104161963,NaN,0.999992251405786,0.00174531760448032,-0.00349065172486007,0,29.6455025010872,29.6455025010872,,,63.7000000476837,28,0.252170661906542,0.283214331748064
2011-06-01T04:34:31Z,1306902871,10D,54.6572348,24.4245606,30.23,0.1,-0.2,217.1,-161784.77,-191691.53,218.1,Air+FixedWing,Blue,Enemies,J-11A,Blue J-11A #002,cn,[51☭] Teknetinium,0,0,0,30.2299995422363,2.22999954223633,0,0,NaN,NaN,0,0.0171320104161963,NaN,0.999992251405786,0.00174531760448032,-0.00349065172486007,0,29.6455025010872,29.6455025010872,,,64.7000000476837,28,0.252302999559115,0.283346670699062
2011-06-01T04:34:32Z,1306902872,10D,54.6572348,24.4245606,30.23,0.1,-0.2,217.1,-161784.77,-191691.53,218.1,Air+FixedWing,Blue,Enemies,J-11A,Blue J-11A #002,cn,[51☭] Teknetinium,0,0,0,30.2299995422363,2.22999954223633,0,0,NaN,NaN,0,0.0171320104161963,NaN,0.999992251405786,0.00174531760448032,-0.00349065172486007,0,29.6455025010872,29.6455025010872,,,65.7000000476837,28,0.252435337591531,0.283479008731478
2011-06-01T04:34:33Z,1306902873,10D,54.6572348,24.4245606,30.23,0.1,-0.2,217.1,-161784.77,-191691.53,218.1,Air+FixedWing,Blue,Enemies,J-11A,Blue J-11A #002,cn,[51☭] Teknetinium,0,0,0,30.2299995422363,2.22999954223633,0,0,NaN,NaN,0,0.0171320104161963,NaN,0.999992251405786,0.00174531760448032,-0.00349065172486007,0,29.6455025010872,29.6455025010872,,,66.7000000476837,28,0.252567674325524,0.283611346384052
2011-06-01T04:34:34Z,1306902874,10D,54.6572348,24.4245606,30.23,0.1,-0.2,217.1,-161784.77,-191691.53,218.1,Air+FixedWing,Blue,Enemies,J-11A,Blue J-11A #002,cn,[51☭] Teknetinium,0,0,0,30.2299995422363,2.22999954223633,0,0,NaN,NaN,0,0.0171320104161963,NaN,0.999992251405786,0.00174531760448032,-0.00349065172486007,0,29.6455025010872,29.6455025010872,,,67.7000000476837,28,0.252700011978098,0.283743684416468
2011-06-01T04:34:35Z,1306902875,10D,54.6572348,24.4245606,30.23,0.1,-0.2,217.1,-161784.77,-191691.53,218.1,Air+FixedWing,Blue,Enemies,J-11A,Blue J-11A #002,cn,[51☭] Teknetinium,0,0,0,30.2299995422363,2.22999954223633,0,0,NaN,NaN,0,0.0171320104161963,NaN,0.999992251405786,0.00174531760448032,-0.00349065172486007,0,29.6455025010872,29.6455025010872,,,68.7000000476837,28,0.252832349789571,0.283876022607782
2011-06-01T04:34:36Z,1306902876,10D,54.6572348,24.4245606,30.23,0.1,-0.2,217.1,-161784.77,-191691.53,218.1,Air+FixedWing,Blue,Enemies,J-11A,Blue J-11A #002,cn,[51☭] Teknetinium,0,0,0,30.2299995422363,2.22999954223633,0,0,NaN,NaN,0,0.0171320104161963,NaN,0.999992251405786,0.00174531760448032,-0.00349065172486007,0,29.6455025010872,29.6455025010872,,,69.7000000476837,28,0.252964685384034,0.284008359500671
2011-06-01T04:34:37Z,1306902877,10D,54.6572348,24.4245606,30.23,0.1,-0.2,217.1,-161784.77,-191691.53,218.1,Air+FixedWing,Blue,Enemies,J-11A,Blue J-11A #002,cn,[51☭] Teknetinium,0,0,0,30.2299995422363,2.22999954223633,0,0,NaN,NaN,0,0.0171320104161963,NaN,0.999992251405786,0.00174531760448032,-0.00349065172486007,0,29.6455025010872,29.6455025010872,,,70.7000000476837,28,0.253097022656765,0.284140697153244
2011-06-01T04:34:38Z,1306902878,10D,54.6572348,24.4245606,30.23,0.1,-0.2,217.1,-161784.77,-191691.53,218.1,Air+FixedWing,Blue,Enemies,J-11A,Blue J-11A #002,cn,[51☭] Teknetinium,0,0,0,30.2299995422363,2.22999954223633,0,0,NaN,NaN,0,0.0171320104161963,NaN,0.999992251405786,0.00174531760448032,-0.00349065172486007,0,29.6455025010872,29.6455025010872,,,71.7000000476837,28,0.253229360309338,0.284273035185661
2011-06-01T04:34:39Z,1306902879,10D,54.6572348,24.4245606,30.23,0.1,-0.2,217.1,-161784.77,-191691.53,218.1,Air+FixedWing,Blue,Enemies,J-11A,Blue J-11A #002,cn,[51☭] Teknetinium,0,0,0,30.2299995422363,2.22999954223633,0,0,NaN,NaN,0,0.0171320104161963,NaN,0.999992251405786,0.00174531760448032,-0.00349065172486007,0,29.6455025010872,29.6455025010872,,,72.7000000476837,28,0.253361697582069,0.284405373376975
2011-06-01T04:34:40Z,1306902880,10D,54.6572348,24.4245606,30.23,0.1,-0.2,217.1,-161784.77,-191691.53,218.1,Air+FixedWing,Blue,Enemies,J-11A,Blue J-11A #002,cn,[51☭] Teknetinium,0,0,0,30.2299995422363,2.22999954223633,0,0,NaN,NaN,0,0.0171320104161963,NaN,0.999992251405786,0.00174531760448032,-0.00349065172486007,0,29.6455025010872,29.6455025010872,,,73.7000000476837,28,0.253494034695906,0.284537710870656
2011-06-01T04:34:41Z,1306902881,10D,54.6572348,24.4245606,30.23,0.1,-0.2,217.1,-161784.77,-191691.53,218.1,Air+FixedWing,Blue,Enemies,J-11A,Blue J-11A #002,cn,[51☭] Teknetinium,0,0,0,30.2299995422363,2.22999954223633,0,0,NaN,NaN,0,0.0171320104161963,NaN,0.999992251405786,0.00174531760448032,-0.00349065172486007,0,29.6455025010872,29.6455025010872,,,74.7000000476837,28,0.253626371968637,0.284670049061971
2011-06-01T04:34:42Z,1306902882,10D,54.6572348,24.4245606,30.23,0.1,-0.2,217.1,-161784.77,-191691.53,218.1,Air+FixedWing,Blue,Enemies,J-11A,Blue J-11A #002,cn,[51☭] Teknetinium,0,0,0,30.2299995422363,2.22999954223633,0,0,NaN,NaN,0,0.0171320104161963,NaN,0.999992251405786,0.00174531760448032,-0.00349065172486007,0,29.6455025010872,29.6455025010872,,,75.7000000476837,28,0.25375870962121,0.284802387474231
2011-06-01T04:34:43Z,1306902883,10D,54.6572348,24.4245606,30.23,0.1,-0.2,217.1,-161784.77,-191691.53,218.1,Air+FixedWing,Blue,Enemies,J-11A,Blue J-11A #002,cn,[51☭] Teknetinium,0,0,0,30.2299995422363,2.22999954223633,0,0,NaN,NaN,0,0.0171320104161963,NaN,0.999992251405786,0.00174531760448032,-0.00349065172486007,0,29.6455025010872,29.6455025010872,,,76.7000000476837,28,0.253891046893941,0.284934725126804
2011-06-01T04:34:44Z,1306902884,10D,54.6572348,24.4245606,30.23,0.1,-0.2,217.1,-161784.77,-191691.53,218.1,Air+FixedWing,Blue,Enemies,J-11A,Blue J-11A #002,cn,[51☭] Teknetinium,0,0,0,30.2299995422363,2.22999954223633,0,0,NaN,NaN,0,0.0171320104161963,NaN,0.999992251405786,0.00174531760448032,-0.00349065172486007,0,29.6455025010872,29.6455025010872,,,77.7000000476837,28,0.254023383027147,0.285067061639851
2011-06-01T04:34:45Z,1306902885,10D,54.6572348,24.4245606,30.23,0.1,-0.2,217.1,-161784.77,-191691.53,218.1,Air+FixedWing,Blue,Enemies,J-11A,Blue J-11A #002,cn,[51☭] Teknetinium,0,0,0,30.2299995422363,2.22999954223633,0,0,NaN,NaN,0,0.0171320104161963,NaN,0.999992251405786,0.00174531760448032,-0.00349065172486007,0,29.6455025010872,29.6455025010872,,,78.7000000476837,28,0.254155720299877,0.285199399831165
2011-06-01T04:34:46Z,1306902886,10D,54.6572348,24.4245606,30.23,0.1,-0.2,217.1,-161784.77,-191691.53,218.1,Air+FixedWing,Blue,Enemies,J-11A,Blue J-11A #002,cn,[51☭] Teknetinium,0,0,0,30.2299995422363,2.22999954223633,0,0,NaN,NaN,0,0.0171320104161963,NaN,0.999992251405786,0.00174531760448032,-0.00349065172486007,0,29.6455025010872,29.6455025010872,,,79.7000000476837,28,0.254288058332294,0.285331737863582
2011-06-01T04:34:47Z,1306902887,10D,54.6572348,24.4245606,30.23,0.1,-0.2,217.1,-161784.77,-191691.53,218.1,Air+FixedWing,Blue,Enemies,J-11A,Blue J-11A #002,cn,[51☭] Teknetinium,0,0,0,30.2299995422363,2.22999954223633,0,0,NaN,NaN,0,0.0171320104161963,NaN,0.999992251405786,0.00174531760448032,-0.00349065172486007,0,29.6455025010872,29.6455025010872,,,80.7000000476837,28,0.254420394686443,0.285464075516155
2011-06-01T04:34:48Z,1306902888,10D,54.6572348,24.4245606,30.23,0.1,-0.2,217.1,-161784.77,-191691.53,218.1,Air+FixedWing,Blue,Enemies,J-11A,Blue J-11A #002,cn,[51☭] Teknetinium,0,0,0,30.2299995422363,2.22999954223633,0,0,NaN,NaN,0,0.0171320104161963,NaN,0.999992251405786,0.00174531760448032,-0.00349065172486007,0,29.6455025010872,29.6455025010872,,,81.7000000476837,28,0.25455273271886,0.285596414467153
2011-06-01T04:34:49Z,1306902889,10D,54.6572348,24.4245606,30.23,0.1,-0.2,217.1,-161784.77,-191691.53,218.1,Air+FixedWing,Blue,Enemies,J-11A,Blue J-11A #002,cn,[51☭] Teknetinium,0,0,0,30.2299995422363,2.22999954223633,0,0,NaN,NaN,0,0.0171320104161963,NaN,0.999992251405786,0.00174531760448032,-0.00349065172486007,0,29.6455025010872,29.6455025010872,,,82.7000000476837,28,0.254685070371433,0.28572875249957
2011-06-01T04:34:50Z,1306902890,10D,54.6572348,24.4245606,30.23,0.1,-0.2,217.1,-161784.77,-191691.53,218.1,Air+FixedWing,Blue,Enemies,J-11A,Blue J-11A #002,cn,[51☭] Teknetinium,0,0,0,30.2299995422363,2.22999954223633,0,0,NaN,NaN,0,0.0171320104161963,NaN,0.999992251405786,0.00174531760448032,-0.00349065172486007,0,29.6455025010872,29.6455025010872,,,83.7000000476837,28,0.254817407105426,0.285861089613407
2011-06-01T04:34:51Z,1306902891,10D,54.6572348,24.4245606,30.23,0.1,-0.2,217.1,-161784.77,-191691.53,218.1,Air+FixedWing,Blue,Enemies,J-11A,Blue J-11A #002,cn,[51☭] Teknetinium,0,0,0,30.2299995422363,2.22999954223633,0,0,NaN,NaN,0,0.0171320104161963,NaN,0.999992251405786,0.00174531760448032,-0.00349065172486007,0,29.6455025010872,29.6455025010872,,,84.7000000476837,28,0.25494974529674,0.285993428184562
2011-06-01T04:34:52Z,1306902892,10D,54.6572348,24.4245606,30.23,0.1,-0.2,217.1,-161784.77,-191691.53,218.1,Air+FixedWing,Blue,Enemies,J-11A,Blue J-11A #002,cn,[51☭] Teknetinium,0,0,0,30.2299995422363,2.22999954223633,0,0,NaN,NaN,0,0.0171320104161963,NaN,0.999992251405786,0.00174531760448032,-0.00349065172486007,0,29.6455025010872,29.6455025010872,,,85.7000000476837,28,0.255082082030733,0.286125765837136
2011-06-01T04:34:53Z,1306902893,10D,54.6572348,24.4245606,30.23,0.1,-0.2,217.1,-161784.77,-191691.53,218.1,Air+FixedWing,Blue,Enemies,J-11A,Blue J-11A #002,cn,[51☭] Teknetinium,0,0,0,30.2299995422363,2.22999954223633,0,0,NaN,NaN,0,0.0171320104161963,NaN,0.999992251405786,0.00174531760448032,-0.00349065172486007,0,29.6455025010872,29.6455025010872,,,86.7000000476837,28,0.255214419683306,0.286258104249396
2011-06-01T04:34:54Z,1306902894,10D,54.6572348,24.4245606,30.23,0.1,-0.2,217.1,-161784.77,-191691.53,218.1,Air+FixedWing,Blue,Enemies,J-11A,Blue J-11A #002,cn,[51☭] Teknetinium,0,0,0,30.2299995422363,2.22999954223633,0,0,NaN,NaN,0,0.0171320104161963,NaN,0.999992251405786,0.00174531760448032,-0.00349065172486007,0,29.6455025010872,29.6455025010872,,,87.7000000476837,28,0.255346756956037,0.286390441901969
2011-06-01T04:34:55Z,1306902895,10D,54.6572348,24.4245606,30.23,0.1,-0.2,217.1,-161784.77,-191691.53,218.1,Air+FixedWing,Blue,Enemies,J-11A,Blue J-11A #002,cn,[51☭] Teknetinium,0,0,0,30.2299995422363,2.22999954223633,0,0,NaN,NaN,0,0.0171320104161963,NaN,0.999992251405786,0.00174531760448032,-0.00349065172486007,0,29.6455025010872,29.6455025010872,,,88.7000000476837,28,0.255479094988453,0.286522780473125
2011-06-01T04:34:56Z,1306902896,10D,54.6572348,24.4245606,30.23,0.1,-0.2,217.1,-161784.77,-191691.53,218.1,Air+FixedWing,Blue,Enemies,J-11A,Blue J-11A #002,cn,[51☭] Teknetinium,0,0,0,30.2299995422363,2.22999954223633,0,0,NaN,NaN,0,0.0171320104161963,NaN,0.999992251405786,0.00174531760448032,-0.00349065172486007,0,29.6455025010872,29.6455025010872,,,89.7000000476837,28,0.255611431881342,0.286655118125698
2011-06-01T04:34:57Z,1306902897,10D,54.6572348,24.4245606,30.23,0.1,-0.2,217.1,-161784.77,-191691.53,218.1,Air+FixedWing,Blue,Enemies,J-11A,Blue J-11A #002,cn,[51☭] Teknetinium,0,0,0,30.2299995422363,2.22999954223633,0,0,NaN,NaN,0,0.0171320104161963,NaN,0.999992251405786,0.00174531760448032,-0.00349065172486007,0,29.6455025010872,29.6455025010872,,,90.7000000476837,28,0.255743767855648,0.286787454638745
2011-06-01T04:34:58Z,1306902898,10D,54.6572348,24.4245606,30.23,0.1,-0.2,217.1,-161784.77,-191691.53,218.1,Air+FixedWing,Blue,Enemies,J-11A,Blue J-11A #002,cn,[51☭] Teknetinium,0,0,0,30.2299995422363,2.22999954223633,0,0,NaN,NaN,0,0.0171320104161963,NaN,0.999992251405786,0.00174531760448032,-0.00349065172486007,0,29.6455025010872,29.6455025010872,,,91.7000000476837,28,0.25587610528728,0.286919792830059
2011-06-01T04:34:59Z,1306902899,10D,54.6572348,24.4245606,30.23,0.1,-0.2,217.1,-161784.77,-191691.53,218.1,Air+FixedWing,Blue,Enemies,J-11A,Blue J-11A #002,cn,[51☭] Teknetinium,0,0,0,30.2299995422363,2.22999954223633,0,0,NaN,NaN,0,0.0171320104161963,NaN,0.999992251405786,0.00174531760448032,-0.00349065172486007,0,29.6455025010872,29.6455025010872,,,92.7000000476837,28,0.256008442780962,0.28705213124232
2011-06-01T04:35:00Z,1306902900,10D,54.6572348,24.4245606,30.23,0.1,-0.2,217.1,-161784.77,-191691.53,218.1,Air+FixedWing,Blue,Enemies,J-11A,Blue J-11A #002,cn,[51☭] Teknetinium,0,0,0,30.2299995422363,2.22999954223633,0,0,NaN,NaN,0,0.0171320104161963,NaN,0.999992251405786,0.00174531760448032,-0.00349065172486007,0,29.6455025010872,29.6455025010872,,,93.7000000476837,28,0.256140780053693,0.287184468894893
2011-06-01T04:35:01Z,1306902901,10D,54.6572348,24.4245606,30.23,0.1,-0.2,217.1,-161784.77,-191691.53,218.1,Air+FixedWing,Blue,Enemies,J-11A,Blue J-11A #002,cn,[51☭] Teknetinium,0,0,0,30.2299995422363,2.22999954223633,0,0,NaN,NaN,0,0.0171320104161963,NaN,0.999992251405786,0.00174531760448032,-0.00349065172486007,0,29.6455025010872,29.6455025010872,,,94.7000000476837,28,0.256273117706266,0.287316807466049
2011-06-01T04:35:02Z,1306902902,10D,54.6572348,24.4245606,30.23,0.1,-0.2,217.1,-161784.77,-191691.53,218.1,Air+FixedWing,Blue,Enemies,J-11A,Blue J-11A #002,cn,[51☭] Teknetinium,0,0,0,30.2299995422363,2.22999954223633,0,0,NaN,NaN,0,0.0171320104161963,NaN,0.999992251405786,0.00174531760448032,-0.00349065172486007,0,29.6455025010872,29.6455025010872,,,95.7000000476837,28,0.256405454820103,0.28744914495973
2011-06-01T04:35:03Z,1306902903,10D,54.6572347,24.4245606,30.23,0.1,-0.2,217.1,-161784.77,-191691.53,218.1,Air+FixedWing,Blue,Enemies,J-11A,Blue J-11A #002,cn,[51☭] Teknetinium,0,0,0,30.2299995422363,2.22999954223633,0,0,NaN,NaN,0,0.0171320104161963,NaN,0.999992251405786,0.00174531760448032,-0.00349065172486007,0,29.6455025010872,29.6455025010872,,,96.7000000476837,28,0.256537792092834,0.287581482612304
2011-06-01T04:35:04Z,1306902904,10D,54.6572347,24.4245606,30.23,0.1,-0.2,217.1,-161784.77,-191691.53,218.1,Air+FixedWing,Blue,Enemies,J-11A,Blue J-11A #002,cn,[51☭] Teknetinium,0,0,0,30.2299995422363,2.22999954223633,0,0,NaN,NaN,0,0.0171320104161963,NaN,0.999992251405786,0.00174531760448032,-0.00349065172486007,0,29.6455025010872,29.6455025010872,,,97.7000000476837,28,0.256670129745407,0.287713821563301
2011-06-01T04:35:05Z,1306902905,10D,54.6572347,24.4245606,30.23,0.1,-0.2,217.1,-161784.77,-191691.53,218.1,Air+FixedWing,Blue,Enemies,J-11A,Blue J-11A #002,cn,[51☭] Teknetinium,0,0,0,30.2299995422363,2.22999954223633,0,0,NaN,NaN,0,0.0171320104161963,NaN,0.999992251405786,0.00174531760448032,-0.00349065172486007,0,29.6455025010872,29.6455025010872,,,98.7000000476837,28,0.256802465498773,0.287846157696508
2011-06-01T04:35:06Z,1306902906,10D,54.6572347,24.4245606,30.23,0.1,-0.2,217.1,-161784.77,-191691.53,218.1,Air+FixedWing,Blue,Enemies,J-11A,Blue J-11A #002,cn,[51☭] Teknetinium,0,0,0,30.2299995422363,2.22999954223633,0,0,NaN,NaN,0,0.0171320104161963,NaN,0.999992251405786,0.00174531760448032,-0.00349065172486007,0,29.6455025010872,29.6455025010872,,,99.7000000476837,28,0.256934802771503,0.287978495349081
2011-06-01T04:35:07Z,1306902907,10D,54.6572347,24.4245606,30.23,0.1,-0.2,217.1,-161784.77,-191691.53,218.1,Air+FixedWing,Blue,Enemies,J-11A,Blue J-11A #002,cn,[51☭] Teknetinium,0,0,0,30.2299995422363,2.22999954223633,0,0,NaN,NaN,0,0.0171320104161963,NaN,0.999992251405786,0.00174531760448032,-0.00349065172486007,0,29.6455025010872,29.6455025010872,,,100.700000047684,28,0.257067140424077,0.288110833920237
2011-06-01T04:35:08Z,1306902908,10D,54.6572347,24.4245606,30.23,0.1,-0.2,217.1,-161784.77,-191691.53,218.1,Air+FixedWing,Blue,Enemies,J-11A,Blue J-11A #002,cn,[51☭] Teknetinium,0,0,0,30.2299995422363,2.22999954223633,0,0,NaN,NaN,0,0.0171320104161963,NaN,0.999992251405786,0.00174531760448032,-0.00349065172486007,0,29.6455025010872,29.6455025010872,,,101.700000047684,28,0.25719947807665,0.288243171952653
2011-06-01T04:35:09Z,1306902909,10D,54.6572347,24.4245606,30.23,0.1,-0.2,217.1,-161784.77,-191691.53,218.1,Air+FixedWing,Blue,Enemies,J-11A,Blue J-11A #002,cn,[51☭] Teknetinium,0,0,0,30.2299995422363,2.22999954223633,0,0,NaN,NaN,0,0.0171320104161963,NaN,0.999992251405786,0.00174531760448032,-0.00349065172486007,0,29.6455025010872,29.6455025010872,,,102.700000047684,28,0.257331815349381,0.288375509605227
2011-06-01T04:35:10Z,1306902910,10D,54.6572347,24.4245606,30.23,0.1,-0.2,217.1,-161784.77,-191691.53,218.1,Air+FixedWing,Blue,Enemies,J-11A,Blue J-11A #002,cn,[51☭] Teknetinium,0,0,0,30.2299995422363,2.22999954223633,0,0,NaN,NaN,0,0.0171320104161963,NaN,0.999992251405786,0.00174531760448032,-0.00349065172486007,0,29.6455025010872,29.6455025010872,,,103.700000047684,28,0.257464152843062,0.288507848017487
2011-06-01T04:35:11Z,1306902911,10D,54.6572347,24.4245606,30.23,0.1,-0.2,217.1,-161784.77,-191691.53,218.1,Air+FixedWing,Blue,Enemies,J-11A,Blue J-11A #002,cn,[51☭] Teknetinium,0,0,0,30.2299995422363,2.22999954223633,0,0,NaN,NaN,0,0.0171320104161963,NaN,0.999992251405786,0.00174531760448032,-0.00349065172486007,0,29.6455025010872,29.6455025010872,,,104.700000047684,28,0.257596490115793,0.28864018567006
2011-06-01T04:35:12Z,1306902912,10D,54.6572347,24.4245606,30.23,0.1,-0.2,217.1,-161784.77,-191691.53,218.1,Air+FixedWing,Blue,Enemies,J-11A,Blue J-11A #002,cn,[51☭] Teknetinium,0,0,0,30.2299995422363,2.22999954223633,0,0,NaN,NaN,0,0.0171320104161963,NaN,0.999992251405786,0.00174531760448032,-0.00349065172486007,0,29.6455025010872,29.6455025010872,,,105.700000047684,28,0.257728827768366,0.288772524241216
2011-06-01T04:35:13Z,1306902913,10D,54.6572347,24.4245606,30.23,0.1,-0.2,217.1,-161784.77,-191691.53,218.1,Air+FixedWing,Blue,Enemies,J-11A,Blue J-11A #002,cn,[51☭] Teknetinium,0,0,0,30.2299995422363,2.22999954223633,0,0,NaN,NaN,0,0.0171320104161963,NaN,0.999992251405786,0.00174531760448032,-0.00349065172486007,0,29.6455025010872,29.6455025010872,,,106.700000047684,28,0.257861165041097,0.288904861893789
2011-06-01T04:35:14Z,1306902914,10D,54.6572347,24.4245606,30.23,0.1,-0.2,217.1,-161784.77,-191691.53,218.1,Air+FixedWing,Blue,Enemies,J-11A,Blue J-11A #002,cn,[51☭] Teknetinium,0,0,0,30.2299995422363,2.22999954223633,0,0,NaN,NaN,0,0.0171320104161963,NaN,0.999992251405786,0.00174531760448032,-0.00349065172486007,0,29.6455025010872,29.6455025010872,,,107.700000047684,28,0.25799350269367,0.289037199926206
2011-06-01T04:35:15Z,1306902915,10D,54.6572347,24.4245606,30.23,0.1,-0.2,217.1,-161784.77,-191691.53,218.1,Air+FixedWing,Blue,Enemies,J-11A,Blue J-11A #002,cn,[51☭] Teknetinium,0,0,0,30.2299995422363,2.22999954223633,0,0,NaN,NaN,0,0.0171320104161963,NaN,0.999992251405786,0.00174531760448032,-0.00349065172486007,0,29.6455025010872,29.6455025010872,,,108.700000047684,28,0.258125840346244,0.289169538877203
2011-06-01T04:35:16Z,1306902916,10D,54.6572347,24.4245606,30.23,0.1,-0.2,217.1,-161784.77,-191691.53,218.1,Air+FixedWing,Blue,Enemies,J-11A,Blue J-11A #002,cn,[51☭] Teknetinium,0,0,0,30.2299995422363,2.22999954223633,0,0,NaN,NaN,0,0.0171320104161963,NaN,0.999992251405786,0.00174531760448032,-0.00349065172486007,0,29.6455025010872,29.6455025010872,,,109.700000047684,28,0.258258177080237,0.28930187599104
2011-06-01T04:35:17Z,1306902917,10D,54.6572347,24.4245606,30.23,0.1,-0.2,217.1,-161784.77,-191691.53,218.1,Air+FixedWing,Blue,Enemies,J-11A,Blue J-11A #002,cn,[51☭] Teknetinium,0,0,0,30.2299995422363,2.22999954223633,0,0,NaN,NaN,0,0.0171320104161963,NaN,0.999992251405786,0.00174531760448032,-0.00349065172486007,0,29.6455025010872,29.6455025010872,,,110.700000047684,28,0.25839051473281,0.289434214562196
2011-06-01T04:35:18Z,1306902918,10D,54.6572347,24.4245606,30.23,0.1,-0.2,217.1,-161784.77,-191691.53,218.1,Air+FixedWing,Blue,Enemies,J-11A,Blue J-11A #002,cn,[51☭] Teknetinium,0,0,0,30.2299995422363,2.22999954223633,0,0,NaN,NaN,0,0.0171320104161963,NaN,0.999992251405786,0.00174531760448032,-0.00349065172486007,0,29.6455025010872,29.6455025010872,,,111.700000047684,28,0.258522850486176,0.289566550695402
2011-06-01T04:35:19Z,1306902919,10D,54.6572347,24.4245606,30.23,0.1,-0.2,217.1,-161784.77,-191691.53,218.1,Air+FixedWing,Blue,Enemies,J-11A,Blue J-11A #002,cn,[51☭] Teknetinium,0,0,0,30.2299995422363,2.22999954223633,0,0,NaN,NaN,0,0.0171320104161963,NaN,0.999992251405786,0.00174531760448032,-0.00349065172486007,0,29.6455025010872,29.6455025010872,,,112.700000047684,28,0.258655188138749,0.289698888727819
2011-06-01T04:35:20Z,1306902920,10D,54.6572347,24.4245606,30.23,0.1,-0.2,217.1,-161784.77,-191691.53,218.1,Air+FixedWing,Blue,Enemies,J-11A,Blue J-11A #002,cn,[51☭] Teknetinium,0,0,0,30.2299995422363,2.22999954223633,0,0,NaN,NaN,0,0.0171320104161963,NaN,0.999992251405786,0.00174531760448032,-0.00349065172486007,0,29.6455025010872,29.6455025010872,,,113.700000047684,28,0.258787524872742,0.289831226380392
2011-06-01T04:35:21Z,1306902921,10D,54.6572347,24.4245606,30.23,0.1,-0.2,217.1,-161784.77,-191691.53,218.1,Air+FixedWing,Blue,Enemies,J-11A,Blue J-11A #002,cn,[51☭] Teknetinium,0,0,0,30.2299995422363,2.22999954223633,0,0,NaN,NaN,0,0.0171320104161963,NaN,0.999992251405786,0.00174531760448032,-0.00349065172486007,0,29.6455025010872,29.6455025010872,,,114.700000047684,28,0.258919863443897,0.28996356533139
2011-06-01T04:35:22Z,1306902922,10D,54.6572347,24.4245606,30.23,0.1,-0.2,217.1,-161784.77,-191691.53,218.1,Air+FixedWing,Blue,Enemies,J-11A,Blue J-11A #002,cn,[51☭] Teknetinium,0,0,0,30.2299995422363,2.22999954223633,0,0,NaN,NaN,0,0.0171320104161963,NaN,0.999992251405786,0.00174531760448032,-0.00349065172486007,0,29.6455025010872,29.6455025010872,,,115.700000047684,28,0.259052200336786,0.290095902983963
2011-06-01T04:35:23Z,1306902923,10D,54.6572347,24.4245606,30.23,0.1,-0.2,217.1,-161784.77,-191691.53,218.1,Air+FixedWing,Blue,Enemies,J-11A,Blue J-11A #002,cn,[51☭] Teknetinium,0,0,0,30.2299995422363,2.22999954223633,0,0,NaN,NaN,0,0.0171320104161963,NaN,0.999992251405786,0.00174531760448032,-0.00349065172486007,0,29.6455025010872,29.6455025010872,,,116.700000047684,28,0.259184537830468,0.29022824101638
2011-06-01T04:35:24Z,1306902924,10D,54.6572347,24.4245606,30.23,0.1,-0.2,217.1,-161784.77,-191691.53,218.1,Air+FixedWing,Blue,Enemies,J-11A,Blue J-11A #002,cn,[51☭] Teknetinium,0,0,0,30.2299995422363,2.22999954223633,0,0,NaN,NaN,0,0.0171320104161963,NaN,0.999992251405786,0.00174531760448032,-0.00349065172486007,0,29.6455025010872,29.6455025010872,,,117.700000047684,28,0.259316875103198,0.290360578668953
2011-06-01T04:35:25Z,1306902925,10D,54.6572347,24.4245606,30.23,0.1,-0.2,217.1,-161784.77,-191691.53,218.1,Air+FixedWing,Blue,Enemies,J-11A,Blue J-11A #002,cn,[51☭] Teknetinium,0,0,0,30.2299995422363,2.22999954223633,0,0,NaN,NaN,0,0.0171320104161963,NaN,0.999992251405786,0.00174531760448032,-0.00349065172486007,0,29.6455025010872,29.6455025010872,,,118.700000047684,28,0.259449212755772,0.290492917240109
2011-06-01T04:35:26Z,1306902926,10D,54.6572347,24.4245606,30.23,0.1,-0.2,217.1,-161784.77,-191691.53,218.1,Air+FixedWing,Blue,Enemies,J-11A,Blue J-11A #002,cn,[51☭] Teknetinium,0,0,0,30.2299995422363,2.22999954223633,0,0,NaN,NaN,0,0.0171320104161963,NaN,0.999992251405786,0.00174531760448032,-0.00349065172486007,0,29.6455025010872,29.6455025010872,,,119.700000047684,28,0.259581547970393,0.290625252834573
2011-06-01T04:35:27Z,1306902927,10D,54.6572347,24.4245606,30.23,0.1,-0.2,217.1,-161784.77,-191691.53,218.1,Air+FixedWing,Blue,Enemies,J-11A,Blue J-11A #002,cn,[51☭] Teknetinium,0,0,0,30.2299995422363,2.22999954223633,0,0,NaN,NaN,0,0.0171320104161963,NaN,0.999992251405786,0.00174531760448032,-0.00349065172486007,0,29.6455025010872,29.6455025010872,,,120.700000047684,28,0.259713885622967,0.29075759178557
2011-06-01T04:35:28Z,1306902928,10D,54.6572347,24.4245606,30.23,0.1,-0.2,217.1,-161784.77,-191691.53,218.1,Air+FixedWing,Blue,Enemies,J-11A,Blue J-11A #002,cn,[51☭] Teknetinium,0,0,0,30.2299995422363,2.22999954223633,0,0,NaN,NaN,0,0.0171320104161963,NaN,0.999992251405786,0.00174531760448032,-0.00349065172486007,0,29.6455025010872,29.6455025010872,,,121.700000047684,28,0.25984622343444,0.290889929438144
2011-06-01T04:35:29Z,1306902929,10D,54.6572347,24.4245606,30.23,0.1,-0.2,217.1,-161784.77,-191691.53,218.1,Air+FixedWing,Blue,Enemies,J-11A,Blue J-11A #002,cn,[51☭] Teknetinium,0,0,0,30.2299995422363,2.22999954223633,0,0,NaN,NaN,0,0.0171320104161963,NaN,0.999992251405786,0.00174531760448032,-0.00349065172486007,0,29.6455025010872,29.6455025010872,,,122.700000047684,28,0.259978560548277,0.29102226747056
2011-06-01T04:35:30Z,1306902930,10D,54.6572347,24.4245606,30.23,0.1,-0.2,217.1,-161784.77,-191691.53,218.1,Air+FixedWing,Blue,Enemies,J-11A,Blue J-11A #002,cn,[51☭] Teknetinium,0,0,0,30.2299995422363,2.22999954223633,0,0,NaN,NaN,0,0.0171320104161963,NaN,0.999992251405786,0.00174531760448032,-0.00349065172486007,0,29.6455025010872,29.6455025010872,,,123.700000047684,28,0.260110897821007,0.291154605661874
2011-06-01T04:35:31Z,1306902931,10D,54.6572347,24.4245606,30.23,0.1,-0.2,217.1,-161784.77,-191691.53,218.1,Air+FixedWing,Blue,Enemies,J-11A,Blue J-11A #002,cn,[51☭] Teknetinium,0,0,0,30.2299995422363,2.22999954223633,0,0,NaN,NaN,0,0.0171320104161963,NaN,0.999992251405786,0.00174531760448032,-0.00349065172486007,0,29.6455025010872,29.6455025010872,,,124.700000047684,28,0.260243235473581,0.291286943694291
2011-06-01T04:35:32Z,1306902932,10D,54.6572347,24.4245606,30.23,0.1,-0.2,217.1,-161784.77,-191691.53,218.1,Air+FixedWing,Blue,Enemies,J-11A,Blue J-11A #002,cn,[51☭] Teknetinium,0,0,0,30.2299995422363,2.22999954223633,0,0,NaN,NaN,0,0.0171320104161963,NaN,0.999992251405786,0.00174531760448032,-0.00349065172486007,0,29.6455025010872,29.6455025010872,,,125.700000047684,28,0.260375573505997,0.291419282106551
2011-06-01T04:35:33Z,1306902933,10D,54.6572347,24.4245606,30.23,0.1,-0.2,217.1,-161784.77,-191691.53,218.1,Air+FixedWing,Blue,Enemies,J-11A,Blue J-11A #002,cn,[51☭] Teknetinium,0,0,0,30.2299995422363,2.22999954223633,0,0,NaN,NaN,0,0.0171320104161963,NaN,0.999992251405786,0.00174531760448032,-0.00349065172486007,0,29.6455025010872,29.6455025010872,,,126.700000047684,28,0.260507909860146,0.291551619759124
2011-06-01T04:35:34Z,1306902934,10D,54.6572347,24.4245606,30.23,0.1,-0.2,217.1,-161784.77,-191691.53,218.1,Air+FixedWing,Blue,Enemies,J-11A,Blue J-11A #002,cn,[51☭] Teknetinium,0,0,0,30.2299995422363,2.22999954223633,0,0,NaN,NaN,0,0.0171320104161963,NaN,0.999992251405786,0.00174531760448032,-0.00349065172486007,0,29.6455025010872,29.6455025010872,,,127.700000047684,28,0.260640248431302,0.29168395833028
2011-06-01T04:35:35Z,1306902935,10D,54.6572347,24.4245606,30.23,0.1,-0.2,217.1,-161784.77,-191691.53,218.1,Air+FixedWing,Blue,Enemies,J-11A,Blue J-11A #002,cn,[51☭] Teknetinium,0,0,0,30.2299995422363,2.22999954223633,0,0,NaN,NaN,0,0.0171320104161963,NaN,0.999992251405786,0.00174531760448032,-0.00349065172486007,0,29.6455025010872,29.6455025010872,,,128.700000047684,28,0.260772585165295,0.291816295982853
2011-06-01T04:35:36Z,1306902936,10D,54.6572347,24.4245606,30.23,0.1,-0.2,217.1,-161784.77,-191691.53,218.1,Air+FixedWing,Blue,Enemies,J-11A,Blue J-11A #002,cn,[51☭] Teknetinium,0,0,0,30.2299995422363,2.22999954223633,0,0,NaN,NaN,0,0.0171320104161963,NaN,0.999992251405786,0.00174531760448032,-0.00349065172486007,0,29.6455025010872,29.6455025010872,,,129.700000047684,28,0.260904922817868,0.29194863401527
2011-06-01T04:35:37Z,1306902937,10D,54.6572347,24.4245606,30.23,0.1,-0.2,217.1,-161784.77,-191691.53,218.1,Air+FixedWing,Blue,Enemies,J-11A,Blue J-11A #002,cn,[51☭] Teknetinium,0,0,0,30.2299995422363,2.22999954223633,0,0,NaN,NaN,0,0.0171320104161963,NaN,0.999992251405786,0.00174531760448032,-0.00349065172486007,0,29.6455025010872,29.6455025010872,,,130.700000047684,28,0.261037260090599,0.292080971667843
2011-06-01T04:35:38Z,1306902938,10D,54.6572347,24.4245606,30.23,0.1,-0.2,217.1,-161784.77,-191691.53,218.1,Air+FixedWing,Blue,Enemies,J-11A,Blue J-11A #002,cn,[51☭] Teknetinium,0,0,0,30.2299995422363,2.22999954223633,0,0,NaN,NaN,0,0.0171320104161963,NaN,0.999992251405786,0.00174531760448032,-0.00349065172486007,0,29.6455025010872,29.6455025010872,,,131.700000047684,28,0.261169597743172,0.292213310618841
2011-06-01T04:35:39Z,1306902939,10D,54.6572347,24.4245606,30.23,0.1,-0.2,217.1,-161784.77,-191691.53,218.1,Air+FixedWing,Blue,Enemies,J-11A,Blue J-11A #002,cn,[51☭] Teknetinium,0,0,0,30.2299995422363,2.22999954223633,0,0,NaN,NaN,0,0.0171320104161963,NaN,0.999992251405786,0.00174531760448032,-0.00349065172486007,0,29.6455025010872,29.6455025010872,,,132.700000047684,28,0.261301932957794,0.292345646213305
2011-06-01T04:35:40Z,1306902940,10D,54.6572347,24.4245606,30.23,0.1,-0.2,217.1,-161784.77,-191691.53,218.1,Air+FixedWing,Blue,Enemies,J-11A,Blue J-11A #002,cn,[51☭] Teknetinium,0,0,0,30.2299995422363,2.22999954223633,0,0,NaN,NaN,0,0.0171320104161963,NaN,0.999992251405786,0.00174531760448032,-0.00349065172486007,0,29.6455025010872,29.6455025010872,,,133.700000047684,28,0.261434270610367,0.29247798478446
2011-06-01T04:35:41Z,1306902941,10D,54.6572347,24.4245606,30.23,0.1,-0.2,217.1,-161784.77,-191691.53,218.1,Air+FixedWing,Blue,Enemies,J-11A,Blue J-11A #002,cn,[51☭] Teknetinium,0,0,0,30.2299995422363,2.22999954223633,0,0,NaN,NaN,0,0.126668886386288,NaN,1.00105831414673,0.00137679879849606,0.00869472706043536,0,29.6455025010872,29.6455025010872,,,134.700000047684,28,0.261562639224736,0.292606353778672
2011-06-01T04:35:42Z,1306902942,10D,54.6572341,24.4245598,30.24,0.1,-0.3,217,-161784.84,-191691.62,218,Air+FixedWing,Blue,Enemies,J-11A,Blue J-11A #002,cn,[51☭] Teknetinium,0.122444202405378,0,0.000359815071375221,30.2399997711182,2.23999977111816,0.122035151186041,0.0100002288818359,NaN,NaN,0,0.0513960362511687,NaN,0.998423044012082,0.0024899855574048,0.0808006813253172,0.000749629135134455,29.6553093755436,29.6560590046787,,,135.700000047684,28,0.364266561376945,0.395796470600459
2011-06-01T04:35:43Z,1306902943,10D,54.6572284,24.4245528,30.23,0,-0.3,217,-161785.44,-191692.39,217.9,Air+FixedWing,Blue,Enemies,J-11A,Blue J-11A #002,cn,[51☭] Teknetinium,0.96892760704951,0.983016848564148,0.00284729460400831,30.2299995422363,2.22999954223633,0.968875999870468,-0.0100002288818359,-0.6673988603736,-0.259758189584082,0,0.1251146048035,NaN,1.00255463095513,-3.68396883282581e-05,0.0957856758632957,0.0469410353851345,29.6455025010872,29.6924435364723,,,136.700000047684,28,1.3414585914181,1.37304430097857
2011-06-01T04:35:44Z,1306902944,10D,54.6572168,24.4245387,30.24,0,-0.4,216.9,-161786.64,-191693.94,217.9,Air+FixedWing,Blue,Enemies,J-11A,Blue J-11A #002,cn,[51☭] Teknetinium,1.95970202730611,1.9660336971283,0.00575878899104451,30.2399997711182,2.23999977111816,1.95967651188914,0.0100002288818359,-0.608257032971669,0.147040846176853,0.190464720864058,0.0713262647800548,NaN,0.999275193774654,-0.00108229309528144,0.0753825890784643,0.192021601791384,29.6553093755436,29.847330977335,,,137.700000047684,28,3.30316706535221,3.33478756246366
2011-06-01T04:35:45Z,1306902945,10D,54.6572005,24.4245188,30.24,0,-0.3,216.9,-161788.34,-191696.11,217.9,Air+FixedWing,Blue,Enemies,J-11A,Blue J-11A #002,cn,[51☭] Teknetinium,2.76001438618651,2.75545477867126,0.008110590232367,30.238094329834,2.23809432983398,2.76001372845318,-0.00190544128417969,0.0478700549708371,-0.00249407860311072,0,0.0504352774299245,NaN,1.00102605785147,0.00383523312917345,0.137488695570161,0.380883970597824,29.6534407759666,30.0343247465645,,,138.700000047684,28,6.06891835932591,6.10055262582984
2011-06-01T04:35:46Z,1306902946,10D,54.6571759,24.4244888,30.24,-0,-0.3,216.8,-161790.88,-191699.41,217.8,Air+FixedWing,Blue,Enemies,J-11A,Blue J-11A #002,cn,[51☭] Teknetinium,4.15651456980903,4.1456880569458,0.0122143519186023,30.23952293396,2.23952293395996,4.15651432430167,0.00142860412597656,-0.426317211098619,-0.500779088491859,0.104755611816477,0.616605625967509,NaN,1.00023618828879,0.0108754804823992,0.0608752022559378,0.863830668451738,29.6548417580318,30.5186724264836,,,139.700000047684,28,10.2312434053095,10.2628976500223
