ISOTime,UnixTime,Id,Longitude,Latitude,Altitude,Roll,Pitch,Yaw,U,V,Heading,Type,Color,Coalition,Name,Group,Country,Pilot,TAS,CAS,M,ASL,AGL,GS,VS,AOA,AOS,RRT,TRT,TRD,G,LatG,LonG,Ek,Ep,Em,FFW,FFV,RelativeTime,Elev,GroundDistance,AirDistance
2011-06-01T04:30:00Z,1306902600,202,53.9864176,25.2234489,8997.77,0,0.3,117.5,-227881.2,-101837.72,118.8,Air+FixedWing,Blue,Enemies,E-2C,Blue AWACS #001,us,,NaN,NaN,NaN,8997.76953125,8997.76953125,NaN,NaN,NaN,NaN,NaN,NaN,NaN,NaN,NaN,NaN,NaN,8823.79765736328,NaN,,,0,0,NaN,NaN
2011-06-01T04:30:01Z,1306902601,202,53.9877619,25.2228131,8994.67,-0.4,2.4,117.4,-227747.27,-101911.23,118.7,Air+FixedWing,Blue,Enemies,E-2C,Blue AWACS #001,us,,152.814363648454,96.3632278442383,0.502704426426462,8994.6748046875,8994.6748046875,152.783023941749,-3.0947265625,4.22083834544719,0.0207012811045795,0.733343750805929,0.126689835994676,5000,0.761011798758713,-0.000912576623809745,0.0824796114496315,1167.61148686409,8820.76276733887,9988.37425420296,,,1,0,152.761360091406,153.008126645862
2011-06-01T04:30:02Z,1306902602,202,53.9891107,25.2221756,8989.26,-0.2,4,117.4,-227612.88,-101984.94,118.7,Air+FixedWing,Blue,Enemies,E-2C,Blue AWACS #001,us,,153.373474738411,96.7613830566406,0.504505151653439,8989.263671875,8989.263671875,153.27799057601,-5.4111328125,5.89879870958713,0.0120237699997275,0.371398366308613,1.61517282596017,5000,1.10313428348615,-0.000274334506903442,-0.0767804640819798,1176.1711376667,8815.4562587793,9991.627396446,,,2,0,306.019306030161,306.577499643477
2011-06-01T04:30:03Z,1306902603,202,53.9904464,25.2215444,8984.79,0,5.1,117.4,-227479.78,-102057.9,118.7,Air+FixedWing,Blue,Enemies,E-2C,Blue AWACS #001,us,,151.846280975194,95.7827377319336,0.499450041623103,8984.7861328125,8984.7861328125,151.780251317296,-4.4775390625,6.41094830708345,0.0375204342114115,0.0190464494080433,1.11197987647893,5000,1.1692064782055,-0.000714605231392611,0.257039521967474,1152.86465229988,8811.06529293457,9963.92994523445,,,3,0,457.772473245548,458.6104410939
2011-06-01T04:30:04Z,1306902604,202,53.9917951,25.2209071,8982.15,0.1,5.8,117.4,-227345.38,-102131.59,118.7,Air+FixedWing,Blue,Enemies,E-2C,Blue AWACS #001,us,,153.303165641493,96.7549591064453,0.504223203545415,8982.1455078125,8982.1455078125,153.280421761269,-2.640625,6.43215157744049,0.0472161429059696,0.20000001179094,0.731230927835721,5000,1.20478381089796,0.00106073014413508,-0.0978731016369199,1175.09302978516,8808.47572441894,9983.5687542041,,,4,0,611.017397495778,612.093924609467
2011-06-01T04:30:05Z,1306902605,202,53.993125,25.2202785,8981.36,0.1,6.2,117.4,-227212.86,-102204.25,118.7,Air+FixedWing,Blue,Enemies,E-2C,Blue AWACS #001,us,,151.132660301686,95.3334503173828,0.497078739044403,8981.35546875,8981.35546875,151.130595341064,-0.7900390625,6.19896202746043,0.0497043572949248,0,0.417078111188703,5000,1.1252778029705,-0.00140511592685302,0.204112589458659,1142.05405049324,8807.70096076172,9949.75501125496,,,5,0,762.122151304828,763.413527915425
2011-06-01T04:30:06Z,1306902606,202,53.9944618,25.2196465,8981.95,0.1,6.4,117.4,-227079.66,-102277.33,118.7,Air+FixedWing,Blue,Enemies,E-2C,Blue AWACS #001,us,,151.933645973927,95.8562088012695,0.499717359902417,8981.9453125,8981.9453125,151.93250101042,0.58984375,5.94339996224216,0.059283580145705,0,0.186101590686169,5000,1.09269368200703,0.00228199508105325,0.0356293191777352,1154.19163894653,8808.27939988281,9962.47103882934,,,6,0,914.030914548263,915.537351607905
2011-06-01T04:30:07Z,1306902607,202,53.9957913,25.2190177,8983.42,0.1,6.4,117.4,-226947.19,-102350,118.8,Air+FixedWing,Blue,Enemies,E-2C,Blue AWACS #001,us,,151.100420196903,95.3008728027344,0.496987163652434,8983.4169921875,8983.4169921875,151.093253133878,1.4716796875,5.73604119176031,-0.0370645356473962,0,0.0720088301298065,5000,1.03120610250492,-0.000311665906215277,0.20831648466086,1141.56684918404,8809.72262464355,9951.28947382759,,,7,0,1065.11222506357,1066.83859579285
2011-06-01T04:30:08Z,1306902608,202,53.9971284,25.2183851,8985.36,0.1,6.3,117.5,-226813.94,-102423.12,118.8,Air+FixedWing,Blue,Enemies,E-2C,Blue AWACS #001,us,,152.008555601289,95.8860855102539,0.499987838718852,8985.359375,8985.359375,151.996145099144,1.9423828125,5.52578224452147,-0.0250770336945916,0,0.0523391626455858,5000,1.023649849919,0.00139376478754714,-0.0257937797689642,1155.33004879951,8811.62745148437,9966.95750028389,,,8,0,1217.07413113033,1219.02695467871
2011-06-01T04:30:09Z,1306902609,202,53.9984536,25.217758,8987.45,0.1,6.3,117.5,-226681.88,-102495.6,118.8,Air+FixedWing,Blue,Enemies,E-2C,Blue AWACS #001,us,,150.657582462086,94.9878387451172,0.495558800253178,8987.4453125,8987.4453125,150.643141291153,2.0859375,5.50972214665841,-0.0298495725137641,0,0.101835886039175,5000,0.993147736979638,-0.00111827808355811,0.0545146014412566,1134.88535766602,8813.67305738281,9948.55841504883,,,9,0,1367.68794985377,1369.8674026615
2011-06-01T04:30:10Z,1306902610,202,53.9997741,25.2171331,8989.46,0,6.2,117.5,-226550.3,-102567.84,118.8,Air+FixedWing,Blue,Enemies,E-2C,Blue AWACS #001,us,,150.119323194342,94.6238098144531,0.49380237438586,8989.4638671875,8989.4638671875,150.105751499737,2.0185546875,5.45992680261902,-0.0328070450554944,0,0.101354391053222,5000,0.973107820114441,0.000132088950323183,0.145876328786215,1126.79055981636,8815.65258331543,9942.44314313179,,,10,0,1517.77372230151,1520.17823941571
2011-06-01T04:30:11Z,1306902611,202,54.001098,25.2165064,8991.32,0,6.1,117.5,-226418.38,-102640.27,118.8,Air+FixedWing,Blue,Enemies,E-2C,Blue AWACS #001,us,,150.508724846885,94.8689498901367,0.495096229042588,8991.3173828125,8991.3173828125,150.49731138749,1.853515625,5.43522630624556,-0.031259960286661,0,0.0532655904281015,5000,0.981262071416435,-0.000469159975505459,0.000897962359893897,1132.64381275177,8817.47026121582,9950.11407396759,,,11,0,1668.2441107034,1670.87212485487
2011-06-01T04:30:12Z,1306902612,202,54.0024129,25.2158839,8992.93,0,6,117.5,-226287.34,-102712.22,118.8,Air+FixedWing,Blue,Enemies,E-2C,Blue AWACS #001,us,,149.492235935782,94.1935501098633,0.491763726579755,8992.93359375,8992.93359375,149.483498979938,1.6162109375,5.42933947915917,-0.0281574127158623,0,0.0541761800424684,5000,0.967596867588546,-0.00028472384876932,0.131107354034972,1117.39643025398,8819.05522271484,9936.45165296883,,,12,0,1817.70954545415,1820.55700702824
2011-06-01T04:30:13Z,1306902613,202,54.0037304,25.2152603,8994.31,0,5.9,117.5,-226156.06,-102784.3,118.8,Air+FixedWing,Blue,Enemies,E-2C,Blue AWACS #001,us,,149.776686301406,94.3725433349609,0.492709050618705,8994.314453125,8994.314453125,149.770320780909,1.380859375,5.42746916080943,-0.0268173777223694,0,0.100870594880489,5000,0.977029833766688,8.31660985973836e-05,0.0297955015269087,1121.6527879715,8820.40938317383,9942.06217114532,,,13,0,1967.45999928833,1970.52497698832
2011-06-01T04:30:14Z,1306902614,202,54.0050416,25.2146394,8995.45,0,5.9,117.5,-226025.39,-102856.05,118.8,Air+FixedWing,Blue,Enemies,E-2C,Blue AWACS #001,us,,149.078801675622,93.9091720581055,0.490421131109502,8995.44921875,8995.44921875,149.074482779635,1.134765625,5.50227537272979,-0.0315170370539636,0,0.0523391626455858,5000,0.968641398107501,-0.00126756002071331,0.15929234578386,1111.22445545197,8821.52220810547,9932.74666355743,,,14,0,2116.5066144934,2119.78610147017
2011-06-01T04:30:15Z,1306902615,202,54.006358,25.2140161,8996.39,0,5.9,117.5,-225894.22,-102928.09,118.8,Air+FixedWing,Blue,Enemies,E-2C,Blue AWACS #001,us,,149.654823587964,94.2810821533203,0.492322575280736,8996.38671875,8996.38671875,149.651887114378,0.9375,5.57801072014603,-0.0241898562041219,0,0.0523391626455858,5000,0.984748145855471,8.65904232845454e-05,0.0121494196518798,1119.82831115723,8822.44158154297,9942.2698927002,,,15,0,2266.14724692986,2269.64072415384
2011-06-01T04:30:16Z,1306902616,202,54.0076666,25.2133964,8997.14,0,5.8,117.5,-225763.81,-102999.71,118.8,Air+FixedWing,Blue,Enemies,E-2C,Blue AWACS #001,us,,148.779610903452,93.7038803100586,0.489448547337867,8997.1357421875,8997.1357421875,148.77772543117,0.7490234375,5.53987589920898,-0.0283977169806956,0,0.0523391626455858,5000,0.985633926097459,0.00056944769753864,0.0413205072442911,1106.76863102913,8823.1761226123,9929.94475364143,,,16,0,2414.89864306159,2418.60382658481
2011-06-01T04:30:17Z,1306902617,202,54.0089701,25.2127792,8997.74,0,5.8,117.5,-225633.91,-103071.05,118.8,Air+FixedWing,Blue,Enemies,E-2C,Blue AWACS #001,us,,148.20529443805,93.3244934082031,0.487563315284231,8997.7353515625,8997.7353515625,148.204081482483,0.599609375,5.59253497873362,-0.0238373049956957,0,0.0139882274201861,5000,0.971541743575552,-0.000301845472205118,0.219471585586611,1098.24046497345,8823.76413854004,9922.00460351349,,,17,0,2563.07544635507,2566.99086966416
2011-06-01T04:30:18Z,1306902618,202,54.0102841,25.212157,8998.22,0,5.8,117.5,-225502.97,-103142.95,118.8,Air+FixedWing,Blue,Enemies,E-2C,Blue AWACS #001,us,,149.383322591645,94.0931091308594,0.49144216845612,8998.224609375,8998.224609375,149.382521384908,0.4892578125,5.63620891052668,-0.0278813283849153,0,0.0139882274201861,5000,0.997733811201599,0.0012846816441491,-0.0492237428246471,1115.76885342598,8824.24393655274,9940.01278997871,,,18,0,2712.44057561614,2716.56751649602
2011-06-01T04:30:19Z,1306902619,202,54.011585,25.211541,8998.59,0,5.8,117.5,-225373.31,-103214.14,118.8,Air+FixedWing,Blue,Enemies,E-2C,Blue AWACS #001,us,,147.913957641223,93.1294097900391,0.486610772831572,8998.5927734375,8998.5927734375,147.913499452594,0.3681640625,5.6710639441124,-0.0267140961190362,0,0.0139882274201861,5000,0.988245985815228,-0.00146569344619808,0.0993648299474592,1093.92694325447,8824.60498216309,9918.53192541756,,,19,0,2860.32400697864,2864.66004252352
2011-06-01T04:30:20Z,1306902620,202,54.0128858,25.2109249,8998.89,0,5.8,117.5,-225243.67,-103285.34,118.8,Air+FixedWing,Blue,Enemies,E-2C,Blue AWACS #001,us,,147.903871586043,93.1212539672852,0.486579665187093,8998.89453125,8998.89453125,147.903563758157,0.3017578125,5.6949958965715,-0.0292148686244882,0,0.0139882274201861,5000,0.983967604655158,0.000899670073346598,0.141484667866206,1093.77776150703,8824.90090548828,9918.67866699531,,,20,0,3008.20069473355,3012.74567301005
2011-06-01T04:30:21Z,1306902621,202,54.0141903,25.2103072,8999.13,0,5.8,117.5,-225113.67,-103356.72,118.8,Air+FixedWing,Blue,Enemies,E-2C,Blue AWACS #001,us,,148.30900616877,93.3847579956055,0.48791411382175,8999.1298828125,8999.1298828125,148.308819428954,0.2353515625,5.72129639929168,-0.030278824681023,0,0.0139882274201861,5000,0.992948434651672,-0.00131990719712626,0.0668658176127623,1099.77806553841,8825.13170652832,9924.90977206673,,,21,0,3156.49255429521,3161.24694634899
2011-06-01T04:30:22Z,1306902622,202,54.0154918,25.2096908,8999.31,0,5.8,117.5,-224983.97,-103427.95,118.8,Air+FixedWing,Blue,Enemies,E-2C,Blue AWACS #001,us,,147.977262325816,93.1668319702148,0.486823982546372,8999.3125,8999.3125,147.977149642795,0.1826171875,5.73460420928607,-0.0279983844319471,0,0.0139882274201861,5000,0.994527101744819,0.0016114796952699,0.0690614602225137,1094.86350827217,8825.3107928125,9920.17430108467,,,22,0,3304.44317807439,3309.40643334525
2011-06-01T04:30:23Z,1306902623,202,54.0167906,25.2090758,8999.46,0,5.8,117.5,-224854.53,-103499.02,118.8,Air+FixedWing,Blue,Enemies,E-2C,Blue AWACS #001,us,,147.665424083723,92.9621353149414,0.485799091180035,8999.4599609375,8999.4599609375,147.665350455338,0.1474609375,5.75212560306131,-0.0305906639019157,0,0.0139882274201861,5000,0.997663643181006,-0.000198133425484775,0.0411390336230644,1090.25387349129,8825.45540259277,9915.70927608406,,,23,0,3452.09414286976,3457.26580336207
2011-06-01T04:30:24Z,1306902624,202,54.0180842,25.2084632,8999.58,0,5.8,117.5,-224725.61,-103569.81,118.8,Air+FixedWing,Blue,Enemies,E-2C,Blue AWACS #001,us,,147.078055814271,92.5771026611328,0.483867517240677,8999.5751953125,8999.5751953125,147.078010671699,0.115234375,5.75890924348808,-0.0291006026322209,0,0.0139882274201861,5000,0.986254494514496,0.000757308148961938,0.156416122592714,1081.59772510529,8825.56840891113,9907.16613401642,,,24,0,3599.14666421664,3604.5258601263
2011-06-01T04:30:25Z,1306902625,202,54.0193826,25.2078482,8999.66,0,5.8,117.5,-224596.2,-103640.86,118.8,Air+FixedWing,Blue,Enemies,E-2C,Blue AWACS #001,us,,147.626702772845,92.9357604980469,0.485673083271883,8999.6611328125,8999.6611328125,147.626677759571,0.0859375,5.76842600168186,-0.0293644121924837,0,0.0139882274201861,5000,0.99944467516293,-0.000757308148961938,0.0452840586558345,1089.6821685791,8825.65268480957,9915.33485338867,,,25,0,3746.75721977102,3752.34472070193
2011-06-01T04:30:26Z,1306902626,202,54.0206762,25.2072356,8999.74,0,5.8,117.5,-224467.28,-103711.65,118.8,Air+FixedWing,Blue,Enemies,E-2C,Blue AWACS #001,us,,147.078029893929,92.5763473510742,0.483868533138248,8999.736328125,8999.736328125,147.078010671699,0.0751953125,5.77762818666314,-0.0281692332977551,0,0.0139882274201861,5000,0.991895137347384,0.00125386272196467,0.114680771187682,1081.59734387398,8825.7264262207,9907.32377009468,,,26,0,3893.80871370805,3899.60372689505
2011-06-01T04:30:27Z,1306902627,202,54.0219709,25.2066225,8999.8,0,5.8,117.5,-224338.23,-103782.49,118.8,Air+FixedWing,Blue,Enemies,E-2C,Blue AWACS #001,us,,147.213913778387,92.6650314331055,0.484315981794989,8999.7958984375,8999.7958984375,147.213901725782,0.0595703125,5.77761644755373,-0.0324674511519314,0,0.0139882274201861,5000,0.992125787998294,-0.00195539936982649,0.105512214922158,1083.59682049751,8825.78484474121,9909.38166523872,,,27,0,4041.00173660176,4047.00445613868
2011-06-01T04:30:28Z,1306902628,202,54.0232662,25.2060091,8999.83,0,5.8,117.5,-224209.16,-103853.38,118.8,Air+FixedWing,Blue,Enemies,E-2C,Blue AWACS #001,us,,147.260099275165,92.69482421875,0.484468180415617,8999.8330078125,8999.8330078125,147.260094599405,0.037109375,5.7855273743661,-0.0345213168106326,0,0.0139882274201861,5000,0.999670599178167,0.00175384161965456,0.0548847575192646,1084.27684192657,8825.82123660645,9910.09807853302,,,28,0,4188.24962890462,4194.46012596162
2011-06-01T04:30:29Z,1306902629,202,54.0245572,25.2053976,8999.87,0,5.8,117.5,-224080.47,-103924.02,118.8,Air+FixedWing,Blue,Enemies,E-2C,Blue AWACS #001,us,,146.804890340819,92.3972396850586,0.482970857056095,8999.87109375,8999.87109375,146.804885400457,0.0380859375,5.78889877120999,-0.0312501814204931,0,0.0139882274201861,5000,1.00060153554802,0.00022210369829489,0.0338949911343475,1077.583791399,8825.85858615234,9903.44237755135,,,29,0,4335.01483157193,4341.43242618543
2011-06-01T04:30:30Z,1306902630,202,54.0258427,25.2047888,8999.9,0,5.8,117.5,-223952.36,-103994.35,118.8,Air+FixedWing,Blue,Enemies,E-2C,Blue AWACS #001,us,,146.143962846869,91.9648208618164,0.480796668862217,8999.8984375,8999.8984375,146.143960288841,0.02734375,5.7901271645445,-0.0325206175448468,0,0.0139882274201861,5000,0.989055510693903,-0.00154543522010831,0.152490412664836,1067.90289382935,8825.88540121094,9893.78829504028,,,30,0,4481.16013536347,4487.78395119604
2011-06-01T04:30:31Z,1306902631,202,54.0271325,25.204178,8999.92,0,5.8,117.5,-223823.81,-104064.94,118.8,Air+FixedWing,Blue,Enemies,E-2C,Blue AWACS #001,us,,146.651539734835,92.2967147827148,0.482466684287196,8999.919921875,8999.919921875,146.65153816111,0.021484375,5.7923537036665,-0.0363278690508588,0,0.0139882274201861,5000,0.991068774874399,0.00187908192060342,0.130699401963326,1075.3337053299,8825.90647018555,9901.24017551544,,,31,0,4627.78737176338,4634.61808842543
2011-06-01T04:30:32Z,1306902632,202,54.0284248,25.2035659,8999.93,0,5.9,117.5,-223695,-104135.65,118.8,Air+FixedWing,Blue,Enemies,E-2C,Blue AWACS #001,us,,146.944537242114,92.4879531860352,0.483430705707492,8999.93359375,8999.93359375,146.944536606091,0.013671875,5.89617039151945,-0.0290864562621698,0,0.0523391626455858,5000,1.00448924768046,-0.000750459499587623,0.010996309507903,1079.63485126495,8825.91987771484,9905.5547289798,,,32,0,4774.7080207133,4781.74605169452
2011-06-01T04:30:33Z,1306902633,202,54.0297092,25.2029576,8999.95,0,5.9,117.5,-223566.98,-104205.93,118.8,Air+FixedWing,Blue,Enemies,E-2C,Blue AWACS #001,us,,146.039222886576,91.8964920043945,0.480452437769884,8999.9501953125,8999.9501953125,146.039221942953,0.0166015625,5.89386395494015,-0.0313074924685284,0,0.0523391626455858,5000,0.993277429235533,0.000277875199395002,0.10980321460248,1066.37273106575,8825.93615828613,9892.30888935188,,,33,0,4920.72975763861,4927.97383517473
2011-06-01T04:30:34Z,1306902634,202,54.0309942,25.202349,8999.96,0,5.9,117.5,-223438.91,-104276.24,118.8,Air+FixedWing,Blue,Enemies,E-2C,Blue AWACS #001,us,,146.10904782091,91.9419250488281,0.480682220163196,8999.9599609375,8999.9599609375,146.109047494553,0.009765625,5.89694593584829,-0.0389106966663122,0,0.0139882274201861,5000,0.99675484271893,-6.60444751615916e-05,0.0829343187765616,1067.39269275665,8825.94573509277,9893.33842784943,,,34,0,5066.81345157926,5074.26366278197
2011-06-01T04:30:35Z,1306902635,202,54.0322775,25.2017412,8999.97,0,5.9,117.5,-223311,-104346.46,118.8,Air+FixedWing,Blue,Enemies,E-2C,Blue AWACS #001,us,,145.913267854546,91.813835144043,0.480038192456414,8999.9697265625,8999.9697265625,145.913267527751,0.009765625,5.89731325421043,-0.0380963244827202,0,0.0139882274201861,5000,0.992605143539155,-0.00014236192438466,0.11727755293724,1064.53408679962,8825.95531189941,9890.48939869904,,,35,0,5212.70979971532,5220.36588045096
2011-06-01T04:30:36Z,1306902636,202,54.0335621,25.2011328,8999.97,0,5.9,117.5,-223182.97,-104416.75,118.8,Air+FixedWing,Blue,Enemies,E-2C,Blue AWACS #001,us,,146.056678378464,91.9077606201172,0.480510023413685,8999.9736328125,8999.9736328125,146.056678326229,0.00390625,5.8961554014848,-0.028701040010354,0,0.0139882274201861,5000,0.997437247875341,0.0018893548946649,0.0782683463511398,1066.62766494751,8825.95914262207,9892.58680756958,,,36,0,5358.75470024573,5366.61686001369
2011-06-01T04:30:37Z,1306902637,202,54.0348443,25.2005254,8999.98,0,5.9,117.5,-223055.14,-104486.91,118.8,Air+FixedWing,Blue,Enemies,E-2C,Blue AWACS #001,us,,145.814707726657,91.7495422363281,0.479714006918441,8999.9794921875,8999.9794921875,145.814707608931,0.005859375,5.89999926828606,-0.0370378105925326,0,0.0139882274201861,5000,0.995127304305987,-0.00181303744544183,0.0928711046126246,1063.09644947052,8825.96488870605,9889.06133817657,,,37,0,5504.52963739169,5512.59749543235
2011-06-01T04:30:38Z,1306902638,202,54.036126,25.1999183,8999.98,0,5.9,117.5,-222927.41,-104557.03,118.8,Air+FixedWing,Blue,Enemies,E-2C,Blue AWACS #001,us,,145.717487562889,91.6859436035156,0.479394163501809,8999.9794921875,8999.9794921875,145.717487562889,0,5.89576510101411,-0.0339102008783281,0,0.0139882274201861,5000,1.00217115233332,0.000430510097841139,0.0411781637680503,1061.67930908203,8825.96488870605,9887.64419778809,,,38,0,5650.24832597564,5658.52180286877
2011-06-01T04:30:39Z,1306902639,202,54.0374021,25.1993139,8999.99,0,5.9,117.5,-222800.2,-104626.86,118.8,Air+FixedWing,Blue,Enemies,E-2C,Blue AWACS #001,us,,145.108932068897,91.2887268066406,0.477392156724173,8999.990234375,8999.990234375,145.108931671284,0.0107421875,5.89999926828606,-0.0329512728142531,0,0.0139882274201861,5000,0.98851504768217,-0.000916791696782393,0.152012780896777,1052.83010830879,8825.97542319336,9878.80553150215,,,39,0,5795.32683660662,5803.80502953751
2011-06-01T04:30:40Z,1306902640,202,54.0386826,25.1987074,8999.99,0,5.9,117.5,-222672.58,-104696.93,118.8,Air+FixedWing,Blue,Enemies,E-2C,Blue AWACS #001,us,,145.595292914461,91.6061172485352,0.4789922295088,8999.990234375,8999.990234375,145.595292914461,0,5.89999926828606,-0.0367410334979036,0,0.0139882274201861,5000,0.998336973158013,0.0014725420955724,0.0676243570516463,1059.89946594238,8825.97542319336,9885.87488913574,,,40,0,5940.90732195771,5949.59093897186
2011-06-01T04:30:41Z,1306902641,202,54.0399598,25.1981023,8999.99,0,5.9,117.5,-222545.25,-104766.82,118.8,Air+FixedWing,Blue,Enemies,E-2C,Blue AWACS #001,us,,145.248583053007,91.3797912597656,0.477851592842558,8999.990234375,8999.990234375,145.248583053007,0,5.89999926828606,-0.0360354857085483,0,0.0139882274201861,5000,1.00023131555997,-0.00138595167228785,0.0492931822310327,1054.85754394531,8825.97542319336,9880.83296713867,,,41,0,6086.12620090781,6095.01473175347
2011-06-01T04:30:42Z,1306902642,202,54.0412327,25.1974994,8999.99,0,5.9,117.5,-222418.39,-104836.47,118.8,Air+FixedWing,Blue,Enemies,E-2C,Blue AWACS #001,us,,144.721131392696,91.0354614257812,0.476116335873235,8999.990234375,8999.990234375,144.721131392696,0,5.89846536081459,-0.0367146768319731,0,0.0523391626455858,5000,0.987968952844867,0.00221957727047286,0.177641261457534,1047.2102935791,8825.97542319336,9873.18571677246,,,42,0,6230.84262970114,6239.93536538662
2011-06-01T04:30:43Z,1306902643,202,54.0425119,25.1968934,9000,0,6,117.5,-222290.88,-104906.45,118.8,Air+FixedWing,Blue,Enemies,E-2C,Blue AWACS #001,us,,145.458060823898,91.5164031982422,0.478540817283219,9000,9000,145.45806049608,0.009765625,5.9976615610497,-0.0351654169145222,0,0.0523391626455858,5000,0.997584683965603,-0.00222642591984718,0.0658601305982707,1057.90237293243,8825.985,9883.88737293243,,,43,0,6376.27941763585,6385.57737507683
2011-06-01T04:30:44Z,1306902644,202,54.0437877,25.196289,9000,0,6,117.5,-222163.7,-104976.27,118.8,Air+FixedWing,Blue,Enemies,E-2C,Blue AWACS #001,us,,145.077778548657,91.268310546875,0.477289730957986,9000,9000,145.077778548657,0,5.99999314935044,-0.0359486721315082,0,0.0197823405926261,5000,0.994602031015756,0.00139622464634933,0.103764968904952,1052.37809143066,8825.985,9878.36309143066,,,44,0,6521.3344767271,6530.83711706103
2011-06-01T04:30:45Z,1306902645,202,54.0450635,25.1956846,9000,0,6,117.5,-222036.53,-105046.08,118.8,Air+FixedWing,Blue,Enemies,E-2C,Blue AWACS #001,us,,145.07025948825,91.2633972167969,0.477264994086808,9000,9000,145.07025948825,0,5.99999314935044,-0.0377524695617891,0,0.0197823405926261,5000,0.999957713389283,-0.0013164828724391,0.0528089962104795,1052.26900939941,8825.985,9878.25400939941,,,45,0,6666.401069462,6676.10840896343
2011-06-01T04:30:46Z,1306902646,202,54.0463347,25.1950823,9000,0,6,117.5,-221909.81,-105115.65,118.8,Air+FixedWing,Blue,Enemies,E-2C,Blue AWACS #001,us,,144.560264190787,90.9303894042969,0.475587166367421,9000,9000,144.560264190787,0,5.99999314935044,-0.0371319378770848,0,0.0197823405926261,5000,0.994229906921517,0.00153516224604683,0.107305497237767,1044.88349914551,8825.985,9870.86849914551,,,46,0,6810.93025052028,6820.84153086406
2011-06-01T04:30:47Z,1306902647,202,54.0476063,25.1944799,9000,0,6,117.5,-221783.06,-105185.22,118.8,Air+FixedWing,Blue,Enemies,E-2C,Blue AWACS #001,us,,144.587658122496,90.9482269287109,0.475677289351284,9000,9000,144.587658122496,0,5.99999314935044,-0.0330138961547722,0,0.0197823405926261,5000,0.996568479548179,-0.000764156798336256,0.0850554393371554,1045.27954406738,8825.985,9871.26454406738,,,47,0,6955.50930205289,6965.62459360941
2011-06-01T04:30:48Z,1306902648,202,54.048876,25.1938784,9000,0,6,117.5,-221656.48,-105254.7,118.8,Air+FixedWing,Blue,Enemies,E-2C,Blue AWACS #001,us,,144.395637391357,90.8229217529297,0.475045562535362,9000,9000,144.395637391357,0,5.99999314935044,-0.0351655673203486,0,0.0197823405926261,5000,0.997765085816793,0.00021525504892057,0.0736704780760261,1042.50500488281,8825.985,9868.49000488281,,,48,0,7099.8774382683,7110.19644342085
2011-06-01T04:30:49Z,1306902649,202,54.0501431,25.193278,9000,0,6,117.5,-221530.17,-105324.04,118.8,Air+FixedWing,Blue,Enemies,E-2C,Blue AWACS #001,us,,144.091359509354,90.6243438720703,0.474044522197617,9000,9000,144.091359509354,0,5.99999314935044,-0.0441830680835076,0,0.0197823405926261,5000,0.98218706200939,0.000326798051120802,0.221885644772173,1038.1159942627,8825.985,9864.10099426269,,,49,0,7243.95672978235,7254.47904095066
2011-06-01T04:30:50Z,1306902650,202,54.0514204,25.1926728,9000,0,6,117.5,-221402.84,-105393.93,118.8,Air+FixedWing,Blue,Enemies,E-2C,Blue AWACS #001,us,,145.248583053007,91.3797912597656,0.477851658751084,9000,9000,145.248583053007,0,5.99999314935044,-0.031514274923511,0,0.0197823405926261,5000,1.00871715252153,-0.0010214860496083,-0.0305315961009734,1054.85754394531,8825.985,9880.84254394531,,,50,0,7389.18643345596,7399.91367395287
2011-06-01T04:30:51Z,1306902651,202,54.0526859,25.1920732,9000,0,6,117.5,-221276.69,-105463.19,118.8,Air+FixedWing,Blue,Enemies,E-2C,Blue AWACS #001,us,,143.916795428288,90.5104141235352,0.473470225815907,9000,9000,143.916795428288,0,5.99999314935044,-0.0358756342065171,0,0.0197823405926261,5000,0.996794658588246,-0.000135513275010342,0.0829034870394055,1035.60220031738,8825.985,9861.58720031738,,,51,0,7533.08303987955,7544.01332861121
2011-06-01T04:30:52Z,1306902652,202,54.0539497,25.1914744,9000,0,6,117.5,-221150.72,-105532.34,118.8,Air+FixedWing,Blue,Enemies,E-2C,Blue AWACS #001,us,,143.703559074315,90.3715057373047,0.472768701964105,9000,9000,143.703559074315,0,5.99999314935044,-0.0370422038366285,0,0.0197823405926261,5000,0.987557267300534,0.00117412094805444,0.170791495587396,1032.53564453125,8825.985,9858.52064453125,,,52,0,7676.7761937188,7687.90924359855
2011-06-01T04:30:53Z,1306902653,202,54.0552191,25.1908729,9000,0,6,117.5,-221024.17,-105601.8,118.8,Air+FixedWing,Blue,Enemies,E-2C,Blue AWACS #001,us,,144.356965230794,90.7974548339844,0.474918335434868,9000,9000,144.356965230794,0,5.99999314935044,-0.034727858113377,0,0.0197823405926261,5000,1.00123455364379,0.00105915362116705,0.0406606586866654,1041.94667053223,8825.985,9867.93167053223,,,53,0,7821.11755237635,7832.45427806715
2011-06-01T04:30:54Z,1306902654,202,54.0564828,25.1902741,9000,0,6.1,117.5,-220898.17,-105670.95,118.8,Air+FixedWing,Blue,Enemies,E-2C,Blue AWACS #001,us,,143.727194395116,90.3867874145508,0.472846459536761,9000,9000,143.727194395116,0,6.09998740397696,-0.0365717964829837,0,0.0541761800424684,5000,0.993607271011775,-0.00258404289315241,0.113100134015267,1032.87532043457,8825.985,9858.86032043457,,,54,0,7964.81547346443,7976.35496703175
2011-06-01T04:30:55Z,1306902655,202,54.0577474,25.1896749,9000,0,6.1,117.5,-220772.12,-105740.16,118.8,Air+FixedWing,Blue,Enemies,E-2C,Blue AWACS #001,us,,143.794600757578,90.4306793212891,0.47306821896075,9000,9000,143.794600757578,0,6.09998740397696,-0.0378256294414162,0,0.0541761800424684,5000,0.994986877072815,0.00118781824680308,0.100190808278435,1033.84436035156,8825.985,9859.82936035156,,,55,0,8108.60713753552,8120.34953125602
2011-06-01T04:30:56Z,1306902656,202,54.0590111,25.189076,9000,0,6.1,117.5,-220646.12,-105809.32,118.8,Air+FixedWing,Blue,Enemies,E-2C,Blue AWACS #001,us,,143.73471237493,90.3917541503906,0.47287119285291,9000,9000,143.73471237493,0,6.09998740397696,-0.034378292510194,0,0.0197823405926261,5000,0.993729620206034,-0.000489705923628413,0.1119552814034,1032.9833770752,8825.985,9858.96837707519,,,56,0,8252.30986893893,8264.25503732335
2011-06-01T04:30:57Z,1306902657,202,54.0602755,25.1884768,9000,0,6.1,117.5,-220520.08,-105878.52,118.8,Air+FixedWing,Blue,Enemies,E-2C,Blue AWACS #001,us,,143.790841047816,90.4283981323242,0.473055849934433,9000,9000,143.790841047816,0,6.09998740397696,-0.041124664216069,0,0.0197823405926261,5000,0.998202448811629,6.84864937431795e-06,0.070101883491321,1033.79029846191,8825.985,9859.77529846191,,,57,0,8396.08602545631,8408.23407211149
2011-06-01T04:30:58Z,1306902658,202,54.0615368,25.1878791,9000,0,6.1,117.5,-220394.34,-105947.54,118.8,Air+FixedWing,Blue,Enemies,E-2C,Blue AWACS #001,us,,143.434193904233,90.195671081543,0.471882520559592,9000,9000,143.434193904233,0,6.09998740397696,-0.0347053213256343,0,0.0197823405926261,5000,0.998013297532875,7.63174492230685e-05,0.0718718202435042,1028.66839904785,8825.985,9854.65339904785,,,58,0,8539.50442700607,8551.85484711525
2011-06-01T04:30:59Z,1306902659,202,54.062795,25.1872827,9000,0,6.1,117.5,-220268.91,-106016.4,118.8,Air+FixedWing,Blue,Enemies,E-2C,Blue AWACS #001,us,,143.095003167967,89.9746246337891,0.470766620820328,9000,9000,143.095003167967,0,6.09998740397696,-0.0383636700557405,0,0.0197823405926261,5000,0.996730021646352,0.00126071137133899,0.0838797599714975,1023.80899658203,8825.985,9849.79399658203,,,59,0,8682.5917260332,8695.14405238704
2011-06-01T04:31:00Z,1306902660,202,54.0640514,25.1866873,9000,0,6.1,117.5,-220143.66,-106085.14,118.8,Air+FixedWing,Blue,Enemies,E-2C,Blue AWACS #001,us,,142.874248352477,89.8306732177734,0.470040362067627,9000,9000,142.874248352477,0,6.09998740397696,-0.0334016051175278,0,0.0197823405926261,5000,0.982851667142555,-0.00148623939432103,0.213743062286679,1020.65254211426,8825.985,9846.63754211426,,,60,0,8825.45592837545,8838.20984616905
2011-06-01T04:31:01Z,1306902661,202,54.0653169,25.1860875,9000,0,6.1,117.5,-220017.48,-106154.41,118.8,Air+FixedWing,Blue,Enemies,E-2C,Blue AWACS #001,us,,143.934251822338,90.5218505859375,0.473527655407834,9000,9000,143.934251822338,0,6.09998740397696,-0.0340519985177704,0,0.0197823405926261,5000,1.00347266559699,0.000923640346156714,0.0207871210332204,1035.85344238281,8825.985,9861.83844238281,,,61,0,8969.36478773507,8982.32177105328
2011-06-01T04:31:02Z,1306902662,202,54.0665751,25.1854912,9000,0,6.1,117.5,-219892.05,-106223.26,118.8,Air+FixedWing,Blue,Enemies,E-2C,Blue AWACS #001,us,,143.091243844413,89.9723205566406,0.470754253064593,9000,9000,143.091243844413,0,6.09998740397696,-0.0413089692155176,0,0.0197823405926261,5000,1.0041477045825,-0.000750459499587623,0.0144706090990654,1023.75520324707,8825.985,9849.74020324707,,,62,0,9112.44331675204,9125.60219394052
2011-06-01T04:31:03Z,1306902663,202,54.0678254,25.1848986,9000,0,6.1,117.5,-219767.41,-106291.68,118.8,Air+FixedWing,Blue,Enemies,E-2C,Blue AWACS #001,us,,142.185928906155,89.3823623657227,0.467775867762336,9000,9000,142.185928906155,0,6.09998740397696,-0.0356708451069689,0,0.0197823405926261,5000,0.981000937419771,-9.34390726588633e-05,0.231060812271222,1010.84191894531,8825.985,9836.82691894531,,,63,0,9254.62465673212,9267.98416179356
2011-06-01T04:31:04Z,1306902664,202,54.0690864,25.1843009,9000,0,6.1,117.5,-219641.69,-106360.7,118.8,Air+FixedWing,Blue,Enemies,E-2C,Blue AWACS #001,us,,143.41673750195,90.184196472168,0.47182509094058,9000,9000,143.41673750195,0,6.09998740397696,-0.0329714510814689,0,0.0197823405926261,5000,1.0015403697447,0.000920216021469552,0.0388681060923408,1028.41802978516,8825.985,9854.40302978516,,,64,0,9398.02296985261,9411.58482002109
2011-06-01T04:31:05Z,1306902665,202,54.0703415,25.183706,9000,0,6.1,117.5,-219516.55,-106429.38,118.8,Air+FixedWing,Blue,Enemies,E-2C,Blue AWACS #001,us,,142.752053160859,89.751106262207,0.46963835349874,9000,9000,142.752053160859,0,6.09998740397696,-0.0416364018604374,0,0.0197823405926261,5000,0.989486725943946,-0.00035761697330523,0.151657125026007,1018.90743408203,8825.985,9844.89243408203,,,65,0,9540.7573813691,9554.52063983362
2011-06-01T04:31:06Z,1306902666,202,54.0716005,25.1831092,9000,0,6.1,117.5,-219391.02,-106498.29,118.8,Air+FixedWing,Blue,Enemies,E-2C,Blue AWACS #001,us,,143.199741674435,90.0428771972656,0.471111198839602,9000,9000,143.199741674435,0,6.09998740397696,-0.0335671885572547,0,0.0395646845203054,5000,1.00248612613847,0.000572872022225796,0.030018422331425,1025.30830078125,8825.985,9851.29330078125,,,66,0,9683.9326377786,9697.89792660238
2011-06-01T04:31:07Z,1306902667,202,54.072853,25.1825155,9000,0,6.2,117.5,-219266.14,-106566.83,118.8,Air+FixedWing,Blue,Enemies,E-2C,Blue AWACS #001,us,,142.447775389365,89.552864074707,0.468637313524558,9000,9000,142.447775389365,0,6.20000822753505,-0.0345983831643181,0,0.0532655904281015,5000,0.994493909708182,-0.000837049922872165,0.104841841288469,1014.56843566895,8825.985,9840.55343566894,,,67,0,9826.36728851305,9840.5335626487
2011-06-01T04:31:08Z,1306902668,202,54.0741052,25.1819218,9000,0,6.2,117.5,-219141.3,-106635.36,118.8,Air+FixedWing,Blue,Enemies,E-2C,Blue AWACS #001,us,,142.41662171469,89.5324401855469,0.468534821405139,9000,9000,142.41662171469,0,6.20000822753505,-0.039282578978429,0,0.0279764548403722,5000,0.994301668930794,-0.000767581123023415,0.10661144535368,1014.12470703125,8825.985,9840.10970703125,,,68,0,9968.7795817221,9983.14680962157
2011-06-01T04:31:09Z,1306902669,202,54.0753573,25.1813283,9000,0,6.2,117.5,-219016.47,-106703.89,118.8,Air+FixedWing,Blue,Enemies,E-2C,Blue AWACS #001,us,,142.402924891233,89.523567199707,0.468489760381679,9000,9000,142.402924891233,0,6.20000822753505,-0.035814450551736,0,0.0197823405926261,5000,0.990264612605648,0.000691263673800346,0.143773130723126,1013.92965087891,8825.985,9839.91465087891,,,69,0,10111.1750770922,10125.7432350536
2011-06-01T04:31:10Z,1306902670,202,54.0766124,25.1807333,9000,0,6.2,117.5,-218891.33,-106772.59,118.8,Air+FixedWing,Blue,Enemies,E-2C,Blue AWACS #001,us,,142.755812438105,89.75341796875,0.469650721102127,9000,9000,142.755812438105,0,6.20000822753505,-0.0358519258677384,0,0.0197823405926261,5000,0.995813151149016,0.00153858657073399,0.0926980336717035,1018.96109924316,8825.985,9844.94609924316,,,70,0,10253.9055906269,10268.6751513838
2011-06-01T04:31:11Z,1306902671,202,54.0778661,25.1801389,9000,0,6.2,117.5,-218766.31,-106841.2,118.8,Air+FixedWing,Blue,Enemies,E-2C,Blue AWACS #001,us,,142.60488361915,89.6553192138672,0.46915418209999,9000,9000,142.60488361915,0,6.20000822753505,-0.0354261405376209,0,0.0197823405926261,5000,1.00615270393383,-0.0029108409442732,-0.00247904004335298,1016.80764160156,8825.985,9842.79264160156,,,71,0,10396.4922184163,10411.4629789357
2011-06-01T04:31:12Z,1306902672,202,54.0791105,25.179549,9000,0,6.2,117.5,-218642.27,-106909.3,118.8,Air+FixedWing,Blue,Enemies,E-2C,Blue AWACS #001,us,,141.515066901571,88.9453735351562,0.465568806495745,9000,9000,141.515066901571,0,6.20000822753505,-0.0403511642414696,0,0.0197823405926261,5000,0.976449720634602,0.00283109917036298,0.27094120257865,1001.32570800781,8825.985,9827.31070800781,,,72,0,10538.0094139158,10553.1798651532
2011-06-01T04:31:13Z,1306902673,202,54.0803687,25.1789525,9000,0,6.2,117.5,-218516.8,-106978.16,118.8,Air+FixedWing,Blue,Enemies,E-2C,Blue AWACS #001,us,,143.122397799761,89.9926528930664,0.470856746107394,9000,9000,143.122397799761,0,6.20000822753505,-0.0311886571913249,0,0.0197823405926261,5000,1.0056174307958,-0.00200432222155229,0.00244822634590824,1024.20103759766,8825.985,9850.18603759766,,,73,0,10681.1026288849,10696.4749947153
2011-06-01T04:31:14Z,1306902674,202,54.0816179,25.1783602,9000,0,6.2,117.5,-218392.25,-107046.54,118.8,Air+FixedWing,Blue,Enemies,E-2C,Blue AWACS #001,us,,142.081190511854,89.3139953613281,0.467431290112075,9000,9000,142.081190511854,0,6.20000822753505,-0.0395984074372481,0,0.0197823405926261,5000,1.00162182366478,0.000152634898446137,0.0392283659089795,1009.35323486328,8825.985,9835.33823486328,,,74,0,10823.1768127378,10838.7496552363
2011-06-01T04:31:15Z,1306902675,202,54.0828612,25.1777707,9000,0,6.2,117.5,-218268.3,-107114.59,118.8,Air+FixedWing,Blue,Enemies,E-2C,Blue AWACS #001,us,,141.402809005095,88.8720092773438,0.465199490520939,9000,9000,141.402809005095,0,6.20000822753505,-0.0388029341112433,0,0.0197823405926261,5000,0.980871258514523,0.00123331677384171,0.230240309078781,999.737719726563,8825.985,9825.72271972656,,,75,0,10964.5798672743,10980.3522394302
2011-06-01T04:31:16Z,1306902676,202,54.0841148,25.1771762,9000,0,6.2,117.5,-218143.28,-107183.2,118.8,Air+FixedWing,Blue,Enemies,E-2C,Blue AWACS #001,us,,142.608642495996,89.6576232910156,0.469166548386106,9000,9000,142.608642495996,0,6.20000822753505,-0.036145468001689,0,0.0197823405926261,5000,1.00920211237116,-0.00116042364930581,-0.0305492842470233,1016.86124572754,8825.985,9842.84624572754,,,76,0,11107.1643392078,11123.1379080844
2011-06-01T04:31:17Z,1306902677,202,54.0853566,25.1765875,9000,0,6.2,117.5,-218019.47,-107251.17,118.8,Air+FixedWing,Blue,Enemies,E-2C,Blue AWACS #001,us,,141.241941833198,88.7674865722656,0.464670255444675,9000,9000,141.241941833198,0,6.20000822753505,-0.0388029341112433,0,0.0197823405926261,5000,0.988067065666128,5.91958257872736e-05,0.164001867053202,997.464306640625,8825.985,9823.44930664062,,,77,0,11248.3908783718,11264.5637278302
2011-06-01T04:31:18Z,1306902678,202,54.0866032,25.1759963,9000,0,6.2,117.5,-217895.17,-107319.41,118.8,Air+FixedWing,Blue,Enemies,E-2C,Blue AWACS #001,us,,141.794368951684,89.1271667480469,0.466487679128672,9000,9000,141.794368951684,0,6.20000822753505,-0.0345675045085134,0,0.0197823405926261,5000,0.998696762809834,0.000496554573002731,0.0661539726935284,1005.28215332031,8825.985,9831.26715332031,,,78,0,11390.1772345416,11406.5501545228
2011-06-01T04:31:19Z,1306902679,202,54.0878462,25.175407,9000,0,6.2,117.5,-217771.23,-107387.44,118.8,Air+FixedWing,Blue,Enemies,E-2C,Blue AWACS #001,us,,141.381593154174,88.8584136962891,0.465129692734682,9000,9000,141.381593154174,0,6.20000822753505,-0.0359908998187326,0,0.0197823405926261,5000,0.980253086988233,0.000743610850213299,0.23593066708079,999.437744140625,8825.985,9825.42274414062,,,79,0,11531.5454483248,11548.117848801
2011-06-01T04:31:20Z,1306902680,202,54.0891001,25.1748123,9000,0,6.2,117.5,-217646.19,-107456.07,118.8,Air+FixedWing,Blue,Enemies,E-2C,Blue AWACS #001,us,,142.643555406214,89.6803283691406,0.469281407971715,9000,9000,142.643555406214,0,6.20000822753505,-0.0356007031389458,0,0.0197823405926261,5000,1.01174269167133,-0.0013654057241649,-0.0539356829011488,1017.35919494629,8825.985,9843.34419494629,,,80,0,11674.1728622837,11690.9465200745
2011-06-01T04:31:21Z,1306902681,202,54.0903402,25.1742242,9000,0,6.2,117.5,-217522.55,-107523.95,118.8,Air+FixedWing,Blue,Enemies,E-2C,Blue AWACS #001,us,,141.046161859834,88.6398773193359,0.464026161140582,9000,9000,141.046161859834,0,6.20000822753505,-0.0400633138733016,0,0.0532655904281015,5000,0.986996519390054,0.00187223327122911,0.173856399831724,994.700988769531,8825.985,9820.68598876953,,,81,0,11815.2131444324,11832.1858199836
2011-06-01T04:31:22Z,1306902682,202,54.0915858,25.1736335,9000,0,6.3,117.5,-217398.33,-107592.12,118.8,Air+FixedWing,Blue,Enemies,E-2C,Blue AWACS #001,us,,141.695809368443,89.062858581543,0.466163429078533,9000,9000,141.695809368443,0,6.30000282459342,-0.0354514343037111,0,0.0532655904281015,5000,0.998369130768194,-0.00299400704287059,0.0698041970136433,1003.88511962891,8825.985,9829.87011962891,,,82,0,11956.8943677165,11974.0669654404
2011-06-01T04:31:23Z,1306902683,202,54.0928281,25.1730444,9000,0,6.3,117.5,-217274.47,-107660.12,118.8,Air+FixedWing,Blue,Enemies,E-2C,Blue AWACS #001,us,,141.301830619514,88.8063583374023,0.464867282880537,9000,9000,141.301830619514,0,6.30000282459342,-0.0364842127092792,0,0.0139882274201861,5000,0.998510722017679,0.00266036034237547,0.0685216800972631,998.310366821289,8825.985,9824.29536682129,,,83,0,12098.1876144263,12115.5595868614
2011-06-01T04:31:24Z,1306902684,202,54.0940666,25.172457,9000,0,6.3,117.5,-217150.95,-107727.91,118.8,Air+FixedWing,Blue,Enemies,E-2C,Blue AWACS #001,us,,140.895232757427,88.5417022705078,0.463529621205917,9000,9000,140.895232757427,0,6.30000282459342,-0.0350205102710863,0,0.0139882274201861,5000,0.978346115877522,-0.000864444520369434,0.251170315383191,992.573330688477,8825.985,9818.55833068847,,,84,0,12239.0641399363,12256.6348990595
2011-06-01T04:31:25Z,1306902685,202,54.0953174,25.1718637,9000,0,6.3,117.5,-217026.22,-107796.38,118.8,Air+FixedWing,Blue,Enemies,E-2C,Blue AWACS #001,us,,142.290667414287,89.45068359375,0.468120445787082,9000,9000,142.290667414287,0,6.30000282459342,-0.0399425061270335,0,0.0139882274201861,5000,1.0119194261392,3.08189221844279e-05,-0.0529327877820114,1012.33170166016,8825.985,9838.31670166015,,,85,0,12381.3299337116,12399.1014398778
2011-06-01T04:31:26Z,1306902686,202,54.0965542,25.1712772,9000,0,6.3,117.5,-216902.89,-107864.08,118.8,Air+FixedWing,Blue,Enemies,E-2C,Blue AWACS #001,us,,140.685755321881,88.4055709838867,0.46284046377703,9000,9000,140.685755321881,0,6.30000282459342,-0.0349048163459921,0,0.0139882274201861,5000,0.9857417418878,-0.00064234082207455,0.184181603157744,989.624087524414,8825.985,9815.60908752441,,,86,0,12522.0044445545,12539.9744523518
2011-06-01T04:31:27Z,1306902687,202,54.0977975,25.1706875,9000,0,6.3,117.5,-216778.92,-107932.13,118.8,Air+FixedWing,Blue,Enemies,E-2C,Blue AWACS #001,us,,141.420265405228,88.8836669921875,0.465256920132879,9000,9000,141.420265405228,0,6.30000282459342,-0.0374232833068105,0,0.0139882274201861,5000,1.0056957729906,-0.00060809757520296,0.00344033184067456,999.984573364258,8825.985,9825.96957336426,,,87,0,12663.4250172346,12681.5945794088
2011-06-01T04:31:28Z,1306902688,202,54.0990315,25.1701022,9000,0,6.3,117.5,-216655.88,-107999.69,118.8,Air+FixedWing,Blue,Enemies,E-2C,Blue AWACS #001,us,,140.371540030336,88.2011642456055,0.461806730468836,9000,9000,140.371540030336,0,6.30000282459342,-0.0347464230488222,0,0.0139882274201861,5000,0.983914798807403,0.00214668414593695,0.200729839114364,985.208462524414,8825.985,9811.19346252441,,,88,0,12803.7907776707,12822.1584058075
2011-06-01T04:31:29Z,1306902689,202,54.1002733,25.1695131,9000,0,6.3,117.5,-216532.03,-108067.66,118.8,Air+FixedWing,Blue,Enemies,E-2C,Blue AWACS #001,us,,141.26933634241,88.7853698730469,0.46476038032846,9000,9000,141.26933634241,0,6.30000282459342,-0.0399903400582862,0,0.0139882274201861,5000,0.990513863349485,-0.000913367372095234,0.140956287159156,997.85126953125,8825.985,9823.83626953125,,,89,0,12945.0450980684,12963.6120459879
2011-06-01T04:31:30Z,1306902690,202,54.1015177,25.1689228,9000,0,6.3,117.5,-216407.92,-108135.78,118.8,Air+FixedWing,Blue,Enemies,E-2C,Blue AWACS #001,us,,141.577373149422,88.9857177734375,0.465773787110771,9000,9000,141.577373149422,0,6.30000282459342,-0.0322765816594046,0,0.0139882274201861,5000,1.00905847777285,-0.00109095484945705,-0.027018653327587,1002.20762939453,8825.985,9828.19262939453,,,90,0,13086.6010836024,13105.3677769754
2011-06-01T04:31:31Z,1306902691,202,54.1027505,25.1683381,9000,0,6.3,117.5,-216285,-108203.27,118.8,Air+FixedWing,Blue,Enemies,E-2C,Blue AWACS #001,us,,140.22812921328,88.1075973510742,0.461334924855501,9000,9000,140.22812921328,0,6.30000282459342,-0.04225689534182,0,0.0139882274201861,5000,0.987388602384989,0.000198133425484775,0.169264534099852,983.196411132812,8825.985,9809.18141113281,,,91,0,13226.8221845405,13245.7867397518
2011-06-01T04:31:32Z,1306902692,202,54.1039883,25.1677508,9000,0,6.3,117.5,-216161.56,-108271.03,118.8,Air+FixedWing,Blue,Enemies,E-2C,Blue AWACS #001,us,,140.815469100133,88.4898529052734,0.463267207658435,9000,9000,140.815469100133,0,6.30000282459342,-0.0323312429179858,0,0.0139882274201861,5000,0.986063415720494,0.00138252734760069,0.181267919342635,991.449816894531,8825.985,9817.43481689453,,,92,0,13367.632679813,13386.7959285392
2011-06-01T04:31:33Z,1306902693,202,54.1052323,25.1671608,9000,0,6.3,117.5,-216037.5,-108339.12,118.8,Air+FixedWing,Blue,Enemies,E-2C,Blue AWACS #001,us,,141.521244678361,88.9492568969727,0.465589130693229,9000,9000,141.521244678361,0,6.30000282459342,-0.0354701929540022,0,0.0139882274201861,5000,1.00573788799807,9.00147479717072e-05,0.00305885904690286,1001.41313476563,8825.985,9827.39813476562,,,93,0,13509.1380998072,13528.501022635
2011-06-01T04:31:34Z,1306902694,202,54.106467,25.166575,9000,0,6.3,117.5,-215914.36,-108406.71,118.8,Air+FixedWing,Blue,Enemies,E-2C,Blue AWACS #001,us,,140.468759776487,88.2641372680664,0.462126572604196,9000,9000,140.468759776487,0,6.30000282459342,-0.0386399492002956,0,0.0139882274201861,5000,1.00001599126538,-0.00215353279531127,0.0548871279557517,986.573623657227,8825.985,9812.55862365723,,,94,0,13649.5881338662,13669.149241573
2011-06-01T04:31:35Z,1306902695,202,54.1076971,25.1659915,9000,0,6.3,117.5,-215791.7,-108474.05,118.8,Air+FixedWing,Blue,Enemies,E-2C,Blue AWACS #001,us,,139.927611028435,87.9123153686523,0.460346253502608,9000,9000,139.927611028435,0,6.30000282459342,-0.0391662440594034,0,0.0139882274201861,5000,0.982700710938247,0.00186538462185479,0.211726904510897,978.98681640625,8825.985,9804.97181640625,,,95,0,13789.5130065053,13809.2715580509
2011-06-01T04:31:36Z,1306902696,202,54.1089359,25.1654037,9000,0,6.3,117.5,-215668.16,-108541.87,118.8,Air+FixedWing,Blue,Enemies,E-2C,Blue AWACS #001,us,,140.933904645105,88.5670471191406,0.46365684740865,9000,9000,140.933904645105,0,6.30000282459342,-0.0343122832724594,0,0.0139882274201861,5000,0.993723354328922,-0.000628643523325914,0.111885094630916,993.118273925781,8825.985,9819.10327392578,,,96,0,13930.4446201187,13950.4020360848
2011-06-01T04:31:37Z,1306902697,202,54.1101748,25.1648159,9000,0,6.3,117.5,-215544.59,-108609.7,118.8,Air+FixedWing,Blue,Enemies,E-2C,Blue AWACS #001,us,,140.955120330074,88.580680847168,0.463726644648945,9000,9000,140.955120330074,0,6.30000282459342,-0.0347026907965733,0,0.0139882274201861,5000,0.999989122484985,0.000708385297236141,0.0551305022144584,993.417297363281,8825.985,9819.40229736328,,,97,0,14071.3763858118,14091.5326664142
2011-06-01T04:31:38Z,1306902698,202,54.1114092,25.1642303,9000,0,6.3,117.5,-215421.5,-108677.26,118.8,Air+FixedWing,Blue,Enemies,E-2C,Blue AWACS #001,us,,140.416390408358,88.2301177978516,0.461954283216567,9000,9000,140.416390408358,0,6.30000282459342,-0.0392936184870878,0,0.0139882274201861,5000,0.990123205728923,-0.000774429772397733,0.144494818026743,985.838134765625,8825.985,9811.82313476562,,,98,0,14211.7942070032,14232.1486270301
2011-06-01T04:31:39Z,1306902699,202,54.1126465,25.1636433,9000,0,6.4,117.5,-215298.11,-108744.99,118.8,Air+FixedWing,Blue,Enemies,E-2C,Blue AWACS #001,us,,140.75934034561,88.4531860351562,0.463082550308332,9000,9000,140.75934034561,0,6.39999669631503,-0.0343189470657589,0,0.0523391626455858,5000,0.999451796470093,0.000149210573758978,0.0607948622857985,990.659594726563,8825.985,9816.64459472656,,,99,0,14352.5474977077,14373.1005305287
2011-06-01T04:31:40Z,1306902700,202,54.1138793,25.1630583,9000,0,6.4,117.5,-215175.16,-108812.48,118.8,Air+FixedWing,Blue,Enemies,E-2C,Blue AWACS #001,us,,140.259282476422,88.1279678344727,0.461437415621024,9000,9000,140.259282476422,0,6.39999669631503,-0.037187125495676,0,0.0523391626455858,5000,1.00227240519545,-0.000125240300948865,0.0356485558402558,983.633316040039,8825.985,9809.61831604004,,,100,0,14492.7959093424,14513.5468425385
2011-06-01T04:31:41Z,1306902701,202,54.1151056,25.1624764,9000,0,6.4,117.5,-215052.86,-108879.62,118.8,Air+FixedWing,Blue,Enemies,E-2C,Blue AWACS #001,us,,139.511075362947,87.6414260864258,0.458975897561786,9000,9000,139.511075362947,0,6.39999669631503,-0.0366370056648105,0,0.0139882274201861,5000,0.978742747438834,-0.000444207396589781,0.245420290284822,973.167007446289,8825.985,9799.15200744629,,,101,0,14632.2931072716,14653.2408808277
2011-06-01T04:31:42Z,1306902702,202,54.1163434,25.1618891,9000,0,6.4,117.5,-214929.41,-108947.39,118.8,Air+FixedWing,Blue,Enemies,E-2C,Blue AWACS #001,us,,140.832925492699,88.5011596679688,0.463324637245476,9000,9000,140.832925492699,0,6.39999669631503,-0.0394486708615171,0,0.0139882274201861,5000,1.00478174274788,0.00113547107039012,0.0132772958701352,991.695645141602,8825.985,9817.6806451416,,,102,0,14773.1172456277,14794.2637319501
2011-06-01T04:31:43Z,1306902703,202,54.1175728,25.1613057,9000,0,6.4,117.5,-214806.8,-109014.69,118.8,Air+FixedWing,Blue,Enemies,E-2C,Blue AWACS #001,us,,139.863963273805,87.8706970214844,0.460136859479709,9000,9000,139.863963273805,0,6.39999669631503,-0.032391256540483,0,0.0139882274201861,5000,0.993526601329945,-0.000628643523325914,0.113619194638113,978.096411132813,8825.985,9804.08141113281,,,103,0,14912.9757883738,14934.319624939
2011-06-01T04:31:44Z,1306902704,202,54.1188022,25.1607223,9000,0,6.4,117.5,-214684.17,-109082,118.8,Air+FixedWing,Blue,Enemies,E-2C,Blue AWACS #001,us,,139.885178919176,87.8844451904297,0.460206656589734,9000,9000,139.885178919176,0,6.39999669631503,-0.0376753770931642,0,0.0139882274201861,5000,0.995440690020018,0.000840474247559324,0.0965547006046428,978.3931640625,8825.985,9804.3781640625,,,104,0,15052.8369118197,15074.3781022687
2011-06-01T04:31:45Z,1306902705,202,54.1200306,25.1601394,9000,0,6.4,117.5,-214561.67,-109149.23,118.8,Air+FixedWing,Blue,Enemies,E-2C,Blue AWACS #001,us,,139.738009079994,87.7889633178711,0.459722484212331,9000,9000,139.738009079994,0,6.39999669631503,-0.0370337060483326,0,0.0139882274201861,5000,0.98152057546319,-0.00141677059447228,0.220655382580452,976.335559082031,8825.985,9802.32055908203,,,105,0,15192.581602324,15214.3199823625
2011-06-01T04:31:46Z,1306902706,202,54.1212682,25.1595521,9000,0,6.4,117.5,-214438.23,-109217,118.8,Air+FixedWing,Blue,Enemies,E-2C,Blue AWACS #001,us,,140.815469100133,88.4898529052734,0.463267207658435,9000,9000,140.815469100133,0,6.39999669631503,-0.0388132916009352,0,0.0139882274201861,5000,1.01006890832467,0.00142361924384661,-0.0338588718043556,991.449816894531,8825.985,9817.43481689453,,,106,0,15333.3865652453,15355.3236309919
2011-06-01T04:31:47Z,1306902707,202,54.1224932,25.1589707,9000,0,6.4,117.5,-214316.05,-109284.06,118.8,Air+FixedWing,Blue,Enemies,E-2C,Blue AWACS #001,us,,139.381361962423,87.5567169189453,0.458549154923066,9000,9000,139.381361962423,0,6.39999669631503,-0.0339963482705541,0,0.0139882274201861,5000,0.981038181486291,-0.00267405764112411,0.224956024020564,971.358203125,8825.985,9797.343203125,,,107,0,15472.7483188577,15494.8820338423
2011-06-01T04:31:48Z,1306902708,202,54.1237281,25.1583847,9000,0,6.4,117.5,-214192.89,-109351.69,118.8,Air+FixedWing,Blue,Enemies,E-2C,Blue AWACS #001,us,,140.50125458181,88.2852554321289,0.462233476894053,9000,9000,140.50125458181,0,6.39999669631503,-0.040322971078496,0,0.0139882274201861,5000,1.00856713942703,0.00337559428898593,-0.020470293455632,987.030126953125,8825.985,9813.01512695312,,,108,0,15613.2456728431,15635.5776394777
2011-06-01T04:31:49Z,1306902709,202,54.1249516,25.157804,9000,0,6.4,117.5,-214070.86,-109418.66,118.8,Air+FixedWing,Blue,Enemies,E-2C,Blue AWACS #001,us,,139.199279642982,87.4387817382812,0.457950124374571,9000,9000,139.199279642982,0,6.39999669631503,-0.0366973893186698,0,0.0139882274201861,5000,0.985376046326807,-0.00134045314524921,0.186283067499319,968.82197265625,8825.985,9794.80697265625,,,109,0,15752.4425496888,15774.9709329087
2011-06-01T04:31:50Z,1306902710,202,54.1261814,25.1572203,9000,0,6.4,117.5,-213948.19,-109485.99,118.8,Air+FixedWing,Blue,Enemies,E-2C,Blue AWACS #001,us,,139.937548195685,87.9185943603516,0.46037894567594,9000,9000,139.937548195685,0,6.39999669631503,-0.0339963482705541,0,0.0139882274201861,5000,0.994915515342123,-0.00111492512226717,0.101236740785927,979.125869750977,8825.985,9805.11086975098,,,110,0,15892.3612690951,15915.0870874714
2011-06-01T04:31:51Z,1306902711,202,54.1274105,25.156637,9000,0,6.4,117.5,-213825.61,-109553.29,118.8,Air+FixedWing,Blue,Enemies,E-2C,Blue AWACS #001,us,,139.836569298883,87.8530197143555,0.460046736353678,9000,9000,139.836569298883,0,6.39999669631503,-0.0389181087714829,0,0.0139882274201861,5000,0.993966214605849,-6.94687998487505e-05,0.109699951939173,977.713305664063,8825.985,9803.69830566406,,,111,0,16032.1978759527,16055.121013619
2011-06-01T04:31:52Z,1306902712,202,54.1286393,25.1560537,9000,0,6.4,117.5,-213703.05,-109620.58,118.8,Air+FixedWing,Blue,Enemies,E-2C,Blue AWACS #001,us,,139.8191129223,87.8416290283203,0.459989306819217,9000,9000,139.8191129223,0,6.39999669631503,-0.0391103933384576,0,0.0139882274201861,5000,0.988254922970678,0.00264323871893968,0.160617290585624,977.469216918945,8825.985,9803.45421691894,,,112,0,16172.0065227576,16195.1269402598
2011-06-01T04:31:53Z,1306902713,202,54.1298725,25.1554684,9000,0,6.4,117.5,-213580.05,-109688.08,118.8,Air+FixedWing,Blue,Enemies,E-2C,Blue AWACS #001,us,,140.304133937671,88.1569366455078,0.461584971932451,9000,9000,140.304133937671,0,6.39999669631503,-0.0361697284031295,0,0.0139882274201861,5000,1.00624073094452,-0.00151461629792388,0.000270116262584027,984.2625,8825.985,9810.2475,,,113,0,16312.3093598307,16335.6277545065
2011-06-01T04:31:54Z,1306902714,202,54.1310958,25.1548877,9000,0,6.4,117.5,-213458.02,-109755.06,118.8,Air+FixedWing,Blue,Enemies,E-2C,Blue AWACS #001,us,,139.206797501786,87.4435195922852,0.457974857292609,9000,9000,139.206797501786,0,6.39999669631503,-0.0315050289454557,0,0.0139882274201861,5000,0.984823578165441,-0.000433934422528301,0.191208434694797,968.926623535156,8825.985,9794.91162353516,,,114,0,16451.4959195601,16475.0107162626
2011-06-01T04:31:55Z,1306902715,202,54.1323263,25.1543037,9000,0,6.4,117.5,-213335.3,-109822.43,118.8,Air+FixedWing,Blue,Enemies,E-2C,Blue AWACS #001,us,,139.993676833001,87.9551010131836,0.460563602640444,9000,9000,139.993676833001,0,6.39999669631503,-0.0386399043641758,0,0.0139882274201861,5000,1.00207398890799,-5.57715011001118e-05,0.0374174778191394,979.911477661133,8825.985,9805.89647766113,,,115,0,16591.4888732169,16615.2012098256
2011-06-01T04:31:56Z,1306902716,202,54.1335501,25.1537227,9000,0,6.4,117.5,-213213.22,-109889.45,118.8,Air+FixedWing,Blue,Enemies,E-2C,Blue AWACS #001,us,,139.262926142087,87.4798202514648,0.458159514266932,9000,9000,139.262926142087,0,6.39999669631503,-0.0419799081865351,0,0.0139882274201861,5000,0.996319916571825,0.00195882369451365,0.0887162152067634,969.708129882812,8825.985,9795.69312988281,,,116,0,16730.7379270987,16754.6467539186
2011-06-01T04:31:57Z,1306902717,202,54.1347721,25.1531426,9000,0,6.4,117.5,-213091.33,-109956.34,118.8,Air+FixedWing,Blue,Enemies,E-2C,Blue AWACS #001,us,,139.038412590842,87.3341293334961,0.457420889692294,9000,9000,139.038412590842,0,6.39999669631503,-0.0329456452125288,0,0.0139882274201861,5000,0.991569731938877,-0.00279587361738582,0.131065087412755,966.584008789063,8825.985,9792.56900878906,,,117,0,16869.7721300411,16893.8771439016
2011-06-01T04:31:58Z,1306902718,202,54.1359958,25.1525617,9000,0,6.4,117.5,-212969.28,-110023.34,118.8,Air+FixedWing,Blue,Enemies,E-2C,Blue AWACS #001,us,,139.231773073896,87.4597015380859,0.458057024142778,9000,9000,139.231773073896,0,6.39999669631503,-0.0395580044492465,0,0.0139882274201861,5000,0.983279028566804,0.000819928299436371,0.204978411784693,969.274331665039,8825.985,9795.25933166504,,,118,0,17009.0015480196,17033.3030243834
2011-06-01T04:31:59Z,1306902719,202,54.1372276,25.1519769,9000,0,6.4,117.5,-212846.42,-110090.79,118.8,Air+FixedWing,Blue,Enemies,E-2C,Blue AWACS #001,us,,140.154543999163,88.0597991943359,0.461092837697843,9000,9000,140.154543999163,0,6.39999669631503,-0.0328897863522358,0,0.0139882274201861,5000,1.00370409990862,8.65904232845454e-05,0.0228847032468981,982.164810180664,8825.985,9808.14981018066,,,119,0,17149.159422897,17173.6586718826
2011-06-01T04:32:00Z,1306902720,202,54.1384515,25.1513959,9000,0,6.4,117.5,-212724.33,-110157.81,118.8,Air+FixedWing,Blue,Enemies,E-2C,Blue AWACS #001,us,,139.280382550375,87.4912643432617,0.458216943905702,9000,9000,139.280382550375,0,6.39999669631503,-0.0375263863099946,0,0.0419646855956116,5000,0.993016913869574,0.000975987522569667,0.118163163092418,969.951248168945,8825.985,9795.93624816894,,,120,0,17288.4184965378,17313.1142498726
2011-06-01T04:32:01Z,1306902721,202,54.1396761,25.1508145,9000,0,6.5,117.5,-212602.17,-110224.86,118.8,Air+FixedWing,Blue,Enemies,E-2C,Blue AWACS #001,us,,139.34644904456,87.5342483520508,0.458434295312307,9000,9000,139.34644904456,0,6.49999046451537,-0.0369477558480233,0,0.0513960362511687,5000,0.999099236214092,-0.000479432949566936,0.0646889289020133,970.871643066406,8825.985,9796.85664306641,,,121,0,17427.7577474282,17452.6501182477
2011-06-01T04:32:02Z,1306902722,202,54.1408964,25.1502351,9000,0,6.5,117.5,-212480.44,-110291.68,118.8,Air+FixedWing,Blue,Enemies,E-2C,Blue AWACS #001,us,,138.867606803164,87.223014831543,0.456858957677189,9000,9000,138.867606803164,0,6.49999046451537,-0.0365149198865754,0,0.0171320104161963,5000,0.991023382073555,-0.00126071137133899,0.135569896032684,964.210610961914,8825.985,9790.19561096191,,,122,0,17566.6165175236,17591.7048278371
2011-06-01T04:32:03Z,1306902723,202,54.1421188,25.1496548,9000,0,6.5,117.5,-212358.52,-110358.62,118.8,Air+FixedWing,Blue,Enemies,E-2C,Blue AWACS #001,us,,139.088362236981,87.3665237426758,0.457585218464112,9000,9000,139.088362236981,0,6.49999046451537,-0.0339549738316984,0,0.0139882274201861,5000,0.993413701765794,0.000767581123023415,0.114590298260236,967.278625488281,8825.985,9793.26362548828,,,123,0,17705.7051436815,17730.9897178314
2011-06-01T04:32:04Z,1306902724,202,54.1433413,25.1490744,9000,0,6.5,117.5,-212236.58,-110425.55,118.8,Air+FixedWing,Blue,Enemies,E-2C,Blue AWACS #001,us,,139.102058980088,87.3752136230469,0.457630279223232,9000,9000,139.102058980088,0,6.49999046451537,-0.0400381250497043,0,0.0139882274201861,5000,0.987886224205115,0.00124701407259035,0.163104418064278,967.469140625,8825.985,9793.454140625,,,124,0,17844.8044561559,17870.2853092207
2011-06-01T04:32:05Z,1306902725,202,54.1445679,25.1484919,9000,0,6.5,117.5,-212114.2,-110492.72,118.8,Air+FixedWing,Blue,Enemies,E-2C,Blue AWACS #001,us,,139.594598450312,87.6953582763672,0.459250679215436,9000,9000,139.594598450312,0,6.49999046451537,-0.0366101500207403,0,0.0139882274201861,5000,1.01129204586871,0.00030869412157943,-0.0423261465710841,974.332595825195,8825.985,9800.31759582519,,,125,0,17984.3816271336,18010.0594334061
2011-06-01T04:32:06Z,1306902726,202,54.1457812,25.1479159,9000,0,6.5,117.5,-211993.17,-110559.14,118.8,Air+FixedWing,Blue,Enemies,E-2C,Blue AWACS #001,us,,138.059512367233,86.6979675292969,0.454200416998025,9000,9000,138.059512367233,0,6.49999046451537,-0.0358610793238264,0,0.0139882274201861,5000,0.977376604110443,-0.00226066916671877,0.25534630647916,953.021447753906,8825.985,9779.00644775391,,,126,0,18122.4383356014,18148.310949601
2011-06-01T04:32:07Z,1306902727,202,54.1470067,25.1473339,9000,0,6.5,117.5,-211870.92,-110626.26,118.8,Air+FixedWing,Blue,Enemies,E-2C,Blue AWACS #001,us,,139.462465767353,87.6095199584961,0.458815977406991,9000,9000,139.462465767353,0,6.49999046451537,-0.0392247019477075,0,0.0139882274201861,5000,0.995673682672348,0.000701536647861823,0.0947546710230783,972.488967895508,8825.985,9798.47396789551,,,127,0,18261.8953840172,18287.9647817229
2011-06-01T04:32:08Z,1306902728,202,54.1482307,25.1467527,9000,0,6.5,117.5,-211748.83,-110693.28,118.8,Air+FixedWing,Blue,Enemies,E-2C,Blue AWACS #001,us,,139.280382550375,87.4912643432617,0.458216943905702,9000,9000,139.280382550375,0,6.49999046451537,-0.0325640261253747,0,0.0139882274201861,NaN,0.993571758653413,0,0.113203048706055,969.951248168945,8825.985,9795.93624816894,,,128,0,18401.1713222748,18427.4372481277
2011-06-01T04:32:09Z,1306902729,202,54.1494546,25.1461715,9000,0,6.5,117.5,-211626.73,-110760.3,118.8,Air+FixedWing,Blue,Enemies,E-2C,Blue AWACS #001,us,,139.280382550375,87.4912643432617,0.458216943905702,9000,9000,139.280382550375,0,6.49999046451537,-0.0414178066742404,0,0.0139882274201861,5000,1.00442521062526,-0.000889397099285118,0.017943382163917,969.951248168945,8825.985,9795.93624816894,,,129,0,18540.4448535884,18566.907304191
2011-06-01T04:32:10Z,1306902730,202,54.1506703,25.1455942,9000,0,6.5,117.5,-211505.47,-110826.88,118.8,Air+FixedWing,Blue,Enemies,E-2C,Blue AWACS #001,us,,138.340155179746,86.8800888061523,0.455123700589901,9000,9000,138.340155179746,0,6.49999046451537,-0.029724788922709,0,0.0139882274201861,5000,0.983453154915799,0.00277532766926287,0.202013025515068,956.899926757813,8825.985,9782.88492675781,,,130,0,18678.7837358206,18705.4413923182
2011-06-01T04:32:11Z,1306902731,202,54.1518935,25.1450133,9000,0,6.5,117.5,-211383.42,-110893.86,118.8,Air+FixedWing,Blue,Enemies,E-2C,Blue AWACS #001,us,,139.216736140387,87.449836730957,0.458007554306524,9000,9000,139.216736140387,0,6.49999046451537,-0.0432300539276042,0,0.0139882274201861,5000,1.00333080235389,-0.0019382777463907,0.0275488945171684,969.064981079102,8825.985,9795.0499810791,,,131,0,18817.9828737295,18844.8369500037
