ISOTime,UnixTime,Id,Longitude,Latitude,Altitude,Roll,Pitch,Yaw,U,V,Heading,Type,Color,Coalition,Name,Group,Country,Pilot,TAS,CAS,M,ASL,AGL,GS,VS,AOA,AOS,RRT,TRT,TRD,G,LatG,LonG,Ek,Ep,Em,FFW,FFV,RelativeTime,Elev,GroundDistance,AirDistance
2011-06-01T04:32:24Z,1306902744,307,54.655437,24.4258417,30.25,-0.2,0.5,217.1,-161964.72,-191546.53,218.1,Air+FixedWing,Blue,Enemies,J-11A,Blue J-11A #005,cn,[51☭] Frostie,0.112859991441784,0,0.000331650916744743,30.2533340454102,2.25333404541016,NaN,NaN,NaN,NaN,0,NaN,NaN,NaN,NaN,NaN,NaN,29.6683858316422,NaN,,,0.910000085830688,28,NaN,NaN
2011-06-01T04:32:25Z,1306902745,307,54.6554367,24.4258413,30.27,-0.1,-0.2,217.1,-161964.75,-191546.58,218.1,Air+FixedWing,Blue,Enemies,J-11A,Blue J-11A #005,cn,[51☭] Frostie,0.0587497561872197,0,0.000172642350118852,30.269998550415,2.26999855041504,0.0563367386791248,0.0166645050048828,NaN,NaN,0.199987938897973,0.065610617074264,NaN,0.993455948285279,-0.00190482888504461,-0.0115977247846156,0.000172576692602888,29.6847281284428,29.6849007051354,,,1.91000008583069,28,0.0489547588194333,0.0517136038834435
2011-06-01T04:32:26Z,1306902746,307,54.6554368,24.4258415,30.22,-0.1,-0.5,217.1,-161964.73,-191546.56,218.1,Air+FixedWing,Blue,Enemies,J-11A,Blue J-11A #005,cn,[51☭] Frostie,0.0520639234997737,0,0.000152995244880727,30.2228565216064,2.22285652160645,0.0220970869120796,-0.0471420288085938,NaN,NaN,0,0.0576749511149141,NaN,1.00102622195208,-0.00174701676184514,-0.0089855379007179,0.000135532606509514,29.6384975907612,29.6386331233677,,,2.91000008583069,28,0.0699225819360275,0.103308416139915
2011-06-01T04:32:27Z,1306902747,307,54.6554369,24.4258416,30.19,-0.1,-0.4,217.1,-161964.72,-191546.55,218.1,Air+FixedWing,Blue,Enemies,J-11A,Blue J-11A #005,cn,[51☭] Frostie,0.0428105199009624,0,0.000125803105666497,30.1861896514893,2.18618965148926,0.0220970869120796,-0.0366668701171875,NaN,NaN,0,0.124330186925793,NaN,1.00859889034831,-0.00230163618043586,-0.00256745877748466,9.16370307095349e-05,29.6025396745777,29.6026313116084,,,3.91000008583069,28,0.0940630613839874,0.147208616925419
2011-06-01T04:32:28Z,1306902748,307,54.6554368,24.4258414,30.23,-0.1,-0.4,217.1,-161964.73,-191546.56,218.1,Air+FixedWing,Blue,Enemies,J-11A,Blue J-11A #005,cn,[51☭] Frostie,0.0524960726718082,0,0.000154265179130154,30.2338085174561,2.23380851745605,0.0220970869120796,0.0476188659667969,NaN,NaN,0,0.0523391626455858,NaN,0.995734596742674,-0.00146707997910431,-0.00918867070838566,0.000137791882298188,29.649237829771,29.6493756216533,,,4.91000008583069,28,0.124036485874299,0.203475578497763
2011-06-01T04:32:29Z,1306902749,307,54.6554368,24.4258414,30.24,0,-0.4,217.1,-161964.73,-191546.56,218.1,Air+FixedWing,Blue,Enemies,J-11A,Blue J-11A #005,cn,[51☭] Frostie,0.00619125366210938,0,1.8193645224285e-05,30.2399997711182,2.23999977111816,0,0.00619125366210938,NaN,NaN,0.199987938897973,0.0504352774299245,NaN,0.99934424543836,-0,-0.00697685311386202,1.91658109542914e-06,29.6553093755436,29.6553112921247,,,5.91000008583069,28,0.124036485874299,0.209666832358256
2011-06-01T04:32:30Z,1306902750,307,54.6554368,24.4258414,30.24,0,-0.4,217.1,-161964.73,-191546.56,218.1,Air+FixedWing,Blue,Enemies,J-11A,Blue J-11A #005,cn,[51☭] Frostie,0,0,0,30.2399997711182,2.23999977111816,0,0,NaN,NaN,0,0.0139882274201861,NaN,0.999976038934225,-0,-0.00691049080342054,0,29.6553093755436,29.6553093755436,,,6.91000008583069,28,0.124036485874299,0.209666832358256
2011-06-01T04:32:31Z,1306902751,307,54.6554368,24.4258414,30.24,0,-0.4,217.1,-161964.73,-191546.56,218.1,Air+FixedWing,Blue,Enemies,J-11A,Blue J-11A #005,cn,[51☭] Frostie,0,0,0,30.2399997711182,2.23999977111816,0,0,NaN,NaN,0,0.0139882274201861,NaN,0.999976515771355,-0,-0.00683972099795937,0,29.6553093755436,29.6553093755436,,,7.91000008583069,28,0.124036485874299,0.209666832358256
2011-06-01T04:32:32Z,1306902752,307,54.6554368,24.4258414,30.24,0,-0.4,217.1,-161964.73,-191546.56,218.1,Air+FixedWing,Blue,Enemies,J-11A,Blue J-11A #005,cn,[51☭] Frostie,0,0,0,30.2399997711182,2.23999977111816,0,0,NaN,NaN,0,0.0139882274201861,NaN,0.999976992608484,-0,-0.00676895119249821,0,29.6553093755436,29.6553093755436,,,8.91000008583069,28,0.124036485874299,0.209666832358256
2011-06-01T04:32:33Z,1306902753,307,54.6554368,24.4258414,30.24,0,-0.4,217.1,-161964.73,-191546.56,218.1,Air+FixedWing,Blue,Enemies,J-11A,Blue J-11A #005,cn,[51☭] Frostie,0,0,0,30.2399997711182,2.23999977111816,0,0,NaN,NaN,0,0.0139882274201861,NaN,0.999977469445614,-0,-0.00669818138703704,0,29.6553093755436,29.6553093755436,,,9.91000008583069,28,0.124036485874299,0.209666832358256
2011-06-01T04:32:34Z,1306902754,307,54.6554368,24.4258414,30.24,0,-0.4,217.1,-161964.73,-191546.56,218.1,Air+FixedWing,Blue,Enemies,J-11A,Blue J-11A #005,cn,[51☭] Frostie,0,0,0,30.2399997711182,2.23999977111816,0,0,NaN,NaN,0,0.0139882274201861,NaN,0.999977946282744,-0,-0.00662741158157587,0,29.6553093755436,29.6553093755436,,,10.9100000858307,28,0.124036485874299,0.209666832358256
2011-06-01T04:32:35Z,1306902755,307,54.6554368,24.4258414,30.24,0,-0.4,217.1,-161964.73,-191546.56,218.1,Air+FixedWing,Blue,Enemies,J-11A,Blue J-11A #005,cn,[51☭] Frostie,0,0,0,30.2399997711182,2.23999977111816,0,0,NaN,NaN,0,0.0139882274201861,NaN,0.999978363515233,-0,-0.0065566417761147,0,29.6553093755436,29.6553093755436,,,11.9100000858307,28,0.124036485874299,0.209666832358256
2011-06-01T04:32:36Z,1306902756,307,54.6554368,24.4258414,30.24,0,-0.4,217.1,-161964.73,-191546.56,218.1,Air+FixedWing,Blue,Enemies,J-11A,Blue J-11A #005,cn,[51☭] Frostie,0,0,0,30.2399997711182,2.23999977111816,0,0,NaN,NaN,0,0,NaN,0.999978899957004,-0,-0.00648587150499225,0,29.6553093755436,29.6553093755436,,,12.9100000858307,28,0.124036485874299,0.209666832358256
2011-06-01T04:32:37Z,1306902757,307,54.6554368,24.4258414,30.24,0,-0.4,217.1,-161964.73,-191546.56,218.1,Air+FixedWing,Blue,Enemies,J-11A,Blue J-11A #005,cn,[51☭] Frostie,0,0,0,30.2399997711182,2.23999977111816,0,0,NaN,NaN,0,0.0139882274201861,NaN,0.999979317189492,-0,-0.00641510216519237,0,29.6553093755436,29.6553093755436,,,13.9100000858307,28,0.124036485874299,0.209666832358256
2011-06-01T04:32:38Z,1306902758,307,54.6554368,24.4258414,30.24,0,-0.4,217.1,-161964.73,-191546.56,218.1,Air+FixedWing,Blue,Enemies,J-11A,Blue J-11A #005,cn,[51☭] Frostie,0,0,0,30.2399997711182,2.23999977111816,0,0,NaN,NaN,0,0.00989117029631303,NaN,0.999979734421981,-0,-0.00634433189406991,0,29.6553093755436,29.6553093755436,,,14.9100000858307,28,0.124036485874299,0.209666832358256
2011-06-01T04:32:39Z,1306902759,307,54.6554368,24.4258414,30.24,0,-0.4,217.1,-161964.73,-191546.56,218.1,Air+FixedWing,Blue,Enemies,J-11A,Blue J-11A #005,cn,[51☭] Frostie,0,0,0,30.2399997711182,2.23999977111816,0,0,NaN,NaN,0,0.0139882274201861,NaN,0.999980211259111,-0,-0.00627356208860874,0,29.6553093755436,29.6553093755436,,,15.9100000858307,28,0.124036485874299,0.209666832358256
2011-06-01T04:32:40Z,1306902760,307,54.6554368,24.4258414,30.24,0,-0.4,217.1,-161964.73,-191546.56,218.1,Air+FixedWing,Blue,Enemies,J-11A,Blue J-11A #005,cn,[51☭] Frostie,0,0,0,30.2399997711182,2.23999977111816,0,0,NaN,NaN,0,0.00989117029631303,NaN,0.99998068809624,-0,-0.00620279181748629,0,29.6553093755436,29.6553093755436,,,16.9100000858307,28,0.124036485874299,0.209666832358256
2011-06-01T04:32:41Z,1306902761,307,54.6554368,24.4258414,30.24,0,-0.4,217.1,-161964.73,-191546.56,218.1,Air+FixedWing,Blue,Enemies,J-11A,Blue J-11A #005,cn,[51☭] Frostie,0,0,0,30.2399997711182,2.23999977111816,0,0,NaN,NaN,0,0.0139882274201861,NaN,0.99998116493337,-0,-0.00613202108070254,0,29.6553093755436,29.6553093755436,,,17.9100000858307,28,0.124036485874299,0.209666832358256
2011-06-01T04:32:42Z,1306902762,307,54.6554368,24.4258414,30.24,0,-0.3,217.1,-161964.73,-191546.56,218.1,Air+FixedWing,Blue,Enemies,J-11A,Blue J-11A #005,cn,[51☭] Frostie,0,0,0,30.2399997711182,2.23999977111816,0,0,NaN,NaN,0,0.0139882274201861,NaN,0.999981582165859,-0,-0.00606125127524137,0,29.6553093755436,29.6553093755436,,,18.9100000858307,28,0.124036485874299,0.209666832358256
2011-06-01T04:32:43Z,1306902763,307,54.6554368,24.4258414,30.24,0,-0.3,217.1,-161964.73,-191546.56,218.1,Air+FixedWing,Blue,Enemies,J-11A,Blue J-11A #005,cn,[51☭] Frostie,0,0,0,30.2399997711182,2.23999977111816,0,0,NaN,NaN,0,0.0171320104161963,NaN,0.999981939793706,-0,-0.00599048146978021,0,29.6553093755436,29.6553093755436,,,19.9100000858307,28,0.124036485874299,0.209666832358256
2011-06-01T04:32:44Z,1306902764,307,54.6554368,24.4258414,30.24,0,-0.3,217.1,-161964.73,-191546.56,218.1,Air+FixedWing,Blue,Enemies,J-11A,Blue J-11A #005,cn,[51☭] Frostie,0,0,0,30.2399997711182,2.23999977111816,0,0,NaN,NaN,0,0.0139882274201861,NaN,0.999982416630836,-0,-0.00591971119865775,0,29.6553093755436,29.6553093755436,,,20.9100000858307,28,0.124036485874299,0.209666832358256
2011-06-01T04:32:45Z,1306902765,307,54.6554368,24.4258414,30.24,0,-0.3,217.1,-161964.73,-191546.56,218.1,Air+FixedWing,Blue,Enemies,J-11A,Blue J-11A #005,cn,[51☭] Frostie,0,0,0,30.2399997711182,2.23999977111816,0,0,NaN,NaN,0,0.0139882274201861,NaN,0.999982833863324,-0,-0.00584894046187401,0,29.6553093755436,29.6553093755436,,,21.9100000858307,28,0.124036485874299,0.209666832358256
2011-06-01T04:32:46Z,1306902766,307,54.6554368,24.4258414,30.24,0,-0.3,217.1,-161964.73,-191546.56,218.1,Air+FixedWing,Blue,Enemies,J-11A,Blue J-11A #005,cn,[51☭] Frostie,0,0,0,30.2399997711182,2.23999977111816,0,0,NaN,NaN,0,0.0139882274201861,NaN,0.999983191491172,-0,-0.00577817065641284,0,29.6553093755436,29.6553093755436,,,22.9100000858307,28,0.124036485874299,0.209666832358256
2011-06-01T04:32:47Z,1306902767,307,54.6554368,24.4258414,30.24,0,-0.3,217.1,-161964.73,-191546.56,218.1,Air+FixedWing,Blue,Enemies,J-11A,Blue J-11A #005,cn,[51☭] Frostie,0,0,0,30.2399997711182,2.23999977111816,0,0,NaN,NaN,0,0.0139882274201861,NaN,0.99998360872366,-0,-0.00570740038529038,0,29.6553093755436,29.6553093755436,,,23.9100000858307,28,0.124036485874299,0.209666832358256
2011-06-01T04:32:48Z,1306902768,307,54.6554368,24.4258414,30.24,0,-0.3,217.1,-161964.73,-191546.56,218.1,Air+FixedWing,Blue,Enemies,J-11A,Blue J-11A #005,cn,[51☭] Frostie,0,0,0,30.2399997711182,2.23999977111816,0,0,NaN,NaN,0,0.0139882274201861,NaN,0.999983966351508,-0,-0.00563663011416793,0,29.6553093755436,29.6553093755436,,,24.9100000858307,28,0.124036485874299,0.209666832358256
2011-06-01T04:32:49Z,1306902769,307,54.6554368,24.4258414,30.24,0,-0.3,217.1,-161964.73,-191546.56,218.1,Air+FixedWing,Blue,Enemies,J-11A,Blue J-11A #005,cn,[51☭] Frostie,0,0,0,30.2399997711182,2.23999977111816,0,0,NaN,NaN,0,0.0139882274201861,NaN,0.999984443188637,-0,-0.00556585937738419,0,29.6553093755436,29.6553093755436,,,25.9100000858307,28,0.124036485874299,0.209666832358256
2011-06-01T04:32:50Z,1306902770,307,54.6554368,24.4258414,30.24,0,-0.3,217.1,-161964.73,-191546.56,218.1,Air+FixedWing,Blue,Enemies,J-11A,Blue J-11A #005,cn,[51☭] Frostie,0,0,0,30.2399997711182,2.23999977111816,0,0,NaN,NaN,0,0.0139882274201861,NaN,0.999984860421126,-0,-0.00549508957192302,0,29.6553093755436,29.6553093755436,,,26.9100000858307,28,0.124036485874299,0.209666832358256
2011-06-01T04:32:51Z,1306902771,307,54.6554368,24.4258414,30.24,0,-0.3,217.1,-161964.73,-191546.56,218.1,Air+FixedWing,Blue,Enemies,J-11A,Blue J-11A #005,cn,[51☭] Frostie,0,0,0,30.2399997711182,2.23999977111816,0,0,NaN,NaN,0,0.0139882274201861,NaN,0.999985218048973,-0,-0.00542431883513927,0,29.6553093755436,29.6553093755436,,,27.9100000858307,28,0.124036485874299,0.209666832358256
2011-06-01T04:32:52Z,1306902772,307,54.6554368,24.4258414,30.24,0,-0.3,217.1,-161964.73,-191546.56,218.1,Air+FixedWing,Blue,Enemies,J-11A,Blue J-11A #005,cn,[51☭] Frostie,0,0,0,30.2399997711182,2.23999977111816,0,0,NaN,NaN,0,0.0139882274201861,NaN,0.999985575676821,-0,-0.00535354856401682,0,29.6553093755436,29.6553093755436,,,28.9100000858307,28,0.124036485874299,0.209666832358256
2011-06-01T04:32:53Z,1306902773,307,54.6554368,24.4258414,30.24,0,-0.3,217.1,-161964.73,-191546.56,218.1,Air+FixedWing,Blue,Enemies,J-11A,Blue J-11A #005,cn,[51☭] Frostie,0,0,0,30.2399997711182,2.23999977111816,0,0,NaN,NaN,0,0.0197823405926261,NaN,0.999985933304668,-0,-0.00528277782723308,0,29.6553093755436,29.6553093755436,,,29.9100000858307,28,0.124036485874299,0.209666832358256
2011-06-01T04:32:54Z,1306902774,307,54.6554368,24.4258414,30.24,0,-0.3,217.1,-161964.73,-191546.56,218.1,Air+FixedWing,Blue,Enemies,J-11A,Blue J-11A #005,cn,[51☭] Frostie,0,0,0,30.2399997711182,2.23999977111816,0,0,NaN,NaN,0,0.0474363941624125,NaN,0.99998211860763,-0,-0.00595962582156062,0,29.6553093755436,29.6553093755436,,,30.9100000858307,28,0.124036485874299,0.209666832358256
2011-06-01T04:32:55Z,1306902775,307,54.6554368,24.4258414,30.24,0,-0.3,217.1,-161964.73,-191546.56,218.1,Air+FixedWing,Blue,Enemies,J-11A,Blue J-11A #005,cn,[51☭] Frostie,0,0,0,30.2399997711182,2.23999977111816,0,0,NaN,NaN,0,0.0395646845203054,NaN,0.99989092056737,-0,-0.00548477769419907,0,29.6553093755436,29.6553093755436,,,31.9100000858307,28,0.124036485874299,0.209666832358256
2011-06-01T04:32:56Z,1306902776,307,54.6554368,24.4258414,30.24,0,-0.3,217.1,-161964.73,-191546.56,218.1,Air+FixedWing,Blue,Enemies,J-11A,Blue J-11A #005,cn,[51☭] Frostie,0.000921249389648438,0,2.70718747754311e-06,30.2390785217285,2.23907852172852,0,-0.000921249389648438,NaN,NaN,0,0.0484566469995765,NaN,0.999159474081279,-0.00125382873019811,-0.00424849487029217,4.24350218963809e-08,29.6544059385109,29.6544059809459,,,32.9100000858307,28,0.125061795998175,0.211045226594528
2011-06-01T04:32:57Z,1306902777,307,54.6554367,24.4258415,30.23,0,-0.3,217.1,-161964.75,-191546.56,218.1,Air+FixedWing,Blue,Enemies,J-11A,Blue J-11A #005,cn,[51☭] Frostie,0.0180712062026739,0,5.31041199924918e-05,30.2299995422363,2.22999954223633,0.015625,-0.0090789794921875,NaN,NaN,0,0.0395646845203054,NaN,1.00192653454278,0.00125382873019811,-0.00622926518789241,1.63284246809781e-05,29.6455025010872,29.6455188295119,,,33.9100000858307,28,0.137681151008535,0.226591205988374
2011-06-01T04:32:58Z,1306902778,307,54.6554368,24.4258414,30.24,0,-0.3,217.1,-161964.75,-191546.56,218.1,Air+FixedWing,Blue,Enemies,J-11A,Blue J-11A #005,cn,[51☭] Frostie,0.0100002288818359,0,2.93867165468041e-05,30.2399997711182,2.23999977111816,0,0.0100002288818359,NaN,NaN,0,0,NaN,0.998961298898779,0.00125382873019811,-0.00621373910064139,5.00022888445528e-06,29.6553093755436,29.6553143757725,,,34.9100000858307,28,0.150936925536775,0.243196077863389
2011-06-01T04:32:59Z,1306902779,307,54.6554368,24.4258414,30.24,-0,-0.3,217.1,-161964.73,-191546.56,218.1,Air+FixedWing,Blue,Enemies,J-11A,Blue J-11A #005,cn,[51☭] Frostie,0.015625,0,4.59156936775547e-05,30.2399997711182,2.23999977111816,0.015625,0,NaN,NaN,0.0591767589689905,0,NaN,0.99999013572241,-0.00200767615729173,-0.00425285044389657,1.220703125e-05,29.6553093755436,29.6553215825748,,,35.9100000858307,28,0.150936925536775,0.243196077863389
2011-06-01T04:33:00Z,1306902780,307,54.6554368,24.4258414,30.24,-0.1,-0.3,217.1,-161964.73,-191546.56,218.1,Air+FixedWing,Blue,Enemies,J-11A,Blue J-11A #005,cn,[51☭] Frostie,0,0,0,30.2399997711182,2.23999977111816,0,0,NaN,NaN,0.0210916241569994,0,NaN,0.999985218062047,-0.00145433307517671,-0.00523596443235874,0,29.6553093755436,29.6553093755436,,,36.9100000858307,28,0.150936925536775,0.243196077863389
2011-06-01T04:33:01Z,1306902781,307,54.6554368,24.4258414,30.24,0,-0.3,217.1,-161964.73,-191546.56,218.1,Air+FixedWing,Blue,Enemies,J-11A,Blue J-11A #005,cn,[51☭] Frostie,0,0,0,30.2399997711182,2.23999977111816,0,0,NaN,NaN,0,0,NaN,0.99999131934229,-0.00125382873019811,-0.00425285044389657,0,29.6553093755436,29.6553093755436,,,37.9100000858307,28,0.150936925536775,0.243196077863389
2011-06-01T04:33:02Z,1306902782,307,54.6554368,24.4258414,30.24,0,-0.3,217.1,-161964.75,-191546.56,218.1,Air+FixedWing,Blue,Enemies,J-11A,Blue J-11A #005,cn,[51☭] Frostie,0.015625,0,4.59156936775547e-05,30.2399997711182,2.23999977111816,0.015625,0,NaN,NaN,0,0,NaN,0.999981024104175,0.00125382873019811,-0.00621907842082091,1.220703125e-05,29.6553093755436,29.6553215825748,,,38.9100000858307,28,0.150936925536775,0.243196077863389
2011-06-01T04:33:03Z,1306902783,307,54.6554367,24.4258414,30.24,0.1,-0.3,217.1,-161964.75,-191546.56,218.1,Air+FixedWing,Blue,Enemies,J-11A,Blue J-11A #005,cn,[51☭] Frostie,0,0,0,30.2399997711182,2.23999977111816,0,0,NaN,NaN,0.20000001179094,0,NaN,0.999977345673304,0.00299912235294719,-0.00621907842082091,0,29.6553093755436,29.6553093755436,,,39.9100000858307,28,0.162215606792599,0.254474812367183
2011-06-01T04:33:04Z,1306902784,307,54.6554368,24.4258414,30.24,0.1,-0.3,217.1,-161964.73,-191546.56,218.1,Air+FixedWing,Blue,Enemies,J-11A,Blue J-11A #005,cn,[51☭] Frostie,0.015625,0,4.59156936775547e-05,30.2399997711182,2.23999977111816,0.015625,0,NaN,NaN,0,0,NaN,0.999999353536283,-0.000762331527761767,-0.0032697364554344,1.220703125e-05,29.6553093755436,29.6553215825748,,,40.9100000858307,28,0.173494288048423,0.265753546870976
2011-06-01T04:33:05Z,1306902785,307,54.6554368,24.4258414,30.24,0.1,-0.3,217.1,-161964.75,-191546.56,218.1,Air+FixedWing,Blue,Enemies,J-11A,Blue J-11A #005,cn,[51☭] Frostie,0.015625,0,4.59156936775547e-05,30.2399997711182,2.23999977111816,0.015625,0,NaN,NaN,0,0,NaN,0.998950285965847,0.00425116055709029,-0.00719685308910356,1.220703125e-05,29.6553093755436,29.6553215825748,,,41.9100000858307,28,0.173494288048423,0.265753546870976
2011-06-01T04:33:06Z,1306902786,307,54.6554368,24.4258414,30.23,-0.1,-0.3,217.1,-161964.73,-191546.56,218.1,Air+FixedWing,Blue,Enemies,J-11A,Blue J-11A #005,cn,[51☭] Frostie,0.0185511509801712,0,5.45144876662451e-05,30.2299995422363,2.22999954223633,0.015625,-0.0100002288818359,NaN,NaN,0.254246961664555,0,NaN,1.00172663869009,-0.00239398467901982,-0.00426194755378856,1.72072601344553e-05,29.6455025010872,29.6455197083473,,,42.9100000858307,28,0.173494288048423,0.275753775324234
2011-06-01T04:33:07Z,1306902787,307,54.6554368,24.4258414,30.24,0,-0.3,217.1,-161964.73,-191546.56,218.1,Air+FixedWing,Blue,Enemies,J-11A,Blue J-11A #005,cn,[51☭] Frostie,0.00703811645507812,0,2.06822392596257e-05,30.2370376586914,2.23703765869141,0,0.00703811645507812,NaN,NaN,0,0,NaN,0.998550815626375,-0,-0.00522844885293381,2.47675416176207e-06,29.6524045355606,29.6524070123148,,,43.9100000858307,28,0.173494288048423,0.282791891729202
2011-06-01T04:33:08Z,1306902788,307,54.6554368,24.4258414,30.23,-0,-0.3,217.1,-161964.73,-191546.56,218.1,Air+FixedWing,Blue,Enemies,J-11A,Blue J-11A #005,cn,[51☭] Frostie,0.00703811645507812,0,2.06822376193293e-05,30.2299995422363,2.22999954223633,0,-0.00703811645507812,NaN,NaN,0.02141947323716,0,NaN,1.00070384983742,-0.000302917855556491,-0.00523972222207121,2.47675416176207e-06,29.6455025010872,29.6455049778413,,,44.9100000858307,28,0.173494288048423,0.289830008134171
2011-06-01T04:33:09Z,1306902789,307,54.6554368,24.4258414,30.23,-0,-0.3,217.1,-161964.73,-191546.56,218.1,Air+FixedWing,Blue,Enemies,J-11A,Blue J-11A #005,cn,[51☭] Frostie,0,0,0,30.2299995422363,2.22999954223633,0,0,NaN,NaN,0.02141947323716,0,NaN,0.999985933307936,-0.000676405033925818,-0.00523596443235874,0,29.6455025010872,29.6455025010872,,,45.9100000858307,28,0.173494288048423,0.289830008134171
2011-06-01T04:33:10Z,1306902790,307,54.6554368,24.4258414,30.23,-0.1,-0.3,217.1,-161964.73,-191546.56,218.1,Air+FixedWing,Blue,Enemies,J-11A,Blue J-11A #005,cn,[51☭] Frostie,0,0,0,30.2299995422363,2.22999954223633,0,0,NaN,NaN,0.02141947323716,0,NaN,0.999985635288816,-0.00105010936965171,-0.00523596443235874,0,29.6455025010872,29.6455025010872,,,46.9100000858307,28,0.173494288048423,0.289830008134171
2011-06-01T04:33:11Z,1306902791,307,54.6554368,24.4258414,30.23,-0.1,-0.3,217.1,-161964.73,-191546.56,218.1,Air+FixedWing,Blue,Enemies,J-11A,Blue J-11A #005,cn,[51☭] Frostie,0,0,0,30.2299995422363,2.22999954223633,0,0,NaN,NaN,0.02141947323716,0,NaN,0.999985158458223,-0.00142381358896389,-0.00523596443235874,0,29.6455025010872,29.6455025010872,,,47.9100000858307,28,0.173494288048423,0.289830008134171
2011-06-01T04:33:12Z,1306902792,307,54.6554368,24.4258414,30.23,-0.1,-0.3,217.1,-161964.73,-191546.56,218.1,Air+FixedWing,Blue,Enemies,J-11A,Blue J-11A #005,cn,[51☭] Frostie,0,0,0,30.2299995422363,2.22999954223633,0,0,NaN,NaN,0.0669312781729896,0,NaN,0.999985635288816,-0.00102658855980799,-0.00523596443235874,0,29.6455025010872,29.6455025010872,,,48.9100000858307,28,0.173494288048423,0.289830008134171
2011-06-01T04:33:13Z,1306902793,307,54.6554368,24.4258414,30.23,0,-0.3,217.1,-161964.73,-191546.56,218.1,Air+FixedWing,Blue,Enemies,J-11A,Blue J-11A #005,cn,[51☭] Frostie,0,0,0,30.2299995422363,2.22999954223633,0,0,NaN,NaN,0.0375939881817716,0,NaN,0.999986052515585,0.000524903812646107,-0.00523596443235874,0,29.6455025010872,29.6455025010872,,,49.9100000858307,28,0.173494288048423,0.289830008134171
2011-06-01T04:33:14Z,1306902794,307,54.6554368,24.4258414,30.23,0.1,-0.3,217.1,-161964.73,-191546.56,218.1,Air+FixedWing,Blue,Enemies,J-11A,Blue J-11A #005,cn,[51☭] Frostie,0,0,0,30.2299995422363,2.22999954223633,0,0,NaN,NaN,0.0375939881817716,0,NaN,0.999985456477344,0.00118103336017802,-0.00523596443235874,0,29.6455025010872,29.6455025010872,,,50.9100000858307,28,0.173494288048423,0.289830008134171
2011-06-01T04:33:15Z,1306902795,307,54.6554368,24.4258414,30.23,0.1,-0.3,217.1,-161964.73,-191546.56,218.1,Air+FixedWing,Blue,Enemies,J-11A,Blue J-11A #005,cn,[51☭] Frostie,0,0,0,30.2299995422363,2.22999954223633,0,0,NaN,NaN,0.0729464203357362,0,NaN,0.999985814100288,0.000872705979493588,-0.00523596443235874,0,29.6455025010872,29.6455025010872,,,51.9100000858307,28,0.173494288048423,0.289830008134171
2011-06-01T04:33:16Z,1306902796,307,54.6554368,24.4258414,30.23,-0,-0.3,217.1,-161964.73,-191546.56,218.1,Air+FixedWing,Blue,Enemies,J-11A,Blue J-11A #005,cn,[51☭] Frostie,0,0,0,30.2299995422363,2.22999954223633,0,0,NaN,NaN,0.0362273233577476,0,NaN,0.99998599291176,-0.000543794092198319,-0.00523596443235874,0,29.6455025010872,29.6455025010872,,,52.9100000858307,28,0.173494288048423,0.289830008134171
2011-06-01T04:33:17Z,1306902797,307,54.6554368,24.4258414,30.23,-0.1,-0.3,217.1,-161964.73,-191546.56,218.1,Air+FixedWing,Blue,Enemies,J-11A,Blue J-11A #005,cn,[51☭] Frostie,0,0,0,30.2299995422363,2.22999954223633,0,0,NaN,NaN,0.0362273233577476,0,NaN,0.999985456477344,-0.00117611266869204,-0.00523596443235874,0,29.6455025010872,29.6455025010872,,,53.9100000858307,28,0.173494288048423,0.289830008134171
2011-06-01T04:33:18Z,1306902798,307,54.6554368,24.4258414,30.23,-0.1,-0.3,217.1,-161964.73,-191546.56,218.1,Air+FixedWing,Blue,Enemies,J-11A,Blue J-11A #005,cn,[51☭] Frostie,0,0,0,30.2299995422363,2.22999954223633,0,0,NaN,NaN,0.0662484860396131,0,NaN,0.999990227826613,-0.000914157252664957,-0.00523598785489625,0,29.6455025010872,29.6455025010872,,,54.9100000858307,28,0.173494288048423,0.289830008134171
2011-06-01T04:33:19Z,1306902799,307,54.6554368,24.4258414,30.23,0,-0.3,217.1,-161964.73,-191546.56,218.1,Air+FixedWing,Blue,Enemies,J-11A,Blue J-11A #005,cn,[51☭] Frostie,4.38690185546875e-05,0,1.28913676281769e-07,30.2300434112549,2.23004341125488,0,4.38690185546875e-05,NaN,NaN,0,0,NaN,0.999986755201321,-0,-0.00523596748747233,9.62245394475758e-11,29.6455455218983,29.6455455219945,,,55.9100000858307,28,0.173494288048423,0.289873876871328
2011-06-01T04:33:20Z,1306902800,307,54.6554368,24.4258414,30.23,0,-0.3,217.1,-161964.73,-191546.56,218.1,Air+FixedWing,Blue,Enemies,J-11A,Blue J-11A #005,cn,[51☭] Frostie,4.9591064453125e-05,0,1.45728503704305e-07,30.2300930023193,2.23009300231934,0,4.9591064453125e-05,NaN,NaN,0,0,NaN,0.999986171723233,-0,-0.00523596443235874,1.229636836797e-10,29.6455941541195,29.6455941542425,,,56.9100000858307,28,0.173494288048423,0.289923468444992
2011-06-01T04:33:21Z,1306902801,307,54.6554368,24.4258414,30.23,0,-0.3,217.1,-161964.73,-191546.56,218.1,Air+FixedWing,Blue,Enemies,J-11A,Blue J-11A #005,cn,[51☭] Frostie,4.9591064453125e-05,0,1.45728503785741e-07,30.2301425933838,2.23014259338379,0,4.9591064453125e-05,NaN,NaN,0,0,NaN,0.999986171723233,-0,-0.00523596443235874,1.229636836797e-10,29.6456427863407,29.6456427864637,,,57.9100000858307,28,0.173494288048423,0.289973059134422
2011-06-01T04:33:22Z,1306902802,307,54.6554368,24.4258414,30.23,0,-0.3,217.1,-161964.73,-191546.56,218.1,Air+FixedWing,Blue,Enemies,J-11A,Blue J-11A #005,cn,[51☭] Frostie,4.9591064453125e-05,0,1.45728503867177e-07,30.2301921844482,2.23019218444824,0,4.9591064453125e-05,NaN,NaN,0,0,NaN,0.999986171723233,-0,-0.00523596443235874,1.229636836797e-10,29.6456914185619,29.6456914186849,,,58.9100000858307,28,0.173494288048423,0.290022650016409
2011-06-01T04:33:23Z,1306902803,307,54.6554368,24.4258414,30.23,0,-0.3,217.1,-161964.73,-191546.56,218.1,Air+FixedWing,Blue,Enemies,J-11A,Blue J-11A #005,cn,[51☭] Frostie,4.9591064453125e-05,0,1.45728503948613e-07,30.2302417755127,2.2302417755127,0,4.9591064453125e-05,NaN,NaN,0,0,NaN,0.999986171723233,-0,-0.00523596443235874,1.229636836797e-10,29.6457400507832,29.6457400509061,,,59.9100000858307,28,0.173494288048423,0.290072241835344
2011-06-01T04:33:24Z,1306902804,307,54.6554368,24.4258414,30.23,0,-0.3,217.1,-161964.73,-191546.56,218.1,Air+FixedWing,Blue,Enemies,J-11A,Blue J-11A #005,cn,[51☭] Frostie,4.9591064453125e-05,0,1.45728504030049e-07,30.2302913665771,2.23029136657715,0,4.9591064453125e-05,NaN,NaN,0,0,NaN,0.999986171723233,-0,-0.00523596443235874,1.229636836797e-10,29.6457886830044,29.6457886831273,,,60.9100000858307,28,0.173494288048423,0.290121832524773
2011-06-01T04:33:25Z,1306902805,307,54.6554368,24.4258414,30.23,0,-0.3,217.1,-161964.73,-191546.56,218.1,Air+FixedWing,Blue,Enemies,J-11A,Blue J-11A #005,cn,[51☭] Frostie,4.9591064453125e-05,0,1.45728504111485e-07,30.2303409576416,2.2303409576416,0,4.9591064453125e-05,NaN,NaN,0,0,NaN,0.999986171723233,-0,-0.00523596443235874,1.229636836797e-10,29.6458373152256,29.6458373153486,,,61.9100000858307,28,0.173494288048423,0.290171423406761
2011-06-01T04:33:26Z,1306902806,307,54.6554368,24.4258414,30.23,0,-0.3,217.1,-161964.73,-191546.56,218.1,Air+FixedWing,Blue,Enemies,J-11A,Blue J-11A #005,cn,[51☭] Frostie,4.9591064453125e-05,0,1.45728504192921e-07,30.2303905487061,2.23039054870605,0,4.9591064453125e-05,NaN,NaN,0,0,NaN,0.999985977230537,-0,-0.00523596341398755,1.229636836797e-10,29.6458859474468,29.6458859475698,,,62.9100000858307,28,0.173494288048423,0.290221014980426
2011-06-01T04:33:27Z,1306902807,307,54.6554368,24.4258414,30.23,0,-0.3,217.1,-161964.73,-191546.56,218.1,Air+FixedWing,Blue,Enemies,J-11A,Blue J-11A #005,cn,[51☭] Frostie,4.76837158203125e-05,0,1.40123561799255e-07,30.2304382324219,2.23043823242188,0,4.76837158203125e-05,NaN,NaN,0,0,NaN,0.999986366215929,-0,-0.00523596545072994,1.13686837721616e-10,29.645932709198,29.6459327093117,,,63.9100000858307,28,0.173494288048423,0.290268697643187
2011-06-01T04:33:28Z,1306902808,307,54.6554368,24.4258414,30.23,0,-0.3,217.1,-161964.73,-191546.56,218.1,Air+FixedWing,Blue,Enemies,J-11A,Blue J-11A #005,cn,[51☭] Frostie,4.9591064453125e-05,0,1.45728504352661e-07,30.2304878234863,2.23048782348633,0,4.9591064453125e-05,NaN,NaN,0,0,NaN,0.999986171723233,-0,-0.00523596443235874,1.229636836797e-10,29.6459813414192,29.6459813415422,,,64.9100000858307,28,0.173494288048423,0.290318289269567
2011-06-01T04:33:29Z,1306902809,307,54.6554368,24.4258414,30.23,0,-0.3,217.1,-161964.73,-191546.56,218.1,Air+FixedWing,Blue,Enemies,J-11A,Blue J-11A #005,cn,[51☭] Frostie,4.9591064453125e-05,0,1.45728504434097e-07,30.2305374145508,2.23053741455078,0,4.9591064453125e-05,NaN,NaN,0,0,NaN,0.999986171723233,-0,-0.00523596443235874,1.229636836797e-10,29.6460299736404,29.6460299737634,,,65.9100000858307,28,0.173494288048423,0.290367880843232
2011-06-01T04:33:30Z,1306902810,307,54.6554368,24.4258414,30.23,0,-0.3,217.1,-161964.73,-191546.56,218.1,Air+FixedWing,Blue,Enemies,J-11A,Blue J-11A #005,cn,[51☭] Frostie,4.9591064453125e-05,0,1.45728504515533e-07,30.2305870056152,2.23058700561523,0,4.9591064453125e-05,NaN,NaN,0,0,NaN,0.999986171723233,-0,-0.00523596443235874,1.229636836797e-10,29.6460786058617,29.6460786059846,,,66.9100000858307,28,0.173494288048423,0.29041747172522
2011-06-01T04:33:31Z,1306902811,307,54.6554368,24.4258414,30.23,0,-0.3,217.1,-161964.73,-191546.56,218.1,Air+FixedWing,Blue,Enemies,J-11A,Blue J-11A #005,cn,[51☭] Frostie,4.9591064453125e-05,0,1.45728504596969e-07,30.2306365966797,2.23063659667969,0,4.9591064453125e-05,NaN,NaN,0,0,NaN,0.999986171723233,-0,-0.00523596443235874,1.229636836797e-10,29.6461272380829,29.6461272382058,,,67.9100000858307,28,0.173494288048423,0.290467062607207
2011-06-01T04:33:32Z,1306902812,307,54.6554368,24.4258414,30.23,0,-0.3,217.1,-161964.73,-191546.56,218.1,Air+FixedWing,Blue,Enemies,J-11A,Blue J-11A #005,cn,[51☭] Frostie,4.9591064453125e-05,0,1.45728504678405e-07,30.2306861877441,2.23068618774414,0,4.9591064453125e-05,NaN,NaN,0,0,NaN,0.999986171723233,-0,-0.00523596443235874,1.229636836797e-10,29.6461758703041,29.6461758704271,,,68.9100000858307,28,0.173494288048423,0.290516653296637
2011-06-01T04:33:33Z,1306902813,307,54.6554368,24.4258414,30.23,0,-0.3,217.1,-161964.73,-191546.56,218.1,Air+FixedWing,Blue,Enemies,J-11A,Blue J-11A #005,cn,[51☭] Frostie,4.9591064453125e-05,0,1.4572850475984e-07,30.2307357788086,2.23073577880859,0,4.9591064453125e-05,NaN,NaN,0,0,NaN,0.999986171723233,-0,-0.00523596443235874,1.229636836797e-10,29.6462245025253,29.6462245026483,,,69.9100000858307,28,0.173494288048423,0.290566244178624
2011-06-01T04:33:34Z,1306902814,307,54.6554368,24.4258414,30.23,0,-0.3,217.1,-161964.73,-191546.56,218.1,Air+FixedWing,Blue,Enemies,J-11A,Blue J-11A #005,cn,[51☭] Frostie,4.9591064453125e-05,0,1.45728504841276e-07,30.230785369873,2.23078536987305,0,4.9591064453125e-05,NaN,NaN,0,0,NaN,0.999986171723233,-0,-0.00523596443235874,1.229636836797e-10,29.6462731347466,29.6462731348695,,,70.9100000858307,28,0.173494288048423,0.290615835997559
2011-06-01T04:33:35Z,1306902815,307,54.6554368,24.4258414,30.23,0,-0.3,217.1,-161964.73,-191546.56,218.1,Air+FixedWing,Blue,Enemies,J-11A,Blue J-11A #005,cn,[51☭] Frostie,4.9591064453125e-05,0,1.45728504922712e-07,30.2308349609375,2.2308349609375,0,4.9591064453125e-05,NaN,NaN,0,0,NaN,0.999986171723233,-0,-0.00523596443235874,1.229636836797e-10,29.6463217669678,29.6463217670907,,,71.9100000858307,28,0.173494288048423,0.290665427378668
2011-06-01T04:33:36Z,1306902816,307,54.6554368,24.4258414,30.23,0,-0.3,217.1,-161964.73,-191546.56,218.1,Air+FixedWing,Blue,Enemies,J-11A,Blue J-11A #005,cn,[51☭] Frostie,4.9591064453125e-05,0,1.45728505004148e-07,30.230884552002,2.23088455200195,0,4.9591064453125e-05,NaN,NaN,0,0,NaN,0.999986171723233,-0,-0.00523596443235874,1.229636836797e-10,29.646370399189,29.646370399312,,,72.9100000858307,28,0.173494288048423,0.290715018260656
2011-06-01T04:33:37Z,1306902817,307,54.6554368,24.4258414,30.23,0,-0.3,217.1,-161964.73,-191546.56,218.1,Air+FixedWing,Blue,Enemies,J-11A,Blue J-11A #005,cn,[51☭] Frostie,4.9591064453125e-05,0,1.45728505085584e-07,30.2309341430664,2.23093414306641,0,4.9591064453125e-05,NaN,NaN,0,0,NaN,0.999986171723233,-0,-0.00523596443235874,1.229636836797e-10,29.6464190314102,29.6464190315332,,,73.9100000858307,28,0.173494288048423,0.290764609142643
2011-06-01T04:33:38Z,1306902818,307,54.6554368,24.4258414,30.23,0,-0.3,217.1,-161964.73,-191546.56,218.1,Air+FixedWing,Blue,Enemies,J-11A,Blue J-11A #005,cn,[51☭] Frostie,4.9591064453125e-05,0,1.4572850516702e-07,30.2309837341309,2.23098373413086,0,4.9591064453125e-05,NaN,NaN,0,0,NaN,0.999986171723233,-0,-0.00523596443235874,1.229636836797e-10,29.6464676636314,29.6464676637544,,,74.9100000858307,28,0.173494288048423,0.290814199779361
2011-06-01T04:33:39Z,1306902819,307,54.6554368,24.4258414,30.23,0,-0.3,217.1,-161964.73,-191546.56,218.1,Air+FixedWing,Blue,Enemies,J-11A,Blue J-11A #005,cn,[51☭] Frostie,4.9591064453125e-05,0,1.45728505248456e-07,30.2310333251953,2.23103332519531,0,4.9591064453125e-05,NaN,NaN,0,0,NaN,0.999985977230537,-0,-0.00523596341398755,1.229636836797e-10,29.6465162958527,29.6465162959756,,,75.9100000858307,28,0.173494288048423,0.29086379046879
2011-06-01T04:33:40Z,1306902820,307,54.6554368,24.4258414,30.23,0,-0.3,217.1,-161964.73,-191546.56,218.1,Air+FixedWing,Blue,Enemies,J-11A,Blue J-11A #005,cn,[51☭] Frostie,4.76837158203125e-05,0,1.40123562814192e-07,30.2310810089111,2.23108100891113,0,4.76837158203125e-05,NaN,NaN,0,0,NaN,0.999986366215929,-0,-0.00523596545072994,1.13686837721616e-10,29.6465630576038,29.6465630577175,,,76.9100000858307,28,0.173494288048423,0.290911475005443
2011-06-01T04:33:41Z,1306902821,307,54.6554368,24.4258414,30.23,0,-0.3,217.1,-161964.73,-191546.56,218.1,Air+FixedWing,Blue,Enemies,J-11A,Blue J-11A #005,cn,[51☭] Frostie,4.9591064453125e-05,0,1.45728505408196e-07,30.2311305999756,2.23113059997559,0,4.9591064453125e-05,NaN,NaN,0,0,NaN,0.999986171723233,-0,-0.00523596443235874,1.229636836797e-10,29.6466116898251,29.646611689948,,,77.9100000858307,28,0.173494288048423,0.290961065887431
2011-06-01T04:33:42Z,1306902822,307,54.6554368,24.4258414,30.23,0,-0.3,217.1,-161964.73,-191546.56,218.1,Air+FixedWing,Blue,Enemies,J-11A,Blue J-11A #005,cn,[51☭] Frostie,4.9591064453125e-05,0,1.45728505489632e-07,30.23118019104,2.23118019104004,0,4.9591064453125e-05,NaN,NaN,0,0,NaN,0.999986171723233,-0,-0.00523596443235874,1.229636836797e-10,29.6466603220463,29.6466603221692,,,78.9100000858307,28,0.173494288048423,0.291010656769418
2011-06-01T04:33:43Z,1306902823,307,54.6554368,24.4258414,30.23,0,-0.3,217.1,-161964.73,-191546.56,218.1,Air+FixedWing,Blue,Enemies,J-11A,Blue J-11A #005,cn,[51☭] Frostie,4.9591064453125e-05,0,1.45728505571068e-07,30.2312297821045,2.23122978210449,0,4.9591064453125e-05,NaN,NaN,0,0,NaN,0.999986171723233,-0,-0.00523596443235874,1.229636836797e-10,29.6467089542675,29.6467089543905,,,79.9100000858307,28,0.173494288048423,0.29106024790526
2011-06-01T04:33:44Z,1306902824,307,54.6554368,24.4258414,30.23,0,-0.3,217.1,-161964.73,-191546.56,218.1,Air+FixedWing,Blue,Enemies,J-11A,Blue J-11A #005,cn,[51☭] Frostie,4.9591064453125e-05,0,1.45728505652504e-07,30.2312793731689,2.23127937316895,0,4.9591064453125e-05,NaN,NaN,0,0,NaN,0.999986171723233,-0,-0.00523596443235874,1.229636836797e-10,29.6467575864887,29.6467575866117,,,80.9100000858307,28,0.173494288048423,0.291109838787248
2011-06-01T04:33:45Z,1306902825,307,54.6554368,24.4258414,30.23,0,-0.3,217.1,-161964.73,-191546.56,218.1,Air+FixedWing,Blue,Enemies,J-11A,Blue J-11A #005,cn,[51☭] Frostie,4.9591064453125e-05,0,1.4572850573394e-07,30.2313289642334,2.2313289642334,0,4.9591064453125e-05,NaN,NaN,0,0,NaN,0.999986171723233,-0,-0.00523596443235874,1.229636836797e-10,29.6468062187099,29.6468062188329,,,81.9100000858307,28,0.173494288048423,0.291159430606182
2011-06-01T04:33:46Z,1306902826,307,54.6554368,24.4258414,30.23,0,-0.3,217.1,-161964.73,-191546.56,218.1,Air+FixedWing,Blue,Enemies,J-11A,Blue J-11A #005,cn,[51☭] Frostie,4.9591064453125e-05,0,1.45728505815376e-07,30.2313785552979,2.23137855529785,0,4.9591064453125e-05,NaN,NaN,0,0,NaN,0.999986171723233,-0,-0.00523596443235874,1.229636836797e-10,29.6468548509312,29.6468548510541,,,82.9100000858307,28,0.173494288048423,0.291209021295611
2011-06-01T04:33:47Z,1306902827,307,54.6554368,24.4258414,30.23,0,-0.3,217.1,-161964.73,-191546.56,218.1,Air+FixedWing,Blue,Enemies,J-11A,Blue J-11A #005,cn,[51☭] Frostie,4.9591064453125e-05,0,1.45728505896812e-07,30.2314281463623,2.2314281463623,0,4.9591064453125e-05,NaN,NaN,0,0,NaN,0.999986171723233,-0,-0.00523596443235874,1.229636836797e-10,29.6469034831524,29.6469034832753,,,83.9100000858307,28,0.173494288048423,0.291258612177599
2011-06-01T04:33:48Z,1306902828,307,54.6554368,24.4258414,30.23,0,-0.3,217.1,-161964.73,-191546.56,218.1,Air+FixedWing,Blue,Enemies,J-11A,Blue J-11A #005,cn,[51☭] Frostie,4.9591064453125e-05,0,1.45728505978248e-07,30.2314777374268,2.23147773742676,0,4.9591064453125e-05,NaN,NaN,0,0,NaN,0.999986171723233,-0,-0.00523596443235874,1.229636836797e-10,29.6469521153736,29.6469521154966,,,84.9100000858307,28,0.173494288048423,0.291308203059587
2011-06-01T04:33:49Z,1306902829,307,54.6554368,24.4258414,30.23,0,-0.3,217.1,-161964.73,-191546.56,218.1,Air+FixedWing,Blue,Enemies,J-11A,Blue J-11A #005,cn,[51☭] Frostie,4.9591064453125e-05,0,1.45728506059684e-07,30.2315273284912,2.23152732849121,0,4.9591064453125e-05,NaN,NaN,0,0,NaN,0.999986171723233,-0,-0.00523596443235874,1.229636836797e-10,29.6470007475948,29.6470007477178,,,85.9100000858307,28,0.173494288048423,0.291357793941574
2011-06-01T04:33:50Z,1306902830,307,54.6554368,24.4258414,30.23,0,-0.3,217.1,-161964.73,-191546.56,218.1,Air+FixedWing,Blue,Enemies,J-11A,Blue J-11A #005,cn,[51☭] Frostie,4.9591064453125e-05,0,1.4572850614112e-07,30.2315769195557,2.23157691955566,0,4.9591064453125e-05,NaN,NaN,0,0,NaN,0.999986171723233,-0,-0.00523596443235874,1.229636836797e-10,29.6470493798161,29.647049379939,,,86.9100000858307,28,0.173494288048423,0.291407385322684
2011-06-01T04:33:51Z,1306902831,307,54.6554368,24.4258414,30.23,0,-0.3,217.1,-161964.73,-191546.56,218.1,Air+FixedWing,Blue,Enemies,J-11A,Blue J-11A #005,cn,[51☭] Frostie,4.9591064453125e-05,0,1.45728506222556e-07,30.2316265106201,2.23162651062012,0,4.9591064453125e-05,NaN,NaN,0,0,NaN,0.999986171723233,-0,-0.00523596443235874,1.229636836797e-10,29.6470980120373,29.6470980121602,,,87.9100000858307,28,0.173494288048423,0.291456977141618
2011-06-01T04:33:52Z,1306902832,307,54.6554368,24.4258414,30.23,0,-0.3,217.1,-161964.73,-191546.56,218.1,Air+FixedWing,Blue,Enemies,J-11A,Blue J-11A #005,cn,[51☭] Frostie,4.9591064453125e-05,0,1.45728506303992e-07,30.2316761016846,2.23167610168457,0,4.9591064453125e-05,NaN,NaN,0,0,NaN,0.999986171723233,-0,-0.00523596443235874,1.229636836797e-10,29.6471466442585,29.6471466443815,,,88.9100000858307,28,0.173494288048423,0.291506568023606
2011-06-01T04:33:53Z,1306902833,307,54.6554368,24.4258414,30.23,0,-0.3,217.1,-161964.73,-191546.56,218.1,Air+FixedWing,Blue,Enemies,J-11A,Blue J-11A #005,cn,[51☭] Frostie,4.9591064453125e-05,0,1.45728506385428e-07,30.231725692749,2.23172569274902,0,4.9591064453125e-05,NaN,NaN,0,0,NaN,0.999985977230537,-0,-0.00523596341398755,1.229636836797e-10,29.6471952764797,29.6471952766027,,,89.9100000858307,28,0.173494288048423,0.291556158713035
2011-06-01T04:33:54Z,1306902834,307,54.6554368,24.4258414,30.23,0,-0.3,217.1,-161964.73,-191546.56,218.1,Air+FixedWing,Blue,Enemies,J-11A,Blue J-11A #005,cn,[51☭] Frostie,4.76837158203125e-05,0,1.40123563907434e-07,30.2317733764648,2.23177337646484,0,4.76837158203125e-05,NaN,NaN,0,0,NaN,0.999986366215929,-0,-0.00523596545072994,1.13686837721616e-10,29.6472420382309,29.6472420383446,,,90.9100000858307,28,0.173494288048423,0.291603842067468
2011-06-01T04:33:55Z,1306902835,307,54.6554368,24.4258414,30.23,0,-0.3,217.1,-161964.73,-191546.56,218.1,Air+FixedWing,Blue,Enemies,J-11A,Blue J-11A #005,cn,[51☭] Frostie,4.9591064453125e-05,0,1.45728506545167e-07,30.2318229675293,2.2318229675293,0,4.9591064453125e-05,NaN,NaN,0,0,NaN,0.999986171723233,-0,-0.00523596443235874,1.229636836797e-10,29.6472906704521,29.6472906705751,,,91.9100000858307,28,0.173494288048423,0.291653432949456
2011-06-01T04:33:56Z,1306902836,307,54.6554368,24.4258414,30.23,0,-0.3,217.1,-161964.73,-191546.56,218.1,Air+FixedWing,Blue,Enemies,J-11A,Blue J-11A #005,cn,[51☭] Frostie,4.9591064453125e-05,0,1.45728506626603e-07,30.2318725585938,2.23187255859375,0,4.9591064453125e-05,NaN,NaN,0,0,NaN,0.999986171723233,-0,-0.00523596443235874,1.229636836797e-10,29.6473393026733,29.6473393027963,,,92.9100000858307,28,0.173494288048423,0.29170302476839
2011-06-01T04:33:57Z,1306902837,307,54.6554368,24.4258414,30.23,0,-0.3,217.1,-161964.73,-191546.56,218.1,Air+FixedWing,Blue,Enemies,J-11A,Blue J-11A #005,cn,[51☭] Frostie,4.9591064453125e-05,0,1.45728506708039e-07,30.2319221496582,2.2319221496582,0,4.9591064453125e-05,NaN,NaN,0,0,NaN,0.999986171723233,-0,-0.00523596443235874,1.229636836797e-10,29.6473879348946,29.6473879350175,,,93.9100000858307,28,0.173494288048423,0.29175261545782
2011-06-01T04:33:58Z,1306902838,307,54.6554368,24.4258414,30.23,0,-0.3,217.1,-161964.73,-191546.56,218.1,Air+FixedWing,Blue,Enemies,J-11A,Blue J-11A #005,cn,[51☭] Frostie,4.9591064453125e-05,0,1.45728506789475e-07,30.2319717407227,2.23197174072266,0,4.9591064453125e-05,NaN,NaN,0,0,NaN,0.999986171723233,-0,-0.00523596443235874,1.229636836797e-10,29.6474365671158,29.6474365672387,,,94.9100000858307,28,0.173494288048423,0.291802206339808
2011-06-01T04:33:59Z,1306902839,307,54.6554368,24.4258414,30.23,0,-0.3,217.1,-161964.73,-191546.56,218.1,Air+FixedWing,Blue,Enemies,J-11A,Blue J-11A #005,cn,[51☭] Frostie,4.9591064453125e-05,0,1.45728506870911e-07,30.2320213317871,2.23202133178711,0,4.9591064453125e-05,NaN,NaN,0,0,NaN,0.999986171723233,-0,-0.00523596443235874,1.229636836797e-10,29.647485199337,29.64748519946,,,95.9100000858307,28,0.173494288048423,0.291851797913472
2011-06-01T04:34:00Z,1306902840,307,54.6554368,24.4258414,30.23,0,-0.3,217.1,-161964.73,-191546.56,218.1,Air+FixedWing,Blue,Enemies,J-11A,Blue J-11A #005,cn,[51☭] Frostie,4.9591064453125e-05,0,1.45728506952347e-07,30.2320709228516,2.23207092285156,0,4.9591064453125e-05,NaN,NaN,0,0,NaN,0.999986171723233,-0,-0.00523596443235874,1.229636836797e-10,29.6475338315582,29.6475338316812,,,96.9100000858307,28,0.173494288048423,0.29190138879546
2011-06-01T04:34:01Z,1306902841,307,54.6554368,24.4258414,30.23,0,-0.3,217.1,-161964.73,-191546.56,218.1,Air+FixedWing,Blue,Enemies,J-11A,Blue J-11A #005,cn,[51☭] Frostie,4.9591064453125e-05,0,1.45728507033783e-07,30.232120513916,2.23212051391602,0,4.9591064453125e-05,NaN,NaN,0,0,NaN,0.999986171723233,-0,-0.00523596443235874,1.229636836797e-10,29.6475824637794,29.6475824639024,,,97.9100000858307,28,0.173494288048423,0.291950979484889
2011-06-01T04:34:02Z,1306902842,307,54.6554368,24.4258414,30.23,0,-0.3,217.1,-161964.73,-191546.56,218.1,Air+FixedWing,Blue,Enemies,J-11A,Blue J-11A #005,cn,[51☭] Frostie,4.9591064453125e-05,0,1.45728507115219e-07,30.2321701049805,2.23217010498047,0,4.9591064453125e-05,NaN,NaN,0,0,NaN,0.999986171723233,-0,-0.00523596443235874,1.229636836797e-10,29.6476310960007,29.6476310961236,,,98.9100000858307,28,0.173494288048423,0.292000571303824
2011-06-01T04:34:03Z,1306902843,307,54.6554368,24.4258414,30.23,0,-0.3,217.1,-161964.73,-191546.56,218.1,Air+FixedWing,Blue,Enemies,J-11A,Blue J-11A #005,cn,[51☭] Frostie,4.9591064453125e-05,0,1.45728507196655e-07,30.2322196960449,2.23221969604492,0,4.9591064453125e-05,NaN,NaN,0,0,NaN,0.999986171723233,-0,-0.00523596443235874,1.229636836797e-10,29.6476797282219,29.6476797283449,,,99.9100000858307,28,0.173494288048423,0.292050162185811
2011-06-01T04:34:04Z,1306902844,307,54.6554368,24.4258414,30.23,0,-0.3,217.1,-161964.73,-191546.56,218.1,Air+FixedWing,Blue,Enemies,J-11A,Blue J-11A #005,cn,[51☭] Frostie,4.9591064453125e-05,0,1.45728507278091e-07,30.2322692871094,2.23226928710938,0,4.9591064453125e-05,NaN,NaN,0,0,NaN,0.999986171723233,-0,-0.00523596443235874,1.229636836797e-10,29.6477283604431,29.6477283605661,,,100.910000085831,28,0.173494288048423,0.292099752875241
2011-06-01T04:34:05Z,1306902845,307,54.6554368,24.4258414,30.23,0,-0.3,217.1,-161964.73,-191546.56,218.1,Air+FixedWing,Blue,Enemies,J-11A,Blue J-11A #005,cn,[51☭] Frostie,4.9591064453125e-05,0,1.45728507359527e-07,30.2323188781738,2.23231887817383,0,4.9591064453125e-05,NaN,NaN,0,0,NaN,0.999986171723233,-0,-0.00523596443235874,1.229636836797e-10,29.6477769926643,29.6477769927873,,,101.910000085831,28,0.173494288048423,0.292149343757228
2011-06-01T04:34:06Z,1306902846,307,54.6554368,24.4258414,30.23,0,-0.3,217.1,-161964.73,-191546.56,218.1,Air+FixedWing,Blue,Enemies,J-11A,Blue J-11A #005,cn,[51☭] Frostie,4.9591064453125e-05,0,1.45728507440963e-07,30.2323684692383,2.23236846923828,0,4.9591064453125e-05,NaN,NaN,0,0,NaN,0.999985977230537,-0,-0.00523596341398755,1.229636836797e-10,29.6478256248856,29.6478256250085,,,102.910000085831,28,0.173494288048423,0.292198935085627
2011-06-01T04:34:07Z,1306902847,307,54.6554368,24.4258414,30.23,0,-0.3,217.1,-161964.73,-191546.56,218.1,Air+FixedWing,Blue,Enemies,J-11A,Blue J-11A #005,cn,[51☭] Frostie,4.76837158203125e-05,0,1.40123564922372e-07,30.2324161529541,2.2324161529541,0,4.76837158203125e-05,NaN,NaN,0,0,NaN,0.999986366215929,-0,-0.00523596545072994,1.13686837721616e-10,29.6478723866367,29.6478723867504,,,103.910000085831,28,0.173494288048423,0.292246618930606
2011-06-01T04:34:08Z,1306902848,307,54.6554368,24.4258414,30.23,0,-0.3,217.1,-161964.73,-191546.56,218.1,Air+FixedWing,Blue,Enemies,J-11A,Blue J-11A #005,cn,[51☭] Frostie,4.9591064453125e-05,0,1.45728507600703e-07,30.2324657440186,2.23246574401855,0,4.9591064453125e-05,NaN,NaN,0,0,NaN,0.999986171723233,-0,-0.00523596443235874,1.229636836797e-10,29.647921018858,29.6479210189809,,,104.910000085831,28,0.173494288048423,0.292296210311716
2011-06-01T04:34:09Z,1306902849,307,54.6554368,24.4258414,30.23,0,-0.3,217.1,-161964.73,-191546.56,218.1,Air+FixedWing,Blue,Enemies,J-11A,Blue J-11A #005,cn,[51☭] Frostie,4.9591064453125e-05,0,1.45728507682139e-07,30.232515335083,2.23251533508301,0,4.9591064453125e-05,NaN,NaN,0,0,NaN,0.999986171723233,-0,-0.00523596443235874,1.229636836797e-10,29.6479696510792,29.6479696512021,,,105.910000085831,28,0.173494288048423,0.292345801193703
2011-06-01T04:34:10Z,1306902850,307,54.6554368,24.4258414,30.23,0,-0.3,217.1,-161964.73,-191546.56,218.1,Air+FixedWing,Blue,Enemies,J-11A,Blue J-11A #005,cn,[51☭] Frostie,4.9591064453125e-05,0,1.45728507763575e-07,30.2325649261475,2.23256492614746,0,4.9591064453125e-05,NaN,NaN,0,0,NaN,0.999986171723233,-0,-0.00523596443235874,1.229636836797e-10,29.6480182833004,29.6480182834234,,,106.910000085831,28,0.173494288048423,0.292395391830421
2011-06-01T04:34:11Z,1306902851,307,54.6554368,24.4258414,30.23,0,-0.3,217.1,-161964.73,-191546.56,218.1,Air+FixedWing,Blue,Enemies,J-11A,Blue J-11A #005,cn,[51☭] Frostie,4.9591064453125e-05,0,1.45728507845011e-07,30.2326145172119,2.23261451721191,0,4.9591064453125e-05,NaN,NaN,0,0,NaN,0.999986171723233,-0,-0.00523596443235874,1.229636836797e-10,29.6480669155216,29.6480669156446,,,107.910000085831,28,0.173494288048423,0.292444982712409
2011-06-01T04:34:12Z,1306902852,307,54.6554368,24.4258414,30.23,0,-0.3,217.1,-161964.73,-191546.56,218.1,Air+FixedWing,Blue,Enemies,J-11A,Blue J-11A #005,cn,[51☭] Frostie,4.9591064453125e-05,0,1.45728507926447e-07,30.2326641082764,2.23266410827637,0,4.9591064453125e-05,NaN,NaN,0,0,NaN,0.999986171723233,-0,-0.00523596443235874,1.229636836797e-10,29.6481155477428,29.6481155478658,,,108.910000085831,28,0.173494288048423,0.292494573401838
2011-06-01T04:34:13Z,1306902853,307,54.6554368,24.4258414,30.23,0,-0.3,217.1,-161964.73,-191546.56,218.1,Air+FixedWing,Blue,Enemies,J-11A,Blue J-11A #005,cn,[51☭] Frostie,4.9591064453125e-05,0,1.45728508007883e-07,30.2327136993408,2.23271369934082,0,4.9591064453125e-05,NaN,NaN,0,0,NaN,0.999986171723233,-0,-0.00523596443235874,1.229636836797e-10,29.6481641799641,29.648164180087,,,109.910000085831,28,0.173494288048423,0.292544165220772
2011-06-01T04:34:14Z,1306902854,307,54.6554368,24.4258414,30.23,0,-0.3,217.1,-161964.73,-191546.56,218.1,Air+FixedWing,Blue,Enemies,J-11A,Blue J-11A #005,cn,[51☭] Frostie,4.9591064453125e-05,0,1.45728508089319e-07,30.2327632904053,2.23276329040527,0,4.9591064453125e-05,NaN,NaN,0,0,NaN,0.999986171723233,-0,-0.00523596443235874,1.229636836797e-10,29.6482128121853,29.6482128123082,,,110.910000085831,28,0.173494288048423,0.292593756794437
2011-06-01T04:34:15Z,1306902855,307,54.6554368,24.4258414,30.23,0,-0.3,217.1,-161964.73,-191546.56,218.1,Air+FixedWing,Blue,Enemies,J-11A,Blue J-11A #005,cn,[51☭] Frostie,4.9591064453125e-05,0,1.45728508170755e-07,30.2328128814697,2.23281288146973,0,4.9591064453125e-05,NaN,NaN,0,0,NaN,0.999986171723233,-0,-0.00523596443235874,1.229636836797e-10,29.6482614444065,29.6482614445295,,,111.910000085831,28,0.173494288048423,0.292643347483867
2011-06-01T04:34:16Z,1306902856,307,54.6554368,24.4258414,30.23,0,-0.3,217.1,-161964.73,-191546.56,218.1,Air+FixedWing,Blue,Enemies,J-11A,Blue J-11A #005,cn,[51☭] Frostie,4.9591064453125e-05,0,1.45728508252191e-07,30.2328624725342,2.23286247253418,0,4.9591064453125e-05,NaN,NaN,0,0,NaN,0.999986171723233,-0,-0.00523596443235874,1.229636836797e-10,29.6483100766277,29.6483100767507,,,112.910000085831,28,0.173494288048423,0.292692938365854
2011-06-01T04:34:17Z,1306902857,307,54.6554368,24.4258414,30.23,0,-0.3,217.1,-161964.73,-191546.56,218.1,Air+FixedWing,Blue,Enemies,J-11A,Blue J-11A #005,cn,[51☭] Frostie,4.9591064453125e-05,0,1.45728508333627e-07,30.2329120635986,2.23291206359863,0,4.9591064453125e-05,NaN,NaN,0,0,NaN,0.999986171723233,-0,-0.00523596443235874,1.229636836797e-10,29.648358708849,29.6483587089719,,,113.910000085831,28,0.173494288048423,0.292742529247842
2011-06-01T04:34:18Z,1306902858,307,54.6554368,24.4258414,30.23,0,-0.3,217.1,-161964.73,-191546.56,218.1,Air+FixedWing,Blue,Enemies,J-11A,Blue J-11A #005,cn,[51☭] Frostie,4.9591064453125e-05,0,1.45728508415063e-07,30.2329616546631,2.23296165466309,0,4.9591064453125e-05,NaN,NaN,0,0,NaN,0.999986171723233,-0,-0.00523596443235874,1.229636836797e-10,29.6484073410702,29.6484073411931,,,114.910000085831,28,0.173494288048423,0.292792119937271
2011-06-01T04:34:19Z,1306902859,307,54.6554368,24.4258414,30.23,0,-0.3,217.1,-161964.73,-191546.56,218.1,Air+FixedWing,Blue,Enemies,J-11A,Blue J-11A #005,cn,[51☭] Frostie,4.9591064453125e-05,0,1.45728508496499e-07,30.2330112457275,2.23301124572754,0,4.9591064453125e-05,NaN,NaN,0,0,NaN,0.999985977230537,-0,-0.00523596341398755,1.229636836797e-10,29.6484559732914,29.6484559734144,,,115.910000085831,28,0.173494288048423,0.292841711756206
2011-06-01T04:34:20Z,1306902860,307,54.6554368,24.4258414,30.23,0,-0.3,217.1,-161964.73,-191546.56,218.1,Air+FixedWing,Blue,Enemies,J-11A,Blue J-11A #005,cn,[51☭] Frostie,4.76837158203125e-05,0,1.4012356593731e-07,30.2330589294434,2.23305892944336,0,4.76837158203125e-05,NaN,NaN,0,0,NaN,0.999986366215929,-0,-0.00523596545072994,1.13686837721616e-10,29.6485027350426,29.6485027351563,,,116.910000085831,28,0.173494288048423,0.292889395110639
2011-06-01T04:34:21Z,1306902861,307,54.6554368,24.4258414,30.23,0,-0.3,217.1,-161964.73,-191546.56,218.1,Air+FixedWing,Blue,Enemies,J-11A,Blue J-11A #005,cn,[51☭] Frostie,4.9591064453125e-05,0,1.45728508656238e-07,30.2331085205078,2.23310852050781,0,4.9591064453125e-05,NaN,NaN,0,0,NaN,0.999986171723233,-0,-0.00523596443235874,1.229636836797e-10,29.6485513672638,29.6485513673868,,,117.910000085831,28,0.173494288048423,0.292938985992627
2011-06-01T04:34:22Z,1306902862,307,54.6554368,24.4258414,30.23,0,-0.3,217.1,-161964.73,-191546.56,218.1,Air+FixedWing,Blue,Enemies,J-11A,Blue J-11A #005,cn,[51☭] Frostie,4.9591064453125e-05,0,1.45728508737674e-07,30.2331581115723,2.23315811157227,0,4.9591064453125e-05,NaN,NaN,0,0,NaN,0.999986171723233,-0,-0.00523596443235874,1.229636836797e-10,29.648599999485,29.648599999608,,,118.910000085831,28,0.173494288048423,0.292988577566292
2011-06-01T04:34:23Z,1306902863,307,54.6554368,24.4258414,30.23,0,-0.3,217.1,-161964.73,-191546.56,218.1,Air+FixedWing,Blue,Enemies,J-11A,Blue J-11A #005,cn,[51☭] Frostie,4.9591064453125e-05,0,1.4572850881911e-07,30.2332077026367,2.23320770263672,0,4.9591064453125e-05,NaN,NaN,0,0,NaN,0.999986171723233,-0,-0.00523596443235874,1.229636836797e-10,29.6486486317062,29.6486486318292,,,119.910000085831,28,0.173494288048423,0.293038169192672
2011-06-01T04:34:24Z,1306902864,307,54.6554368,24.4258414,30.23,0,-0.3,217.1,-161964.73,-191546.56,218.1,Air+FixedWing,Blue,Enemies,J-11A,Blue J-11A #005,cn,[51☭] Frostie,4.9591064453125e-05,0,1.45728508900546e-07,30.2332572937012,2.23325729370117,0,4.9591064453125e-05,NaN,NaN,0,0,NaN,0.999986171723233,-0,-0.00523596443235874,1.229636836797e-10,29.6486972639275,29.6486972640504,,,120.910000085831,28,0.173494288048423,0.293087760074659
2011-06-01T04:34:25Z,1306902865,307,54.6554368,24.4258414,30.23,0,-0.3,217.1,-161964.73,-191546.56,218.1,Air+FixedWing,Blue,Enemies,J-11A,Blue J-11A #005,cn,[51☭] Frostie,4.9591064453125e-05,0,1.45728508981982e-07,30.2333068847656,2.23330688476562,0,4.9591064453125e-05,NaN,NaN,0,0,NaN,0.999986171723233,-0,-0.00523596443235874,1.229636836797e-10,29.6487458961487,29.6487458962716,,,121.910000085831,28,0.173494288048423,0.293137350956647
2011-06-01T04:34:26Z,1306902866,307,54.6554368,24.4258414,30.23,0,-0.3,217.1,-161964.73,-191546.56,218.1,Air+FixedWing,Blue,Enemies,J-11A,Blue J-11A #005,cn,[51☭] Frostie,4.9591064453125e-05,0,1.45728509063418e-07,30.2333564758301,2.23335647583008,0,4.9591064453125e-05,NaN,NaN,0,0,NaN,0.999986171723233,-0,-0.00523596443235874,1.229636836797e-10,29.6487945283699,29.6487945284929,,,122.910000085831,28,0.173494288048423,0.293186941646076
2011-06-01T04:34:27Z,1306902867,307,54.6554368,24.4258414,30.23,0,-0.3,217.1,-161964.73,-191546.56,218.1,Air+FixedWing,Blue,Enemies,J-11A,Blue J-11A #005,cn,[51☭] Frostie,4.9591064453125e-05,0,1.45728509144854e-07,30.2334060668945,2.23340606689453,0,4.9591064453125e-05,NaN,NaN,0,0,NaN,0.999986171723233,-0,-0.00523596443235874,1.229636836797e-10,29.6488431605911,29.6488431607141,,,123.910000085831,28,0.173494288048423,0.293236532528064
2011-06-01T04:34:28Z,1306902868,307,54.6554368,24.4258414,30.23,0,-0.3,217.1,-161964.73,-191546.56,218.1,Air+FixedWing,Blue,Enemies,J-11A,Blue J-11A #005,cn,[51☭] Frostie,4.9591064453125e-05,0,1.4572850922629e-07,30.233455657959,2.23345565795898,0,4.9591064453125e-05,NaN,NaN,0,0,NaN,0.999986171723233,-0,-0.00523596443235874,1.229636836797e-10,29.6488917928123,29.6488917929353,,,124.910000085831,28,0.173494288048423,0.293286123410051
2011-06-01T04:34:29Z,1306902869,307,54.6554368,24.4258414,30.23,0,-0.3,217.1,-161964.73,-191546.56,218.1,Air+FixedWing,Blue,Enemies,J-11A,Blue J-11A #005,cn,[51☭] Frostie,4.9591064453125e-05,0,1.45728509307726e-07,30.2335052490234,2.23350524902344,0,4.9591064453125e-05,NaN,NaN,0,0,NaN,0.999986171723233,-0,-0.00523596443235874,1.229636836797e-10,29.6489404250336,29.6489404251565,,,125.910000085831,28,0.173494288048423,0.293335714983716
2011-06-01T04:34:30Z,1306902870,307,54.6554368,24.4258414,30.23,0,-0.3,217.1,-161964.73,-191546.56,218.1,Air+FixedWing,Blue,Enemies,J-11A,Blue J-11A #005,cn,[51☭] Frostie,4.9591064453125e-05,0,1.45728509389162e-07,30.2335548400879,2.23355484008789,0,4.9591064453125e-05,NaN,NaN,0,0,NaN,0.999986171723233,-0,-0.00523596443235874,1.229636836797e-10,29.6489890572548,29.6489890573778,,,126.910000085831,28,0.173494288048423,0.293385306610096
2011-06-01T04:34:31Z,1306902871,307,54.6554368,24.4258414,30.23,0,-0.3,217.1,-161964.73,-191546.56,218.1,Air+FixedWing,Blue,Enemies,J-11A,Blue J-11A #005,cn,[51☭] Frostie,4.9591064453125e-05,0,1.45728509470598e-07,30.2336044311523,2.23360443115234,0,4.9591064453125e-05,NaN,NaN,0,0,NaN,0.999986171723233,-0,-0.00523596443235874,1.229636836797e-10,29.649037689476,29.649037689599,,,127.910000085831,28,0.173494288048423,0.293434897492084
2011-06-01T04:34:32Z,1306902872,307,54.6554368,24.4258414,30.23,0,-0.3,217.1,-161964.73,-191546.56,218.1,Air+FixedWing,Blue,Enemies,J-11A,Blue J-11A #005,cn,[51☭] Frostie,4.9591064453125e-05,0,1.45728509552034e-07,30.2336540222168,2.2336540222168,0,4.9591064453125e-05,NaN,NaN,0,0,NaN,0.999985977230537,-0,-0.00523596341398755,1.229636836797e-10,29.6490863216972,29.6490863218202,,,128.910000085831,28,0.173494288048423,0.293484488374071
2011-06-01T04:34:33Z,1306902873,307,54.6554368,24.4258414,30.23,0,-0.3,217.1,-161964.73,-191546.56,218.1,Air+FixedWing,Blue,Enemies,J-11A,Blue J-11A #005,cn,[51☭] Frostie,4.76837158203125e-05,0,1.40123566952248e-07,30.2337017059326,2.23370170593262,0,4.76837158203125e-05,NaN,NaN,0,0,NaN,0.999986366215929,-0,-0.00523596545072994,1.13686837721616e-10,29.6491330834484,29.6491330835621,,,129.910000085831,28,0.173494288048423,0.293532171728505
2011-06-01T04:34:34Z,1306902874,307,54.6554368,24.4258414,30.23,0,-0.3,217.1,-161964.73,-191546.56,218.1,Air+FixedWing,Blue,Enemies,J-11A,Blue J-11A #005,cn,[51☭] Frostie,4.9591064453125e-05,0,1.45728509711774e-07,30.2337512969971,2.23375129699707,0,4.9591064453125e-05,NaN,NaN,0,0,NaN,0.999986171723233,-0,-0.00523596443235874,1.229636836797e-10,29.6491817156696,29.6491817157926,,,130.910000085831,28,0.173494288048423,0.293581763354885
2011-06-01T04:34:35Z,1306902875,307,54.6554368,24.4258414,30.23,0,-0.3,217.1,-161964.73,-191546.56,218.1,Air+FixedWing,Blue,Enemies,J-11A,Blue J-11A #005,cn,[51☭] Frostie,4.9591064453125e-05,0,1.4572850979321e-07,30.2338008880615,2.23380088806152,0,4.9591064453125e-05,NaN,NaN,0,0,NaN,0.999986171723233,-0,-0.00523596443235874,1.229636836797e-10,29.6492303478909,29.6492303480138,,,131.910000085831,28,0.173494288048423,0.293631354236872
2011-06-01T04:34:36Z,1306902876,307,54.6554368,24.4258414,30.23,0,-0.3,217.1,-161964.73,-191546.56,218.1,Air+FixedWing,Blue,Enemies,J-11A,Blue J-11A #005,cn,[51☭] Frostie,4.9591064453125e-05,0,1.45728509874646e-07,30.233850479126,2.23385047912598,0,4.9591064453125e-05,NaN,NaN,0,0,NaN,0.999986171723233,-0,-0.00523596443235874,1.229636836797e-10,29.6492789801121,29.649278980235,,,132.910000085831,28,0.173494288048423,0.29368094511886
2011-06-01T04:34:37Z,1306902877,307,54.6554368,24.4258414,30.23,0,-0.3,217.1,-161964.73,-191546.56,218.1,Air+FixedWing,Blue,Enemies,J-11A,Blue J-11A #005,cn,[51☭] Frostie,4.9591064453125e-05,0,1.45728509956082e-07,30.2339000701904,2.23390007019043,0,4.9591064453125e-05,NaN,NaN,0,0,NaN,0.999986171723233,-0,-0.00523596443235874,1.229636836797e-10,29.6493276123333,29.6493276124563,,,133.910000085831,28,0.173494288048423,0.293730535808289
2011-06-01T04:34:38Z,1306902878,307,54.6554368,24.4258414,30.23,0,-0.3,217.1,-161964.73,-191546.56,218.1,Air+FixedWing,Blue,Enemies,J-11A,Blue J-11A #005,cn,[51☭] Frostie,4.9591064453125e-05,0,1.45728510037518e-07,30.2339496612549,2.23394966125488,0,4.9591064453125e-05,NaN,NaN,0,0,NaN,0.999986171723233,-0,-0.00523596443235874,1.229636836797e-10,29.6493762445545,29.6493762446775,,,134.910000085831,28,0.173494288048423,0.293780127136687
2011-06-01T04:34:39Z,1306902879,307,54.6554368,24.4258414,30.23,0,-0.3,217.1,-161964.73,-191546.56,218.1,Air+FixedWing,Blue,Enemies,J-11A,Blue J-11A #005,cn,[51☭] Frostie,4.9591064453125e-05,0,1.45728510118954e-07,30.2339992523193,2.23399925231934,0,4.9591064453125e-05,NaN,NaN,0,0,NaN,0.999986171723233,-0,-0.00523596443235874,1.229636836797e-10,29.6494248767757,29.6494248768987,,,135.910000085831,28,0.173494288048423,0.293829718018675
2011-06-01T04:34:40Z,1306902880,307,54.6554368,24.4258414,30.23,0,-0.3,217.1,-161964.73,-191546.56,218.1,Air+FixedWing,Blue,Enemies,J-11A,Blue J-11A #005,cn,[51☭] Frostie,4.9591064453125e-05,0,1.4572851020039e-07,30.2340488433838,2.23404884338379,0,4.9591064453125e-05,NaN,NaN,0,0,NaN,0.999986171723233,-0,-0.00523596443235874,1.229636836797e-10,29.649473508997,29.6494735091199,,,136.910000085831,28,0.173494288048423,0.293879308900663
2011-06-01T04:34:41Z,1306902881,307,54.6554368,24.4258414,30.23,0,-0.3,217.1,-161964.73,-191546.56,218.1,Air+FixedWing,Blue,Enemies,J-11A,Blue J-11A #005,cn,[51☭] Frostie,4.9591064453125e-05,0,1.45728510281826e-07,30.2340984344482,2.23409843444824,0,4.9591064453125e-05,NaN,NaN,0,0,NaN,0.999986171723233,-0,-0.00523596443235874,1.229636836797e-10,29.6495221412182,29.6495221413411,,,137.910000085831,28,0.173494288048423,0.293928900527043
2011-06-01T04:34:42Z,1306902882,307,54.6554368,24.4258414,30.23,0,-0.3,217.1,-161964.73,-191546.56,218.1,Air+FixedWing,Blue,Enemies,J-11A,Blue J-11A #005,cn,[51☭] Frostie,4.9591064453125e-05,0,1.45728510363262e-07,30.2341480255127,2.2341480255127,0,4.9591064453125e-05,NaN,NaN,0,0,NaN,0.999986171723233,-0,-0.00523596443235874,1.229636836797e-10,29.6495707734394,29.6495707735624,,,138.910000085831,28,0.173494288048423,0.29397849140903
