ISOTime,UnixTime,Id,Longitude,Latitude,Altitude,Roll,Pitch,Yaw,U,V,Heading,Type,Color,Coalition,Name,Group,Country,Pilot,TAS,CAS,M,ASL,AGL,GS,VS,AOA,AOS,RRT,TRT,TRD,G,LatG,LonG,Ek,Ep,Em,FFW,FFV,RelativeTime,Elev,GroundDistance,AirDistance
2018-07-19T08:41:11Z,1531989671,13E0B,41.056991,43.4055385,7035.3,-39.7,3.3,16.2,552977.06,-160631.53,10.6,Weapon+Missile,Blue,Enemies,R-27ER,,cn,,284.062266123153,207.81120300293,0.909632761434927,7035.298828125,4728.44555664062,NaN,NaN,2.74919622881446,NaN,9.16925575317532,1.62355341187838,NaN,NaN,NaN,NaN,NaN,6899.2713252832,NaN,,,0.789999961853027,2306.85327148438,NaN,NaN
2018-07-19T08:41:12Z,1531989672,13E0B,41.0588016,43.4098834,7041.82,-32.1,1.9,15.6,553076.69,-160134.48,10,Weapon+Missile,Blue,Enemies,R-27ER,,cn,,506.974595872402,379.04638671875,1.62359099677665,7041.818359375,4955.07177734375,506.932674595222,6.51953125,1.31489425905806,NaN,7.36922086912099,2.19178038390041,5000,4.14309740066528,4.14309740066528,4.14309740066528,12851.1620429993,6905.66480139648,19756.8268443958,,,1.78999996185303,2086.74658203125,505.349838347399,505.949520649017
2018-07-19T08:41:13Z,1531989673,13E0B,41.0610051,43.4166169,7046.47,-25.8,0.2,11.6,553182.38,-159368.92,6,Weapon+Missile,Blue,Enemies,R-27ER,,cn,,772.837270708994,553.592346191406,2.47517292629975,7046.47216796875,4836.82690429688,772.823258619007,4.65380859375,0.143103256040043,NaN,5.76924564095092,3.15201682907523,5000,3.90165114402771,3.90165114402771,3.90165114402771,29863.8723498464,6910.22862860107,36774.1009784474,,,2.78999996185303,2209.64526367188,1275.80138702859,1277.26601153258
2018-07-19T08:41:14Z,1531989674,13E0B,41.0632462,43.4251727,7048.27,-20.8,0.1,10.6,553271.31,-158400.58,5,Weapon+Missile,Blue,Enemies,R-27ER,,cn,,972.421068575667,684.131896972656,3.11445677279957,7048.271484375,4688.06372070312,972.419403894386,1.79931640625,0.0774501752453786,NaN,4.78462947586397,1.14318028732926,5000,0.921678364276886,0.921678364276886,0.921678364276886,47280.1367304921,6911.99315522461,54192.1298857167,,,3.78999996185303,2360.20776367188,2245.31086364996,2247.8483925849
2018-07-19T08:41:15Z,1531989675,13E0B,41.065622,43.4340006,7047.73,-16.8,-0.8,12.1,553368.19,-157400.95,6.4,Weapon+Missile,Blue,Enemies,R-27ER,,cn,,1004.308321046,705.148376464844,3.21656134165789,7047.72607421875,4675.1806640625,1004.30817294793,-0.54541015625,0.0704321124201785,NaN,4.01540674134797,1.43173998494984,5000,3.67266297340393,3.67266297340393,3.67266297340393,50431.7601861119,6911.45829057373,57343.2184766857,,,4.78999996185303,2372.54541015625,3246.62200120067,3250.26615203028
2018-07-19T08:41:16Z,1531989676,13E0B,41.068366,43.4429749,7011.97,-13.5,-3.3,13.2,553493.19,-156382.12,7.6,Weapon+Missile,Blue,Enemies,R-27ER,,cn,,1027.09015906739,721.492797851562,3.28795291175781,7011.970703125,4282.1103515625,1026.46760703444,-35.75537109375,0.0479933102562739,NaN,3.13848216890461,2.6626574672625,5000,4.05677700042725,4.05677700042725,4.05677700042725,52745.7097426534,6876.39424958008,59622.1039922335,,,5.78999996185303,2729.8603515625,4269.97030835773,4275.36613357296
2018-07-19T08:41:17Z,1531989677,13E0B,41.0713752,43.4520832,6929.53,-10.7,-5.8,14,553638.12,-155346.31,8.3,Weapon+Missile,Blue,Enemies,R-27ER,,cn,,1049.14771077195,739.215026855469,3.35486765884177,6929.52978515625,4627.5556640625,1045.90363517032,-82.44091796875,0.0575643577625283,NaN,2.63076517959359,2.578008585001,5000,3.61464190483093,3.61464190483093,3.61464190483093,55035.5459509015,6795.54732676025,61831.0932776618,,,6.78999996185303,2301.97412109375,5312.65628857485,5322.4421930675
2018-07-19T08:41:18Z,1531989678,13E0B,41.0745636,43.461306,6801.81,-8.5,-7.9,14.3,553796.25,-154296.36,8.7,Weapon+Missile,Blue,Enemies,R-27ER,,cn,,1069.44759443454,757.699645996094,3.41396747006654,6801.80712890625,4545.4248046875,1061.79333220842,-127.72265625,0.0680859409761581,NaN,2.10767343446087,2.18614334340104,5000,2.75714826583862,2.75714826583862,2.75714826583862,57185.9078620911,6670.29418806885,63856.2020501599,,,7.78999996185303,2256.38232421875,6371.16656928417,6389.7615296674
2018-07-19T08:41:19Z,1531989679,13E0B,41.0777882,43.4706581,6634.96,-6.7,-9.6,13.9,553955.75,-153231.75,8.2,Weapon+Missile,Blue,Enemies,R-27ER,,cn,,1089.34445828539,777.727355957031,3.46979365007645,6634.9599609375,3979.00415039062,1076.49123142638,-166.84716796875,0.0595735510240222,NaN,1.7384649975549,1.65338698731445,5000,2.04433226585388,2.04433226585388,2.04433226585388,59333.5674398541,6506.67301009277,65840.2404499469,,,8.78999996185303,2655.95581054688,7444.34008344477,7476.94455297119
2018-07-19T08:41:20Z,1531989680,13E0B,41.0809216,43.4801982,6439.09,-5,-10.5,13,554105.75,-152146.95,7.4,Weapon+Missile,Blue,Enemies,R-27ER,,cn,,1112.49724850818,801.515930175781,3.534386700318,6439.087890625,3804.99243164062,1095.1183771674,-195.8720703125,0.0302009164191008,NaN,1.53847791243057,1.37208319174825,5000,2.26396870613098,2.26396870613098,2.26396870613098,61882.5063969135,6314.58812625976,68197.0945231733,,,9.78999996185303,2634.09545898438,8536.08933756331,8587.22684613628
2018-07-19T08:41:21Z,1531989681,13E0B,41.083765,43.489676,6230.04,-3.6,-11.4,11.7,554232.88,-151071.36,6.1,Weapon+Missile,Blue,Enemies,R-27ER,,cn,,1103.07011785605,803.604553222656,3.49482756286786,6230.0400390625,3537.75048828125,1083.08018201058,-209.0478515625,0.0184222109292797,NaN,1.33843533201924,1.47311663061154,5000,2.66140604019165,2.66140604019165,2.66140604019165,60838.184245348,6109.58221490723,66947.7664602552,,,10.789999961853,2692.28955078125,9615.85836622905,9688.09885574155
2018-07-19T08:41:22Z,1531989682,13E0B,41.0861565,43.4986585,6015.45,-2.4,-12.3,10.1,554328.75,-150054.38,4.5,Weapon+Missile,Blue,Enemies,R-27ER,,cn,,1043.79012550399,770.691955566406,3.29775580111583,6015.45068359375,3254.11767578125,1021.49362926018,-214.58935546875,0.0523581474457477,NaN,1.1384388553848,1.92097960500868,5000,3.79343175888062,3.79343175888062,3.79343175888062,54474.8913049817,5899.14194462647,60374.0332496082,,,11.789999961853,2761.3330078125,10634.2692703884,10729.8289449588
2018-07-19T08:41:23Z,1531989683,13E0B,41.0879832,43.507214,5798.45,-1,-13.1,7.7,554383.5,-149089.3,2,Weapon+Missile,Blue,Enemies,R-27ER,,cn,,990.688137406444,741.355895996094,3.12117533012646,5798.44921875,3113.16870117188,966.629892902923,-217.00146484375,0.0913665195694775,NaN,1.26154212956029,2.36032853516199,5000,3.86884355545044,3.86884355545044,3.86884355545044,49073.1492798924,5686.33620310547,54759.4854829979,,,12.789999961853,2685.28051757812,11598.0149402466,11718.5738706304
2018-07-19T08:41:24Z,1531989684,13E0B,41.0892605,43.5153127,5579.37,0,-13.8,5.5,554398.75,-148179.34,359.8,Weapon+Missile,Blue,Enemies,R-27ER,,cn,,936.078700125434,710.178161621094,2.94079461902441,5579.369140625,3077.63525390625,910.080904204272,-219.080078125,0.136864680305664,NaN,0.938461481935699,2.01979216517467,5000,2.72730922698975,2.72730922698975,2.72730922698975,43812.1666414261,5471.49203829102,49283.6586797171,,,13.789999961853,2501.73388671875,12505.4376388005,12652.8551788715
2018-07-19T08:41:25Z,1531989685,13E0B,41.0901673,43.5230512,5366.42,0.3,-13.6,4.7,554387.94,-147312.31,359.1,Weapon+Missile,Blue,Enemies,R-27ER,,cn,,892.864171424692,686.204040527344,2.79736983997655,5366.42236328125,2961.42065429688,867.098667184313,-212.94677734375,0.0430737005326347,NaN,0,0.962695526719433,5000,1.84397530555725,1.84397530555725,1.84397530555725,39860.3214306951,5262.66258688721,45122.9840175823,,,14.789999961853,2405.00170898438,13369.984009248,13543.9612449398
2018-07-19T08:41:26Z,1531989686,13E0B,41.0909865,43.5304043,5172.44,0.3,-13,4.7,554374.19,-146488.83,359,Weapon+Missile,Blue,Enemies,R-27ER,,cn,,846.135189178202,658.374816894531,2.64440409549969,5172.43994140625,2981.1875,823.59916122416,-193.982421875,0.0692729642287067,NaN,0,0.477555514266479,5000,1.61046028137207,1.61046028137207,1.61046028137207,35797.2379182816,5072.43081513916,40869.6687334207,,,15.789999961853,2191.25244140625,14191.1913937385,14388.4288389504
2018-07-19T08:41:27Z,1531989687,13E0B,41.0917005,43.537434,4992.23,0.7,-12.5,3.4,554355.38,-145702.09,357.7,Weapon+Missile,Blue,Enemies,R-27ER,,cn,,807.329576409165,635.323303222656,2.51735042211073,4992.228515625,2924.98388671875,786.959266393687,-180.21142578125,0.123239243616944,NaN,0.630769197150294,1.516497083021,5000,3.71017098426819,3.71017098426819,3.71017098426819,32589.0522472501,4895.70377727539,37484.7560245255,,,16.789999961853,2067.24462890625,14975.8534009464,15194.128677822
2018-07-19T08:41:28Z,1531989688,13E0B,41.0919799,43.5441274,4826.6,1.7,-12.9,0.3,554305.12,-144956.14,354.6,Weapon+Missile,Blue,Enemies,R-27ER,,cn,,765.769290373635,609.27734375,2.38275872963255,4826.60400390625,2895.55078125,747.643716751011,-165.62451171875,0.0756155603628116,NaN,0.769231058809057,2.73850330290091,5000,3.81730341911316,3.81730341911316,3.81730341911316,29320.130303967,4733.28161549072,34053.4119194577,,,17.789999961853,1931.05322265625,15721.3065488874,15958.3195424663
2018-07-19T08:41:29Z,1531989689,13E0B,41.0917971,43.5504543,4660.5,2.3,-13.5,357.5,554221.5,-144254.61,351.9,Weapon+Missile,Blue,Enemies,R-27ER,,cn,,725.762408208113,583.885559082031,2.25354931833998,4660.49609375,2741.19897460938,706.497866487623,-166.10791015625,0.091912480161637,NaN,0.369230635020781,2.46429660749087,5000,2.73101997375488,2.73101997375488,2.73101997375488,26336.553658402,4570.38540177734,30906.9390601793,,,18.789999961853,1919.29711914062,16425.7649065623,16682.6066744485
2018-07-19T08:41:30Z,1531989690,13E0B,41.0913215,43.5564982,4501.37,2.5,-12.6,356.1,554117.25,-143586.83,350.5,Weapon+Missile,Blue,Enemies,R-27ER,,cn,,694.350185393136,564.308715820312,2.151708292759,4501.3662109375,2488.58764648438,675.869706638463,-159.1298828125,0.0425816666722126,NaN,0.199999891729021,1.8178328629275,5000,3.35354065895081,3.35354065895081,3.35354065895081,24106.1089977741,4414.33229524902,28520.4412930231,,,19.789999961853,2012.77856445312,17099.6635334033,17375.5094530859
2018-07-19T08:41:31Z,1531989691,13E0B,41.0906936,43.5622751,4369.25,2.7,-10.3,355,554003.69,-142949.92,349.3,Weapon+Missile,Blue,Enemies,R-27ER,,cn,,660.30261602501,541.670227050781,2.04281978380133,4369.25439453125,2444.15368652344,646.951321735502,-132.11181640625,0.0390862627207766,NaN,0.200000318615844,2.35758813520094,5000,4.04376363754272,4.04376363754272,4.04376363754272,21799.9772364736,4284.77486081299,26084.7520972865,,,20.789999961853,1925.10070800781,17744.7320574593,18034.4069097745
2018-07-19T08:41:32Z,1531989692,13E0B,41.089955,43.5677902,4271.02,2.8,-7.5,354.1,553883.94,-142342.97,348.4,Weapon+Missile,Blue,Enemies,R-27ER,,cn,,626.403913689108,518.008972167969,1.93557189144843,4271.021484375,2312.89501953125,618.653504352206,-98.23291015625,0.063880809434963,NaN,0.0461537226558918,2.88888677950825,5000,4.2910590171814,4.2910590171814,4.2910590171814,19619.0931542516,4188.44128397461,23807.5344382262,,,21.789999961853,1958.12646484375,18361.5539891147,18659.414577871
2018-07-19T08:41:33Z,1531989693,13E0B,41.0891826,43.5730434,4208.84,2.8,-4.5,353.9,553764.38,-141765.39,348.2,Weapon+Missile,Blue,Enemies,R-27ER,,cn,,593.092355323212,493.741119384766,1.83122180372394,4208.83740234375,2207.20678710938,589.82343280406,-62.18408203125,0.0475400259212065,NaN,0.0615263440434749,3.03678641513524,5000,4.0371561050415,4.0371561050415,4.0371561050415,17587.9270971417,4127.45953116943,21715.3866283112,,,22.789999961853,2001.63061523438,18949.6478883424,19251.1757353355
2018-07-19T08:41:34Z,1531989694,13E0B,41.0884268,43.5780357,4178.81,2.7,-1.4,353.7,553648.94,-141216.67,348,Weapon+Missile,Blue,Enemies,R-27ER,,cn,,561.533368893152,469.970855712891,1.73313353883288,4178.81005859375,2123.10009765625,560.729955511396,-30.02734375,0.1204490542477,NaN,0,2.98070543940755,5000,3.90949845314026,3.90949845314026,3.90949845314026,15765.9862190247,4098.01276611084,19863.9989851355,,,23.789999961853,2055.7099609375,19508.7218233849,19811.4225399138
2018-07-19T08:41:35Z,1531989695,13E0B,41.0876979,43.5827656,4178.03,2.6,1.2,353.7,553538.56,-140696.89,348,Weapon+Missile,Blue,Enemies,R-27ER,,cn,,531.371619552102,446.575866699219,1.6400254880993,4178.029296875,2011.45629882812,531.371045952414,-0.78076171875,0.0405630759052317,NaN,0.199987938897973,2.77696623255136,5000,3.3561110496521,3.3561110496521,3.3561110496521,14117.7899032712,4097.24710041992,18215.0370036911,,,24.789999961853,2166.57299804688,20038.5274420866,20341.5758176763
2018-07-19T08:41:36Z,1531989696,13E0B,41.0870107,43.5872684,4199.82,2.5,3.7,353.8,553434.06,-140202.03,348.1,Weapon+Missile,Blue,Enemies,R-27ER,,cn,,506.241790488519,426.579376220703,1.56288811539386,4199.81689453125,1869.806640625,505.772726652387,21.78759765625,0.0785647043201727,NaN,0.0922895160652123,2.30602917159063,5000,2.84227538108826,2.84227538108826,2.84227538108826,12814.0375218511,4118.61343487549,16932.6509567266,,,25.789999961853,2330.01025390625,20542.8250404189,20846.6747460605
2018-07-19T08:41:37Z,1531989697,13E0B,41.0863691,43.5915392,4238.02,2.3,5.2,353.9,553335.75,-139732.56,348.2,Weapon+Missile,Blue,Enemies,R-27ER,,cn,,481.171326626953,406.242919921875,1.48619601656762,4238.021484375,1734.00952148438,479.652222847776,38.20458984375,0.0348059141141102,NaN,0.215396845665522,1.68540360577059,5000,2.04804944992065,2.04804944992065,2.04804944992065,11576.2922783971,4156.07933897461,15732.3716173717,,,26.789999961853,2504.01196289062,21021.0599925912,21326.7486217671
2018-07-19T08:41:38Z,1531989698,13E0B,41.085767,43.5955917,4284.34,2,6.3,353.9,553243,-139287.05,348.3,Weapon+Missile,Blue,Enemies,R-27ER,,cn,,457.418586403535,386.665405273438,1.41364612957535,4284.3359375,1767.68359375,455.067835184097,46.314453125,0.142806178777633,NaN,0.215396845665522,0.727003734430571,5000,1.31192421913147,1.31192421913147,1.31192421913147,10461.5881593704,4201.49830214844,14663.0864615189,,,27.789999961853,2516.65234375,21474.780124071,21783.1280115111
2018-07-19T08:41:39Z,1531989699,13E0B,41.0851927,43.5994606,4331.52,1.6,6.3,353.9,553154.5,-138861.72,348.3,Weapon+Missile,Blue,Enemies,R-27ER,,cn,,436.992415412536,369.538757324219,1.35131418837696,4331.517578125,1852.15209960938,434.437871180697,47.181640625,0.0806334028095631,NaN,0.276923189708997,0.198564258002636,5000,1.03005027770996,1.03005027770996,1.03005027770996,9548.11855640411,4247.76768575195,13795.8862421561,,,28.789999961853,2479.36547851562,21907.9453936572,22219.14613604
2018-07-19T08:41:40Z,1531989700,13E0B,41.0846497,43.6031541,4376.87,1.3,6.2,354,553070.44,-138455.62,348.3,Weapon+Missile,Blue,Enemies,R-27ER,,cn,,417.175239532847,352.690673828125,1.29076403698901,4376.86669921875,1993.42846679688,414.703071721578,45.34912109375,0.0458605576395953,NaN,0.338449533752472,0.141620157139233,5000,1.01880764961243,1.01880764961243,1.01880764961243,8701.75902396441,4292.23998158936,12993.9990055538,,,29.789999961853,2383.43823242188,22321.4281338687,22635.3888896159
2018-07-19T08:41:41Z,1531989701,13E0B,41.0841381,43.6066865,4420.46,1.1,6.3,354.1,552990.75,-138067.19,348.4,Weapon+Missile,Blue,Enemies,R-27ER,,cn,,398.916180366845,336.8447265625,1.23494216550369,4420.45947265625,2094.23266601562,396.527160560913,43.5927734375,0.0619119152351233,NaN,0.199987938897973,0.10607104355162,5000,0.95636260509491,0.95636260509491,0.95636260509491,7956.70594792366,4334.98988875244,12291.6958366761,,,30.789999961853,2326.22680664062,22716.811479714,23033.4391586493
2018-07-19T08:41:42Z,1531989702,13E0B,41.0836542,43.6100635,4461.75,0.9,6.2,354.1,552914.88,-137695.8,348.5,Weapon+Missile,Blue,Enemies,R-27ER,,cn,,381.304023482454,321.236694335938,1.1810294302101,4461.748046875,2040.84765625,379.062015985367,41.28857421875,0.0274063795187527,NaN,0.199987938897973,0.0720088301298065,5000,0.991521060466766,0.991521060466766,0.991521060466766,7269.63791619539,4375.48014838867,11645.1180645841,,,31.789999961853,2420.900390625,23094.7553291442,23413.8932168431
2018-07-19T08:41:43Z,1531989703,13E0B,41.0831958,43.6132991,4501.27,0.7,6.1,354.2,552842.69,-137339.91,348.5,Weapon+Missile,Blue,Enemies,R-27ER,,cn,,365.281929862031,306.751007080078,1.13196365915667,4501.2666015625,1915.6376953125,363.137951912411,39.5185546875,0.0428723265895047,NaN,0.199987938897973,0.105608858524307,5000,0.846232771873474,0.846232771873474,0.846232771873474,6671.54441418648,4414.23461182129,11085.7790260078,,,32.789999961853,2585.62890625,23456.8318106791,23778.3728316327
2018-07-19T08:41:44Z,1531989704,13E0B,41.0827591,43.6163789,4537.46,0.5,5.9,354.2,552773.94,-137001.16,348.5,Weapon+Missile,Blue,Enemies,R-27ER,,cn,,347.545394901855,290.582397460938,1.07748907589878,4537.4560546875,1796.3623046875,345.656079072826,36.189453125,0.0394611355705683,NaN,0.184579032130425,0.189487910431254,5000,0.915439188480377,0.915439188480377,0.915439188480377,6039.39007587433,4449.72434187012,10489.1144177444,,,33.789999961853,2741.09375,23801.4782384709,24125.1569518789
2018-07-19T08:41:45Z,1531989705,13E0B,41.082343,43.6193205,4571.26,0.4,5.8,354.2,552708.25,-136677.62,348.5,Weapon+Missile,Blue,Enemies,R-27ER,,cn,,331.8584159788,276.14501953125,1.02929150143423,4571.259765625,1663.40771484375,330.132272555733,33.8037109375,0.0543962192442102,NaN,0.199987938897973,0.109698454300172,5000,0.950283825397491,0.950283825397491,0.950283825397491,5506.50041279793,4482.87445805664,9989.37487085457,,,34.789999961853,2907.85205078125,24130.6453988454,24456.2891057842
2018-07-19T08:41:46Z,1531989706,13E0B,41.0819465,43.6221336,4603.15,0.3,5.7,354.2,552645.69,-136368.2,348.6,Weapon+Missile,Blue,Enemies,R-27ER,,cn,,317.29029424103,262.785217285156,0.984501276164412,4603.15283203125,1603.20385742188,315.683327299314,31.89306640625,0.0225004930698612,NaN,0.199987938897973,0.169886681575919,5000,0.842323541641235,0.842323541641235,0.842323541641235,5033.65654097796,4514.15087202393,9547.80741300188,,,35.789999961853,2999.94897460938,24445.4222566071,24772.9027722292
2018-07-19T08:41:47Z,1531989707,13E0B,41.0815664,43.6248137,4632.06,0.2,5.3,354.1,552585.81,-136073.41,348.5,Weapon+Missile,Blue,Enemies,R-27ER,,cn,,302.201655988681,249.082794189453,0.938024358958482,4632.06005859375,1773.12475585938,300.815912369618,28.9072265625,0.0474354250890122,NaN,0.169224766876236,0.255453610630973,5000,0.88045734167099,0.88045734167099,0.88045734167099,4566.29204411507,4542.49917736084,9108.79122147591,,,36.789999961853,2858.93530273438,24745.337530635,25074.4240620931
2018-07-19T08:41:48Z,1531989708,13E0B,41.0811995,43.6273887,4658.74,0.2,5.2,354.1,552528.19,-135790.2,348.5,Weapon+Missile,Blue,Enemies,R-27ER,,cn,,290.234815175684,238.267135620117,0.901181954071432,4658.73583984375,1967.94018554688,289.006315908088,26.67578125,0.0438943943377448,NaN,0,0.238211625164495,5000,0.898690462112427,0.898690462112427,0.898690462112427,4211.81239700317,4568.65918238037,8780.47157938355,,,37.789999961853,2690.79565429688,25033.5077149431,25364.0352855737
2018-07-19T08:41:49Z,1531989709,13E0B,41.080881,43.6298617,4682.98,0.3,4.4,356.2,552475.5,-135517.94,350.5,Weapon+Missile,Blue,Enemies,R-27ER,,cn,,278.374214312143,227.655075073242,0.864618405665126,4682.9775390625,2122.87841796875,277.316683978607,24.24169921875,0.038655076170537,NaN,0.292307710566775,2.06177520356862,4659.28347283403,1.57231295108795,1.57231295108795,1.57231295108795,3874.61015969515,4592.43216834473,8467.04232803988,,,38.789999961853,2560.09912109375,25309.9934083544,25641.7833792483
2018-07-19T08:41:50Z,1531989710,13E0B,41.0807561,43.6322344,4700.08,0.5,3,359.6,552439.62,-135255.3,353.9,Weapon+Missile,Blue,Enemies,R-27ER,,cn,,265.630558607844,216.436325073242,0.825214836217616,4700.07958984375,2228.20971679688,265.079447572592,17.10205078125,0.0242164497288058,NaN,0.20000005181158,3.73108304167326,4316.11478757657,1.55324482917786,1.55324482917786,1.55324482917786,3527.97968331575,4609.20355097412,8137.18323428988,,,39.789999961853,2471.86987304688,25574.3137794848,25906.85045998
2018-07-19T08:41:51Z,1531989711,13E0B,41.080815,43.6345148,4710.46,0.5,2,2,552419.56,-135001.45,356.4,Weapon+Missile,Blue,Enemies,R-27ER,,cn,,254.846787602174,207.053039550781,0.791817203063948,4710.458984375,2286.52685546875,254.635333998078,10.37939453125,0.131462648251549,NaN,0,2.16550720748431,5000,0.919320583343506,0.919320583343506,0.919320583343506,3247.34425755739,4619.38225991211,7866.7265174695,,,40.789999961853,2423.93212890625,25828.2112199932,26161.1471167437
2018-07-19T08:41:52Z,1531989712,13E0B,41.0809138,43.6367125,4719,0.4,2,1.8,552403.62,-134756.48,356.1,Weapon+Missile,Blue,Enemies,R-27ER,,cn,,245.635281228726,199.089080810547,0.763278911806041,4719.0029296875,2309.32177734375,245.486644000875,8.5439453125,0.0477787914694115,NaN,0,0.160712710324174,5000,1.04829394817352,1.04829394817352,1.04829394817352,3016.83456921577,4627.76100804199,7644.59557725777,,,41.789999961853,2409.68115234375,26072.9856132326,26406.2514071082
2018-07-19T08:41:53Z,1531989713,13E0B,41.080994,43.638837,4727.66,0.3,2.1,1.5,552386.94,-134519.81,355.8,Weapon+Missile,Blue,Enemies,R-27ER,,cn,,237.417168976116,192.011566162109,0.737822664420762,4727.6552734375,2339.23120117188,237.259455179906,8.65234375,0.0511618794517461,NaN,0,0.316673583337575,5000,1.04400396347046,1.04400396347046,1.04400396347046,2818.34560623169,4636.24605872559,7454.59166495728,,,42.789999961853,2388.42407226562,26309.5722262828,26643.1712694315
2018-07-19T08:41:54Z,1531989714,13E0B,41.0810561,43.6408942,4736.39,0.2,2.2,1.1,552369.56,-134290.73,355.5,Weapon+Missile,Blue,Enemies,R-27ER,,cn,,229.902267508672,185.563064575195,0.714547266816062,4736.39453125,2359.80029296875,229.736105082583,8.7392578125,0.0336289755268226,NaN,0.199987938897973,0.330283989238869,5000,1.03650176525116,1.03650176525116,1.03650176525116,2642.75263028145,4644.81634298828,7287.56897326973,,,43.789999961853,2376.59423828125,26538.6324878336,26872.5680027178
2018-07-19T08:41:55Z,1531989715,13E0B,41.0811011,43.6428678,4745.06,0.2,2.3,0.8,552351.69,-134071.09,355.2,Weapon+Missile,Blue,Enemies,R-27ER,,cn,,220.537231297171,177.588043212891,0.685515200375508,4745.0634765625,2357.83276367188,220.366784646395,8.6689453125,0.020576764166521,NaN,0,0.323399131875069,5000,1.03254234790802,1.03254234790802,1.03254234790802,2431.83351941109,4653.31767424316,7085.15119365425,,,44.789999961853,2387.23071289062,26758.3634173163,27092.6330660115
2018-07-19T08:41:56Z,1531989716,13E0B,41.0811311,43.6447906,4753.77,0.1,2.4,0.6,552333.19,-133857.22,354.9,Weapon+Missile,Blue,Enemies,R-27ER,,cn,,214.850129202168,172.737274169922,0.667910810451995,4753.7705078125,2370.3740234375,214.673625825344,8.70703125,0.0501656739906279,NaN,0,0.277306880921708,5000,1.03097903728485,1.03097903728485,1.03097903728485,2308.02890090942,4661.85635504395,6969.88525595337,,,45.789999961853,2383.396484375,26972.4186770314,27307.0246011081
2018-07-19T08:41:57Z,1531989717,13E0B,41.081147,43.6466423,4762.4,0.1,2.2,0.3,552314.31,-133651.36,354.6,Weapon+Missile,Blue,Enemies,R-27ER,,cn,,206.902849354674,166.017211914062,0.643274868621706,4762.3984375,2393.9345703125,206.722877061032,8.6279296875,0.260820696464635,NaN,0,0.788531732660485,5000,0.441152453422546,0.441152453422546,0.441152453422546,2140.43945355415,4670.31746371094,6810.75691726509,,,46.789999961853,2368.4638671875,27178.5529802988,27513.4930316744
2018-07-19T08:41:58Z,1531989718,13E0B,41.0811571,43.6484347,4765.27,-0.1,-0.6,0.3,552295.62,-133452.11,354.6,Weapon+Missile,Blue,Enemies,R-27ER,,cn,,200.145053300211,160.363723754883,0.622286982334002,4765.27197265625,2416.81494140625,200.124424187179,2.87353515625,0.0394575843923507,NaN,0.199987938897973,2.22136107942209,4043.53566315509,0.0037728629540652,0.0037728629540652,0.0037728629540652,2002.90211802721,4673.13543906494,6676.03755709215,,,47.789999961853,2348.45703125,27378.0836967229,27713.193452786
2018-07-19T08:41:59Z,1531989719,13E0B,41.0811671,43.6501784,4758.43,-0.3,-3.5,0.3,552277.44,-133258.3,354.6,Weapon+Missile,Blue,Enemies,R-27ER,,cn,,194.784241003864,155.964813232422,0.605566978499561,4758.4287109375,2415.95629882812,194.663993364207,-6.84326171875,0.062585633487281,NaN,0.200042580411333,2.87693800388555,3833.95412033149,0.00505874492228031,0.00505874492228031,0.00505874492228031,1897.04502717257,4666.42449181152,6563.46951898409,,,48.789999961853,2342.47241210938,27572.1914411896,27907.56661817
2018-07-19T08:42:00Z,1531989720,13E0B,41.0811765,43.6518614,4742.24,-0.5,-6.5,0.3,552259.88,-133071.22,354.6,Weapon+Missile,Blue,Enemies,R-27ER,,cn,,188.596789056648,150.961807250977,0.586211054841454,4742.23974609375,2423.05615234375,187.900681903408,-16.18896484375,0.106564474792689,NaN,0.199987938897973,2.95001697257986,3625.62030774799,0.00409323535859585,0.00409323535859585,0.00409323535859585,1778.43744212389,4650.54854060303,6428.98598272692,,,49.789999961853,2319.18359375,27759.5488218797,28095.7611402508
2018-07-19T08:42:01Z,1531989721,13E0B,41.0811855,43.6535052,4716.76,-0.6,-9.5,0.3,552242.69,-132888.5,354.6,Weapon+Missile,Blue,Enemies,R-27ER,,cn,,185.285875913482,148.413467407227,0.575734891887033,4716.75830078125,2436.34545898438,183.525343638999,-25.4814453125,0.0684238363015093,NaN,0.199987938897973,3.00386340923189,3517.75199403815,0.00104086322244257,0.00104086322244257,0.00104086322244257,1716.54279065132,4625.55977903564,6342.10256968697,,,50.789999961853,2280.41284179688,27942.5397932962,28280.6521311986
2018-07-19T08:42:02Z,1531989722,13E0B,41.0811939,43.6551018,4682.36,-0.7,-12.5,0.3,552226,-132711.05,354.6,Weapon+Missile,Blue,Enemies,R-27ER,,cn,,181.524475446688,145.556701660156,0.563802895156307,4682.36279296875,2439.01953125,178.236035157079,-34.3955078125,0.0307483340566961,NaN,0.200042580411333,3.02692596985127,3423.90192560211,0.0122587224468589,0.0122587224468589,0.0122587224468589,1647.55675930977,4591.8293083667,6239.38606767647,,,51.789999961853,2243.34326171875,28120.2763559273,28461.8147838812
2018-07-19T08:42:03Z,1531989723,13E0B,41.0812015,43.6566573,4639.19,-0.7,-15.5,0.2,552209.62,-132538.16,354.6,Weapon+Missile,Blue,Enemies,R-27ER,,cn,,178.949694470121,143.74104309082,0.555503992885067,4639.1923828125,2436.09838867188,173.664356843569,-43.17041015625,0.0559306189735185,NaN,0.0154089067675488,3.05000752693427,3356.49323204418,0.0020610224455595,0.0020610224455595,0.0020610224455595,1601.14965754747,4549.49359809082,6150.64325563829,,,52.789999961853,2203.09399414062,28293.4271915356,28640.3889401928
2018-07-19T08:42:04Z,1531989724,13E0B,41.0812081,43.658166,4587.65,-0.8,-18.5,0.2,552193.75,-132370.47,354.6,Weapon+Missile,Blue,Enemies,R-27ER,,cn,,176.147214692661,141.791442871094,0.546450340041761,4587.64892578125,2405.474609375,168.437268088894,-51.54345703125,0.0319017240414266,NaN,0,3.02692596985127,3338.20389376875,0.0100026363506913,0.0100026363506913,0.0100026363506913,1551.39206219912,4498.94673380127,6050.33879600038,,,53.789999961853,2182.17431640625,28461.3791885725,28816.188321728
2018-07-19T08:42:05Z,1531989725,13E0B,41.0812136,43.6596315,4527.98,-0.8,-21.6,0.2,552178.25,-132207.59,354.5,Weapon+Missile,Blue,Enemies,R-27ER,,cn,,174.152945111519,140.562561035156,0.539859232336449,4527.97705078125,2354.62036132812,163.610866463692,-59.671875,0.0485296641260035,NaN,0,3.01191214683852,3340.92078110917,0.0179231818765402,0.0179231818765402,0.0179231818765402,1516.46241455078,4440.42861450439,5956.89102905518,,,54.789999961853,2173.35668945312,28624.5219204744,28990.0110364219
2018-07-19T08:42:06Z,1531989726,13E0B,41.0812179,43.6610587,4460.27,-0.9,-24.6,0.2,552163,-132049,354.5,Weapon+Missile,Blue,Enemies,R-27ER,,cn,,173.11551196337,140.179275512695,0.536188225543936,4460.2685546875,2289.65600585938,159.325264911321,-67.70849609375,0.0554759174314347,NaN,0,2.9772672929341,3357.18739848793,0.00222406326793134,0.00222406326793134,0.00222406326793134,1498.44902411699,4374.02926218262,5872.47828629961,,,55.789999961853,2170.61254882812,28783.3880500667,29162.8070630453
2018-07-19T08:42:07Z,1531989727,13E0B,41.0812208,43.662455,4384.31,-0.9,-27.4,0.1,552148.06,-131893.83,354.5,Weapon+Missile,Blue,Enemies,R-27ER,,cn,,173.41094360764,140.962692260742,0.536593259248472,4384.30859375,2210.5341796875,155.889190443936,-75.9599609375,0.0113881981762034,NaN,0,2.89268372435654,3438.33383491713,0.0173398721963167,0.0173398721963167,0.0173398721963167,1503.56776814461,4299.53798708984,5803.10575523445,,,56.789999961853,2173.7744140625,28938.8253460778,29335.908721161
2018-07-19T08:42:08Z,1531989728,13E0B,41.0812222,43.6638063,4301.14,-0.9,-30.3,0.1,552133.44,-131743.67,354.4,Weapon+Missile,Blue,Enemies,R-27ER,,cn,,172.274057333303,140.599395751953,0.53252223002001,4301.13671875,2116.5078125,150.866795681033,-83.171875,0.0473151672713904,NaN,0,2.82727121611874,3532.30686834182,0.0130012603476644,0.0130012603476644,0.0130012603476644,1483.91754150391,4217.97424029297,5701.89178179687,,,57.789999961853,2184.62890625,29089.257410358,29507.8918408096
2018-07-19T08:42:09Z,1531989729,13E0B,41.0812219,43.665119,4210.75,-0.9,-33.1,0,552119.12,-131597.81,354.4,Weapon+Missile,Blue,Enemies,R-27ER,,cn,,172.188180380721,141.165267944336,0.531657957111719,4210.75439453125,2008.30932617188,146.559902195794,-90.38232421875,0.064148998059581,NaN,0,2.77731905451068,3628.19526156166,0.0178621783852577,0.0178621783852577,0.0178621783852577,1482.43847314119,4129.33945831299,5611.77793145418,,,58.789999961853,2202.44506835938,29235.3796491322,29679.7905826644
2018-07-19T08:42:10Z,1531989730,13E0B,41.0812199,43.6663987,4113,-0.9,-35.8,0,552105,-131455.64,354.3,Weapon+Missile,Blue,Enemies,R-27ER,,cn,,173.113486811938,142.638381958008,0.53386612862106,4113,1926.59545898438,142.871822505404,-97.75439453125,0.0579990615044424,NaN,0,2.6888384361248,3765.47809938247,0.00841032527387142,0.00841032527387142,0.00841032527387142,1498.41396580935,4033.475145,5531.88911080934,,,59.789999961853,2186.40454101562,29377.8361520618,29852.638116366
2018-07-19T08:42:11Z,1531989731,13E0B,41.0812163,43.6676432,4008.26,-0.9,-38.3,359.9,552091.19,-131317.41,354.2,Weapon+Missile,Blue,Enemies,R-27ER,,cn,,173.982885034191,144.122283935547,0.535851183963318,4008.259765625,1820.97631835938,138.922739635708,-104.740234375,0.0251956579494223,NaN,0,2.55418595239306,3957.26226482258,0.0226510819047689,0.0226510819047689,0.0226510819047689,1513.50221424103,3930.76006305664,5444.26227729767,,,60.789999961853,2187.28344726562,29516.3761305507,30026.3858901929
2018-07-19T08:42:12Z,1531989732,13E0B,41.0812109,43.6688512,3896.95,-0.9,-40.8,359.8,552077.56,-131183.22,354.2,Weapon+Missile,Blue,Enemies,R-27ER,,cn,,174.878083491766,145.684448242188,0.537867716867056,3896.94750976562,1701.57836914062,134.877447266954,-111.312255859375,0.0395507416920729,NaN,0.0615347750582316,2.45896436418321,4148.3434137247,0.0154015766456723,0.0154015766456723,0.0154015766456723,1529.11720428765,3821.60002966431,5350.71723395195,,,61.789999961853,2195.369140625,29650.8567926969,30201.0223375861
2018-07-19T08:42:13Z,1531989733,13E0B,41.0812037,43.670019,3779.78,-0.8,-43.2,359.8,552064.25,-131053.53,354.1,Weapon+Missile,Blue,Enemies,R-27ER,,cn,,175.28345270417,146.878219604492,0.538336439107769,3779.78002929688,1552.8515625,130.368977569436,-117.16748046875,0.0874840130844722,NaN,0,2.40032526916794,4334.51269238731,0.0173323173075914,0.0173323173075914,0.0173323173075914,1536.21443959475,3706.69798243042,5242.91242202517,,,62.789999961853,2226.92846679688,29780.8518325019,30376.0859667754
2018-07-19T08:42:14Z,1531989734,13E0B,41.0811947,43.671161,3655.5,-0.8,-45.4,359.7,552051.06,-130926.7,354,Weapon+Missile,Blue,Enemies,R-27ER,,cn,,178.055205378169,150.172409057617,0.546014556361962,3655.50463867188,1397.12890625,127.511895316734,-124.275390625,0.0358732398293422,NaN,0,2.25802617521695,4598.95938294131,0.00531812384724617,0.00531812384724617,0.00531812384724617,1585.1828081131,3584.82545648315,5170.00826459625,,,63.789999961853,2258.37573242188,29907.9850379066,30553.9231729302
2018-07-19T08:42:15Z,1531989735,13E0B,41.0811841,43.6722616,3526.13,-0.8,-47.6,359.6,552038.31,-130804.52,354,Weapon+Missile,Blue,Enemies,R-27ER,,cn,,178.410662865934,151.435195922852,0.546238070640886,3526.12915039062,1227.69702148438,122.850916383436,-129.37548828125,0.0441295367528528,NaN,0.0769183887815102,2.11654456953225,4892.18396334605,0.0327812246978283,0.0327812246978283,0.0327812246978283,1591.51823121309,3457.95144326782,5049.46967448092,,,64.789999961853,2298.43212890625,30030.5036604881,30732.1526217584
2018-07-19T08:42:16Z,1531989736,13E0B,41.0811719,43.6733301,3390.96,-0.7,-49.6,359.5,552025.62,-130685.89,353.9,Weapon+Missile,Blue,Enemies,R-27ER,,cn,,180.290402082907,154.079193115234,0.551082796788464,3390.9560546875,1051.1015625,119.301564454327,-135.173095703125,0.0259880023429024,NaN,0,2.06255875433247,5000,0.00842325948178768,0.00842325948178768,0.00842325948178768,1625.23145416081,3325.39191937012,4950.62337353093,,,65.789999961853,2339.8544921875,30149.446637438,30912.2485534336
2018-07-19T08:42:17Z,1531989737,13E0B,41.0811579,43.6743655,3250.3,-0.7,-51.6,359.5,552013.25,-130570.95,353.8,Weapon+Missile,Blue,Enemies,R-27ER,,cn,,182.063333397643,156.693313598633,0.555550144213608,3250.30297851562,889.14794921875,115.601771315365,-140.653076171875,0,NaN,0,1.97721660787022,5000,0.0216148756444454,0.0216148756444454,0.0216148756444454,1657.35286839306,3187.45837042603,4844.81123881909,,,66.789999961853,2361.15502929688,30264.7148605816,31094.1383266349
2018-07-19T08:42:18Z,1531989738,13E0B,41.0811426,43.6753679,3104.51,-0.6,-53.4,359.4,552001.06,-130459.7,353.7,Weapon+Missile,Blue,Enemies,R-27ER,,cn,,183.800542164405,159.337783813477,0.559860201033501,3104.50927734375,719.8291015625,111.923348763943,-145.793701171875,0.0179108592092829,NaN,0.0769394129575491,1.88880450481946,5000,0.0146761229261756,0.0146761229261756,0.0146761229261756,1689.13196499646,3044.48359046631,4733.61555546277,,,67.789999961853,2384.68017578125,30376.3143592572,31277.7756414637
2018-07-19T08:42:19Z,1531989739,13E0B,41.0811259,43.6763383,2953.75,-0.6,-55.2,359.3,551989.12,-130352.01,353.6,Weapon+Missile,Blue,Enemies,R-27ER,,cn,,185.657911048429,162.150115966797,0.564488327287325,2953.74536132812,535.025390625,108.347134537559,-150.763916015625,0.0677873486905474,NaN,0,1.7394545212109,5000,0.0112678045406938,0.0112678045406938,0.0112678045406938,1723.44299674332,2896.63469476685,4620.07769151017,,,68.789999961853,2418.71997070312,30484.346323715,31463.2796897286
2018-07-19T08:42:20Z,1531989740,13E0B,41.0811079,43.6772749,2798.59,-0.6,-56.9,359.2,551977.5,-130248.09,353.6,Weapon+Missile,Blue,Enemies,R-27ER,,cn,,187.107839309825,164.656066894531,0.567834947639943,2798.5859375,350.388671875,104.570056557868,-155.159423828125,0.0404887407384093,NaN,0,1.63947453230537,5000,0.0210770852863789,0.0210770852863789,0.0210770852863789,1750.46717655957,2744.47527839844,4494.94245495801,,,69.789999961853,2448.197265625,30588.6156565508,31650.2458581525
2018-07-19T08:42:21Z,1531989741,13E0B,41.0810888,43.678175,2639.9,-0.5,-58.5,359.1,551966.12,-130148.23,353.5,Weapon+Missile,Blue,Enemies,R-27ER,,cn,,187.832561050053,166.554550170898,0.568950323542191,2639.90454101562,166.85107421875,100.505151113715,-158.681396484375,0.0224803576089904,NaN,0,1.58942290606752,5000,0.0116991568356752,0.0116991568356752,0.0116991568356752,1764.0535495311,2588.86198671509,4352.91553624619,,,70.789999961853,2473.05346679688,30688.826947599,31837.9441615744
2018-07-19T08:42:22Z,1531989742,13E0B,41.0810685,43.6790515,2475.77,-0.5,-59.9,359.1,551954.94,-130051.01,353.4,Weapon+Missile,Blue,Enemies,R-27ER,,cn,,191.09554665096,170.819610595703,0.577699840671398,2475.76782226562,-31.394287109375,97.860336744835,-164.13671875,0.00864025258176002,NaN,0,1.4887804955342,5000,0.0122468126937747,0.0122468126937747,0.0122468126937747,1825.87539749146,2427.89885142212,4253.77424891357,,,71.789999961853,2507.162109375,30786.410481384,32028.9181067255
2018-07-19T08:42:23Z,1531989743,13E0B,41.0810471,43.6799041,2306.45,-0.4,-61.4,359,551943.94,-129956.45,353.3,Weapon+Missile,Blue,Enemies,R-27ER,,cn,,194.242850826898,175.065536499023,0.586032305478671,2306.45385742188,-214.99169921875,95.2001386881868,-169.31396484375,0.0304619600493573,NaN,0.199987938897973,1.43876408745926,5000,0.0140992840752006,0.0140992840752006,0.0140992840752006,1886.51425486803,2261.85857208862,4148.37282695665,,,72.789999961853,2521.44555664062,30881.3353631779,32223.0436054086
2018-07-19T08:42:24Z,1531989744,13E0B,41.0810248,43.6807317,2132.44,-0.4,-62.7,358.9,551933.12,-129864.66,353.2,Weapon+Missile,Blue,Enemies,R-27ER,,cn,,197.034440127298,179.06640625,0.593229640913249,2132.43701171875,-397.77392578125,92.4159510464103,-174.016845703125,0.0447608898571726,NaN,0,1.36618564356506,5000,0.0146868396550417,0.0146868396550417,0.0146868396550417,1941.12852981389,2091.20634209717,4032.33487191105,,,73.789999961853,2530.2109375,30973.4852298902,32419.968391336
2018-07-19T08:42:25Z,1531989745,13E0B,41.0810015,43.6815344,1954.05,-0.4,-64,358.8,551922.5,-129775.66,353.2,Weapon+Missile,Blue,Enemies,R-27ER,,cn,,199.641353908437,182.97265625,0.59981414031284,1954.04760742188,-580.751953125,89.631973229423,-178.389404296875,0.0294581390777663,NaN,0,1.23933835850734,5000,0.00718201510608196,0.00718201510608196,0.00718201510608196,1992.8335095197,1916.26609693237,3909.09960645207,,,74.789999961853,2534.79956054688,31062.8566869487,32619.5057441591
2018-07-19T08:42:26Z,1531989746,13E0B,41.0809776,43.682313,1771.39,-0.3,-65.2,358.7,551912.12,-129689.34,353.1,Weapon+Missile,Blue,Enemies,R-27ER,,cn,,202.293433340988,186.996459960938,0.60647871956208,1771.39001464844,-763.986206054688,86.9415721913151,-182.657592773438,0.0712625311747623,NaN,0.199987938897973,1.16996049856953,5000,0.0222660824656487,0.0222660824656487,0.0222660824656487,2046.13165864423,1737.14018871521,3783.27184735944,,,75.789999961853,2535.37622070312,31149.5531356101,32821.7048076225
2018-07-19T08:42:27Z,1531989747,13E0B,41.0809531,43.683066,1585.11,-0.3,-66.3,358.7,551901.88,-129605.87,353,Weapon+Missile,Blue,Enemies,R-27ER,,cn,,204.38324625053,190.560073852539,0.611409654227906,1585.11303710938,-953.309814453125,84.1035016323126,-186.276977539062,0.0075718219241977,NaN,0,1.13876307592696,5000,0.0016292940126732,0.0016292940126732,0.0016292940126732,2088.62556739524,1554.46487653687,3643.09044393211,,,76.789999961853,2538.4228515625,31233.3982301556,33025.990911585
2018-07-19T08:42:28Z,1531989748,13E0B,41.080928,43.6837974,1394.56,-0.3,-67.3,358.6,551891.94,-129524.8,352.9,Weapon+Missile,Blue,Enemies,R-27ER,,cn,,207.314151470438,194.99430847168,0.61880198741337,1394.56311035156,-1144.13513183594,81.669350508621,-190.549926757812,0.0207417542323964,NaN,0,1.08110165845836,5000,0.0232954900711775,0.0232954900711775,0.0232954900711775,2148.95786999539,1367.59923261292,3516.5571026083,,,77.789999961853,2538.6982421875,31314.8474960036,33233.2259401287
2018-07-19T08:42:29Z,1531989749,13E0B,41.0809025,43.6845033,1201.06,-0.3,-68.3,358.5,551882.12,-129446.57,352.9,Weapon+Missile,Blue,Enemies,R-27ER,,cn,,208.950666113914,198.258056640625,0.62228836553623,1201.05993652344,-1334.96911621094,78.8473372276491,-193.503173828125,0.0242599847844539,NaN,0,0.993066069585601,5000,0.00364482239820063,0.00364482239820063,0.00364482239820063,2183.01904347241,1177.83744265076,3360.85648612317,,,78.789999961853,2536.02905273438,31393.4503545066,33442.090494908
2018-07-19T08:42:30Z,1531989750,13E0B,41.0808766,43.6851883,1003.62,-0.2,-69.3,358.4,551872.62,-129370.68,352.8,Weapon+Missile,Blue,Enemies,R-27ER,,cn,,211.738982273946,202.696533203125,0.629156307382867,1003.61688232422,-1528.41949462891,76.4829194192444,-197.443054199219,0.0223542930773003,NaN,0.200042580411333,0.957906283450785,5000,0.0142974657937884,0.0142974657937884,0.0142974657937884,2241.66983072031,984.21194990448,3225.88178062479,,,79.789999961853,2532.03637695312,31469.7344855921,33653.7625052842
2018-07-19T08:42:31Z,1531989751,13E0B,41.0808507,43.6858456,804.57,-0.2,-70.2,358.4,551863.38,-129297.84,352.7,Weapon+Missile,Blue,Enemies,R-27ER,,cn,,212.157042328753,204.887023925781,0.628957789701179,804.569213867188,-1722.17272949219,73.4209526736333,-199.047668457031,0.0464252497875321,NaN,0,0.919333110278255,5000,0.00690969126299024,0.00690969126299024,0.00690969126299024,2250.53053048421,789.012868117065,3039.54339860127,,,80.789999961853,2526.74194335938,31542.9292968543,33865.8449742752
2018-07-19T08:42:32Z,1531989752,13E0B,41.0808247,43.6864807,602.67,-0.2,-71.1,358.3,551854.38,-129227.49,352.7,Weapon+Missile,Blue,Enemies,R-27ER,,cn,,213.993050499321,208.503219604492,0.632936918286031,602.671508789062,-1912.60534667969,70.9249063883161,-201.897705078125,0.0506936547955421,NaN,0,0.869894226714146,5000,0.0106289396062493,0.0106289396062493,0.0106289396062493,2289.65128310025,591.018855166626,2880.67013826687,,,81.789999961853,2515.27685546875,31613.6585487129,34079.7758374019
2018-07-19T08:42:33Z,1531989753,13E0B,41.0807985,43.6870951,397.68,-0.2,-71.9,358.2,551845.56,-129159.41,352.6,Weapon+Missile,Blue,Enemies,R-27ER,,cn,,216.18004750251,212.524490356445,0.637914425815304,397.679992675781,-2105.82196044922,68.6461306976994,-204.991516113281,0.0130845388721869,NaN,0,0.819384710997637,5000,0.0062897983007133,0.0062897983007133,0.0062897983007133,2336.69064690936,389.990850017395,2726.68149692676,,,82.789999961853,2503.501953125,31682.0899215673,34295.8894856491
2018-07-19T08:42:34Z,1531989754,13E0B,41.0807725,43.6876839,191.64,-0.2,-72.7,358.2,551837.06,-129094.2,352.5,Weapon+Missile,Blue,Enemies,R-27ER,,cn,,216.278167516296,214.515151977539,0.636715067919074,191.642303466797,-2298.9631652832,65.7625757526947,-206.037689208984,0.0347138237181471,NaN,0,0.769566378408622,5000,0.010312014259398,0.010312014259398,0.010312014259398,2338.81228721035,187.936899529266,2526.74918673961,,,83.789999961853,2490.60546875,31747.6708117138,34512.1133971902
2018-07-19T08:42:35Z,1531989755,13E0B,41.0807467,43.6882491,-15.68,-0.2,-73.4,358.1,551828.81,-129031.6,352.5,Weapon+Missile,Blue,Enemies,R-27ER,,cn,,216.724597181604,216.872772216797,0.636538560801236,-15.679988861084,-2491.14776229858,63.1428390828398,-207.322292327881,0.0197245470573729,NaN,0,0.769757090096854,5000,0.00850427709519863,0.00850427709519863,0.00850427709519863,2348.47755117643,-15.3768162764549,2333.10073489998,,,84.789999961853,2475.4677734375,31810.6228715358,34728.7827398841
2018-07-19T08:42:36Z,1531989756,13E0B,41.080721,43.6887959,-225.85,-0.1,-74.2,358.1,551820.75,-128971.06,352.4,Weapon+Missile,Blue,Enemies,R-27ER,,cn,,218.860218965431,220.969772338867,0.641295662898779,-225.846145629883,-2686.03144836426,61.0735785313822,-210.166156768799,0.0409179148293297,NaN,0.184604271813842,0.734901514184368,5000,0.00694538187235594,0.00694538187235594,0.00694538187235594,2394.98977227981,-221.479410404129,2173.51036187568,,,85.789999961853,2460.18530273438,31871.525118061,34947.5948890623
