ISOTime,UnixTime,Id,Longitude,Latitude,Altitude,Roll,Pitch,Yaw,U,V,Heading,Type,Color,Coalition,Name,Group,Country,Pilot,TAS,CAS,M,ASL,AGL,GS,VS,AOA,AOS,RRT,TRT,TRD,G,LatG,LonG,Ek,Ep,Em,FFW,FFV,RelativeTime,Elev,GroundDistance,AirDistance
2018-07-19T08:44:13Z,1531989853,1460A,41.1622879,43.6896819,7012.32,43.7,-4.2,331.4,558387.44,-128224.34,325.7,Weapon+Missile,Blue,Enemies,R-27ET,,cn,,368.339681457718,276.979370117188,1.17914588534818,7012.31689453125,4692.1650390625,NaN,NaN,0.941973185846296,NaN,9.70766590506908,2.93420758552034,NaN,NaN,NaN,NaN,NaN,6876.73374737549,NaN,,,0.609999895095825,2320.15185546875,NaN,NaN
2018-07-19T08:44:14Z,1531989854,1460A,41.1587157,43.6940694,6961.93,36,-5.2,329.1,558051.19,-127765.38,323.4,Weapon+Missile,Blue,Enemies,R-27ET,,cn,,571.181642692237,423.562622070312,1.82726194851374,6961.92578125,4792.30981445312,568.954483812966,-50.39111328125,1.09270066926992,NaN,6.90772547747074,2.47996804965464,5000,4.75506258010864,4.75506258010864,4.75506258010864,16312.4234474301,6827.31694626953,23139.7403936997,,,1.60999989509583,2169.61596679688,566.766585953967,569.620753179319
2018-07-19T08:44:15Z,1531989855,1460A,41.1530682,43.7001723,6887.37,30.9,-4.7,323.8,557528.75,-127132.37,318.1,Weapon+Missile,Blue,Enemies,R-27ET,,cn,,824.14137018517,591.591918945312,2.63388171844945,6887.365234375,4878.02014160156,820.761672411907,-74.560546875,0.213560587711232,NaN,4.52306055140916,5.35719740379697,5000,10.1672563552856,10.1672563552856,10.1672563552856,33960.4499025345,6754.19802756836,40714.6479301028,,,2.60999989509583,2009.34509277344,1384.17524305164,1391.30669732808
2018-07-19T08:44:16Z,1531989856,1460A,41.1450231,43.7072474,6823.97,27.8,-2,317.3,556802.5,-126410.42,311.6,Weapon+Missile,Blue,Enemies,R-27ET,,cn,,1025.99370716956,727.72802734375,3.27621655029144,6823.9697265625,5030.90112304688,1024.03324982186,-63.3955078125,0.20393713424219,NaN,2.7077055530465,6.30785642965155,5000,11.1919555664062,11.1919555664062,11.1919555664062,52633.1543575764,6692.02827189941,59325.1826294758,,,3.60999989509583,1793.06860351562,2403.7197161936,2413.9140100747
2018-07-19T08:44:17Z,1531989857,1460A,41.1362505,43.7136802,6811.4,24.5,-0.1,314.6,556024.81,-125765.57,308.9,Weapon+Missile,Blue,Enemies,R-27ET,,cn,,1010.34125890994,717.71826171875,3.22569536297135,6811.39697265625,4644.66479492188,1010.26302778778,-12.57275390625,0.0795262214168419,NaN,3.96921417199117,3.51592525262869,5000,2.73837828636169,2.73837828636169,2.73837828636169,51039.4729727864,6679.69861218994,57719.1715849764,,,4.60999989509583,2166.73217773438,3409.24809338535,3420.59572669815
2018-07-19T08:44:18Z,1531989858,1460A,41.1273004,43.7200557,6811.61,20.6,0.1,314.5,555233.56,-125128.41,308.9,Weapon+Missile,Blue,Enemies,R-27ET,,cn,,1015.89600627815,721.427368164062,3.24343915732802,6811.61181640625,4792.62463378906,1015.89598356036,0.21484375,0.077769489992035,NaN,3.70769988904972,0.293754056484378,5000,0.950396776199341,0.950396776199341,0.950396776199341,51602.234778595,6679.90930193603,58282.144080531,,,5.60999989509583,2018.98718261719,4420.3142897956,4432.74170977276
2018-07-19T08:44:19Z,1531989859,1460A,41.1183098,43.7264661,6811.33,17.3,0,314.6,554438.81,-124487.64,308.9,Weapon+Missile,Blue,Enemies,R-27ET,,cn,,1020.89090589613,724.781127929688,3.25937397263898,6811.3271484375,4787.54577636719,1020.89086620734,-0.28466796875,0.054916390463952,NaN,3.0769182588207,0.0713262647800548,5000,0.978594183921814,0.978594183921814,0.978594183921814,52110.9120870709,6679.63013802246,58790.5422250934,,,6.60999989509583,2023.78137207031,5436.36764860863,5449.88019274083
2018-07-19T08:44:20Z,1531989860,1460A,41.1093279,43.7328817,6810.77,14.5,0.1,314.7,553644.94,-123846.14,309,Weapon+Missile,Blue,Enemies,R-27ET,,cn,,1020.66648751879,724.651550292969,3.25863322339666,6810.767578125,4943.34045410156,1020.66633412933,-0.5595703125,0.0378644770167893,NaN,2.50766297263516,0.0713262647800548,5000,1.24482786655426,1.24482786655426,1.24482786655426,52088.0039371967,6679.08138700195,58767.0853241987,,,7.60999989509583,1867.42712402344,6452.27506581093,6466.87262511413
2018-07-19T08:44:21Z,1531989861,1460A,41.1002584,43.7393784,6812.52,12.2,0.1,314.8,552843.19,-123196.23,309.1,Weapon+Missile,Blue,Enemies,R-27ET,,cn,,1032.08255978785,732.231079101562,3.2951574324947,6812.5166015625,5392.7197265625,1032.0810777915,1.7490234375,0.0391289079342269,NaN,2.30767503373719,0.117033984087273,5000,1.11059856414795,1.11059856414795,1.11059856414795,53259.7205109119,6680.79659307129,59940.5171039832,,,8.60999989509583,1419.796875,7479.49716565174,7495.19325204015
2018-07-19T08:44:22Z,1531989862,1460A,41.0911829,43.745905,6815.13,10.3,0.2,314.9,552040.81,-122542.98,309.2,Weapon+Missile,Blue,Enemies,R-27ET,,cn,,1034.67291451073,733.868347167969,3.30354262863908,6815.13134765625,5237.80993652344,1034.66961061249,2.61474609375,0.053253152440445,NaN,1.92305342119543,0.218503621242526,5000,1.77439069747925,1.77439069747925,1.77439069747925,53527.4020011067,6683.36078304932,60210.7627841561,,,9.60999989509583,1577.32141113281,8509.34166945253,8526.14126428227
2018-07-19T08:44:23Z,1531989863,1460A,41.0823061,43.7524449,6819.97,8.8,0.4,317.3,551254.44,-121886.59,311.7,Weapon+Missile,Blue,Enemies,R-27ET,,cn,,1024.32778871783,726.761840820312,3.27072271608142,6819.966796875,5284.14135742188,1024.31637552585,4.83544921875,0.471385075651399,NaN,1.49231437137775,1.57600222467868,5000,4.31232929229736,4.31232929229736,4.31232929229736,52462.3709369779,6688.10273885742,59150.4736758353,,,10.6099998950958,1535.82543945312,9528.92007213427,9546.82094165932
2018-07-19T08:44:24Z,1531989864,1460A,41.0744102,43.7587486,6826.29,7.4,0.4,318,550549.81,-121248.63,312.3,Weapon+Missile,Blue,Enemies,R-27ET,,cn,,950.542223914073,677.266906738281,3.03537756053796,6826.2890625,5468.7392578125,950.521198291169,6.322265625,0.0330835458938108,NaN,1.27691752571222,1.45129470982188,5000,1.07106447219849,1.07106447219849,1.07106447219849,45176.5259721756,6694.30276347656,51870.8287356522,,,11.6099998950958,1357.5498046875,10475.218294718,10494.1525808408
2018-07-19T08:44:25Z,1531989865,1460A,41.0670552,43.76465,6832.57,6.2,0.4,318,549893.25,-120651.03,312.3,Weapon+Missile,Blue,Enemies,R-27ET,,cn,,887.829596193132,635.360534667969,2.83535357277496,6832.56982421875,5441.99694824219,887.807379958452,6.28076171875,0.0366838829630871,NaN,1.13845593085773,0.0261695779877396,5000,1.03009676933289,1.03009676933289,1.03009676933289,39412.069593823,6700.46208666748,46112.5316804904,,,12.6099998950958,1390.57287597656,11359.0958008926,11378.9987954354
2018-07-19T08:44:26Z,1531989866,1460A,41.0601248,43.7702098,6838.79,5.2,0.4,318,549274.62,-120087.99,312.3,Weapon+Missile,Blue,Enemies,R-27ET,,cn,,836.509735288478,601.167663574219,2.67168065967079,6838.78759765625,5096.2490234375,836.486626627036,6.2177734375,0.0469953395652286,NaN,0.938467991959752,0,5000,1.02058124542236,1.02058124542236,1.02058124542236,34987.4268616199,6706.55963945557,41693.9865010755,,,13.6099998950958,1742.53857421875,12191.8319970845,12212.6506528288
2018-07-19T08:44:27Z,1531989867,1460A,41.0536167,43.7754296,6844.85,4.4,0.5,318,548693.88,-119559.34,312.3,Weapon+Missile,Blue,Enemies,R-27ET,,cn,,785.351186971435,567.200317382812,2.50849073392121,6844.85009765625,5006.7900390625,785.327786959809,6.0625,0.0574829913572268,NaN,0.769243225083516,0.0513960362511687,5000,1.02273523807526,1.02273523807526,1.02273523807526,30838.8243438721,6712.50492101807,37551.3292648901,,,14.6099998950958,1838.06005859375,12973.694061708,12995.3748983692
2018-07-19T08:44:28Z,1531989868,1460A,41.0474372,43.7803847,6850.79,3.6,0.5,317.9,548142.56,-119057.48,312.3,Weapon+Missile,Blue,Enemies,R-27ET,,cn,,745.549173720637,540.808898925781,2.38154739094033,6850.78857421875,5077.00500488281,745.525522656093,5.9384765625,0.0464865120568174,NaN,0.753834318315967,0.0513960362511687,5000,1.0174925327301,1.0174925327301,1.0174925327301,27792.1785217762,6718.32857713623,34510.5070989124,,,15.6099998950958,1773.78356933594,13715.9565542554,13738.4580427472
2018-07-19T08:44:29Z,1531989869,1460A,41.0415942,43.785069,6856.54,3,0.5,317.9,547621.31,-118583.02,312.3,Weapon+Missile,Blue,Enemies,R-27ET,,cn,,704.874363280298,513.891174316406,2.251790251779,6856.5439453125,5088.1337890625,704.850866292565,5.75537109375,0.0377311023882547,NaN,0.569255286185543,0,5000,1.01417016983032,1.01417016983032,1.01417016983032,24842.3934004903,6723.97266812988,31566.3660686202,,,16.6099998950958,1768.41015625,14417.6942980213,14440.9734190043
2018-07-19T08:44:30Z,1531989870,1460A,41.0360377,43.7895227,6862.14,2.6,0.5,317.9,547125.69,-118131.89,312.3,Weapon+Missile,Blue,Enemies,R-27ET,,cn,,670.221029804668,490.955139160156,2.14124625524916,6862.13623046875,5014.01770019531,670.197698548093,5.59228515625,0.0324320413861537,NaN,0.492320035374519,0,5000,1.0094006061554,1.0094006061554,1.0094006061554,22459.8114396215,6729.45682645264,29189.2682660741,,,17.6099998950958,1848.11853027344,15084.9261980907,15108.9463005429
2018-07-19T08:44:31Z,1531989871,1460A,41.0307516,43.7937589,6867.54,2.1,0.5,317.9,546654.25,-117702.77,312.3,Weapon+Missile,Blue,Enemies,R-27ET,,cn,,637.513945483845,469.288940429688,2.03689897809909,6867.53564453125,5007.62426757812,637.4910799487,5.3994140625,0.0300898481876767,NaN,0.538492114163805,0,5000,1.00900208950043,1.00900208950043,1.00900208950043,20321.2015343189,6734.75184284424,27055.9533771632,,,18.6099998950958,1859.91137695312,15719.6057666073,15744.331921494
2018-07-19T08:44:32Z,1531989872,1460A,41.0257167,43.7977931,6872.76,1.8,0.5,317.9,546205.31,-117294.12,312.3,Weapon+Missile,Blue,Enemies,R-27ET,,cn,,607.101380091182,449.091430664062,1.9398637975129,6872.75830078125,5089.943359375,607.078915438769,5.22265625,0.0267061996374063,NaN,0.399975877795947,0,5000,1.00626957416534,1.00626957416534,1.00626957416534,18428.6042854309,6739.87351903564,25168.4778044666,,,19.6099998950958,1782.81494140625,16324.0401636247,16349.4399176832
2018-07-19T08:44:33Z,1531989873,1460A,41.0209129,43.8016415,6877.8,1.5,0.5,317.9,545777,-116904.25,312.3,Weapon+Missile,Blue,Enemies,R-27ET,,cn,,579.200684895953,430.479278564453,1.85083734928118,6877.79931640625,5091.64697265625,579.178747491144,5.041015625,0.0283624391790566,NaN,0.261568924454808,0,5000,1.00469195842743,1.00469195842743,1.00469195842743,16773.6716691971,6744.81706662354,23518.4887358206,,,20.6099998950958,1786.15234375,16900.6688170879,16926.7121556246
2018-07-19T08:44:34Z,1531989874,1460A,41.0163283,43.8053137,6882.66,1.3,0.5,317.9,545368.31,-116532.22,312.3,Weapon+Missile,Blue,Enemies,R-27ET,,cn,,552.681014647239,412.673065185547,1.76620795812846,6882.6552734375,5116.42004394531,552.659681569782,4.85595703125,0.026086913255319,NaN,0.24616001768726,0,5000,1.00320601463318,1.00320601463318,1.00320601463318,15272.8151975751,6749.57913372559,22022.3943313007,,,21.6099998950958,1766.23522949219,17450.9191630419,17477.577471317
2018-07-19T08:44:35Z,1531989875,1460A,41.0119336,43.8088331,6887.34,1.1,0.5,317.9,544976.56,-116175.66,312.3,Weapon+Missile,Blue,Enemies,R-27ET,,cn,,529.742250120283,397.128143310547,1.69300809407155,6887.3427734375,5177.15661621094,529.721510707513,4.6875,0.0296692409452244,NaN,0.184633673643785,0,5000,1.00298821926117,1.00298821926117,1.00298821926117,14031.342578125,6754.17600091309,20785.5185790381,,,22.6099998950958,1710.18615722656,17978.3141883291,18005.5626114422
2018-07-19T08:44:36Z,1531989876,1460A,41.0077332,43.8121966,6891.85,0.9,0.5,317.9,544602.25,-115834.88,312.3,Weapon+Missile,Blue,Enemies,R-27ET,,cn,,506.218074517194,381.006439208984,1.61792426096506,6891.8544921875,5172.82861328125,506.197968547698,4.51171875,0.028681381708211,NaN,0.199987938897973,0,5000,1.00196516513824,1.00196516513824,1.00196516513824,12812.8369483948,6758.60048558106,19571.4374339758,,,23.6099998950958,1719.02587890625,18482.3426988653,18510.1557391619
2018-07-19T08:44:37Z,1531989877,1460A,41.0036916,43.8154323,6896.22,0.7,0.5,317.9,544242,-115507.03,312.3,Weapon+Missile,Blue,Enemies,R-27ET,,cn,,487.119858227875,367.718505859375,1.55697500640795,6896.21875,5062.88256835938,487.100307466226,4.3642578125,0.0321629892028728,NaN,0.199987938897973,0,5000,1.00113046169281,1.00113046169281,1.00113046169281,11864.2878139973,6762.88036046875,18627.168174466,,,24.6099998950958,1833.33618164062,18967.2556470173,18995.6124404954
2018-07-19T08:44:38Z,1531989878,1460A,40.9998244,43.818528,6900.41,0.6,0.5,317.9,543897.44,-115193.37,312.3,Weapon+Missile,Blue,Enemies,R-27ET,,cn,,465.967836125708,352.748046875,1.48945028672415,6900.40966796875,4980.78918457031,465.948989171834,4.19091796875,0.0315028913512681,NaN,0.199987938897973,0,5000,1.00140643119812,1.00140643119812,1.00140643119812,10856.3012151837,6766.99024703858,17623.2914622223,,,25.6099998950958,1919.62048339844,19431.2019542886,19460.0794396715
2018-07-19T08:44:39Z,1531989879,1460A,40.9961232,43.8214904,6904.44,0.5,0.5,317.9,543567.69,-114893.19,312.3,Weapon+Missile,Blue,Enemies,R-27ET,,cn,,445.936262700824,338.234039306641,1.42549664761089,6904.43994140625,4970.97973632812,445.918049968374,4.0302734375,0.0333370591775539,NaN,0.199987938897973,0,5000,1.0001859664917,1.0001859664917,1.0001859664917,9942.95751957893,6770.94259513916,16713.9001147181,,,26.6099998950958,1933.46020507812,19875.1917142949,19904.5679577964
2018-07-19T08:44:40Z,1531989880,1460A,40.9925552,43.8243458,6908.33,0.4,0.5,317.9,543249.81,-114603.85,312.3,Weapon+Missile,Blue,Enemies,R-27ET,,cn,,429.854566937884,326.279235839844,1.37416061232655,6908.33203125,5063.98779296875,429.836946241251,3.89208984375,0.0335347787588833,NaN,0.199987938897973,0,5000,1.00047969818115,1.00047969818115,1.00047969818115,9238.74743586779,6774.75943142578,16013.5068672936,,,27.6099998950958,1844.34423828125,20303.1562394567,20333.0135709332
2018-07-19T08:44:41Z,1531989881,1460A,40.9891223,43.8270929,6912.09,0.4,0.5,317.9,542944,-114325.48,312.3,Weapon+Missile,Blue,Enemies,R-27ET,,cn,,413.550088112487,313.887420654297,1.32210460133376,6912.0869140625,5147.51123046875,413.533041283173,3.7548828125,0.0337540482305258,NaN,0,0,5000,1.00056886672974,1.00056886672974,1.00056886672974,8551.18376889229,6778.4417135791,15329.6254824714,,,28.6099998950958,1764.57568359375,20714.8904270909,20745.2109429304
2018-07-19T08:44:42Z,1531989882,1460A,40.9858447,43.8297154,6915.68,0.3,0.5,317.9,542652.06,-114059.73,312.3,Weapon+Missile,Blue,Enemies,R-27ET,,cn,,394.795524320686,299.305633544922,1.26220749939497,6915.68408203125,5216.69128417969,394.779136234743,3.59716796875,0.0368437958694806,NaN,0,0,5000,0.999994874000549,0.999994874000549,0.999994874000549,7793.17530118227,6781.96933030518,14575.1446314874,,,29.6099998950958,1698.99279785156,21107.9681585486,21138.7312109195
2018-07-19T08:44:43Z,1531989883,1460A,40.9826745,43.8322514,6919.17,0.3,0.5,317.9,542369.69,-113802.73,312.3,Weapon+Missile,Blue,Enemies,R-27ET,,cn,,381.838705712472,289.014617919922,1.22083977478328,6919.16845703125,5279.42919921875,381.822807478856,3.484375,0.0347136278879328,NaN,0,0,5000,1.00000250339508,1.00000250339508,1.00000250339508,7290.03985900879,6785.38633491455,14075.4261939233,,,30.6099998950958,1639.7392578125,21488.1126463893,21519.3039366465
2018-07-19T08:44:44Z,1531989884,1460A,40.9796443,43.8346754,6922.51,0.2,0.5,317.9,542099.81,-113557.07,312.3,Weapon+Missile,Blue,Enemies,R-27ET,,cn,,364.952938121433,275.388916015625,1.16690344155613,6922.505859375,5333.88403320312,364.937677952089,3.33740234375,0.036224979629493,NaN,0,0,5000,0.999718368053436,0.999718368053436,0.999718368053436,6659.53235217333,6788.65920858398,13448.1915607573,,,31.6099998950958,1588.62182617188,21851.4637073426,21883.064575508
2018-07-19T08:44:45Z,1531989885,1460A,40.9767128,43.8370201,6925.74,0.2,0.5,317.9,541838.75,-113319.45,312.3,Weapon+Missile,Blue,Enemies,R-27ET,,cn,,353.029331096706,265.619384765625,1.12882746271154,6925.73681640625,5380.81591796875,353.01454577857,3.23095703125,0.036808270852191,NaN,0,0,5000,0.999102175235748,0.999102175235748,0.999102175235748,6231.48543072939,6791.82769506104,13023.3131257904,,,32.6099998950958,1544.9208984375,22202.9359979735,22234.9332594192
2018-07-19T08:44:46Z,1531989886,1460A,40.973899,43.8392705,6928.84,0.1,0.5,317.9,541588.19,-113091.38,312.3,Weapon+Missile,Blue,Enemies,R-27ET,,cn,,338.83216402137,253.88410949707,1.08347616427177,6928.83544921875,5389.1591796875,338.817995168642,3.0986328125,0.0367287746365503,NaN,0.107698422832761,0,5000,1.00013589859009,1.00013589859009,1.00013589859009,5740.36176877022,6794.86641580811,12535.2281845783,,,33.6099998950958,1539.67626953125,22540.2810837534,22572.6589505244
2018-07-19T08:44:47Z,1531989887,1460A,40.9712066,43.8414236,6931.81,0.1,0.5,317.9,541348.5,-112873.17,312.3,Weapon+Missile,Blue,Enemies,R-27ET,,cn,,324.147397334068,241.680267333984,1.03656011711006,6931.8076171875,5429.60876464844,324.133770866313,2.97216796875,0.0380132730374683,NaN,0,0,5000,0.99906986951828,0.99906986951828,0.99906986951828,5253.5767599225,6797.78111690918,12051.3578768317,,,34.6099998950958,1502.19885253906,22863.050137273,22895.7923859212
2018-07-19T08:44:48Z,1531989888,1460A,40.9686171,43.8434942,6934.66,0.1,0.5,317.9,541117.94,-112663.31,312.3,Weapon+Missile,Blue,Enemies,R-27ET,,cn,,311.78225957136,231.447616577148,0.997056811992212,6934.6630859375,5442.55395507812,311.769183341844,2.85546875,0.0385014372194847,NaN,0,0,5000,1.0005110502243,1.0005110502243,1.0005110502243,4860.40886917114,6800.5813751709,11660.990244342,,,35.6099998950958,1492.10913085938,23173.4643412503,23206.5571389379
2018-07-19T08:44:49Z,1531989889,1460A,40.9661209,43.8454899,6937.43,0.1,0.5,317.9,540895.75,-112461.04,312.3,Weapon+Missile,Blue,Enemies,R-27ET,,cn,,300.482043493451,222.146575927734,0.960954972714202,6937.42529296875,5504.86352539062,300.469347312361,2.76220703125,0.0360269206632743,NaN,0,0,5000,0.999270737171173,0.999270737171173,0.999270737171173,4514.47292309999,6803.2901749292,11317.7630980292,,,36.6099998950958,1432.56176757812,23472.6624023369,23506.093305756
2018-07-19T08:44:50Z,1531989890,1460A,40.9637165,43.8474122,6940.08,0.1,0.5,317.9,540681.69,-112266.21,312.3,Weapon+Missile,Blue,Enemies,R-27ET,,cn,,289.461264133694,213.158309936523,0.925742883898641,6940.08447265625,5590.4970703125,289.449049397758,2.6591796875,0.0385617193571142,NaN,0,0,5000,0.999263882637024,0.999263882637024,0.999263882637024,4189.3911716938,6805.89793937744,10995.2891110712,,,37.6099998950958,1349.58740234375,23760.8460585244,23794.6027310598
2018-07-19T08:44:51Z,1531989891,1460A,40.9614043,43.8492606,6942.64,0.1,0.5,317.9,540475.88,-112078.85,312.3,Weapon+Missile,Blue,Enemies,R-27ET,,cn,,278.332264532723,204.165313720703,0.890180943132848,6942.6396484375,5627.45629882812,278.320535635875,2.55517578125,0.0393176650720415,NaN,0,0,5000,1.00026321411133,1.00026321411133,1.00026321411133,3873.44247399569,6808.40371083496,10681.8461848306,,,38.6099998950958,1315.18334960938,24037.9712961318,24072.0413322872
2018-07-19T08:44:52Z,1531989892,1460A,40.9591741,43.8510432,6945.11,0.1,0.5,317.9,540277.38,-111898.17,312.3,Weapon+Missile,Blue,Enemies,R-27ET,,cn,,268.42784631177,196.228775024414,0.858532292641385,6945.111328125,5628.67358398438,268.416466475322,2.4716796875,0.0363609214185116,NaN,0,0,5000,0.998874187469482,0.998874187469482,0.998874187469482,3602.67543377876,6810.8276005957,10413.5030343745,,,39.6099998950958,1316.43774414062,24305.2362155757,24339.6086393915
2018-07-19T08:44:53Z,1531989893,1460A,40.9570076,43.8527749,6947.51,0,0.5,317.9,540084.56,-111722.64,312.3,Weapon+Missile,Blue,Enemies,R-27ET,,cn,,260.755846194383,190.120574951172,0.834021030859181,6947.50537109375,5627.20471191406,260.744855908631,2.39404296875,0.0367297585621646,NaN,0,0,5000,0.999426901340485,0.999426901340485,0.999426901340485,3399.68056622744,6813.17535474365,10212.8559209711,,,40.6099998950958,1320.30065917969,24564.8674177562,24599.5336264207
2018-07-19T08:44:54Z,1531989894,1460A,40.9549181,43.8544448,6949.81,0,0.5,317.9,539898.62,-111553.38,312.3,Weapon+Missile,Blue,Enemies,R-27ET,,cn,,251.453635507572,182.771102905273,0.804292920857927,6949.81298828125,5653.14270019531,251.443046658464,2.3076171875,0.0407973033263345,NaN,0,0,5000,1.00031769275665,1.00031769275665,1.00031769275665,3161.44654049873,6815.43835415283,9976.88489465156,,,41.6099998950958,1296.67028808594,24815.2511142677,24850.2007254409
2018-07-19T08:44:55Z,1531989895,1460A,40.9528945,43.8560619,6952.06,0,0.5,317.9,539718.5,-111389.45,312.3,Weapon+Missile,Blue,Enemies,R-27ET,,cn,,243.563103678765,176.577743530273,0.779077796878931,6952.05517578125,5699.57409667969,243.552782921583,2.2421875,0.0398261090493778,NaN,0,0,5000,0.999968707561493,0.999968707561493,0.999968707561493,2966.14927368164,6817.63718895752,9783.78646263916,,,42.6099998950958,1252.48107910156,25057.7236604836,25092.9478752228
2018-07-19T08:44:56Z,1531989896,1460A,40.9509357,43.8576272,6954.23,0,0.5,317.9,539544.19,-111230.77,312.3,Weapon+Missile,Blue,Enemies,R-27ET,,cn,,235.725130397636,170.465087890625,0.754028598068519,6954.22900390625,5735.14123535156,235.715106796882,2.173828125,0.0373267875120969,NaN,0,0,5000,0.963846564292908,0.963846564292908,0.963846564292908,2778.31685504913,6819.76898611572,9598.08584116486,,,43.6099998950958,1219.08776855469,25292.4211465334,25327.9112734255
2018-07-19T08:44:57Z,1531989897,1460A,40.9490395,43.8591425,6955.98,-0.4,-0.1,317.9,539375.44,-111077.18,312.3,Weapon+Missile,Blue,Enemies,R-27ET,,cn,,228.190005754407,164.627548217773,0.729942621678808,6955.98291015625,5754.72973632812,228.183265247613,1.75390625,0.0361055028266611,NaN,0.830769569126991,0.900079233894813,5000,0.311100006103516,0.311100006103516,0.311100006103516,2603.53393630981,6821.48898058838,9425.02291689819,,,44.6099998950958,1201.25317382812,25519.6218839732,25555.3665265584
2018-07-19T08:44:58Z,1531989898,1460A,40.947205,43.8606081,6951,-1.7,-2.5,317.9,539212.19,-110928.6,312.3,Weapon+Missile,Blue,Enemies,R-27ET,,cn,,220.79594906189,158.988464355469,0.706243251247069,6951,5783.416015625,220.739714887275,-4.98291015625,0.0554051557021844,NaN,1.13851057237109,2.10389932805762,5000,0.0738291218876839,0.0738291218876839,0.0738291218876839,2437.54255610704,6816.602415,9254.14497110705,,,45.6099998950958,1167.583984375,25739.3957725455,25775.4364339729
2018-07-19T08:44:59Z,1531989899,1460A,40.9454205,43.8620334,6937.21,-2.8,-4.9,317.9,539053.44,-110784.12,312.3,Weapon+Missile,Blue,Enemies,R-27ET,,cn,,215.09379228921,154.740982055664,0.687877516469509,6937.205078125,5823.07360839844,214.65097160697,-13.794921875,0.0448969245746072,NaN,1.03075750802496,2.40772044304836,5000,0.093368835747242,0.093368835747242,0.093368835747242,2313.26697406769,6803.07421793945,9116.34119200714,,,46.6099998950958,1114.13146972656,25953.1454710692,25989.8630506745
2018-07-19T08:45:00Z,1531989900,1460A,40.9436816,43.8634211,6915,-3.6,-7.3,317.8,538898.75,-110643.46,312.3,Weapon+Missile,Blue,Enemies,R-27ET,,cn,,210.256450695299,151.231781005859,0.672208326506332,6914.99755859375,5878.83471679688,209.080370038064,-22.20751953125,0.0425727996991692,NaN,0.769243225083516,2.36207066028717,5000,0.109802141785622,0.109802141785622,0.109802141785622,2210.38875294924,6781.29608079834,8991.68483374758,,,47.6099998950958,1036.16284179688,26161.3315529615,26199.4550347634
2018-07-19T08:45:01Z,1531989901,1460A,40.9419968,43.8647641,6884.92,-4.4,-9.7,317.8,538748.94,-110507.34,312.2,Weapon+Missile,Blue,Enemies,R-27ET,,cn,,204.637662996187,147.196487426758,0.653982223217897,6884.916015625,5922.9755859375,202.414608882759,-30.08154296875,0.038794666726241,NaN,0.769243225083516,2.35825279798454,4904.75624810443,0.124734617769718,0.124734617769718,0.124734617769718,2093.82865582705,6751.79616446289,8845.62482028994,,,48.6099998950958,961.9404296875,26362.9150454129,26403.4863367239
2018-07-19T08:45:02Z,1531989902,1460A,40.9403508,43.8660736,6847.07,-5,-12.1,317.7,538602.56,-110374.64,312.2,Weapon+Missile,Blue,Enemies,R-27ET,,cn,,201.166096933883,144.854125976562,0.642563782807248,6847.07373046875,5915.09912109375,197.574694760654,-37.84228515625,0.0701841017617967,NaN,0.60001845820728,2.40432114327581,4853.40042494591,0.138695567846298,0.138695567846298,0.138695567846298,2023.38992778063,6714.68555989014,8738.07548767077,,,49.6099998950958,931.974609375,26559.6370588662,26604.0229998467
2018-07-19T08:45:03Z,1531989903,1460A,40.9387488,43.8673448,6801.98,-5.5,-14.4,317.6,538460.12,-110245.87,312.1,Weapon+Missile,Blue,Enemies,R-27ET,,cn,,197.242536014979,142.221374511719,0.629653233946629,6801.978515625,5870.56964111328,192.018331447329,-45.09521484375,0.0353730696926236,NaN,0.461502221839422,2.40965189247959,4774.65310679073,0.148016557097435,0.148016557097435,0.148016557097435,1945.23090068102,6670.46226102539,8615.69316170641,,,50.6099998950958,931.408874511719,26750.8312818525,26800.6624628938
2018-07-19T08:45:04Z,1531989904,1460A,40.9371844,43.8685818,6749.78,-5.9,-16.8,317.5,538321.06,-110120.56,312,Weapon+Missile,Blue,Enemies,R-27ET,,cn,,194.330520192459,140.404602050781,0.619927098877568,6749.77978515625,5757.73828125,187.188791373102,-52.19873046875,0.0497486773892656,NaN,0.369212705774209,2.35968521671954,4713.76349698353,0.150589182972908,0.150589182972908,0.150589182972908,1888.21755391359,6619.27279301025,8507.49034692385,,,51.6099998950958,992.04150390625,26937.1791906988,26994.3737735024
2018-07-19T08:45:05Z,1531989905,1460A,40.9356559,43.8697855,6690.71,-6.3,-19.1,317.4,538185.31,-109998.7,311.8,Weapon+Missile,Blue,Enemies,R-27ET,,cn,,191.746062386902,138.881240844727,0.611203285901485,6690.7138671875,5511.26892089844,182.421955299768,-59.06591796875,0,NaN,0.400030519309307,2.3096577095872,4725.4153918805,0.163241356611252,0.163241356611252,0.163241356611252,1838.32762204409,6561.34891456543,8399.67653660952,,,52.6099998950958,1179.44494628906,27118.8454988281,27185.5831155652
2018-07-19T08:45:06Z,1531989906,1460A,40.934158,43.8709593,6624.89,-6.5,-21.4,317.3,538052.31,-109879.92,311.7,Weapon+Missile,Blue,Enemies,R-27ET,,cn,,190.082591728161,138.10075378418,0.605372718396631,6624.88525390625,5284.10961914062,178.319896118079,-65.82861328125,0.0104745536834465,NaN,0.199987938897973,2.31203120032378,4729.32248342304,0.164703667163849,0.164703667163849,0.164703667163849,1806.56958390474,6496.79309752197,8303.36268142672,,,53.6099998950958,1340.77563476562,27296.3943104624,27375.1163126061
2018-07-19T08:45:07Z,1531989907,1460A,40.9326864,43.8721059,6552.32,-6.7,-23.7,317.1,537921.69,-109763.96,311.5,Weapon+Missile,Blue,Enemies,R-27ET,,cn,,189.143563944733,137.916458129883,0.601804401095231,6552.32177734375,5102.89697265625,174.670631907253,-72.5634765625,0.0362950135569397,NaN,0.199987938897973,2.31507917224089,4743.70940517969,0.160504788160324,0.160504788160324,0.160504788160324,1788.76438908577,6425.63263577881,8214.39702486458,,,54.6099998950958,1449.4248046875,27470.2805346023,27563.7015126307
2018-07-19T08:45:08Z,1531989908,1460A,40.9312513,43.8732165,6473.79,-6.8,-26,316.9,537794.5,-109651.7,311.3,Weapon+Missile,Blue,Enemies,R-27ET,,cn,,186.941179230378,136.805694580078,0.594180921077239,6473.79296875,4949.21520996094,169.647371665141,-78.52880859375,0.0246345957830991,NaN,0,2.26499830425566,4836.24070605274,0.178755193948746,0.178755193948746,0.178755193948746,1747.35022460222,6348.62218169922,8095.97240630144,,,55.6099998950958,1524.57775878906,27639.2483918842,27750.1827408856
2018-07-19T08:45:09Z,1531989909,1460A,40.9298414,43.8742999,6389,-6.9,-28.1,316.7,537669.56,-109542.27,311.1,Weapon+Missile,Blue,Enemies,R-27ET,,cn,,186.476327002187,137.063522338867,0.592042018276772,6389.00390625,4802.06701660156,166.085024648816,-84.7890625,0.0202274173114079,NaN,0,2.19954118634484,4906.44372931628,0.177905380725861,0.177905380725861,0.177905380725861,1738.67102661133,6265.47251572266,8004.14354233398,,,56.6099998950958,1586.93688964844,27804.6114355136,27936.1647176669
2018-07-19T08:45:10Z,1531989910,1460A,40.9284577,43.8753546,6298.23,-6.9,-30.3,316.4,537547,-109435.82,310.9,Weapon+Missile,Blue,Enemies,R-27ET,,cn,,185.988022978159,137.345230102539,0.589787941048195,6298.23291015625,4672.95812988281,162.333517671098,-90.77099609375,0.0541483464260758,NaN,0,2.16867043884367,4985.11104656529,0.1726433634758,0.1726433634758,0.1726433634758,1729.57723456621,6176.45657683838,7906.03381140459,,,57.6099998950958,1625.27478027344,27966.2075870924,28121.6496489898
2018-07-19T08:45:11Z,1531989911,1460A,40.9270991,43.8763813,6201.63,-6.9,-32.5,316.2,537426.81,-109332.3,310.6,Weapon+Missile,Blue,Enemies,R-27ET,,cn,,185.72433191198,137.840866088867,0.588206611545657,6201.6337890625,4562.92895507812,158.625777438808,-96.59912109375,0.0797676051665014,NaN,0,2.08404823700862,5000,0.178872749209404,0.178872749209404,0.178872749209404,1724.67637320757,6081.72519975098,7806.40157295855,,,58.6099998950958,1638.70483398438,28124.1553203125,28306.9272586412
2018-07-19T08:45:12Z,1531989912,1460A,40.9257664,43.8773791,6099.51,-6.8,-34.5,315.9,537309,-109231.77,310.3,Weapon+Missile,Blue,Enemies,R-27ET,,cn,,185.512696061122,138.417007446289,0.586752514206417,6099.50537109375,4457.73803710938,154.870096025884,-102.12841796875,0.0385380908650453,NaN,0.199987938897973,2.01848290328814,5000,0.175570741295815,0.175570741295815,0.175570741295815,1720.74801999331,5981.57143474365,7702.31945473696,,,59.6099998950958,1641.76733398438,28278.3388135923,28491.991123794
2018-07-19T08:45:13Z,1531989913,1460A,40.9244512,43.8783541,5991.41,-6.7,-36.4,315.6,537192.88,-109133.65,310.1,Weapon+Missile,Blue,Enemies,R-27ET,,cn,,186.544487096059,140.008316040039,0.589185100203293,5991.40673828125,4345.08679199219,152.031349563174,-108.0986328125,0.0395351024247876,NaN,0.199987938897973,1.97292831628851,5000,0.177909597754478,0.177909597754478,0.177909597754478,1739.94228329659,5875.56288899658,7615.50517229317,,,60.6099998950958,1646.31994628906,28429.7243477755,28678.1264492459
2018-07-19T08:45:14Z,1531989914,1460A,40.9231638,43.8792985,5878.39,-6.6,-38.3,315.3,537079.31,-109038.7,309.7,Weapon+Missile,Blue,Enemies,R-27ET,,cn,,186.240463698832,140.596466064453,0.587361378248284,5878.38916015625,4228.76086425781,148.028839600652,-113.017578125,0.0442819915592053,NaN,0.199987938897973,1.93395824509218,5000,0.179551437497139,0.179551437497139,0.179551437497139,1734.27551593781,5764.73050574463,7499.00602168243,,,61.6099998950958,1649.62829589844,28577.114211432,28863.9682957276
2018-07-19T08:45:15Z,1531989915,1460A,40.9218941,43.8802199,5759.75,-6.4,-40.2,315,536967.38,-108946.18,309.4,Weapon+Missile,Blue,Enemies,R-27ET,,cn,,187.518938750968,142.475936889648,0.590484884427597,5759.75439453125,4114.38024902344,145.221020432273,-118.634765625,0.0282985237645028,NaN,0.123069763559875,1.90115284650861,5000,0.173306867480278,0.173306867480278,0.173306867480278,1758.16761951447,5648.38954331299,7406.55716282745,,,62.6099998950958,1645.37414550781,28721.6823336418,29051.0840431993
2018-07-19T08:45:16Z,1531989916,1460A,40.9206471,43.8811147,5636.15,-6.3,-42,314.7,536857.56,-108856.42,309.1,Weapon+Missile,Blue,Enemies,R-27ET,,cn,,188.128880316298,143.874465942383,0.591460370652236,5636.1533203125,3995.15026855469,141.828241408526,-123.60107421875,0.0206566700310832,NaN,0.199987938897973,1.8078148964058,5000,0.175047114491463,0.175047114491463,0.175047114491463,1769.62378045321,5527.17829586426,7296.80207631746,,,63.6099998950958,1641.00305175781,28862.866484736,29238.8227458813
2018-07-19T08:45:17Z,1531989917,1460A,40.9194245,43.8819818,5507.98,-6.1,-43.7,314.3,536750,-108769.55,308.8,Weapon+Missile,Blue,Enemies,R-27ET,,cn,,188.534776839583,145.151870727539,0.591758987021751,5507.97998046875,3867.48022460938,138.264084386546,-128.17333984375,0.0183369353272458,NaN,0.200042580411333,1.75483525344812,5000,0.169031694531441,0.169031694531441,0.169031694531441,1777.26810389757,5401.48318754639,7178.75129144396,,,64.6099998950958,1640.49975585938,29000.4921991413,29426.977870569
2018-07-19T08:45:18Z,1531989918,1460A,40.9182232,43.8828238,5375.08,-5.9,-45.4,314,536644.44,-108685.31,308.4,Weapon+Missile,Blue,Enemies,R-27ET,,cn,,189.479690878256,146.905487060547,0.593711279187593,5375.0751953125,3726.1953125,135.051365553595,-132.90478515625,0.0437118719700235,NaN,0.199987938897973,1.7044630352061,5000,0.163610428571701,0.163610428571701,0.163610428571701,1795.12766276598,5271.14811641113,7066.27577917711,,,65.6099998950958,1648.8798828125,29134.9420345475,29616.1108867227
2018-07-19T08:45:19Z,1531989919,1460A,40.9170386,43.883644,5237.09,-5.7,-47,313.6,536540.5,-108603.36,308.1,Weapon+Missile,Blue,Enemies,R-27ET,,cn,,191.202686565869,149.340469360352,0.598053762410971,5237.0927734375,3577.30078125,132.360562870953,-137.982421875,0.0105810117744744,NaN,0.199987938897973,1.60681801050137,5000,0.169215306639671,0.169215306639671,0.169215306639671,1827.92336750031,5135.83358466309,6963.75695216339,,,66.6099998950958,1659.7919921875,29266.7385480121,29806.9992914958
2018-07-19T08:45:20Z,1531989920,1460A,40.915881,43.8844357,5095.42,-5.5,-48.5,313.3,536439,-108524.37,307.7,Weapon+Missile,Blue,Enemies,R-27ET,,cn,,191.343262491286,150.533233642578,0.597413925175996,5095.42333984375,3429.85571289062,128.615767641589,-141.66943359375,0.0381683969611169,NaN,0.199987938897973,1.55835760489671,5000,0.162794709205627,0.162794709205627,0.162794709205627,1830.61220504045,4996.90332956787,6827.51553460833,,,67.6099998950958,1665.56762695312,29394.7704580049,29998.0201392848
2018-07-19T08:45:21Z,1531989921,1460A,40.9147398,43.8852065,4948.88,-5.3,-50.1,312.9,536339,-108447.56,307.4,Weapon+Missile,Blue,Enemies,R-27ET,,cn,,193.326381300275,153.282424926758,0.602483544801397,4948.8759765625,3276.32458496094,126.091078280633,-146.54736328125,0.0333207877125188,NaN,0.199987938897973,1.55527676269422,5000,0.147859886288643,0.147859886288643,0.147859886288643,1868.75448533297,4853.18945955566,6721.94394488863,,,68.6099998950958,1672.55139160156,29520.2540831355,30191.0151564893
2018-07-19T08:45:22Z,1531989922,1460A,40.9136227,43.8859517,4798.62,-5.1,-51.5,312.6,536241.31,-108373.43,307,Weapon+Missile,Blue,Enemies,R-27ET,,cn,,193.950540571942,154.960968017578,0.603280930793211,4798.615234375,3118.46948242188,122.631649851945,-150.2607421875,0.0155299061114509,NaN,0.199987938897973,1.48996339892109,5000,0.161177843809128,0.161177843809128,0.161177843809128,1880.84060940743,4705.83400881836,6586.67461822578,,,69.6099998950958,1680.14575195312,29642.3799111977,30384.7051430363
2018-07-19T08:45:23Z,1531989923,1460A,40.912529,43.886672,4644.74,-4.9,-52.9,312.2,536145.69,-108301.87,306.6,Weapon+Missile,Blue,Enemies,R-27ET,,cn,,194.788853346216,156.856674194336,0.604714840798138,4644.74072265625,2958.07690429688,119.437565410762,-153.87451171875,0.0460934051021133,NaN,0.199987938897973,1.40489595412952,5000,0.144777536392212,0.144777536392212,0.144777536392212,1897.13486939669,4554.93466078369,6452.06953018038,,,70.6099998950958,1686.66381835938,29761.2428067449,30579.1959635768
2018-07-19T08:45:24Z,1531989924,1460A,40.9114539,43.8873712,4486.68,-4.7,-54.3,311.8,536051.81,-108232.51,306.3,Weapon+Missile,Blue,Enemies,R-27ET,,cn,,196.485050331608,159.519393920898,0.608771678221006,4486.68017578125,2795.57470703125,116.71862972718,-158.060546875,0.0586975382734071,NaN,0.200042580411333,1.36969155832168,5000,0.142938211560249,0.142938211560249,0.142938211560249,1930.31875019074,4399.93021458252,6330.24896477325,,,71.6099998950958,1691.10546875,29877.423173334,30775.4110128234
2018-07-19T08:45:25Z,1531989925,1460A,40.910407,43.8880433,4326.03,-4.5,-55.5,311.4,535960.5,-108165.94,305.9,Weapon+Missile,Blue,Enemies,R-27ET,,cn,,196.415151152498,160.73258972168,0.607334108670629,4326.02734375,2631.68298339844,113.002562637303,-160.65283203125,0.00248715151259361,NaN,0.199987938897973,1.30574754075544,5000,0.141570821404457,0.141570821404457,0.141570821404457,1928.94558011293,4242.38360505859,6171.32918517153,,,72.6099998950958,1694.34436035156,29989.9063183401,30971.5723707893
2018-07-19T08:45:26Z,1531989926,1460A,40.9093765,43.8886966,4161.12,-4.3,-56.7,311.1,535870.69,-108101.32,305.6,Weapon+Missile,Blue,Enemies,R-27ET,,cn,,198.58717145431,163.893249511719,0.612790683519851,4161.11767578125,2465.64880371094,110.6420628724,-164.90966796875,0.0255711775165516,NaN,0.200042580411333,1.25022738759164,5000,0.137263000011444,0.137263000011444,0.137263000011444,1971.84323331118,4080.66246552002,6052.5056988312,,,73.6099998950958,1695.46887207031,30100.0154813629,31169.9038224539
2018-07-19T08:45:27Z,1531989927,1460A,40.9083653,43.8893297,3992.54,-4.1,-58,310.7,535782.62,-108038.82,305.2,Weapon+Missile,Blue,Enemies,R-27ET,,cn,,200.196617745959,166.631820678711,0.616467134218394,3992.54296875,2301.29174804688,107.987285854632,-168.57470703125,0.0419840867006043,NaN,0.199987938897973,1.20498602879847,5000,0.12045580893755,0.12045580893755,0.12045580893755,2003.93428784609,3915.34715044922,5919.28143829531,,,74.6099998950958,1691.25122070312,30207.4791492922,31369.8554159626
2018-07-19T08:45:28Z,1531989928,1460A,40.9073726,43.8899433,3820.31,-3.9,-59.1,310.4,535696.38,-107978.32,304.8,Weapon+Missile,Blue,Enemies,R-27ET,,cn,,201.903862832651,169.509643554688,0.620403480224107,3820.30517578125,2143.30493164062,105.353274747395,-172.23779296875,0.0213772453017757,NaN,0.199987938897973,1.13570827382068,5000,0.138120248913765,0.138120248913765,0.138120248913765,2038.2584913373,3746.43957520752,5784.69806654482,,,75.6099998950958,1677.00024414062,30312.40089388,31571.5678816285
2018-07-19T08:45:29Z,1531989929,1460A,40.9063945,43.8905404,3643.88,-3.7,-60.2,310.1,535611.38,-107919.55,304.5,Weapon+Missile,Blue,Enemies,R-27ET,,cn,,204.461306004438,173.190399169922,0.626900686706892,3643.88208007812,1993.73388671875,103.340780699424,-176.423095703125,0.0545006676334124,NaN,0.199987938897973,1.09615849031854,5000,0.11836215108633,0.11836215108633,0.11836215108633,2090.22128265202,3573.42762005981,5663.64890271184,,,76.6099998950958,1650.14819335938,30415.2313234113,31775.8020222036
2018-07-19T08:45:30Z,1531989930,1460A,40.9054416,43.8911151,3465.28,-3.5,-61.3,309.7,535528.69,-107863.07,304.1,Weapon+Missile,Blue,Enemies,R-27ET,,cn,,204.757215529355,174.93913269043,0.626436937401987,3465.28002929688,1838.0673828125,100.134034014746,-178.60205078125,0.0576918705743469,NaN,0.199987938897973,1.08110165845836,5000,0.122541584074497,0.122541584074497,0.122541584074497,2096.27586556673,3398.27883993042,5494.55470549715,,,77.6099998950958,1627.21264648438,30514.915634063,31980.3667632913
2018-07-19T08:45:31Z,1531989931,1460A,40.9045122,43.8916687,3284.33,-3.3,-62.3,309.3,535448.06,-107808.76,303.8,Weapon+Missile,Blue,Enemies,R-27ET,,cn,,205.409216934527,177.03157043457,0.627047344948027,3284.33056640625,1679.10864257812,97.2123360548958,-180.949462890625,0.0160818787113316,NaN,0.169258490935263,1.0309224997821,5000,0.106941930949688,0.106941930949688,0.106941930949688,2109.64732008278,3220.82803490479,5330.47535498757,,,78.6099998950958,1605.22192382812,30611.6465030464,32185.5726929645
2018-07-19T08:45:32Z,1531989932,1460A,40.9036071,43.8922013,3101.34,-3.2,-63.2,309,535369.69,-107756.58,303.5,Weapon+Missile,Blue,Enemies,R-27ET,,cn,,205.789376170235,178.911956787109,0.626814620476634,3101.34448242188,1518.52880859375,94.1560428894378,-182.986083984375,0.0150382628956985,NaN,0.199987938897973,0.993755598526655,5000,0.114193446934223,0.114193446934223,0.114193446934223,2117.46336722672,3041.37998685425,5158.84335408097,,,79.6099998950958,1582.81567382812,30705.3878054044,32391.1940408768
2018-07-19T08:45:33Z,1531989933,1460A,40.9027301,43.8927113,2917.23,-3.1,-64.2,308.7,535293.75,-107706.71,303.1,Weapon+Missile,Blue,Enemies,R-27ET,,cn,,205.305409908094,180.034957885742,0.623951298504297,2917.23291015625,1356.96472167969,90.8473461109908,-184.111572265625,0.0268290605204621,NaN,0.0153837204449843,0.979673135840264,5000,0.104103095829487,0.104103095829487,0.104103095829487,2107.51556687653,2860.82821183838,4968.34377871491,,,80.6099998950958,1560.26818847656,30795.7860035334,32596.3199003912
2018-07-19T08:45:34Z,1531989934,1460A,40.9018797,43.8931999,2731.9,-2.9,-65.2,308.3,535220.19,-107658.99,302.8,Weapon+Missile,Blue,Enemies,R-27ET,,cn,,205.02734167211,181.353591918945,0.621718990751696,2731.90161132812,1190.45275878906,87.6842089991835,-185.331298828125,0.0394061787090216,NaN,0.200042580411333,0.949080505104365,5000,0.0953187420964241,0.0953187420964241,0.0953187420964241,2101.81054165661,2679.0802936731,4780.89083532971,,,81.6099998950958,1541.44885253906,30883.0376683357,32801.1790899684
2018-07-19T08:45:35Z,1531989935,1460A,40.9010542,43.8936686,2545.13,-2.8,-66,308,535148.88,-107613.3,302.5,Weapon+Missile,Blue,Enemies,R-27ET,,cn,,205.078552787553,182.986053466797,0.620485264600645,2545.1298828125,1018.73303222656,84.6967191851175,-186.771728515625,0.0129218060039969,NaN,0.0769186022249217,0.930547213678359,5000,0.105147629976273,0.105147629976273,0.105147629976273,2102.86064067185,2495.91979652832,4598.78043720017,,,82.6099998950958,1526.39685058594,30967.343032549,33006.1106751708
2018-07-19T08:45:36Z,1531989936,1460A,40.9002579,43.8941154,2358.16,-2.7,-66.9,307.7,535080.06,-107569.8,302.2,Weapon+Missile,Blue,Enemies,R-27ET,,cn,,203.922208617962,183.517318725586,0.615613227125895,2358.16235351562,845.73876953125,81.408907106348,-186.967529296875,0.0182469887051125,NaN,0.0307674408899687,0.897575329233768,5000,0.086091510951519,0.086091510951519,0.086091510951519,2079.21335838139,2312.5672844104,4391.78064279179,,,83.6099998950958,1512.42358398438,31048.3060440715,33209.8676541422
2018-07-19T08:45:37Z,1531989937,1460A,40.8994849,43.8945442,2169.77,-2.5,-67.8,307.4,535013.38,-107528.15,301.8,Weapon+Missile,Blue,Enemies,R-27ET,,cn,,204.14377866193,185.324478149414,0.614905964325385,2169.76684570312,670.852661132812,78.6245190919563,-188.3955078125,0.0318791909693819,NaN,0.199987938897973,0.827287826836724,5000,0.0842848345637321,0.0842848345637321,0.0842848345637321,2083.73411831856,2127.81440374145,4211.54852206001,,,84.6099998950958,1498.91418457031,31126.5592011674,33413.8793497098
2018-07-19T08:45:38Z,1531989938,1460A,40.8987377,43.8949538,1980.75,-2.4,-68.6,307,534949,-107488.42,301.5,Weapon+Missile,Blue,Enemies,R-27ET,,cn,,203.592807781099,186.425689697266,0.611878600283266,1980.74914550781,495.451293945312,75.6461525331355,-189.017700195312,0.0293362821701512,NaN,0.200042580411333,0.82793808219005,5000,0.0953850895166397,0.0953850895166397,0.0953850895166397,2072.50156900957,1942.45136077942,4014.95292978899,,,85.6099998950958,1485.2978515625,31201.8713344499,33617.3573582396
