ISOTime,UnixTime,Id,Longitude,Latitude,Altitude,Roll,Pitch,Yaw,U,V,Heading,Type,Color,Coalition,Name,Group,Country,Pilot,TAS,CAS,M,ASL,AGL,GS,VS,AOA,AOS,RRT,TRT,TRD,G,LatG,LonG,Ek,Ep,Em,FFW,FFV,RelativeTime,Elev,GroundDistance,AirDistance
2018-07-19T08:44:42Z,1531989882,1850B,41.1086384,43.6091841,7714.71,-41.8,0.8,342.1,554941.56,-137595.58,336.4,Weapon+Missile,Blue,Enemies,R-77,,cn,,271.010073689868,190.660034179688,0.875835656896865,7714.7138671875,5049.62524414062,NaN,NaN,NaN,NaN,NaN,NaN,NaN,NaN,NaN,NaN,NaN,7565.54987456543,NaN,,,0.460000038146973,2665.08862304688,NaN,NaN
2018-07-19T08:44:43Z,1531989883,1850B,41.1076456,43.6117787,7699.29,-34.6,-0.6,342,554833.06,-137315.19,336.3,Weapon+Missile,Blue,Enemies,R-77,,cn,,301.046786356932,214.370468139648,0.972702174038952,7699.2861328125,4924.66333007812,300.651214179971,-15.427734375,3.73048849647873,NaN,6.10768492941963,2.35131732631722,5000,0.843605756759644,0.843605756759644,0.843605756759644,4531.45837879181,7550.42043543457,12081.8788142264,,,1.46000003814697,2774.62280273438,299.708712979747,300.467201197818
2018-07-19T08:44:44Z,1531989884,1850B,41.1060653,43.6154406,7673.78,-28.8,-2.5,341.7,554665.56,-136920.83,336.1,Weapon+Missile,Blue,Enemies,R-77,,cn,,429.21590124434,314.719390869141,1.38634340798699,7673.77685546875,4844.67919921875,428.457193486573,-25.50927734375,0.155592554291807,NaN,5.78463747224554,2.14786674984887,5000,1.35702586174011,1.35702586174011,1.35702586174011,9211.31449404955,7525.40437996826,16736.7188740178,,,2.46000003814697,2829.09765625,726.787835792463,728.821250033439
2018-07-19T08:44:45Z,1531989885,1850B,41.1038502,43.620315,7643.79,-23.8,-3.5,341.8,554433.5,-136396.8,336.2,Weapon+Missile,Blue,Enemies,R-77,,cn,,573.899760199665,412.657348632812,1.85290794928893,7643.79052734375,4793.97412109375,573.115830249708,-29.986328125,0.0452242472411169,NaN,4.78460215510729,0.916881819418161,5000,0.124714486300945,0.124714486300945,0.124714486300945,16468.0467378616,7495.99783749756,23964.0445753592,,,3.46000003814697,2849.81640625,1298.00959170334,1301.51450531147
2018-07-19T08:44:46Z,1531989886,1850B,41.1010858,43.6264298,7595.95,-19.6,-4.1,341.9,554143.62,-135739.3,336.2,Weapon+Missile,Blue,Enemies,R-77,,cn,,720.154471619708,506.049224853516,2.32359818399365,7595.9501953125,4710.90405273438,718.56368237269,-47.84033203125,0.0461103405222264,NaN,3.95381551050738,0.771027185117359,5000,0.0310090351849794,0.0310090351849794,0.0310090351849794,25931.123149693,7449.08249828613,33380.2056479791,,,4.46000003814697,2885.04614257812,2014.23259970683,2020.18725118711
2018-07-19T08:44:47Z,1531989887,1850B,41.09778,43.6337462,7528.31,-16.2,-4.8,341.9,553797,-134952.58,336.2,Weapon+Missile,Blue,Enemies,R-77,,cn,,862.351709177812,597.603271484375,2.77984828725813,7528.31005859375,4759.49462890625,859.69487739928,-67.64013671875,0.0259725391969875,NaN,3.27693693356994,0.619297307469876,5000,0.0609515197575092,0.0609515197575092,0.0609515197575092,37182.5235160947,7382.75018361084,44565.2736997055,,,5.46000003814697,2768.8154296875,2871.13683764323,2880.76977373766
2018-07-19T08:44:48Z,1531989888,1850B,41.0938917,43.642351,7438.73,-13.4,-5.3,341.9,553389.44,-134027.3,336.2,Weapon+Missile,Blue,Enemies,R-77,,cn,,1015.02583013856,698.074829101562,3.26803614792864,7438.728515625,4741.66479492188,1011.06507357727,-89.58154296875,0.0491454034754985,NaN,2.70773116625588,0.494960170292993,5000,0.165121734142303,0.165121734142303,0.165121734142303,51513.8717924237,7294.90069977539,58808.7724921991,,,6.46000003814697,2697.06372070312,3878.93774901936,3893.72204225938
2018-07-19T08:44:49Z,1531989889,1850B,41.0896016,43.6518727,7330.65,-11.1,-5.8,342,552939.44,-133003.31,336.3,Weapon+Missile,Blue,Enemies,R-77,,cn,,1123.71031914264,772.579406738281,3.61268520147152,7330.650390625,4694.61083984375,1118.50078240658,-108.078125,0.0434947371498727,NaN,2.03077745723758,0.577776053896839,5000,0.379412949085236,0.379412949085236,0.379412949085236,63136.2440673828,7188.91226532227,70325.1563327051,,,7.46000003814697,2636.03955078125,4993.79832614631,5015.09387070975
2018-07-19T08:44:50Z,1531989890,1850B,41.0855024,43.6610376,7214.34,-9.3,-6.5,342.2,552508.88,-132017.44,336.5,Weapon+Missile,Blue,Enemies,R-77,,cn,,1082.06311716289,749.993286132812,3.47334670349469,7214.3447265625,4995.74169921875,1075.7943957984,-116.3056640625,0.0341769774071944,NaN,1.73845731359208,0.712045193261419,5000,0.508908569812775,0.508908569812775,0.508908569812775,58543.0294762135,7074.85537127441,65617.8848474879,,,8.46000003814697,2218.60302734375,6066.12519936944,6094.92518880562
2018-07-19T08:44:51Z,1531989891,1850B,41.0816506,43.6697549,7091.06,-7.8,-7.2,342.4,552103.19,-131079.33,336.7,Weapon+Missile,Blue,Enemies,R-77,,cn,,1029.48030254546,720.1474609375,3.29909559138841,7091.06396484375,4893.59204101562,1022.07218292992,-123.28076171875,0.0412772560800878,NaN,1.33847631315426,0.660356722861143,5000,0.424393355846405,0.424393355846405,0.424393355846405,52991.4846664548,6953.9582430835,59945.4429095383,,,9.46000003814697,2197.47192382812,7084.8966376819,7122.26280200166
2018-07-19T08:44:52Z,1531989892,1850B,41.0780475,43.6780266,6964.47,-6.6,-7.7,342.6,551722.5,-130188.77,337,Weapon+Missile,Blue,Enemies,R-77,,cn,,976.755538505008,689.906860351562,3.12483571740702,6964.466796875,4395.9892578125,968.516669480965,-126.59716796875,0.048971262221897,NaN,1.138472152557,0.561632421545838,5000,0.464735895395279,0.464735895395279,0.464735895395279,47702.5691000104,6829.80883135742,54532.3779313678,,,10.460000038147,2568.4775390625,8050.31493982656,8097.00091911815
2018-07-19T08:44:53Z,1531989893,1850B,41.0746596,43.6859028,6837.38,-5.5,-8,342.8,551363.56,-129340.41,337.2,Weapon+Missile,Blue,Enemies,R-77,,cn,,929.886192438,663.145141601562,2.96985462719381,6837.376953125,4338.14990234375,921.160410841913,-127.08984375,0.0625027392464178,NaN,1.10767995223129,0.345910341481947,5000,0.860125780105591,0.860125780105591,0.860125780105591,43234.416544342,6705.17626973633,49939.5928140784,,,11.460000038147,2499.22705078125,8968.53254065304,9024.95611112425
2018-07-19T08:44:54Z,1531989894,1850B,41.0714816,43.6933851,6714.95,-4.5,-8,343,551025.88,-128534.18,337.4,Weapon+Missile,Blue,Enemies,R-77,,cn,,882.630082780843,635.585266113281,2.81434629757412,6714.94677734375,4485.27490234375,874.097657637801,-122.43017578125,0.0633673920362024,NaN,0.969226895113258,0.183454198691701,5000,1.16225600242615,1.16225600242615,1.16225600242615,38951.7931514859,6585.11328140381,45536.9064328897,,,12.460000038147,2229.671875,9839.84991646475,9905.74956957254
2018-07-19T08:44:55Z,1531989895,1850B,41.0684857,43.7005187,6599.72,-3.6,-7.7,343.2,550706.69,-127765.23,337.6,Weapon+Missile,Blue,Enemies,R-77,,cn,,840.497108645688,610.870544433594,2.67591369340836,6599.71728515625,4606.2763671875,832.560840883099,-115.2294921875,0.0397046856397509,NaN,0.969226895113258,0.307583482006361,5000,1.59759914875031,1.59759914875031,1.59759914875031,35321.7694820881,6472.11175144775,41793.8812335358,,,13.460000038147,1993.44091796875,10669.755829663,10744.4749098351
2018-07-19T08:44:56Z,1531989896,1850B,41.0656494,43.7073453,6495.26,-2.9,-7.2,343.4,550403.81,-127029.12,337.7,Weapon+Missile,Blue,Enemies,R-77,,cn,,802.808728772962,588.523498535156,2.55240004467323,6495.2587890625,4655.61462402344,795.983842541977,-104.45849609375,0.0244077166330349,NaN,0.769238956215285,0.529901123570104,5000,1.83224844932556,1.83224844932556,1.83224844932556,32225.0927497029,6369.67296037598,38594.7657100789,,,14.460000038147,1839.64416503906,11463.2326491954,11545.6055790951
2018-07-19T08:44:57Z,1531989897,1850B,41.0629756,43.713841,6403.92,-2.2,-6.5,343.5,550117.69,-126328.5,337.9,Weapon+Missile,Blue,Enemies,R-77,,cn,,762.289536934924,563.635314941406,2.42066125454261,6403.921875,4639.06884765625,756.797797466404,-91.3369140625,0.0508529550694937,NaN,0.584634737762296,0.685653555751902,5000,1.98723208904266,1.98723208904266,1.98723208904266,29054.266906023,6280.10204554688,35334.3689515699,,,15.460000038147,1764.85302734375,12217.6615879165,12306.3007321985
2018-07-19T08:44:58Z,1531989898,1850B,41.0604503,43.7200285,6326.47,-1.6,-5.7,343.6,549846.81,-125660.95,338,Weapon+Missile,Blue,Enemies,R-77,,cn,,724.569829183433,540.043151855469,2.29854035507454,6326.46923828125,4309.97253417969,720.41829962059,-77.45263671875,0.0320544476689121,NaN,0.59996381669392,0.729556410911157,5000,1.89994502067566,1.89994502067566,1.89994502067566,26250.0718681455,6204.14695555908,32454.2188237045,,,16.460000038147,2016.49670410156,12935.7857164766,13029.3021155462
2018-07-19T08:44:59Z,1531989899,1850B,41.0580555,43.7259438,6261.09,-1.2,-5.1,343.7,549589.56,-125022.59,338.1,Weapon+Missile,Blue,Enemies,R-77,,cn,,691.33524851992,519.008422851562,2.19123044235996,6261.09228515625,4260.18615722656,688.237081132796,-65.376953125,0.0425331186885355,NaN,0.369225298935491,0.68572495257307,5000,1.74488437175751,1.74488437175751,1.74488437175751,23897.221292305,6140.03406582275,30037.2553581277,,,17.460000038147,2000.90612792969,13621.8831151943,13719.1812734889
2018-07-19T08:45:00Z,1531989900,1850B,41.0557835,43.7315941,6205.81,-0.8,-4.5,343.8,549345.06,-124412.72,338.2,Weapon+Missile,Blue,Enemies,R-77,,cn,,659.381445142876,498.447296142578,2.08843787272354,6205.81005859375,4232.30920410156,657.059940663711,-55.2822265625,0.0382987322550338,NaN,0.36920865034939,0.630570001086453,5000,1.63116681575775,1.63116681575775,1.63116681575775,21739.1945099354,6085.82072111084,27825.0152310462,,,18.460000038147,1973.50085449219,14276.8880841572,14377.1528852446
2018-07-19T08:45:01Z,1531989901,1850B,41.0536329,43.736975,6159.22,-0.5,-4,343.9,549113.31,-123831.8,338.3,Weapon+Missile,Blue,Enemies,R-77,,cn,,627.175480140572,477.362762451172,1.9852225076485,6159.21826171875,4287.66516113281,625.442473256746,-46.591796875,0.0242773829345078,NaN,0.230763704080993,0.547875620144639,5000,1.59692287445068,1.59692287445068,1.59692287445068,19667.4541444778,6040.12977662842,25707.5839211063,,,19.460000038147,1871.55310058594,14900.3648481948,15002.9707802258
2018-07-19T08:45:02Z,1531989902,1850B,41.0515827,43.7421353,6120.3,-0.3,-3.5,344,548892.06,-123274.61,338.4,Weapon+Missile,Blue,Enemies,R-77,,cn,,600.769510658765,459.959899902344,1.90067182639869,6120.30126953125,4268.8486328125,599.507691907493,-38.9169921875,0.027530968295984,NaN,0.199987938897973,0.512442039473641,5000,1.48969542980194,1.48969542980194,1.48969542980194,18046.2002468586,6001.96524448486,24048.1654913435,,,20.460000038147,1851.45263671875,15498.0027592488,15602.4485364581
2018-07-19T08:45:03Z,1531989903,1850B,41.049648,43.7470367,6088.01,-0.1,-3,344.1,548683,-122745.26,338.5,Weapon+Missile,Blue,Enemies,R-77,,cn,,570.05521386263,439.285522460938,1.80273994331695,6088.009765625,4319.55883789062,569.139882302621,-32.29150390625,0.0558348054687732,NaN,0.199987938897973,0.417547019683481,5000,1.37055313587189,1.37055313587189,1.37055313587189,16248.1473425984,5970.29809680664,22218.4454394051,,,21.460000038147,1768.45092773438,16065.3803478402,16171.2864237182
2018-07-19T08:45:04Z,1531989904,1850B,41.0478044,43.7517424,6060.54,0,-2.7,344.3,548483.31,-122236.96,338.6,Weapon+Missile,Blue,Enemies,R-77,,cn,,546.804739824535,423.545471191406,1.72859317560555,6060.53955078125,4539.15502929688,546.114283635775,-27.47021484375,0.0311878599233386,NaN,0.199987938897973,0.289898601460891,5000,1.11827290058136,1.11827290058136,1.11827290058136,14949.7711747289,5943.35901856689,20893.1301932958,,,22.460000038147,1521.38452148438,16609.7825578211,16716.8990665767
2018-07-19T08:45:05Z,1531989905,1850B,41.0460572,43.7562142,6035.53,-0.1,-3,344.1,548294.06,-121753.87,338.5,Weapon+Missile,Blue,Enemies,R-77,,cn,,519.442771768515,404.678070068359,1.64155943943692,6035.5263671875,4661.46423339844,518.840181355552,-25.01318359375,0.0719026952047398,NaN,0.199987938897973,0.0678104649254304,5000,0.767157196998596,0.767157196998596,0.767157196998596,13491.0396571279,5918.82946487793,19409.8691220058,,,23.460000038147,1374.06213378906,17127.0271023118,17235.2379605436
2018-07-19T08:45:06Z,1531989906,1850B,41.0443771,43.7604783,6009.39,-0.1,-3,344.1,548112.44,-121293.31,338.5,Weapon+Missile,Blue,Enemies,R-77,,cn,,495.76318303469,388.186920166016,1.56619316359608,6009.39453125,4397.56567382812,495.073995280728,-26.1318359375,0.0477763307871284,NaN,0,0.182652491897658,5000,0.990282535552979,0.990282535552979,0.990282535552979,12289.0566826344,5893.20288798828,18182.2595706226,,,24.460000038147,1611.82885742188,17620.5508278173,17729.9183867986
2018-07-19T08:45:07Z,1531989907,1850B,41.0427725,43.7645487,5984.36,-0.1,-3,344.1,547939,-120853.69,338.5,Weapon+Missile,Blue,Enemies,R-77,,cn,,473.262627911242,372.243072509766,1.49462314794032,5984.3583984375,4238.73254394531,472.59994396027,-25.0361328125,0.0419031252794505,NaN,0,0,5000,0.99896639585495,0.99896639585495,0.99896639585495,11198.8757488728,5868.65082880371,17067.5265776765,,,25.460000038147,1745.62585449219,18091.6734427344,18202.1480979198
2018-07-19T08:45:08Z,1531989908,1850B,41.0412413,43.7684325,5960.46,-0.1,-3,344.1,547773.56,-120434.22,338.5,Weapon+Missile,Blue,Enemies,R-77,,cn,,451.546941743931,356.516998291016,1.42559895700881,5960.4619140625,4123.0703125,450.914181006555,-23.896484375,0.0439210758953068,NaN,0,0,5000,1.00020742416382,1.00020742416382,1.00020742416382,10194.7320299149,5845.2163829541,16039.948412869,,,26.460000038147,1837.3916015625,18541.1973380386,18652.7270439828
2018-07-19T08:45:09Z,1531989909,1850B,41.0397753,43.7721506,5937.59,0,-3,344.1,547615.12,-120032.66,338.5,Weapon+Missile,Blue,Enemies,R-77,,cn,,432.293975695989,342.244567871094,1.36440868934329,5937.58837890625,4028.50439453125,431.688409402546,-22.87353515625,0.0450851472987956,NaN,0,0,5000,0.999322474002838,0.999322474002838,0.999322474002838,9343.90407115221,5822.7851076001,15166.6891787523,,,27.460000038147,1909.083984375,18971.5422755814,19084.0802623347
2018-07-19T08:45:10Z,1531989910,1850B,41.0383854,43.7756754,5915.9,0,-3,344.1,547465,-119651.96,338.5,Weapon+Missile,Blue,Enemies,R-77,,cn,,409.801037264035,324.972015380859,1.29305182281842,5915.8984375,3965.24475097656,409.226632301067,-21.68994140625,0.0426112058460376,NaN,0,0,5000,1.0006867647171,1.0006867647171,1.0006867647171,8396.84450713396,5801.51454121094,14198.3590483449,,,28.460000038147,1950.65368652344,19379.5188091024,19493.0115274773
2018-07-19T08:45:11Z,1531989911,1850B,41.037058,43.7790413,5895.19,0,-3,344.1,547321.56,-119288.43,338.5,Weapon+Missile,Blue,Enemies,R-77,,cn,,391.354016426829,310.404602050781,1.23451361141715,5895.19384765625,3999.13012695312,390.805944341706,-20.70458984375,0.0426014844780587,NaN,0,0,5000,0.999211847782135,0.999211847782135,0.999211847782135,7657.89830867052,5781.21027461182,13439.1085832823,,,29.460000038147,1896.06372070312,19769.1014665259,19883.5041839985
2018-07-19T08:45:12Z,1531989912,1850B,41.0357885,43.7822599,5875.39,0,-3,344.1,547184.5,-118940.8,338.5,Weapon+Missile,Blue,Enemies,R-77,,cn,,374.201564461421,296.525512695312,1.18010336187266,5875.39208984375,4049.05163574219,373.677268820181,-19.8017578125,0.0464466551836002,NaN,0,0,5000,1.00011944770813,1.00011944770813,1.00011944770813,7001.34054226875,5761.79138378662,12763.1319260554,,,30.460000038147,1826.34045410156,20141.6459732295,20256.9178518336
2018-07-19T08:45:13Z,1531989913,1850B,41.0345868,43.7853066,5856.65,0,-3,344.1,547054.69,-118611.74,338.5,Weapon+Missile,Blue,Enemies,R-77,,cn,,354.230916372721,279.943634033203,1.11685115881244,5856.64990234375,4047.45544433594,353.734748818903,-18.7421875,0.0418577059030251,NaN,0,0,5000,0.998826265335083,0.998826265335083,0.998826265335083,6273.97710571289,5743.41157648193,12017.3886821948,,,31.460000038147,1809.19445800781,20494.2820064246,20610.3754616776
2018-07-19T08:45:14Z,1531989914,1850B,41.0334426,43.7882071,5838.8,0,-3,344.1,546931.06,-118298.48,338.5,Weapon+Missile,Blue,Enemies,R-77,,cn,,337.249419147509,265.634216308594,1.06306421985173,5838.79833984375,3969.17553710938,336.776620969509,-17.8515625,0.046759463089373,NaN,0,0,5000,1.00008141994476,1.00008141994476,1.00008141994476,5686.8585357666,5725.90517394287,11412.7637097095,,,32.460000038147,1869.62280273438,20830.0012902426,20946.8763973055
2018-07-19T08:45:15Z,1531989915,1850B,41.0323534,43.7909681,5821.81,0,-3,344.1,546813.44,-118000.27,338.5,Weapon+Missile,Blue,Enemies,R-77,,cn,,321.012974028644,251.862731933594,1.01166153651355,5821.810546875,3924.66174316406,320.56316754232,-16.98779296875,0.0440022277636603,NaN,0,0,5000,0.999148786067963,0.999148786067963,0.999148786067963,5152.46647473574,5709.24583995117,10861.7123146869,,,33.460000038147,1897.14880371094,21149.5706567458,21267.1886764812
2018-07-19T08:45:16Z,1531989916,1850B,41.0313222,43.7935819,5805.72,0,-3,344.1,546702.12,-117717.98,338.5,Weapon+Missile,Blue,Enemies,R-77,,cn,,303.876217687843,237.415664672852,0.957456041555467,5805.724609375,3944.76171875,303.450157836531,-16.0859375,0.04803722148522,NaN,0,0,5000,1.02177107334137,1.02177107334137,1.02177107334137,4617.03778381348,5693.47092405273,10310.5087078662,,,34.460000038147,1860.962890625,21452.1060870495,21570.4268299843
2018-07-19T08:45:17Z,1531989917,1850B,41.0303613,43.796075,5790.47,-0.2,-3,346.4,546597.75,-117448.52,340.8,Weapon+Missile,Blue,Enemies,R-77,,cn,,289.364439870067,225.291839599609,0.911552092117747,5790.4716796875,3981.62829589844,288.962155302845,-15.2529296875,0.0398686232836974,NaN,0.35380379900666,2.82361215571432,3225.1409010044,2.74744153022766,2.74744153022766,2.74744153022766,4186.58895306587,5678.51290976074,9865.10186282661,,,35.460000038147,1808.84338378906,21740.1787461933,21859.1645229634
2018-07-19T08:45:18Z,1531989918,1850B,41.0297548,43.7984578,5776.66,-0.6,-2.9,352.5,546523.06,-117188.53,346.9,Weapon+Missile,Blue,Enemies,R-77,,cn,,270.859442291824,209.928100585938,0.853105353688898,5776.6630859375,4023.99865722656,270.507227661823,-13.80859375,0.449267381958733,NaN,0.369212705774209,4.49390119318191,4532.53059151238,1.87952721118927,1.87952721118927,1.87952721118927,3668.24187393189,5664.9713051709,9333.21317910278,,,36.460000038147,1752.66442871094,22009.8727293008,22129.4560148823
2018-07-19T08:45:19Z,1531989919,1850B,41.0293661,43.8007422,5762.82,-0.6,-3.3,353.1,546467,-116937.78,347.5,Weapon+Missile,Blue,Enemies,R-77,,cn,,257.313563383813,198.829254150391,0.81029571178742,5762.8173828125,4056.47448730469,256.940783851552,-13.845703125,0.0579168535697075,NaN,0.200042580411333,1.55004430418146,5000,0.802900731563568,0.802900731563568,0.802900731563568,3310.51349506378,5651.39330871582,8961.9068037796,,,37.460000038147,1706.34289550781,22266.0809796374,22386.2695407361
2018-07-19T08:45:20Z,1531989920,1850B,41.0289754,43.802958,5747.42,-0.5,-3.8,352.4,546411.56,-116694.67,346.8,Weapon+Missile,Blue,Enemies,R-77,,cn,,249.825071645066,192.805236816406,0.786557300562492,5747.419921875,4058.38781738281,249.350124562112,-15.3974609375,0.0230820925309721,NaN,0.199987938897973,0.720921824500644,5000,0.838718295097351,0.838718295097351,0.838718295097351,3120.62832112312,5636.29355768555,8756.92187880867,,,38.460000038147,1689.03210449219,22514.7294981204,22635.6182757932
2018-07-19T08:45:21Z,1531989921,1850B,41.0285617,43.8050964,5730.43,-0.4,-4.3,351.9,546355.06,-116460.32,346.2,Weapon+Missile,Blue,Enemies,R-77,,cn,,241.66431114715,186.268463134766,0.760696518054964,5730.427734375,4092.97229003906,241.066183539275,-16.9921875,0.0659306633033736,NaN,0.199987938897973,0.672178499653966,5000,0.810157358646393,0.810157358646393,0.810157358646393,2920.08196411133,5619.62991413086,8539.71187824219,,,39.460000038147,1637.45544433594,22755.0909379917,22876.7953272575
2018-07-19T08:45:22Z,1531989922,1850B,41.0281497,43.8071747,5712.05,-0.4,-4.7,351.9,546299.38,-116232.65,346.3,Weapon+Missile,Blue,Enemies,R-77,,cn,,235.102651701105,181.07438659668,0.739866350956389,5712.0517578125,4135.85717773438,234.383404536809,-18.3759765625,0.0537140667847813,NaN,0,0.383469151521451,5000,0.865611493587494,0.865611493587494,0.865611493587494,2763.66284184456,5601.60923707519,8365.27207891975,,,40.460000038147,1576.19458007812,22988.7986729225,23111.4333756083
2018-07-19T08:45:23Z,1531989923,1850B,41.0277483,43.8091961,5692.91,-0.4,-4.8,351.8,546245.12,-116011.21,346.2,Weapon+Missile,Blue,Enemies,R-77,,cn,,228.788013341086,176.102355957031,0.719816205134785,5692.912109375,4145.17028808594,227.986027875065,-19.1396484375,0.0455918069287565,NaN,0,0.195835570748789,5000,0.971121609210968,0.971121609210968,0.971121609210968,2617.19775242806,5582.83965374023,8200.03740616829,,,41.460000038147,1547.74182128906,23216.1189496229,23339.7605018875
2018-07-19T08:45:24Z,1531989924,1850B,41.0273577,43.8111607,5674.06,-0.3,-4.9,351.9,546192.38,-115796,346.3,Weapon+Missile,Blue,Enemies,R-77,,cn,,222.381859710545,171.066314697266,0.699490760889385,5674.060546875,4124.45007324219,221.581384867116,-18.8515625,0.0407166884674456,NaN,0,0.0906541126458174,5000,0.963163793087006,0.963163793087006,0.963163793087006,2472.68457641602,5564.35258620117,8037.03716261719,,,42.460000038147,1549.61047363281,23437.0555248297,23561.6960416568
2018-07-19T08:45:25Z,1531989925,1850B,41.0269823,43.8130704,5655.41,-0.3,-5,352,546141.44,-115586.77,346.4,Weapon+Missile,Blue,Enemies,R-77,,cn,,216.15150114057,166.183227539062,0.679729838301874,5655.41064453125,4086.92260742188,215.345426206109,-18.64990234375,0.0214205843652673,NaN,0,0.186626554756908,5000,0.958622932434082,0.958622932434082,0.958622932434082,2336.0735722661,5546.06327971924,7882.13685198534,,,43.460000038147,1568.48803710938,23651.7755446848,23777.4144641628
2018-07-19T08:45:26Z,1531989926,1850B,41.0266233,43.8149297,5636.88,-0.3,-5.1,352.2,546092.38,-115383.01,346.5,Weapon+Missile,Blue,Enemies,R-77,,cn,,210.399059386947,161.695495605469,0.661482020442926,5636.8798828125,4074.53796386719,209.58142823503,-18.53076171875,0.0566143227894076,NaN,0,0.196583516483545,5000,0.945121288299561,0.945121288299561,0.945121288299561,2213.38820954561,5527.89081027832,7741.27901982393,,,44.460000038147,1562.34191894531,23860.7482541362,23987.3914445321
2018-07-19T08:45:27Z,1531989927,1850B,41.0262818,43.8167346,5618.38,-0.3,-5.3,352.3,546045.38,-115185.16,346.7,Weapon+Missile,Blue,Enemies,R-77,,cn,,204.189350907945,156.84895324707,0.641805964452815,5618.3828125,4082.60766601562,203.349820295132,-18.4970703125,0.0201013071718075,NaN,0,0.181038446159632,5000,0.905301988124847,0.905301988124847,0.905301988124847,2084.6645512104,5509.75138082031,7594.41593203072,,,45.460000038147,1535.77514648438,24063.5346197966,24191.197849592
2018-07-19T08:45:28Z,1531989928,1850B,41.0259492,43.8185035,5599.37,-0.3,-5.9,352.2,545999.38,-114991.24,346.6,Weapon+Missile,Blue,Enemies,R-77,,cn,,200.208064342944,153.803665161133,0.629137811111271,5599.36767578125,4067.34814453125,199.303019554435,-19.01513671875,0.0222191422444092,NaN,0,0.673124000606336,5000,0.59210216999054,0.59210216999054,0.59210216999054,2004.16345139742,5491.10390177002,7495.26735316744,,,46.460000038147,1532.01953125,24262.2474691564,24390.992371828
2018-07-19T08:45:29Z,1531989929,1850B,41.0256232,43.8202195,5576.99,-0.5,-7.6,352.2,545954.56,-114803.15,346.5,Weapon+Missile,Blue,Enemies,R-77,,cn,,194.648666248803,149.5224609375,0.611491559056188,5576.99169921875,4007.23669433594,193.358265779647,-22.3759765625,0.109774372317264,NaN,0.215396845665522,2.0270268296096,3776.42136217981,0.048407293856144,0.048407293856144,0.048407293856144,1894.4051636219,5469.16056471436,7363.56572833626,,,47.460000038147,1569.75500488281,24455.0553141346,24585.2620791234
2018-07-19T08:45:30Z,1531989930,1850B,41.0253103,43.8218972,5545.19,-1.4,-12.2,352.8,545911.19,-114619.2,347.1,Weapon+Missile,Blue,Enemies,R-77,,cn,,191.646881656397,147.362396240234,0.601814993668973,5545.19140625,3907.6142578125,188.99012835522,-31.80029296875,0.0354926144450706,NaN,0.969231163981489,4.55423780364933,1806.13421459952,1.08023393154144,1.08023393154144,1.08023393154144,1836.42636243105,5437.97513041016,7274.40149284121,,,48.460000038147,1637.5771484375,24643.5017215104,24776.5348161361
2018-07-19T08:45:31Z,1531989931,1850B,41.0250401,43.8234991,5494.92,-2.6,-19.3,353.4,545872.06,-114443.33,347.8,Weapon+Missile,Blue,Enemies,R-77,,cn,,187.055756697495,144.065765380859,0.587018210029195,5494.92138671875,3766.41125488281,180.17430796315,-50.27001953125,0.105429078126273,NaN,1.26156326045804,6.63560860650331,1547.73027119627,1.33266031742096,1.33266031742096,1.33266031742096,1749.49280568361,5388.67708170654,7138.16988739016,,,49.460000038147,1728.51013183594,24823.1456937048,24963.2295303098
2018-07-19T08:45:32Z,1531989932,1850B,41.0248144,43.8249886,5425.7,-3.4,-25.4,354,545837.75,-114279.62,348.4,Weapon+Missile,Blue,Enemies,R-77,,cn,,181.026324199379,139.748764038086,0.567591937051482,5425.69775390625,3628.54528808594,167.268104291819,-69.2236328125,0.0911606517387838,NaN,0.738480053061779,6.21094629061282,1906.36275304028,0.834577679634094,0.834577679634094,0.834577679634094,1638.52650265694,5320.79188783447,6959.31839049141,,,50.460000038147,1797.15246582031,24989.9411511884,25143.9511142254
2018-07-19T08:45:33Z,1531989933,1850B,41.0246131,43.8263836,5342.73,-3.5,-30.4,354.1,545806.44,-114126.2,348.4,Weapon+Missile,Blue,Enemies,R-77,,cn,,177.205154056838,137.282409667969,0.555020606944842,5342.734375,3512.74743652344,156.584623717546,-82.96337890625,0.0934672116303837,NaN,0,4.60386809259276,3137.35562179978,0.165151476860046,0.165151476860046,0.165151476860046,1570.08333121538,5239.43260585938,6809.51593707476,,,51.460000038147,1829.98693847656,25146.0749144794,25320.8744011678
2018-07-19T08:45:34Z,1531989934,1850B,41.0244141,43.8277118,5252.61,-2.3,-29.7,353.5,545776,-113980.2,347.8,Weapon+Missile,Blue,Enemies,R-77,,cn,,174.247880318007,135.543319702148,0.545129644919829,5252.611328125,3425.32702636719,149.131352227777,-90.123046875,0.0548781651493326,NaN,1.93847086569944,0.482852912937205,2787.76241237143,1.96008384227753,1.96008384227753,1.96008384227753,1518.11618976593,5151.0520880957,6669.16827786163,,,52.460000038147,1827.28430175781,25294.7826867111,25494.865539106
2018-07-19T08:45:35Z,1531989935,1850B,41.0241897,43.8290592,5173.37,-0.8,-25.5,352.9,545743.38,-113832.25,347.2,Weapon+Missile,Blue,Enemies,R-77,,cn,,170.978616596073,133.463455200195,0.534361317487287,5173.3701171875,3357.51770019531,151.507484377062,-79.2412109375,0.0405670948652484,NaN,1.33844803190222,4.1500459915882,3162.13152794261,1.82972085475922,1.82972085475922,1.82972085475922,1461.68436665535,5073.34300597168,6535.02737262703,,,53.460000038147,1815.85241699219,25445.8543409954,25665.5674324056
2018-07-19T08:45:36Z,1531989936,1850B,41.0239424,43.8304103,5103.79,-0.1,-25.9,351.9,545708.81,-113684.07,346.3,Weapon+Missile,Blue,Enemies,R-77,,cn,,167.313636570726,130.98518371582,0.522443951376566,5103.78515625,3299.76098632812,152.157110230997,-69.5849609375,0.835181837406129,NaN,0,1.71545483729306,5000,0.970161378383636,0.970161378383636,0.970161378383636,1399.69264912605,5005.10347025391,6404.79611937996,,,54.460000038147,1804.02416992188,25597.5683365341,25832.5893049556
2018-07-19T08:45:37Z,1531989937,1850B,41.0236744,43.831738,5035.88,0.8,-22.3,351.6,545672.88,-113538.67,345.9,Weapon+Missile,Blue,Enemies,R-77,,cn,,164.44737097453,129.127960205078,0.513050857047844,5035.8828125,3243.5751953125,149.773861316624,-67.90234375,0.0410513587888679,NaN,0.815384674743243,1.75912557274224,2318.32760681655,2.09983921051025,2.09983921051025,2.09983921051025,1352.14689102173,4938.51401832031,6290.66090934204,,,55.460000038147,1792.3076171875,25746.9227065143,25996.7627876486
2018-07-19T08:45:38Z,1531989938,1850B,41.023395,43.8330729,4980.03,1.5,-18.3,351.3,545635.94,-113392.54,345.6,Weapon+Missile,Blue,Enemies,R-77,,cn,,160.745344353381,126.50537109375,0.501145682991217,4980.02685546875,3198.11279296875,150.728822046118,-55.85595703125,0.0526923923759202,NaN,0.769230845365645,3.97184550236892,2369.34803232138,2.04345965385437,2.04345965385437,2.04345965385437,1291.95328656435,4883.73803621826,6175.69132278261,,,56.460000038147,1781.9140625,25897.2073410659,26157.2023100381
2018-07-19T08:45:39Z,1531989939,1850B,41.0231033,43.834399,4935.71,2.2,-14.6,350.7,545598.06,-113247.5,345.1,Weapon+Missile,Blue,Enemies,R-77,,cn,,156.316449603914,123.211715698242,0.487064297900831,4935.7099609375,3157.79382324219,149.902786084445,-44.31689453125,0.0689075884013036,NaN,0.569230953636625,3.70525041245863,2519.93738414582,1.93672263622284,1.93672263622284,1.93672263622284,1221.74162083864,4840.27800884277,6062.01962968142,,,57.460000038147,1777.91613769531,26046.6761461995,26313.2140292965
2018-07-19T08:45:40Z,1531989940,1850B,41.0227892,43.8357159,4901.3,2.8,-11.5,349.7,545558.5,-113103.66,344.1,Weapon+Missile,Blue,Enemies,R-77,,cn,,153.102499935868,120.830841064453,0.476842153291833,4901.29833984375,3124.43347167969,149.185172923828,-34.41162109375,0.118051996820767,NaN,0.569230953636625,3.08760280911672,3413.44656543736,1.62077820301056,1.62077820301056,1.62077820301056,1172.01877433062,4806.53173644287,5978.55051077349,,,58.460000038147,1776.86486816406,26195.4232876508,26466.0014941816
2018-07-19T08:45:41Z,1531989941,1850B,41.0224424,43.8369969,4873.66,2.9,-10.5,348.2,545516.75,-112964.05,342.6,Weapon+Missile,Blue,Enemies,R-77,,cn,,148.316429508108,117.133796691895,0.461774270233284,4873.6591796875,3089.67895507812,145.718358788077,-27.63916015625,0.069067521158707,NaN,0.0769352508110236,1.66694875479834,5000,1.0407007932663,1.0407007932663,1.0407007932663,1099.88816310167,4779.42697944824,5879.31514254991,,,59.460000038147,1783.98022460938,26340.7217918025,26614.014824737
2018-07-19T08:45:42Z,1531989942,1850B,41.0220657,43.8382439,4846.68,2.5,-11,347.2,545472.94,-112828.46,341.6,Weapon+Missile,Blue,Enemies,R-77,,cn,,145.021418233495,114.634567260742,0.451361415192976,4846.67529296875,3051.84631347656,142.488882387378,-26.98388671875,0.0308725466546891,NaN,0.399975877795947,1.17642527261894,5000,0.740374743938446,0.740374743938446,0.740374743938446,1051.56058732271,4752.9648261792,5804.52541350191,,,60.460000038147,1794.82897949219,26482.788103521,26758.7274281974
2018-07-19T08:45:43Z,1531989943,1850B,41.0216761,43.8394477,4817.82,1.5,-13.6,346.8,545428.5,-112697.77,341.2,Weapon+Missile,Blue,Enemies,R-77,,cn,,141.027526660933,111.578758239746,0.438770886424806,4817.81689453125,3012.26416015625,138.043312462874,-28.8583984375,0.104396120049188,NaN,1.3384438697557,2.41119615556225,2231.90559542023,0.0765065252780914,0.0765065252780914,0.0765065252780914,994.438163805008,4724.66440487549,5719.1025686805,,,61.460000038147,1805.552734375,26620.3984833626,26899.4332505291
2018-07-19T08:45:44Z,1531989944,1850B,41.021299,43.840605,4781.19,0.4,-17.4,346.8,545385.62,-112572.15,341.2,Weapon+Missile,Blue,Enemies,R-77,,cn,,137.69406655385,109.096855163574,0.428201606567167,4781.1875,2970.39819335938,132.732601196579,-36.62939453125,0.0560222791568583,NaN,1.04616641479251,3.89617981296987,2030.92883504682,0.010047416202724,0.010047416202724,0.010047416202724,947.982798206806,4688.7432396875,5636.72603789431,,,62.460000038147,1810.78930664062,26752.7395911313,27036.8459494994
2018-07-19T08:45:45Z,1531989945,1850B,41.0209335,43.841725,4736.16,-0.6,-21.3,346.7,545344.06,-112450.58,341.1,Weapon+Missile,Blue,Enemies,R-77,,cn,,136.139076844056,108.093544006348,0.423125549434521,4736.16455078125,2933.08361816406,128.478723092961,-45.02294921875,0.0439885978126766,NaN,0.907704819938015,3.86570991219562,2026.66939240988,0.00684696156531572,0.00684696156531572,0.00684696156531572,926.69241219759,4644.59080919189,5571.28322138948,,,63.460000038147,1803.08093261719,26880.8297073045,27172.7085099221
2018-07-19T08:45:46Z,1531989946,1850B,41.0205817,43.8427992,4683.45,-1.4,-25,346.7,545304.19,-112333.99,341.1,Weapon+Missile,Blue,Enemies,R-77,,cn,,134.017683086535,106.669464111328,0.416255687401117,4683.45361328125,2901.62280273438,123.216461756349,-52.7109375,0.0546339480501526,NaN,0.769243225083516,3.79643770674653,2139.68776252943,0.0601214841008186,0.0601214841008186,0.0601214841008186,898.036968994141,4592.89903766846,5490.9360066626,,,64.460000038147,1781.83081054688,27003.6968495862,27306.4884822478
2018-07-19T08:45:47Z,1531989947,1850B,41.0202385,43.8438383,4623.34,-1.5,-27.7,346.4,545265.31,-112221.23,340.7,Weapon+Missile,Blue,Enemies,R-77,,cn,,133.56213636264,106.63191986084,0.414527210464331,4623.34326171875,2870.052734375,119.271077402634,-60.1103515625,0.0800303929298152,NaN,0.307703223760248,2.29890421706925,5000,0.663860380649567,0.663860380649567,0.663860380649567,891.942213487625,4533.95091975342,5425.89313324104,,,65.460000038147,1753.29052734375,27122.6036884274,27439.8028820827
2018-07-19T08:45:48Z,1531989948,1850B,41.0198868,43.8448593,4561.61,-0.8,-27.7,345.7,545225.94,-112110.56,340.1,Weapon+Missile,Blue,Enemies,R-77,,cn,,132.701874883727,106.272399902344,0.411538055686138,4561.60888671875,2838.25463867188,117.467674451381,-61.734375,0.0318903502661125,NaN,0.76921782531754,0.723090142757859,5000,0.88271701335907,0.88271701335907,0.88271701335907,880.489379882812,4473.41017889404,5353.89955877685,,,66.460000038147,1723.35424804688,27239.7145543344,27572.2636141889
2018-07-19T08:45:49Z,1531989949,1850B,41.0195192,43.8458714,4500.03,-0.1,-27.8,344.9,545185.38,-112000.99,339.3,Weapon+Missile,Blue,Enemies,R-77,,cn,,132.070643458703,106.095252990723,0.409264308400463,4500.0322265625,2805.02624511719,116.837364689545,-61.57666015625,0.0295306891922928,NaN,0.769239116297843,0.682721910494085,5000,0.885003089904785,0.885003089904785,0.885003089904785,872.132743179798,4413.02410346191,5285.15684664171,,,67.460000038147,1695.00598144531,27356.1835910928,27704.0816735127
2018-07-19T08:45:50Z,1531989950,1850B,41.0191321,43.8468818,4438.2,0.5,-27.9,344.1,545143.31,-111891.77,338.5,Weapon+Missile,Blue,Enemies,R-77,,cn,,132.375216224537,106.683700561523,0.409890650564559,4438.19775390625,2766.32373046875,117.045699886055,-61.83447265625,0.0102631090363619,NaN,0.569230846914919,0.704516350444508,5000,0.884460926055908,0.884460926055908,0.884460926055908,876.159893524647,4352.38520033447,5228.54509385912,,,68.460000038147,1671.8740234375,27472.8787496343,27836.2193004613
2018-07-19T08:45:51Z,1531989951,1850B,41.0187282,43.8478812,4376.64,1,-27.8,343.3,545100.06,-111783.9,337.7,Weapon+Missile,Blue,Enemies,R-77,,cn,,131.512484020438,106.313957214355,0.406905978786045,4376.6376953125,2725.42858886719,116.21485550118,-61.56005859375,0.0986651975894306,NaN,0.600000102073886,0.724847102200139,5000,0.828703463077545,0.828703463077545,0.828703463077545,864.776672661304,4292.01540547363,5156.79207813494,,,69.460000038147,1651.20910644531,27588.7572494479,27967.505368753
2018-07-19T08:45:52Z,1531989952,1850B,41.0183092,43.8488684,4314.75,0.7,-29.5,342.8,545055.62,-111677.51,337.2,Weapon+Missile,Blue,Enemies,R-77,,cn,,130.857721687463,106.113143920898,0.404567455744794,4314.75,2679.70678710938,115.298120080687,-61.8876953125,0.0481543862522169,NaN,0.999994336003227,1.78196134973683,2444.89191275753,0.161596640944481,0.161596640944481,0.161596640944481,856.187166261673,4231.32430875,5087.51147501167,,,70.460000038147,1635.04321289062,27703.6874185308,28098.1079581214
2018-07-19T08:45:53Z,1531989953,1850B,41.0179003,43.8498211,4247.07,-0.5,-33.1,342.8,545012.44,-111574.87,337.1,Weapon+Missile,Blue,Enemies,R-77,,cn,,130.308870015254,106.029205322266,0.402530948715872,4247.0732421875,2623.60559082031,111.356445959094,-67.6767578125,0.0257086694466063,NaN,0.999994336003227,3.52012112321319,2110.92703471625,0.0230442378669977,0.0230442378669977,0.0230442378669977,849.02008023262,4164.9560810498,5013.97616128242,,,71.460000038147,1623.46765136719,27814.707778059,28228.193371391
2018-07-19T08:45:54Z,1531989954,1850B,41.0175029,43.8507424,4172.12,-1.3,-36.6,342.7,544970.5,-111475.62,337,Weapon+Missile,Blue,Enemies,R-77,,cn,,131.245738412609,107.214851379395,0.405047135479619,4172.1220703125,2554.98120117188,107.739341403385,-74.951171875,0.0350621389139744,NaN,0.769243225083516,3.47426771543737,2231.10420561102,0.0292519014328718,0.0292519014328718,0.0292519014328718,861.272192573547,4091.45409008301,4952.72628265656,,,72.460000038147,1617.14086914062,27922.1082397339,28359.2192027001
2018-07-19T08:45:55Z,1531989955,1850B,41.0171174,43.8516293,4090.47,-1.9,-39.8,342.5,544929.88,-111380.12,336.9,Weapon+Missile,Blue,Enemies,R-77,,cn,,132.059971855371,108.341979980469,0.407147005069367,4090.46606445312,2476.20751953125,103.788886079075,-81.656005859375,0.0441167321537028,NaN,0.569200644672183,3.29826804123472,2378.01598310013,0.0373377650976181,0.0373377650976181,0.0373377650976181,871.991808322072,4011.37690309692,4883.368711419,,,73.460000038147,1614.25854492188,28025.5750420736,28491.078807223
2018-07-19T08:45:56Z,1531989956,1850B,41.0167441,43.852479,4002.79,-2.4,-42.9,342.3,544890.62,-111288.63,336.7,Weapon+Missile,Blue,Enemies,R-77,,cn,,132.65657388223,109.32689666748,0.408542289511794,4002.78588867188,2389.01123046875,99.5487487070562,-87.68017578125,0.0178677002847601,NaN,0.369212705774209,3.07248567949278,2538.08472642961,0.0419137962162495,0.0419137962162495,0.0419137962162495,879.888329708576,3925.3920235144,4805.28035322298,,,74.460000038147,1613.77465820312,28124.7955913105,28623.5364479704
2018-07-19T08:45:57Z,1531989957,1850B,41.0163805,43.8532953,3909.14,-2.6,-45.8,342.1,544852.56,-111200.77,336.5,Weapon+Missile,Blue,Enemies,R-77,,cn,,133.931823863187,110.921089172363,0.411992439504086,3909.13916015625,2296.693359375,95.749797292948,-93.646728515625,0.0136305862707113,NaN,0.199987938897973,2.87097055298507,2737.50879443016,0.0517940558493137,0.0517940558493137,0.0517940558493137,896.88667216599,3833.55595449463,4730.44262666062,,,75.460000038147,1612.44580078125,28220.2443135753,28757.2954594498
2018-07-19T08:45:58Z,1531989958,1850B,41.0160261,43.8540795,3809.82,-2.8,-48.5,341.8,544815.56,-111116.44,336.2,Weapon+Missile,Blue,Enemies,R-77,,cn,,135.445892786008,112.760536193848,0.416139888273846,3809.8212890625,2202.52648925781,92.0953329653784,-99.31787109375,0.0562462209689052,NaN,0.199987938897973,2.70388235465858,2951.16585946069,0.0524226650595665,0.0524226650595665,0.0524226650595665,917.279493629932,3736.15839443848,4653.43788806841,,,76.460000038147,1607.29479980469,28312.0563589942,28892.586611396
2018-07-19T08:45:59Z,1531989959,1850B,41.0156803,43.8548314,3705.21,-2.8,-51.1,341.5,544779.62,-111035.61,335.9,Weapon+Missile,Blue,Enemies,R-77,,cn,,137.000134892641,114.678512573242,0.42037373752458,3705.2060546875,2101.18225097656,88.4572761126275,-104.615234375,0.0578186934128278,NaN,0,2.53054624078882,3190.227492261,0.0576304830610752,0.0576304830610752,0.0576304830610752,938.45184803009,3633.56589562012,4572.01774365021,,,77.460000038147,1604.02380371094,28400.2377094572,29029.4422379863
2018-07-19T08:46:00Z,1531989960,1850B,41.0153431,43.8555516,3595.62,-2.8,-53.5,341.1,544744.69,-110958.23,335.5,Weapon+Missile,Blue,Enemies,R-77,,cn,,138.626450769462,116.702247619629,0.424792387817141,3595.61694335938,1997.2841796875,84.8971114423218,-109.589111328125,0.0599624396577503,NaN,0,2.39554605773964,3458.64285365033,0.0549856275320053,0.0549856275320053,0.0549856275320053,960.864642646909,3526.09568975952,4486.96033240643,,,78.460000038147,1598.33276367188,28484.8614303974,29167.9310351874
2018-07-19T08:46:01Z,1531989961,1850B,41.0150133,43.8562425,3481.12,-2.7,-55.6,340.8,544710.69,-110884.05,335.2,Weapon+Missile,Blue,Enemies,R-77,,cn,,140.602431567678,119.072067260742,0.430244169644921,3481.1162109375,1894.99377441406,81.6004046411392,-114.500732421875,0.0368800331539156,NaN,0,2.24767971928485,3744.19765955767,0.0557543560862541,0.0557543560862541,0.0557543560862541,988.452188137174,3413.80882899902,4402.2610171362,,,79.460000038147,1586.12243652344,28566.2003235927,29308.4079940563
2018-07-19T08:46:02Z,1531989962,1850B,41.0146929,43.8569006,3362.72,-2.6,-57.7,340.5,544677.81,-110813.46,334.8,Weapon+Missile,Blue,Enemies,R-77,,cn,,141.713929631437,120.738838195801,0.433019356755734,3362.71606445312,1789.40441894531,77.873250632438,-118.400146484375,0.0117759734011299,NaN,0,2.0858328373727,4065.52360182754,0.0593429133296013,0.0593429133296013,0.0593429133296013,1004.1418925792,3297.69794934692,4301.83984192612,,,80.460000038147,1573.31164550781,28643.8392737684,29450.0161538835
2018-07-19T08:46:03Z,1531989963,1850B,41.0143801,43.8575307,3240,-2.4,-59.6,340.1,544645.81,-110745.91,334.5,Weapon+Missile,Blue,Enemies,R-77,,cn,,143.692892126065,123.198837280273,0.438411243765611,3239.99682617188,1678.51696777344,74.7504903209514,-122.71923828125,0,NaN,0.200042580411333,1.92013842452372,4376.3072126263,0.0514993593096733,0.0514993593096733,0.0514993593096733,1032.38236237764,3177.35148753784,4209.73384991549,,,81.460000038147,1561.47985839844,28718.3424133512,29593.6005433506
2018-07-19T08:46:04Z,1531989964,1850B,41.0140754,43.8581321,3113.5,-2.3,-61.5,339.7,544614.81,-110681.48,334.1,Weapon+Missile,Blue,Enemies,R-77,,cn,,145.30396648515,125.382690429688,0.44264701982568,3113.49755859375,1565.390625,71.4925029532162,-126.499267578125,0.0678291021048121,NaN,0.107685616228067,1.76872700444628,4776.59835630559,0.0555948279798031,0.0555948279798031,0.0555948279798031,1055.66213381588,3053.29808329834,4108.96021711422,,,82.460000038147,1548.10693359375,28789.6116771229,29738.8122288274
2018-07-19T08:46:05Z,1531989965,1850B,41.0137797,43.8587044,2983.76,-2.1,-63.1,339.4,544584.81,-110620.2,333.7,Weapon+Missile,Blue,Enemies,R-77,,cn,,146.585207908208,127.315185546875,0.445850193117939,2983.76000976562,1448.29760742188,68.2304301727792,-129.737548828125,0.0522295417518616,NaN,0.199987938897973,1.68304964510617,5000,0.0470815412700176,0.0470815412700176,0.0470815412700176,1074.36115887463,2926.06900997681,4000.43016885144,,,83.460000038147,1535.46240234375,28857.6032419579,29885.3014939402
2018-07-19T08:46:06Z,1531989966,1850B,41.0134917,43.8592508,2850.49,-1.9,-64.7,339,544555.75,-110561.76,333.4,Weapon+Missile,Blue,Enemies,R-77,,cn,,148.397564269145,129.756637573242,0.45063817710954,2850.48828125,1327.10437011719,65.2723789935119,-133.271728515625,0.0642214243097826,NaN,0.138453057118036,1.61122871187961,5000,0.0461624562740326,0.0461624562740326,0.0461624562740326,1101.09185405076,2795.37409033203,3896.46594438279,,,84.460000038147,1523.38391113281,28922.6748816795,30033.6239333885
2018-07-19T08:46:07Z,1531989967,1850B,41.0132126,43.8597705,2714.33,-1.8,-66.2,338.6,544527.69,-110506.2,333,Weapon+Missile,Blue,Enemies,R-77,,cn,,149.707331620902,131.790267944336,0.453872515542889,2714.33227539062,1202.2041015625,62.2400771968726,-136.156005859375,0.0175410593645691,NaN,0.199987938897973,1.48822148723932,5000,0.0416642315685749,0.0416642315685749,0.0416642315685749,1120.61425705254,2661.85066084595,3782.46491789849,,,85.460000038147,1512.12817382812,28984.708554814,30183.2567932072
2018-07-19T08:46:08Z,1531989968,1850B,41.012944,43.8602614,2576.37,-1.6,-67.6,338.3,544500.81,-110453.76,332.6,Weapon+Missile,Blue,Enemies,R-77,,cn,,150.019089618952,132.957214355469,0.454066955525408,2576.37231445312,1073.24340820312,58.9302675051001,-137.9599609375,0.0628797468029095,NaN,0.199987938897973,1.37610756055156,5000,0.0504464544355869,0.0504464544355869,0.0504464544355869,1125.28636250496,2526.55815575317,3651.84451825813,,,86.460000038147,1503.12890625,29043.4588880098,30333.2148413099
2018-07-19T08:46:09Z,1531989969,1850B,41.0126828,43.8607303,2435.21,-1.5,-68.9,337.9,544474.69,-110403.73,332.3,Weapon+Missile,Blue,Enemies,R-77,,cn,,152.025758718998,135.681259155273,0.459366067248228,2435.21215820312,939.544555664062,56.441488300385,-141.16015625,0,NaN,0.0153879893132156,1.34408549928842,5000,0.0329044051468372,0.0329044051468372,0.0329044051468372,1155.59156570435,2388.12733112427,3543.71889682861,,,87.460000038147,1495.66760253906,29099.7076247044,30485.1773255377
2018-07-19T08:46:10Z,1531989970,1850B,41.0124321,43.8611725,2292.67,-1.4,-70.1,337.6,544449.75,-110356.55,332,Weapon+Missile,Blue,Enemies,R-77,,cn,,152.198715617592,136.773651123047,0.459109654094684,2292.67309570312,804.059326171875,53.3578925489531,-142.5390625,0.0163425370909391,NaN,0.0923021092264945,1.2411926481453,5000,0.0379707589745522,0.0379707589745522,0.0379707589745522,1158.22245178223,2248.34426139771,3406.56671317993,,,88.460000038147,1488.61376953125,29152.8883877197,30637.3209245497
2018-07-19T08:46:11Z,1531989971,1850B,41.0121907,43.8615911,2148.42,-1.2,-71.2,337.2,544425.81,-110311.95,331.6,Weapon+Missile,Blue,Enemies,R-77,,cn,,152.880348712625,138.346939086914,0.460377912607277,2148.41845703125,665.99658203125,50.6260826466025,-144.254638671875,0.0195138803245257,NaN,0.199987938897973,1.14335146894533,5000,0.0351887978613377,0.0351887978613377,0.0351887978613377,1168.62005112469,2106.87878616455,3275.49883728924,,,89.460000038147,1482.421875,29203.3528166952,30790.153620381
2018-07-19T08:46:12Z,1531989972,1850B,41.0119546,43.8619941,2000,-1.1,-72.3,336.9,544402.44,-110269.02,331.3,Weapon+Missile,Blue,Enemies,R-77,,cn,,156.261333962597,142.445175170898,0.46973500122778,1999.99926757812,520.733520507812,48.8809645347517,-148.419189453125,0.0175525034544096,NaN,0.200042580411333,1.09302940990503,5000,0.0245927553623915,0.0245927553623915,0.0245927553623915,1220.88022458851,1961.3292817395,3182.20950632801,,,90.460000038147,1479.26574707031,29252.0518082377,30946.3630641976
2018-07-19T08:46:13Z,1531989973,1850B,41.0117221,43.8623846,1846.62,-1,-73.3,336.6,544379.56,-110227.45,331,Weapon+Missile,Blue,Enemies,R-77,,cn,,160.55028823974,147.464706420898,0.481757411260116,1846.61840820312,368.39697265625,47.4416170808922,-153.380859375,0.0344306833288915,NaN,0,0.974716339493539,5000,0.0380637533962727,0.0380637533962727,0.0380637533962727,1288.81975269318,1810.91404128052,3099.73379397369,,,91.460000038147,1478.22143554688,29299.3595438385,31106.8780473342
2018-07-19T08:46:14Z,1531989974,1850B,41.0114931,43.8627638,1688.16,-0.9,-74.2,336.3,544357,-110187.1,330.7,Weapon+Missile,Blue,Enemies,R-77,,cn,,165.068498726737,152.792175292969,0.49439540215745,1688.15612792969,209.990966796875,46.2311042745185,-158.462280273438,0.0419992101528965,NaN,0,0.889031296190611,5000,0.0265471041202545,0.0265471041202545,0.0265471041202545,1362.38046359494,1655.51562919617,3017.89609279111,,,92.460000038147,1478.16516113281,29345.4026447562,31271.8975506162
2018-07-19T08:46:15Z,1531989975,1850B,41.0112671,43.8631327,1524.48,-0.8,-75,336,544334.81,-110147.91,330.4,Weapon+Missile,Blue,Enemies,R-77,,cn,,169.757708783179,158.380813598633,0.507468660776076,1524.48229980469,46.3331298828125,45.0395124110226,-163.673828125,0.0431651988103351,NaN,0,0.861075705443719,5000,0.019219059497118,0.019219059497118,0.019219059497118,1440.88398456573,1495.00643453796,2935.8904191037,,,93.460000038147,1478.14916992188,29390.294849307,31441.6192265238
2018-07-19T08:46:16Z,1531989976,1850B,41.0110451,43.8634905,1356.2,-0.7,-75.8,335.7,544313.12,-110109.89,330.1,Weapon+Missile,Blue,Enemies,R-77,,cn,,173.880660976907,163.532348632812,0.518776649336117,1356.19995117188,-122.733764648438,43.7668299102257,-168.282348632812,0.0302788135956021,NaN,0,0.771788217601286,5000,0.0243380069732666,0.0243380069732666,0.0243380069732666,1511.7242130883,1329.97782511597,2841.70203820427,,,94.460000038147,1478.93371582031,29433.9266606602,31615.4684247974
2018-07-19T08:46:17Z,1531989977,1850B,41.0108272,43.8638374,1183.47,-0.6,-76.5,335.5,544291.88,-110073.05,329.9,Weapon+Missile,Blue,Enemies,R-77,,cn,,177.887160645008,168.665069580078,0.529668481029188,1183.470703125,-297.832153320312,42.5258602676525,-172.729248046875,0.0212041901526747,NaN,0,0.725858823970947,5000,0.0260170586407185,0.0260170586407185,0.0260170586407185,1582.19209611714,1160.58829708008,2742.78039319722,,,95.460000038147,1481.30285644531,29476.3210019162,31793.3262023057
2018-07-19T08:46:18Z,1531989978,1850B,41.010615,43.8641714,1007.75,-0.5,-77.2,335.2,544271.19,-110037.62,329.6,Weapon+Missile,Blue,Enemies,R-77,,cn,,180.448204671713,172.487762451172,0.536205149718823,1007.75,-476.414184570312,41.0339988607009,-175.720703125,0.125815031914102,NaN,0.199987938897973,0.713897882073785,5000,0.0237940270453691,0.0237940270453691,0.0237940270453691,1628.07772846222,988.26515375,2616.34288221222,,,96.460000038147,1484.16418457031,29517.2154986548,31973.7443276741
