ISOTime,UnixTime,Id,Longitude,Latitude,Altitude,Roll,Pitch,Yaw,U,V,Heading,Type,Color,Coalition,Name,Group,Country,Pilot,TAS,CAS,M,ASL,AGL,GS,VS,AOA,AOS,RRT,TRT,TRD,G,LatG,LonG,Ek,Ep,Em,FFW,FFV,RelativeTime,Elev,GroundDistance,AirDistance
2018-07-19T08:46:11Z,1531989971,1A108,40.8939117,43.6291301,6872.36,93.8,-0,0,537393.75,-137060.23,354.5,Weapon+Missile,Blue,Enemies,AIM-120B,,us,,276.971381217332,203.788864135742,0.884998612085048,6872.3564453125,5608.27587890625,NaN,NaN,NaN,NaN,NaN,NaN,NaN,NaN,NaN,NaN,NaN,6739.47943344238,NaN,,,0.170000076293945,1264.08056640625,NaN,NaN
2018-07-19T08:46:12Z,1531989972,1A108,40.893858,43.632385,6866.88,76.2,-0.5,0.8,537354.81,-136698.98,355.3,Weapon+Missile,Blue,Enemies,AIM-120B,,us,,363.383659708395,274.820983886719,1.16102454633333,6866.8798828125,5558.94689941406,363.342388672516,-5.4765625,0.38897672014417,NaN,16.153834519187,7.17052324898266,4951.95487978776,3.67170310020447,3.67170310020447,3.67170310020447,6602.38420715332,6734.10876027832,13336.4929674316,,,1.17000007629395,1307.93298339844,362.364744050177,362.796369447596
2018-07-19T08:46:13Z,1531989973,1A108,40.8942292,43.6368493,6865.61,61.6,0.8,7.5,537337.31,-136200.11,2,Weapon+Missile,Blue,Enemies,AIM-120B,,us,,499.183450678847,376.588775634766,1.59488312970235,6865.6142578125,5413.00842285156,499.18184624944,-1.265625,0.0885931620986837,NaN,13.7692242346388,5.67480803039173,3876.42607424316,7.59667539596558,7.59667539596558,7.59667539596558,12459.205871582,6732.86760613769,19192.0734777197,,,2.17000007629395,1452.60583496094,860.225003068643,861.19419624593
2018-07-19T08:46:14Z,1531989974,1A108,40.895661,43.6423909,6883.11,49.9,1.9,12,537393.94,-135573.34,6.5,Weapon+Missile,Blue,Enemies,AIM-120B,,us,,629.561584999149,463.716461181641,2.01190823197645,6883.1142578125,5434.36364746094,629.31831318232,17.5,0.116131614871625,NaN,11.0922818536141,4.2114583568499,5000,2.1114981174469,2.1114981174469,2.1114981174469,19817.389465332,6750.0292436377,26567.4187089697,,,3.17000007629395,1448.75061035156,1487.80560436533,1489.69488733322
2018-07-19T08:46:15Z,1531989975,1A108,40.8976585,43.6491626,6908.45,40.3,1.8,12.2,537483.06,-134805.52,6.7,Weapon+Missile,Blue,Enemies,AIM-120B,,us,,773.398493428442,557.622314453125,2.4724069736545,6908.45068359375,5306.75708007812,772.983373149782,25.33642578125,0.0644929798469976,NaN,9.04617574433169,0.517382400677676,5000,0.888527512550354,0.888527512550354,0.888527512550354,29907.2614818692,6774.87578962647,36682.1372714957,,,4.17000007629395,1601.69360351562,2258.61490070994,2261.75339250764
2018-07-19T08:46:16Z,1531989976,1A108,40.8998899,43.6566931,6935.4,32.6,1.7,12.2,537582.94,-133951.58,6.7,Weapon+Missile,Blue,Enemies,AIM-120B,,us,,860.180598198092,613.919677734375,2.75082163884685,6935.40234375,4893.31713867188,859.758262264021,26.95166015625,0.0385286795813738,NaN,7.30770135526668,0.112776761862158,5000,0.868713974952698,0.868713974952698,0.868713974952698,36995.5330758214,6801.30633943359,43796.839415255,,,5.17000007629395,2042.08520507812,3115.95495282964,3120.44694776064
2018-07-19T08:46:17Z,1531989977,1A108,40.9023019,43.664803,6963.04,26.4,1.7,12.3,537691.12,-133031.88,6.7,Weapon+Missile,Blue,Enemies,AIM-120B,,us,,926.456938244809,656.727661132812,2.96386416317113,6963.04443359375,4671.55395507812,926.044476950765,27.64208984375,0.0505559914184882,NaN,5.87691332793241,0.112776761862158,5000,0.88483464717865,0.88483464717865,0.88483464717865,42916.1229210973,6828.41396947021,49744.5368905675,,,6.17000007629395,2291.49047851562,4039.39745050585,4045.30874423544
2018-07-19T08:46:18Z,1531989978,1A108,40.9048795,43.6734328,6991.28,21.3,1.6,12.3,537807.19,-132053.09,6.8,Weapon+Missile,Blue,Enemies,AIM-120B,,us,,986.042835953728,695.105529785156,3.15567790953162,6991.27978515625,4613.98706054688,985.638493189979,28.2353515625,0.0388583467742084,NaN,4.78462947586397,0.0726849788369981,5000,0.965896189212799,0.965896189212799,0.965896189212799,48614.0237167835,6856.10339051025,55470.1271072938,,,7.17000007629395,2377.29272460938,5022.22839284461,5029.61987794736
2018-07-19T08:46:19Z,1531989979,1A108,40.9076146,43.6825437,7020.69,17.3,1.6,12.4,537930.62,-131019.66,6.8,Weapon+Missile,Blue,Enemies,AIM-120B,,us,,1041.19088689426,730.494995117188,3.33348113213968,7020.68603515625,4425.71313476562,1040.77554516457,29.40625,0.0505520898448236,NaN,3.84616148390422,0.0523391626455858,5000,0.926108121871948,0.926108121871948,0.926108121871948,54203.923147583,6884.9410706665,61088.8642182495,,,8.17000007629395,2594.97290039062,6060.08146460258,6069.02902010771
2018-07-19T08:46:20Z,1531989980,1A108,40.9103418,43.6915754,7049.05,14,1.5,12.5,538054.19,-129995.07,6.9,Weapon+Missile,Blue,Enemies,AIM-120B,,us,,1032.40718845147,723.632385253906,3.30661398232834,7049.05078125,4435.98022460938,1032.01746300405,28.36474609375,0.0285343810740904,NaN,3.2153798536752,0.0873564853083433,5000,0.813082873821259,0.813082873821259,0.813082873821259,53293.2301383138,6912.75738439453,60205.9875227083,,,9.17000007629395,2613.07055664062,7089.17481406116,7099.64782653864
2018-07-19T08:46:21Z,1531989981,1A108,40.9129852,43.7002733,7074.48,11.3,1.4,12.5,538174.56,-129008.23,7,Weapon+Missile,Blue,Enemies,AIM-120B,,us,,994.483344960481,697.723876953125,3.1862353094076,7074.47509765625,4317.14916992188,994.158301046198,25.42431640625,0.0252955695310558,NaN,2.50766297263516,0.116615261474639,5000,0.815937399864197,0.815937399864197,0.815937399864197,49449.8561701894,6937.69012164307,56387.5462918324,,,10.1700000762939,2757.32592773438,8080.5166526585,8092.41286836005
2018-07-19T08:46:22Z,1531989982,1A108,40.9155331,43.7086011,7096.98,9.2,1.3,12.6,538291,-128063.23,7.1,Weapon+Missile,Blue,Enemies,AIM-120B,,us,,952.404545122687,669.324584960938,3.05233891822457,7096.98046875,4294.962890625,952.138606423605,22.50537109375,0.0486060694863909,NaN,1.92305342119543,0.17132035429096,5000,0.796698093414307,0.796698093414307,0.796698093414307,45353.7208785176,6959.76035138672,52313.4812299044,,,11.1700000762939,2802.017578125,9029.96696199908,9043.18435567182
2018-07-19T08:46:23Z,1531989983,1A108,40.9179907,43.7165798,7116.48,7.5,1.2,12.7,538403.88,-127157.69,7.1,Weapon+Missile,Blue,Enemies,AIM-120B,,us,,912.762915221984,642.756652832031,2.9260572338509,7116.47998046875,4363.84204101562,912.554605734509,19.49951171875,0.0652572105128665,NaN,1.53848645016703,0.178041353815746,5000,0.790438055992126,0.790438055992126,0.790438055992126,41656.8069702268,6978.88284004639,48635.6898102732,,,12.1700000762939,2752.63793945312,9939.90795530666,9954.34791040545
2018-07-19T08:46:24Z,1531989984,1A108,40.9203774,43.7242772,7133.16,6,1,12.8,538514,-126283.97,7.2,Weapon+Missile,Blue,Enemies,AIM-120B,,us,,880.789586527136,621.387268066406,2.82419178357244,7133.1630859375,4434.89575195312,880.631574341144,16.68310546875,0.0416893218389125,NaN,1.3384438697557,0.224248904231991,5000,0.663277745246887,0.663277745246887,0.663277745246887,38789.5147867322,6995.2433776709,45784.7581644031,,,13.1700000762939,2698.26733398438,10818.0256448918,10833.6048060483
2018-07-19T08:46:25Z,1531989985,1A108,40.9226901,43.7316737,7145.8,4.9,0.7,12.9,538621.31,-125444.25,7.4,Weapon+Missile,Blue,Enemies,AIM-120B,,us,,846.642332049715,598.806213378906,2.71516129856157,7145.7998046875,4468.13916015625,846.548020940226,12.63671875,0.0568398952467896,NaN,1.13845593085773,0.292251468227828,5000,0.762997329235077,0.762997329235077,0.762997329235077,35840.161920929,7007.63576546387,42847.7976863928,,,14.1700000762939,2677.66064453125,11662.1555246939,11678.7740531982
2018-07-19T08:46:26Z,1531989986,1A108,40.9249599,43.7387756,7154.62,4,0.5,13.4,538728.25,-124637.58,7.8,Weapon+Missile,Blue,Enemies,AIM-120B,,us,,813.777007709393,577.23681640625,2.61007214597027,7154.62451171875,4835.6748046875,813.729158149237,8.82470703125,0.0185223822495547,NaN,0.769243225083516,0.447409193704158,5000,1.032266497612,1.032266497612,1.032266497612,33111.6509138227,7016.28984678467,40127.9407606073,,,15.1700000762939,2318.94970703125,12473.5465299457,12491.1226022551
2018-07-19T08:46:27Z,1531989987,1A108,40.9272359,43.7455902,7159.83,3.3,0.3,14,538838.69,-123862.8,8.4,Weapon+Missile,Blue,Enemies,AIM-120B,,us,,782.629870700866,556.931030273438,2.51034759983932,7159.8291015625,5154.24389648438,782.612564911791,5.20458984375,0.0538872068285422,NaN,0.769243225083516,0.75434919718551,5000,1.22586512565613,1.22586512565613,1.22586512565613,30625.4757256627,7021.39380588379,37646.8695315465,,,16.1700000762939,2005.58520507812,13253.9097866395,13272.3788798398
2018-07-19T08:46:28Z,1531989988,1A108,40.9295594,43.7521559,7161.19,2.7,-0.1,14.9,538955.56,-123115.28,9.3,Weapon+Missile,Blue,Enemies,AIM-120B,,us,,756.598460954159,540.065063476562,2.42689416969768,7161.19140625,5326.19067382812,756.597234494114,1.3623046875,0.0569222773037504,NaN,0.569255286185543,1.0667040465748,5000,1.44155251979828,1.44155251979828,1.44155251979828,28622.0615559101,7022.72977041016,35644.7913263203,,,17.1700000762939,1835.00073242188,14008.305760748,14027.6230164546
2018-07-19T08:46:29Z,1531989989,1A108,40.9319518,43.7584144,7152.6,2.4,-1.7,16.2,539081.25,-122401.37,10.7,Weapon+Missile,Blue,Enemies,AIM-120B,,us,,724.944409278216,519.824768066406,2.32509133096665,7152.60302734375,5334.24584960938,724.893534452822,-8.58837890625,0.0451100654443284,NaN,0.199987938897973,1.94835863174009,5000,2.51415872573853,2.51415872573853,2.51415872573853,26277.2198271871,7014.30744781006,33291.5272749971,,,18.1700000762939,1818.35717773438,14731.0623284551,14751.2415561863
2018-07-19T08:46:30Z,1531989990,1A108,40.9344266,43.7643769,7115.95,2.2,-4.5,17.5,539216.69,-121719.68,11.9,Weapon+Missile,Blue,Enemies,AIM-120B,,us,,695.977540828259,501.958862304688,2.23108932519237,7115.9482421875,5402.62438964844,695.011628724657,-36.65478515625,0.0721291191922813,NaN,0.199987938897973,3.17063848607362,5000,3.51669216156006,3.51669216156006,3.51669216156006,24219.2368668675,6978.36138292481,31197.5982497924,,,19.1700000762939,1713.32385253906,15423.9931747027,15445.9152089962
2018-07-19T08:46:31Z,1531989991,1A108,40.9369762,43.7700368,7041.12,2.2,-8.7,18.7,539361.31,-121071.03,13.2,Weapon+Missile,Blue,Enemies,AIM-120B,,us,,668.774832613677,485.997589111328,2.14173791572735,7041.12451171875,5266.29272460938,664.575944566301,-74.82373046875,0.0876837605728219,NaN,0.0307691484372612,4.1958436906336,5000,4.52739858627319,4.52739858627319,4.52739858627319,22362.9888368726,6904.98436928467,29267.9732061572,,,20.1700000762939,1774.83178710938,16086.5478822871,16113.4122052948
2018-07-19T08:46:32Z,1531989992,1A108,40.9394937,43.7753135,6919.37,2.5,-13.6,19.4,539507.44,-120465.21,13.8,Weapon+Missile,Blue,Enemies,AIM-120B,,us,,634.976766315201,466.521667480469,2.0301947940353,6919.36767578125,5402.25109863281,623.194004032932,-121.7568359375,0.0837128580173027,NaN,0.400000210344865,4.81913473777723,5000,4.37457466125488,4.37457466125488,4.37457466125488,20159.7746880054,6785.58170177002,26945.3563897755,,,21.1700000762939,1517.11657714844,16707.8269970629,16747.1769718708
2018-07-19T08:46:33Z,1531989993,1A108,40.9418755,43.7802474,6753.35,3,-18.1,19,539646.25,-119898.52,13.5,Weapon+Missile,Blue,Enemies,AIM-120B,,us,,606.602509025854,451.157409667969,1.93519343644323,6753.3466796875,5192.14819335938,583.441199104503,-166.02099609375,0.096073871870893,NaN,0.569230953636625,4.50473088499779,5000,3.54176473617554,3.54176473617554,3.54176473617554,18398.330197823,6622.77072163574,25021.1009194588,,,22.1700000762939,1561.19848632812,17289.4735471988,17352.6530695003
2018-07-19T08:46:34Z,1531989994,1A108,40.9440156,43.7848741,6554.48,3.7,-22.1,17.9,539768.88,-119367.83,12.4,Weapon+Missile,Blue,Enemies,AIM-120B,,us,,579.845342794177,437.089324951172,1.84496602221918,6554.484375,4948.91223144531,544.678258547624,-198.8623046875,0.114102102424205,NaN,0.769230845365645,4.14235050282771,5000,3.31264281272888,3.31264281272888,3.31264281272888,16811.0310780048,6427.75341960937,23238.7844976142,,,23.1700000762939,1605.57214355469,17832.4814654194,17931.4616299723
2018-07-19T08:46:35Z,1531989995,1A108,40.9458415,43.7892278,6329.58,5.2,-25.8,15.5,539869.12,-118869.92,9.9,Weapon+Missile,Blue,Enemies,AIM-120B,,us,,555.464366420827,424.649871826172,1.76216210623526,6329.58447265625,4702.89221191406,507.898312941737,-224.89990234375,0.0968812828637476,NaN,1.92307647308388,4.24634525558303,5000,3.49092197418213,3.49092197418213,3.49092197418213,15427.0331181645,6207.20195687744,21634.235075042,,,24.1700000762939,1626.69226074219,18338.8551675131,18485.9997440942
2018-07-19T08:46:36Z,1531989996,1A108,40.9472826,43.7933428,6082.97,6.3,-29.2,13.2,539941,-118401.52,7.6,Weapon+Missile,Blue,Enemies,AIM-120B,,us,,534.21859242252,414.296295166016,1.68929926061019,6082.96923828125,4597.9443359375,473.88862685663,-246.615234375,0.0685969576241932,NaN,0.769231272252469,4.16617292199224,5000,3.00641560554504,3.00641560554504,3.00641560554504,14269.4752244949,5965.35502805908,20234.830252554,,,25.1700000762939,1485.02490234375,18811.349188421,19019.3892406682
2018-07-19T08:46:37Z,1531989997,1A108,40.9483656,43.7971951,5823.22,8.5,-31.5,9.3,539986.81,-117965.09,3.7,Weapon+Missile,Blue,Enemies,AIM-120B,,us,,509.938659887564,401.504669189453,1.60708388146952,5823.2236328125,4301.7314453125,438.827594036197,-259.74560546875,0.155285198592836,NaN,2.9692300812717,3.70445597608079,5000,3.36166572570801,3.36166572570801,3.36166572570801,13001.8718423963,5710.63160387207,18712.5034462683,,,26.1700000762939,1521.4921875,19248.9258678953,19528.6030697679
2018-07-19T08:46:38Z,1531989998,1A108,40.9489975,43.8008741,5568.94,10,-31.5,5.5,539998.12,-117551.41,359.9,Weapon+Missile,Blue,Enemies,AIM-120B,,us,,485.714990731742,388.032928466797,1.52572236502301,5568.93994140625,4158.65576171875,413.83433461513,-254.28369140625,0.198338106962641,NaN,0.569229672976155,3.11912690690068,5000,2.7268648147583,2.7268648147583,2.7268648147583,11795.9526110768,5461.26448763916,17257.217098716,,,27.1700000762939,1410.2841796875,19661.6015014846,20013.6450159839
2018-07-19T08:46:39Z,1531989999,1A108,40.9493954,43.8044725,5334.69,9.3,-28.4,4.1,539991.5,-117148.52,358.6,Weapon+Missile,Blue,Enemies,AIM-120B,,us,,466.082243319458,377.057556152344,1.45965622685793,5334.6875,4079.28393554688,402.93727952736,-234.25244140625,0.0572235700748935,NaN,1.30768069773396,2.83033690383902,5000,3.91378474235535,3.91378474235535,3.91378474235535,10861.6328768849,5231.5413171875,16093.1741940724,,,28.1700000762939,1255.40356445312,20063.4455101212,20479.0792050019
2018-07-19T08:46:40Z,1531990000,1A108,40.9497685,43.8080006,5138.54,6.8,-24.2,5.4,539983.62,-116753.62,359.9,Weapon+Missile,Blue,Enemies,AIM-120B,,us,,441.0072142258,360.748474121094,1.37767311261521,5138.53857421875,3898.07971191406,394.9847616226,-196.14892578125,0.151175412017069,NaN,3.06150935205316,4.0485788357126,5000,4.28009414672852,4.28009414672852,4.28009414672852,9724.36814996004,5039.18493088623,14763.5530808463,,,29.1700000762939,1240.45886230469,20457.340004982,20919.3997105908
2018-07-19T08:46:41Z,1531990001,1A108,40.9503456,43.8113852,4980.66,3.2,-21,9.2,539993.69,-116373.07,3.6,Weapon+Missile,Blue,Enemies,AIM-120B,,us,,412.119852517239,339.992828369141,1.28485054899032,4980.66015625,3732.14111328125,380.679889117505,-157.87841796875,0.0801126035207013,NaN,3.69229098228217,4.67685122519529,4855.73106346959,4.05273199081421,4.05273199081421,4.05273199081421,8492.13864194155,4884.35909212891,13376.4977340705,,,30.1700000762939,1248.51904296875,20836.9484144819,21330.8080906643
2018-07-19T08:46:42Z,1531990002,1A108,40.951241,43.814596,4848.41,-0.1,-18.9,13.8,540031.25,-116009.39,8.2,Weapon+Missile,Blue,Enemies,AIM-120B,,us,,388.799372716484,322.452026367188,1.21011694096612,4848.40625,3606.904296875,365.61435489645,-132.25390625,0.152104697259234,NaN,3.06150935205316,4.61651760293562,5000,3.43737506866455,3.43737506866455,3.43737506866455,7558.24761123657,4754.66231515625,12312.9099263928,,,31.1700000762939,1241.501953125,21201.5347526655,21718.9050047294
2018-07-19T08:46:43Z,1531990003,1A108,40.9524088,43.8175936,4733.74,-2.2,-17.7,17.9,540093,-115667.24,12.3,Weapon+Missile,Blue,Enemies,AIM-120B,,us,,366.097165901376,304.461395263672,1.13780945578023,4733.7392578125,3454.88610839844,347.676021295245,-114.6669921875,0.174913668450397,NaN,1.81540963987603,3.9148501350661,5000,2.58784508705139,2.58784508705139,2.58784508705139,6701.35674405098,4642.2124092627,11343.5691533137,,,32.1700000762939,1278.85314941406,21548.1677627796,22084.2590025163
2018-07-19T08:46:44Z,1531990004,1A108,40.9537424,43.8203924,4631.72,-2.8,-16.8,19.8,540170.19,-115345.91,14.2,Weapon+Missile,Blue,Enemies,AIM-120B,,us,,345.857283165696,287.909240722656,1.07352547457841,4631.7216796875,3256.85729980469,330.468870050215,-102.017578125,0.0605350289453168,NaN,0.0615348817799374,2.13407638447121,5000,1.425213098526,1.425213098526,1.425213098526,5980.86301593781,4542.16734101074,10523.0303569485,,,33.1700000762939,1374.86437988281,21877.6191263183,22429.3752435861
2018-07-19T08:46:45Z,1531990005,1A108,40.9550709,43.8230507,4538.05,-2.6,-16.1,20.1,540248.5,-115040.21,14.5,Weapon+Missile,Blue,Enemies,AIM-120B,,us,,329.182918800256,274.146301269531,1.02056782273783,4538.05126953125,3067.45092773438,315.574473446468,-93.67041015625,0.0669104685563602,NaN,0.199987938897973,0.989759510975374,5000,1.69002211093903,1.69002211093903,1.69002211093903,5418.06970149279,4450.30804823486,9868.37774972765,,,34.1700000762939,1470.60034179688,22192.1955918438,22757.8182687781
2018-07-19T08:46:46Z,1531990006,1A108,40.9563585,43.8255965,4455.53,-2.6,-13.9,20.2,540324.69,-114747.35,14.7,Weapon+Missile,Blue,Enemies,AIM-120B,,us,,313.657367305622,261.259338378906,0.971428900164473,4455.52978515625,2929.25903320312,302.607251535122,-82.521484375,0.130257360444374,NaN,0.199987938897973,2.41837575159699,5000,2.83996152877808,2.83996152877808,2.83996152877808,4919.0472032547,4369.38211676025,9288.42932001496,,,35.1700000762939,1526.27075195312,22493.8672513542,23070.7782578377
2018-07-19T08:46:47Z,1531990007,1A108,40.9575245,43.8280364,4394.97,-1.9,-9.4,17.2,540392.25,-114467.18,11.6,Weapon+Missile,Blue,Enemies,AIM-120B,,us,,294.496512622295,244.914123535156,0.911395205496292,4394.97216796875,2895.96826171875,288.203003015697,-60.5576171875,0.280016103032209,NaN,0.923075733778305,4.29758277341553,3533.66395314751,3.30187964439392,3.30187964439392,3.30187964439392,4336.40979733467,4309.99538110107,8646.40517843575,,,36.1700000762939,1499.00390625,22781.1626830029,23364.5817006414
2018-07-19T08:46:48Z,1531990008,1A108,40.9584719,43.8303856,4356.69,-1.6,-7.5,16.2,540443.19,-114198.79,10.6,Weapon+Missile,Blue,Enemies,AIM-120B,,us,,275.850161389651,228.886627197266,0.853281172922921,4356.69482421875,2913.05102539062,273.181544936953,-38.27734375,0.0494307980581263,NaN,0.199987938897973,2.57654500352792,5000,1.28385353088379,1.28385353088379,1.28385353088379,3804.66557693481,4272.45812979248,8077.1237067273,,,37.1700000762939,1443.64379882812,23053.5233464536,23639.8039860885
2018-07-19T08:46:49Z,1531990009,1A108,40.9594014,43.8326682,4322.29,-1.4,-7.2,16.8,540493.38,-113937.94,11.2,Weapon+Missile,Blue,Enemies,AIM-120B,,us,,267.854899632679,222.233734130859,0.828193873954381,4322.28662109375,2960.31884765625,265.635695671612,-34.408203125,0.0273086914799288,NaN,0.199987938897973,0.567783166975993,5000,1.18768954277039,1.18768954277039,1.18768954277039,3587.31236286163,4238.7152092749,7826.02757213654,,,38.1700000762939,1361.9677734375,23318.3576963812,23907.0428835126
2018-07-19T08:46:50Z,1531990010,1A108,40.9603324,43.8348779,4290.53,-1.3,-6.8,17.2,540544.5,-113685.2,11.6,Weapon+Missile,Blue,Enemies,AIM-120B,,us,,259.809604642866,215.522155761719,0.803000135721754,4290.52734375,2983.66918945312,257.861162192536,-31.75927734375,0.0605283026928312,NaN,0.199987938897973,0.681430844658394,5000,1.30630242824554,1.30630242824554,1.30630242824554,3375.05153323412,4207.56999755859,7582.62153079271,,,39.1700000762939,1306.85815429688,23575.4448324041,24166.2565561739
2018-07-19T08:46:51Z,1531990011,1A108,40.9612547,43.8370159,4262.69,-1.2,-6,17.5,540595.62,-113440.46,12,Weapon+Missile,Blue,Enemies,AIM-120B,,us,,251.562320113503,208.608627319336,0.777240384715078,4262.68994140625,2948.55883789062,250.017359260593,-27.83740234375,0.0749683832398397,NaN,0.199987938897973,0.835174774337385,5000,1.36183440685272,1.36183440685272,1.36183440685272,3164.18004504442,4180.27083138916,7344.45087643358,,,40.1700000762939,1314.13110351562,23824.7039740467,24417.231428234
2018-07-19T08:46:52Z,1531990012,1A108,40.9621681,43.8390984,4239.06,-1.2,-5.1,17.8,540646.69,-113201.98,12.2,Weapon+Missile,Blue,Enemies,AIM-120B,,us,,245.03168021973,203.159790039062,0.756840230585534,4239.060546875,2909.14965820312,243.889680030522,-23.62939453125,0.0332014565587534,NaN,0,0.902196592537517,5000,1.3672217130661,1.3672217130661,1.3672217130661,3002.0262155652,4157.09831120117,7159.12452676638,,,41.1700000762939,1329.91088867188,24067.8502266108,24661.6844481327
2018-07-19T08:46:53Z,1531990013,1A108,40.9630673,43.8411221,4219.65,-1.1,-4.3,18,540697.25,-112970.11,12.4,Weapon+Missile,Blue,Enemies,AIM-120B,,us,,238.109014502199,197.339965820312,0.735280185059717,4219.6455078125,2880.15026855469,237.316158416173,-19.4150390625,0.046093230347159,NaN,0,0.891888342976086,5000,1.3857661485672,1.3857661485672,1.3857661485672,2834.79513936043,4138.05866191895,6972.85380127937,,,42.1700000762939,1339.49523925781,24304.417384402,24899.2033066693
2018-07-19T08:46:54Z,1531990014,1A108,40.9639494,43.8430881,4204.53,-1.1,-3.2,18.1,540747,-112744.81,12.5,Weapon+Missile,Blue,Enemies,AIM-120B,,us,,231.21910332556,191.520233154297,0.71386987919054,4204.5283203125,2811.52319335938,230.724390528539,-15.1171875,0.0466370357237543,NaN,0,0.980871086987661,5000,1.42401337623596,1.42401337623596,1.42401337623596,2673.11368713379,4123.23376523926,6796.34745237305,,,43.1700000762939,1393.00512695312,24534.4400011792,25129.8737212163
2018-07-19T08:46:55Z,1531990015,1A108,40.9648027,43.8449768,4194.08,-1.1,-2.1,18.2,540795.25,-112528.32,12.6,Weapon+Missile,Blue,Enemies,AIM-120B,,us,,222.049690171829,183.708847045898,0.685471005951378,4194.08154296875,2789.08520507812,221.803809138922,-10.44677734375,0.0332613453192506,NaN,0,1.10460711415673,5000,1.42750835418701,1.42750835418701,1.42750835418701,2465.30324527025,4112.98897633545,6578.2922216057,,,44.1700000762939,1404.99633789062,24755.5753571631,25351.4011319954
2018-07-19T08:46:56Z,1531990016,1A108,40.965638,43.8468162,4188.04,-1,-1.1,18.3,540842.62,-112317.44,12.7,Weapon+Missile,Blue,Enemies,AIM-120B,,us,,216.223028196619,178.754104614258,0.667433900189587,4188.04443359375,2783.1591796875,216.13873145022,-6.037109375,0.00260404139267434,NaN,0,1.0857983740081,5000,1.4004613161087,1.4004613161087,1.4004613161087,2337.61989612579,4107.06859447022,6444.68849059601,,,45.1700000762939,1404.88525390625,24971.0370277461,25567.0888881043
2018-07-19T08:46:57Z,1531990017,1A108,40.9664431,43.8485824,4186.09,-1,0,18.3,540888.38,-112114.93,12.8,Weapon+Missile,Blue,Enemies,AIM-120B,,us,,207.620546480354,171.400894165039,0.640864329770823,4186.09130859375,2767.54736328125,207.611359572484,-1.953125,0.0852952988990427,NaN,0,1.03975980407275,5000,1.36528563499451,1.36528563499451,1.36528563499451,2155.31456604004,4105.15323314209,6260.46779918213,,,46.1700000762939,1418.5439453125,25177.9983998108,25774.1953342126
2018-07-19T08:46:58Z,1531990018,1A108,40.967227,43.8502958,4187.72,-1,1,18.4,540932.88,-111918.45,12.8,Weapon+Missile,Blue,Enemies,AIM-120B,,us,,201.467135274247,166.133590698242,0.62188311602585,4187.71826171875,2729.13635253906,201.460565915865,1.626953125,0.0440840323121528,NaN,0,1.00521057281671,5000,1.34112012386322,1.34112012386322,1.34112012386322,2029.45032978058,4106.74872912842,6136.199058909,,,47.1700000762939,1458.58190917969,25378.8517904911,25975.1871592635
2018-07-19T08:46:59Z,1531990019,1A108,40.9679808,43.8519382,4192.55,-0.9,1.9,18.5,540975.81,-111730.11,12.9,Weapon+Missile,Blue,Enemies,AIM-120B,,us,,193.22880159664,159.084167480469,0.59648907052516,4192.546875,2707.24621582031,193.168460832129,4.82861328125,0.0555769844601671,NaN,0.199987938897973,0.920662649288881,5000,1.30701589584351,1.30701589584351,1.30701589584351,1866.86848832369,4111.48398117187,5978.35246949556,,,48.1700000762939,1485.30065917969,25571.4326110124,26167.9549813286
2018-07-19T08:47:00Z,1531990020,1A108,40.9687094,43.8535206,4200.16,-0.9,2.8,18.5,541017.38,-111548.6,12.9,Weapon+Missile,Blue,Enemies,AIM-120B,,us,,186.361180121228,153.202270507812,0.575343487105803,4200.16015625,2726.81335449219,186.205605191641,7.61328125,0.0719680256477349,NaN,0,0.870962190823901,5000,1.264981508255,1.264981508255,1.264981508255,1736.52447280884,4118.95005962891,5855.47453243774,,,49.1700000762939,1473.34680175781,25757.0430154546,26353.8434748776
2018-07-19T08:47:01Z,1531990021,1A108,40.9694091,43.8550353,4209.99,-0.8,3.6,18.6,541057.31,-111374.87,13,Weapon+Missile,Blue,Enemies,AIM-120B,,us,,178.536701591906,146.517578125,0.551254799559347,4209.99462890625,2766.39636230469,178.265635956262,9.83447265625,0.0626738079752874,NaN,0.184604218452989,0.771027185117359,5000,1.22834372520447,1.22834372520447,1.22834372520447,1593.76769076586,4128.59438275635,5722.36207352221,,,50.1700000762939,1443.59826660156,25934.7618011415,26531.9511493469
2018-07-19T08:47:02Z,1531990022,1A108,40.9700821,43.8564878,4221.64,-0.8,4.3,18.6,541095.75,-111208.23,13,Weapon+Missile,Blue,Enemies,AIM-120B,,us,,171.404349788263,140.4296875,0.529309415664447,4221.6357421875,2807.13854980469,171.008583433435,11.64111328125,0.0409099216828804,NaN,0,0.671450284094566,5000,1.19397592544556,1.19397592544556,1.19397592544556,1468.97255631685,4140.0104151123,5608.98297142916,,,51.1700000762939,1414.49719238281,26105.2472197157,26702.9459716233
2018-07-19T08:47:03Z,1531990023,1A108,40.970727,43.8578761,4234.65,-0.7,4.8,18.7,541132.62,-111048.95,13.1,Weapon+Missile,Blue,Enemies,AIM-120B,,us,,164.011206965775,134.1376953125,0.506560888994464,4234.65087890625,2852.00317382812,163.493982233483,13.01513671875,0.0587708594237415,NaN,0.199987938897973,0.621426512221921,5000,1.16253650188446,1.16253650188446,1.16253650188446,1344.98380051851,4152.7739041626,5497.75770468111,,,52.1700000762939,1382.64770507812,26268.2266664274,26866.5519691899
2018-07-19T08:47:04Z,1531990024,1A108,40.9713466,43.8592058,4248.72,-0.7,5.4,18.7,541168.12,-110896.39,13.1,Weapon+Missile,Blue,Enemies,AIM-120B,,us,,157.268874481331,128.407806396484,0.485821779949334,4248.7197265625,2905.76416015625,156.638329939546,14.06884765625,0.0873839918434161,NaN,0,0.165806457299843,5000,0.866978824138641,0.866978824138641,0.866978824138641,1236.67494403124,4166.57073064941,5403.24567468065,,,53.1700000762939,1342.95556640625,26424.3810520046,27023.4422750846
2018-07-19T08:47:05Z,1531990025,1A108,40.9719417,43.8604807,4260.91,-0.1,2.9,18.7,541202.19,-110750.1,13.1,Weapon+Missile,Blue,Enemies,AIM-120B,,us,,150.696495095416,122.853240966797,0.465589640306411,4260.91357421875,2948.99096679688,150.202342569545,12.19384765625,0.0841095357583028,NaN,0.769238956215285,2.04230638966974,2403.55479440971,0.0536358393728733,0.0536358393728733,0.0536358393728733,1135.47168170214,4178.52881026123,5314.00049196337,,,54.1700000762939,1311.92260742188,26574.1218535821,27173.7783091135
2018-07-19T08:47:06Z,1531990026,1A108,40.9725167,43.8617124,4263.57,0.5,-0.9,18.7,541235.12,-110608.77,13.1,Weapon+Missile,Blue,Enemies,AIM-120B,,us,,145.147466351495,118.225044250488,0.448460287823636,4263.57080078125,2974.22424316406,145.123141280961,2.6572265625,0.0544098285336544,NaN,0.569230846914919,3.88847749402021,2128.70359118376,0.00981669127941132,0.00981669127941132,0.00981669127941132,1053.38934941292,4181.13465934814,5234.52400876106,,,55.1700000762939,1289.34655761719,26718.7984705434,27318.5759912498
2018-07-19T08:47:07Z,1531990027,1A108,40.9730703,43.8628981,4256.6,1.1,-4.9,18.7,541266.88,-110472.71,13.1,Weapon+Missile,Blue,Enemies,AIM-120B,,us,,139.884162276338,113.900352478027,0.432160780714568,4256.5966796875,2957.23547363281,139.710201813334,-6.97412109375,0.081189051397335,NaN,0.569230846914919,3.99616140270099,1994.21318033571,0.00734901009127498,0.00734901009127498,0.00734901009127498,978.378942787647,4174.29538288574,5152.67432567339,,,56.1700000762939,1299.36120605469,26858.0607197895,27458.1056594892
2018-07-19T08:47:08Z,1531990028,1A108,40.9736082,43.8640492,4240.24,1.6,-9,18.7,541297.69,-110340.62,13.1,Weapon+Missile,Blue,Enemies,AIM-120B,,us,,136.622714600291,111.291969299316,0.421998832357082,4240.23828125,2930.15686035156,135.63985013746,-16.3583984375,0.0870094890092782,NaN,0.553846165974582,4.02724730116101,1925.00658309434,0.0127670466899872,0.0127670466899872,0.0127670466899872,933.288307237625,4158.25327408203,5091.54158131966,,,57.1700000762939,1310.08142089844,26993.2836879074,27594.4039195243
2018-07-19T08:47:09Z,1531990029,1A108,40.9741291,43.8651621,4214.88,1.9,-13,18.8,541327.56,-110212.9,13.2,Weapon+Missile,Blue,Enemies,AIM-120B,,us,,133.595534821127,108.92652130127,0.412518283636498,4214.87744140625,2889.2275390625,131.166286547125,-25.36083984375,0.0219934729993892,NaN,0.369230848464192,4.04646873414589,1879.98852942368,0.0141927655786276,0.0141927655786276,0.0141927655786276,892.388346207142,4133.38278607666,5025.7711322838,,,58.1700000762939,1325.64990234375,27124.0397164761,27727.6817622933
2018-07-19T08:47:10Z,1531990030,1A108,40.9746361,43.8662425,4180.72,2.2,-17.2,18.8,541356.62,-110088.9,13.2,Weapon+Missile,Blue,Enemies,AIM-120B,,us,,131.861967758108,107.678977966309,0.406992404116462,4180.716796875,2840.79602050781,127.360232828972,-34.16064453125,0.124001479801224,NaN,0.230769040166282,4.11567306459011,1862.3938790167,0.0261883791536093,0.0261883791536093,0.0261883791536093,869.378927052021,4099.88263760742,4969.26156465944,,,59.1700000762939,1339.92077636719,27250.9987271669,27859.2369372024
2018-07-19T08:47:11Z,1531990031,1A108,40.9751289,43.8672882,4138.09,2.5,-21.1,18.9,541385,-109968.89,13.3,Weapon+Missile,Blue,Enemies,AIM-120B,,us,,130.477128126489,106.763252258301,0.402504843994241,4138.08740234375,2794.70080566406,123.316729141002,-42.62939453125,0.0497097803852179,NaN,0.16923074329176,3.99730332495285,1882.9691743277,0.0192655045539141,0.0192655045539141,0.0192655045539141,851.214048206806,4058.07748241943,4909.29153062624,,,60.1700000762939,1343.38659667969,27373.9418806008,27989.4368017495
2018-07-19T08:47:12Z,1531990032,1A108,40.9756074,43.8682987,4087.37,2.6,-25,19,541412.56,-109852.88,13.4,Weapon+Missile,Blue,Enemies,AIM-120B,,us,,129.580817303068,106.294143676758,0.399488334632196,4087.37377929688,2743.87390136719,119.244776197495,-50.713623046875,0.0542508691587636,NaN,0.199999891729021,3.87802773147691,1927.84624649283,0.0323296561837196,0.0323296561837196,0.0323296561837196,839.559410646558,4008.34440727417,4847.90381792073,,,61.1700000762939,1343.49987792969,27492.8089748052,28118.740650323
2018-07-19T08:47:13Z,1531990033,1A108,40.9760757,43.8692807,4028.57,2.7,-28.8,19.1,541439.62,-109740.12,13.5,Weapon+Missile,Blue,Enemies,AIM-120B,,us,,130.016618922886,106.977676391602,0.400539875582662,4028.572265625,2684.56799316406,115.959920602056,-58.801513671875,0.048137699320647,NaN,0,3.79722616670884,2000.47187775257,0.0288682375103235,0.0288682375103235,0.0288682375103235,845.216059806943,3950.67982086914,4795.89588067608,,,62.1700000762939,1344.00427246094,27608.4045798038,28248.4980023599
2018-07-19T08:47:14Z,1531990034,1A108,40.9765322,43.8702306,3962.16,2.8,-32.5,19.3,541466.06,-109631.02,13.7,Weapon+Missile,Blue,Enemies,AIM-120B,,us,,130.427298717668,107.68505859375,0.401474966493283,3962.15771484375,2618.2509765625,112.251448522113,-66.41455078125,0.0463623302483556,NaN,0.199999891729021,3.62926370416859,2094.11288806743,0.0357053726911545,0.0357053726911545,0.0357053726911545,850.564012539387,3885.54939542725,4736.11340796663,,,63.1700000762939,1343.90673828125,27720.3089443155,28378.6869917365
2018-07-19T08:47:15Z,1531990035,1A108,40.9769793,43.8711524,3888.11,2.7,-35.9,19.5,541492.06,-109525.12,13.9,Weapon+Missile,Blue,Enemies,AIM-120B,,us,,131.81413057697,109.257743835449,0.405372887007066,3888.11157226562,2542.74682617188,109.051060467391,-74.046142578125,0.0504380754195831,NaN,0.12305268808695,3.2926745431913,2974.96931339089,0.215912699699402,0.215912699699402,0.215912699699402,868.748250988126,3812.93493501587,4681.683186004,,,64.1700000762939,1345.36474609375,27829.0123093467,28510.2689093172
2018-07-19T08:47:16Z,1531990036,1A108,40.9774198,43.8720519,3808.67,2.1,-36.1,19.6,541517.75,-109421.73,14,Weapon+Missile,Blue,Enemies,AIM-120B,,us,,132.893190086453,110.610153198242,0.408291245873049,3808.6689453125,2453.30554199219,106.533886600183,-79.442626953125,0.0414142863202565,NaN,1.03075750802496,0.407826860081759,4781.20922080292,1.18678259849548,1.18678259849548,1.18678259849548,883.0299985677,3735.02833125488,4618.05832982258,,,65.1700000762939,1355.36340332031,27935.2085632854,28642.9429032512
2018-07-19T08:47:17Z,1531990037,1A108,40.9778778,43.8729807,3731.25,1.3,-34.1,19.7,541544.5,-109314.96,14.1,Weapon+Missile,Blue,Enemies,AIM-120B,,us,,134.566542182448,112.463256835938,0.41303864185655,3731.25,2352.43493652344,110.065713015637,-77.4189453125,0.044561199620493,NaN,0.769243225083516,2.04395993577911,4147.1729132303,1.27344107627869,1.27344107627869,1.27344107627869,905.407713747025,3659.10628125,4564.51399499703,,,66.1700000762939,1378.81506347656,28044.9368917082,28777.286629616
2018-07-19T08:47:18Z,1531990038,1A108,40.9783487,43.8739314,3657.3,0.7,-32.5,19.8,541572.06,-109205.66,14.2,Weapon+Missile,Blue,Enemies,AIM-120B,,us,,134.816052835459,113.096076965332,0.413428810540847,3657.30297851562,2244.4287109375,112.726244130294,-73.947021484375,0,NaN,0.569255286185543,1.59289861858141,5000,1.20472753047943,1.20472753047943,1.20472753047943,908.768405106664,3586.58902542603,4495.35743053269,,,67.1700000762939,1412.87426757812,28157.3129994672,28911.8644315748
2018-07-19T08:47:19Z,1531990039,1A108,40.9788338,43.8749074,3585.61,0.3,-31.1,19.9,541600.56,-109093.44,14.3,Weapon+Missile,Blue,Enemies,AIM-120B,,us,,136.182692487121,114.672492980957,0.417252812333125,3585.60620117188,2132.61206054688,115.78125,-71.69677734375,0.0459663768687808,NaN,0.399975877795947,1.28919052187709,5000,1.13993299007416,1.13993299007416,1.13993299007416,927.286286652088,3516.27850527222,4443.56479192431,,,68.1700000762939,1452.994140625,28272.7247265368,29047.7887662085
2018-07-19T08:47:20Z,1531990040,1A108,40.9793255,43.8758937,3516.4,0,-30.1,19.9,541629.44,-108980.01,14.3,Weapon+Missile,Blue,Enemies,AIM-120B,,us,,135.977978866815,114.896194458008,0.416272809103399,3516.39672851562,2024.13403320312,117.047253839412,-69.20947265625,0.0291081051730403,NaN,0.353858440520021,1.04707504339554,5000,1.08414578437805,1.08414578437805,1.08414578437805,924.500536835194,3448.40719776977,4372.90773460497,,,69.1700000762939,1492.2626953125,28389.395099954,29183.4983391222
2018-07-19T08:47:21Z,1531990041,1A108,40.9798256,43.876894,3448.69,-0.2,-29.3,20,541658.81,-108864.96,14.4,Weapon+Missile,Blue,Enemies,AIM-120B,,us,,136.68570617786,115.895393371582,0.418093345164291,3448.68920898438,1925.80249023438,118.737837576173,-67.70751953125,0.0297793632921913,NaN,0.169224766876236,0.797416047862526,5000,1.03842461109161,1.03842461109161,1.03842461109161,934.149113667011,3382.00880312866,4316.15791679567,,,70.1700000762939,1522.88671875,28507.7612179797,29319.9173632124
2018-07-19T08:47:22Z,1531990042,1A108,40.9803276,43.8778952,3382.77,-0.3,-28.7,20,541688.38,-108749.81,14.4,Weapon+Missile,Blue,Enemies,AIM-120B,,us,,135.934373592511,115.630355834961,0.415460948595712,3382.77221679688,1841.91296386719,118.882732408628,-65.9169921875,0.0209397933047479,NaN,0.200042580411333,0.605638529955437,5000,1.00093865394592,1.00093865394592,1.00093865394592,923.907696199417,3317.36631598511,4241.27401218452,,,71.1700000762939,1540.85925292969,28626.2647387961,29455.5756822541
2018-07-19T08:47:23Z,1531990043,1A108,40.9808345,43.8789031,3317.78,-0.4,-28.3,20.1,541718.19,-108633.87,14.5,Weapon+Missile,Blue,Enemies,AIM-120B,,us,,136.219207694861,116.252777099609,0.416002075776687,3317.783203125,1762.07946777344,119.716751739147,-64.989013671875,0,NaN,0.199987938897973,0.383341539041762,5000,0.973589062690735,0.973589062690735,0.973589062690735,927.783627250791,3253.63386489258,4181.41749214337,,,72.1700000762939,1555.70373535156,28745.6112432564,29591.5246710856
2018-07-19T08:47:24Z,1531990044,1A108,40.9813436,43.8799123,3253.71,-0.4,-28.1,20.1,541748.25,-108517.77,14.5,Weapon+Missile,Blue,Enemies,AIM-120B,,us,,135.972149790214,116.410598754883,0.414924165385782,3253.71215820312,1676.48217773438,119.930507883488,-64.071044921875,0.0926925765805602,NaN,0,0.327905642664676,5000,0.943447113037109,0.943447113037109,0.943447113037109,924.421275928617,3190.80163362427,4115.22290955288,,,73.1700000762939,1577.22998046875,28865.1485799373,29727.2044404404
2018-07-19T08:47:25Z,1531990045,1A108,40.9818539,43.8809202,3190.39,-0.4,-27.8,20.2,541778.31,-108401.8,14.6,Weapon+Missile,Blue,Enemies,AIM-120B,,us,,135.499420925782,116.36669921875,0.413163841090113,3190.39233398438,1589.41918945312,119.79437771502,-63.31982421875,0.0108188583648652,NaN,0,0.314658971017112,5000,0.931345283985138,0.931345283985138,0.931345283985138,918.004653561115,3128.70609820679,4046.7107517679,,,74.1700000762939,1600.97314453125,28984.5811790467,29862.4374289651
2018-07-19T08:47:26Z,1531990046,1A108,40.9823669,43.8819299,3127.43,-0.4,-27.7,20.3,541808.69,-108285.62,14.7,Weapon+Missile,Blue,Enemies,AIM-120B,,us,,135.598421079205,116.81810760498,0.413150206587529,3127.42602539062,1500.64538574219,120.092363542608,-62.96630859375,0.0825216514250524,NaN,0,0.145370077735915,5000,0.917560219764709,0.917560219764709,0.917560219764709,919.346589958668,3066.9572431897,3986.30383314836,,,75.1700000762939,1626.78063964844,29104.2805532154,29997.7403932639
2018-07-19T08:47:27Z,1531990047,1A108,40.9828783,43.8829327,3065.22,-0.4,-27.5,20.3,541838.94,-108170.2,14.7,Weapon+Missile,Blue,Enemies,AIM-120B,,us,,134.55505030484,116.266716003418,0.409662601177125,3065.21997070312,1423.90966796875,119.312481839722,-62.2060546875,0.0182532784215661,NaN,0,0.125894153503381,5000,0.909979045391083,0.909979045391083,0.909979045391083,905.253078126907,3005.95394256958,3911.20702069649,,,76.1700000762939,1641.31030273438,29223.2203822825,30132.0162837902
2018-07-19T08:47:28Z,1531990048,1A108,40.9833922,43.8839369,3003.16,-0.4,-27.5,20.4,541869.38,-108054.62,14.8,Weapon+Missile,Blue,Enemies,AIM-120B,,us,,134.679196931561,116.73388671875,0.409733094894529,3003.15600585938,1351.998046875,119.526358406855,-62.06396484375,0.0864153566960847,NaN,0,0.131221314189807,5000,0.905192136764526,0.905192136764526,0.905192136764526,906.924304306507,2945.08998448608,3852.01428879259,,,77.1700000762939,1651.15795898438,29342.3645841559,30266.406706488
2018-07-19T08:47:29Z,1531990049,1A108,40.9839071,43.884939,2941.39,-0.4,-27.4,20.5,541899.94,-107939.26,14.9,Weapon+Missile,Blue,Enemies,AIM-120B,,us,,134.376655390989,116.825210571289,0.408508036278459,2941.38842773438,1283.60668945312,119.339229956627,-61.767578125,0.0304189601343283,NaN,0,0.0593470334505648,5000,0.887099206447601,0.887099206447601,0.887099206447601,902.85427570343,2884.51668248413,3787.37095818756,,,78.1700000762939,1657.78173828125,29461.31982055,30400.4916550782
2018-07-19T08:47:30Z,1531990050,1A108,40.9844208,43.8859351,2879.95,-0.4,-27.3,20.5,541930.44,-107824.56,14.9,Weapon+Missile,Blue,Enemies,AIM-120B,,us,,133.641128069893,116.531494140625,0.405971329737128,2879.94995117188,1217.52465820312,118.68135788519,-61.4384765625,0.0344740138255845,NaN,0,0.0927874461938555,5000,0.894985914230347,0.894985914230347,0.894985914230347,892.997555589676,2824.26611886597,3717.26367445564,,,79.1700000762939,1662.42529296875,29579.6201497006,30533.8424347116
2018-07-19T08:47:31Z,1531990051,1A108,40.9849351,43.8869286,2818.71,-0.2,-27.9,20.6,541961.06,-107710.17,15,Weapon+Missile,Blue,Enemies,AIM-120B,,us,,133.314942875409,116.59602355957,0.404682153630114,2818.71459960938,1155.40002441406,118.419194866756,-61.2353515625,0.173694390770964,NaN,0.338478988943268,1.22011905995657,3183.69479182472,0.3131263256073,0.3131263256073,0.3131263256073,888.64369969368,2764.21475282593,3652.85845251961,,,80.1700000762939,1663.31457519531,29697.6583045814,30666.8658378069
2018-07-19T08:47:32Z,1531990052,1A108,40.9854403,43.8879021,2752.4,0.5,-31.6,20.6,541991.12,-107598.07,15,Weapon+Missile,Blue,Enemies,AIM-120B,,us,,133.672538608752,117.294845581055,0.405444475490777,2752.3984375,1088.63757324219,116.062544437003,-66.316162109375,0.067691009112424,NaN,0.692307760829081,3.04647034271785,2150.42281548624,0.0200686231255531,0.0200686231255531,0.0200686231255531,893.417378905416,2699.18081371094,3592.59819261635,,,81.1700000762939,1663.76086425781,29813.3588814184,30800.2680574575
2018-07-19T08:47:33Z,1531990053,1A108,40.9859248,43.8888328,2679.45,1,-35,20.7,542020.06,-107490.88,15.1,Weapon+Missile,Blue,Enemies,AIM-120B,,us,,132.850012009772,116.984321594238,0.402597253933086,2679.45385742188,1021.29968261719,111.032490417097,-72.944580078125,0.0365618356782028,NaN,0.41538467784179,3.50103906877606,2224.10553377638,0.00820480193942785,0.00820480193942785,0.00820480193942785,882.456284549832,2627.64661708862,3510.10290163846,,,82.1700000762939,1658.15417480469,29924.0221133565,30932.8489547302
2018-07-19T08:47:34Z,1531990054,1A108,40.986396,43.8897334,2599.27,1.4,-38.4,20.8,542048.12,-107387.13,15.2,Weapon+Missile,Blue,Enemies,AIM-120B,,us,,134.085945821521,118.549789428711,0.405952813541059,2599.27221679688,953.93310546875,107.470672155408,-80.181640625,0.0160480645832638,NaN,0.399999996901453,3.32789355987282,2376.96722435051,0.030965082347393,0.030965082347393,0.030965082347393,898.95204334259,2549.01528848511,3447.9673318277,,,83.1700000762939,1645.33911132812,30031.1621478754,31066.7055376412
2018-07-19T08:47:35Z,1531990055,1A108,40.9868525,43.8906003,2512.51,1.7,-41.6,21,542075.44,-107287.24,15.4,Weapon+Missile,Blue,Enemies,AIM-120B,,us,,135.096677877698,119.961158752441,0.408589079371053,2512.51391601562,875.638549804688,103.557276997518,-86.75830078125,0.0725737766480622,NaN,0.276923189708997,3.16282176145537,2525.96526592569,0.0271886102855206,0.0271886102855206,0.0271886102855206,912.555618679523,2463.93445944946,3376.49007812899,,,84.1700000762939,1636.87536621094,30134.3785422253,31201.5727572374
2018-07-19T08:47:36Z,1531990056,1A108,40.9872946,43.8914332,2419.59,1.8,-44.5,21.1,542101.94,-107191.25,15.5,Weapon+Missile,Blue,Enemies,AIM-120B,,us,,136.202714887043,121.503028869629,0.411478064910924,2419.59228515625,787.244750976562,99.5828803612105,-92.921630859375,0.0593429110671675,NaN,0,2.92896163380283,2703.76663227364,0.0385077521204948,0.0385077521204948,0.0385077521204948,927.558977130055,2372.80946832275,3300.36844545281,,,85.1700000762939,1632.34753417969,30233.6503054151,31337.5761929897
2018-07-19T08:47:37Z,1531990057,1A108,40.987724,43.8922344,2320.6,1.9,-47.3,21.3,542127.81,-107098.88,15.7,Weapon+Missile,Blue,Enemies,AIM-120B,,us,,137.849366306701,123.580055236816,0.415962581595696,2320.59838867188,693.442138671875,95.9304761272454,-98.993896484375,0.0819436423362573,NaN,0,2.79528992254721,2920.33073263939,0.0296967830508947,0.0296967830508947,0.0296967830508947,950.122389557958,2275.7296188269,3225.85200838486,,,86.1700000762939,1627.15625,30329.2667353634,31475.2318834935
2018-07-19T08:47:38Z,1531990058,1A108,40.9881383,43.8929999,2216.51,1.9,-49.9,21.6,542152.81,-107010.59,15.9,Weapon+Missile,Blue,Enemies,AIM-120B,,us,,138.762422535001,125.035957336426,0.418200830101522,2216.5068359375,599.713989257812,91.7603321546348,-104.091552734375,0.0321855384923427,NaN,0,2.61176124544509,3143.94341435519,0.0442372150719166,0.0442372150719166,0.0442372150719166,962.750495389104,2173.65067626465,3136.40117165375,,,87.1700000762939,1616.79284667969,30420.7318063889,31613.8207095322
2018-07-19T08:47:39Z,1531990059,1A108,40.988542,43.8937372,2106.7,1.9,-52.4,21.8,542177.31,-106925.52,16.2,Weapon+Missile,Blue,Enemies,AIM-120B,,us,,141.044074133518,127.787071228027,0.424525092079991,2106.69995117188,503.416748046875,88.5204999209223,-109.806884765625,0.0409303578160923,NaN,0,2.42815786314892,3401.40934136194,0.0312133990228176,0.0312133990228176,0.0312133990228176,994.671542409062,2065.96690761597,3060.63845002503,,,88.1700000762939,1603.283203125,30508.9605349552,31754.7005793254
2018-07-19T08:47:40Z,1531990060,1A108,40.9889348,43.8944464,1991.45,1.8,-54.7,22,542201.19,-106843.65,16.4,Weapon+Missile,Blue,Enemies,AIM-120B,,us,,143.375829072801,130.641174316406,0.430956609959781,1991.44763183594,401.085815429688,85.2850001465674,-115.252319335938,0.0495705567567934,NaN,0.184579032130425,2.3118194644595,3713.78854272476,0.0385948941111565,0.0385948941111565,0.0385948941111565,1027.83141811565,1952.94299187439,2980.77440999004,,,89.1700000762939,1590.36181640625,30593.969558837,31897.9286326803
2018-07-19T08:47:41Z,1531990061,1A108,40.989318,43.8951295,1870.81,1.7,-56.8,22.3,542224.56,-106764.77,16.7,Weapon+Missile,Blue,Enemies,AIM-120B,,us,,146.021113365103,133.843536376953,0.438284843841523,1870.81066894531,285.613891601562,82.2732564866018,-120.636962890625,0.0420933493435275,NaN,0.12305268808695,2.11144924841142,4088.73264860323,0.0396757870912552,0.0396757870912552,0.0396757870912552,1066.10827741921,1834.63854466125,2900.74682208046,,,90.1700000762939,1585.19677734375,30675.9858538334,32043.8190826393
2018-07-19T08:47:42Z,1531990062,1A108,40.9896881,43.8957814,1746.14,1.7,-58.8,22.5,542247.25,-106689.44,16.9,Weapon+Missile,Blue,Enemies,AIM-120B,,us,,147.420470491116,135.941986083984,0.441837909259099,1746.13610839844,165.526977539062,78.6705095462437,-124.674560546875,0.0386268667518237,NaN,0.0615263440434749,1.96255368582608,4381.75419831929,0.0416825041174889,0.0416825041174889,0.0416825041174889,1086.6397559911,1712.37456674255,2799.01432273365,,,91.1700000762939,1580.60913085938,30754.3926577816,32191.1108328311
