ISOTime,UnixTime,Id,Longitude,Latitude,Altitude,Roll,Pitch,Yaw,U,V,Heading,Type,Color,Coalition,Name,Group,Country,Pilot,TAS,CAS,M,ASL,AGL,GS,VS,AOA,AOS,RRT,TRT,TRD,G,LatG,LonG,Ek,Ep,Em,FFW,FFV,RelativeTime,Elev,GroundDistance,AirDistance
2018-07-19T08:46:31Z,1531989991,1A907,40.9869987,43.6694175,6623.45,132.9,-2,344.3,544473,-131860.89,338.7,Weapon+Missile,Blue,Enemies,AIM-120B,,us,,307.868548389993,231.679244995117,0.980477398050732,6623.4521484375,3757.57934570312,NaN,NaN,NaN,NaN,NaN,NaN,NaN,NaN,NaN,NaN,NaN,6495.38770114746,NaN,,,0.180000066757202,2865.87280273438,NaN,NaN
2018-07-19T08:46:32Z,1531989992,1A907,40.9852901,43.6726911,6611.54,107.2,-5.1,345.9,544299.94,-131510.53,340.3,Weapon+Missile,Blue,Enemies,AIM-120B,,us,,390.953036919986,300.3896484375,1.24488255225939,6611.53759765625,3678.28491210938,390.771442862245,-11.91455078125,5.06648582671978,NaN,24.4461759452028,11.1404651945118,3074.46388044812,4.75724267959595,4.75724267959595,4.75724267959595,7642.21385384798,6483.70351820557,14125.9173720535,,,1.1800000667572,2933.25268554688,389.517148379925,390.103273084857
2018-07-19T08:46:33Z,1531989993,1A907,40.9837333,43.6772013,6569.18,85.7,-5.7,353.8,544125.81,-131021.55,348.3,Weapon+Missile,Blue,Enemies,AIM-120B,,us,,520.780336761818,396.462982177734,1.65735324398756,6569.17529296875,3789.84057617188,519.054519582786,-42.3623046875,1.67941560911838,NaN,20.1999839419892,5.88226008539206,3021.69253041306,9.59712219238281,9.59712219238281,9.59712219238281,13560.6079578877,6442.1602886792,20002.7682465668,,,2.1800000667572,2779.33471679688,907.008264743042,909.858331927094
2018-07-19T08:46:34Z,1531989994,1A907,40.9831496,43.6830036,6509.32,69.2,-5.1,356.4,544016.31,-130381.43,350.8,Weapon+Missile,Blue,Enemies,AIM-120B,,us,,652.175814860151,486.798461914062,2.07387174422968,6509.31689453125,3790.3837890625,649.423025173115,-59.8583984375,0.0704262831212862,NaN,15.3846459356169,3.29575517195039,5000,1.31740760803223,1.31740760803223,1.31740760803223,21266.6646744251,6383.45925237549,27650.1239268006,,,3.1800000667572,2718.93310546875,1554.62319436601,1560.89486237446
2018-07-19T08:46:35Z,1531989995,1A907,40.9824997,43.6900472,6439.76,56.2,-5.1,356,543888.12,-129603.91,350.4,Weapon+Missile,Blue,Enemies,AIM-120B,,us,,791.075579624707,582.148803710938,2.51325727566105,6439.76123046875,3818.7919921875,788.011790695666,-69.5556640625,0.0667209303897867,NaN,12.3846082860938,0.169309810735531,5000,0.769257724285126,0.769257724285126,0.769257724285126,31290.0286339283,6315.24844707764,37605.2770810059,,,4.1800000667572,2620.96923828125,2340.45503525414,2350.59356412896
2018-07-19T08:46:36Z,1531989996,1A907,40.9817138,43.6978978,6358.28,45.5,-5.6,355.8,543740.25,-128737.78,350.2,Weapon+Missile,Blue,Enemies,AIM-120B,,us,,882.434980466536,646.685607910156,2.80050354099563,6358.28466796875,3794.38061523438,878.665502062167,-81.4765625,0.027209112240542,NaN,10.2308037539787,0.490093286983389,5000,0.411007821559906,0.411007821559906,0.411007821559906,38934.5747375488,6235.34723391357,45169.9219714624,,,5.1800000667572,2563.90405273438,3216.66182685551,3231.45566991477
2018-07-19T08:46:37Z,1531989997,1A907,40.980827,43.7062762,6262.64,36.8,-6.1,355.5,543578.56,-127813.81,349.9,Weapon+Missile,Blue,Enemies,AIM-120B,,us,,942.872724704053,691.329284667969,2.98855489666741,6262.64013671875,3796.9453125,938.009114365533,-95.64453125,0.0368385488125958,NaN,8.24616934722643,0.514537947053483,5000,0.563129305839539,0.563129305839539,0.563129305839539,44450.4487495422,6141.55198967529,50592.0007392175,,,6.1800000667572,2465.69482421875,4152.06753861991,4172.65914326884
2018-07-19T08:46:38Z,1531989998,1A907,40.9798298,43.7151269,6154.6,29.8,-6.4,355.3,543403,-126838.21,349.7,Weapon+Missile,Blue,Enemies,AIM-120B,,us,,997.142066431847,732.773376464844,3.15610149780096,6154.6044921875,3966.98681640625,991.272212945915,-108.03564453125,0.038308363890058,NaN,6.67691972503766,0.517476902748145,5000,0.28456574678421,0.28456574678421,0.28456574678421,49714.6150323987,6035.60521433106,55750.2202467298,,,7.1800000667572,2187.61767578125,5140.59274059782,5168.02697648833
2018-07-19T08:46:39Z,1531989999,1A907,40.9787486,43.7244192,6031.38,24.1,-7.2,355.1,543215.81,-125814.21,349.5,Weapon+Missile,Blue,Enemies,AIM-120B,,us,,1048.23624428836,773.198181152344,3.31249030315722,6031.380859375,4023.98132324219,1040.96837615571,-123.2236328125,0.0612119309893645,NaN,5.58463587296923,0.791133287682319,5000,0.821342945098877,0.821342945098877,0.821342945098877,54939.961191988,5914.76411045898,60854.725302447,,,8.1800000667572,2007.39953613281,6178.65546839155,6214.36252164486
2018-07-19T08:46:40Z,1531990000,1A907,40.9776525,43.7336203,5891.77,19.4,-8.2,355.2,543028.44,-124800.47,349.7,Weapon+Missile,Blue,Enemies,AIM-120B,,us,,1040.32408842747,773.059265136719,3.28152280473431,5891.7685546875,3995.01696777344,1030.91348489691,-139.6123046875,0.0416587616566473,NaN,4.49229737938743,0.984257153268694,5000,1.03671908378601,1.03671908378601,1.03671908378601,54113.710448122,5777.85120968262,59891.5616578046,,,9.1800000667572,1896.75158691406,7206.70304944884,7252.7988747547
2018-07-19T08:46:41Z,1531990001,1A907,40.9767098,43.7423626,5743.67,15.4,-8.9,356.2,542858.38,-123836.49,350.6,Weapon+Missile,Blue,Enemies,AIM-120B,,us,,990.003246980698,742.892150878906,3.11680676203526,5743.666015625,3572.90307617188,978.862639472754,-148.1025390625,0.0305165663030194,NaN,3.75387196783901,1.19040080015614,5000,2.19532322883606,2.19532322883606,2.19532322883606,49005.3214516163,5632.61223321289,54637.9336848292,,,10.1800000667572,2170.76293945312,8182.84168756812,8240.98916193129
2018-07-19T08:46:42Z,1531990002,1A907,40.976072,43.7506862,5592.08,12,-9.5,357.7,542717.44,-122916.66,352.2,Weapon+Missile,Blue,Enemies,AIM-120B,,us,,942.836055351357,714.588562011719,2.96250862115901,5592.080078125,3307.84326171875,930.570540487261,-151.5859375,0.0666892866624767,NaN,3.24614302569694,1.64308279317784,5000,2.88453364372253,2.88453364372253,2.88453364372253,44446.9913635254,5483.95720981445,49930.9485733398,,,11.1800000667572,2284.23681640625,9110.83735605648,9182.09781101438
2018-07-19T08:46:43Z,1531990003,1A907,40.9758048,43.7586324,5439.14,9.2,-10.1,359.6,542610.38,-122035.87,354,Weapon+Missile,Blue,Enemies,AIM-120B,,us,,900.356307846699,689.211242675781,2.82347415864412,5439.14306640625,3153.11840820312,887.272084270591,-152.93701171875,0.0459691524223071,NaN,2.7077055530465,1.87347713343513,5000,2.86124420166016,2.86124420166016,2.86124420166016,40532.074053967,5333.97723521728,45866.0512891843,,,12.1800000667572,2286.02465820312,9995.66863894199,10080.8028873239
2018-07-19T08:46:44Z,1531990004,1A907,40.975887,43.7662398,5285.65,6.9,-10.5,1.2,542535.06,-121190,355.6,Weapon+Missile,Blue,Enemies,AIM-120B,,us,,862.973593431067,667.094116210938,2.70092880026079,5285.64990234375,3139.12817382812,849.213325110605,-153.4931640625,0.0485647038488961,NaN,2.03075184402819,1.63253377944817,5000,1.90919733047485,1.90919733047485,1.90919733047485,37236.1711479664,5183.45186148193,42419.6230094483,,,13.1800000667572,2146.52172851562,10842.54461989,10942.1771093537
2018-07-19T08:46:45Z,1531990005,1A907,40.9761871,43.7734307,5133.02,5.2,-10.9,2.4,542481.81,-120388.7,356.8,Weapon+Missile,Blue,Enemies,AIM-120B,,us,,817.447823376528,638.553344726562,2.55346556953193,5133.01904296875,2961.53515625,803.072079398526,-152.630859375,0.0336268430425123,NaN,1.72306548229746,1.2732640148365,5000,1.92984902858734,1.92984902858734,1.92984902858734,33411.0471971512,5033.77211977295,38444.8193169241,,,14.1800000667572,2171.48388671875,11643.3894585263,11758.0794993399
2018-07-19T08:46:46Z,1531990006,1A907,40.976683,43.7803022,4985.35,3.8,-10.5,3.8,542447.69,-119621.37,358.2,Weapon+Missile,Blue,Enemies,AIM-120B,,us,,782.153589859189,616.919189453125,2.438635748285,4985.34619140625,2905.87939453125,768.086562205729,-147.6728515625,0.0250430068207871,NaN,1.3384438697557,1.37745823045993,5000,2.97347545623779,2.97347545623779,2.97347545623779,30588.2119064808,4888.95452279541,35477.1664292762,,,15.1800000667572,2079.466796875,12409.3590052697,12538.7508454002
2018-07-19T08:46:47Z,1531990007,1A907,40.9773738,43.786849,4857.63,2.8,-9.1,5.1,542432.81,-118888.59,359.5,Weapon+Missile,Blue,Enemies,AIM-120B,,us,,743.976951980453,592.203796386719,2.31585784407634,4857.62744140625,2869.46948242188,732.932211037667,-127.71875,0.0278967849557357,NaN,1.04616641479251,1.87621860061324,5000,3.47659301757812,3.47659301757812,3.47659301757812,27675.0852539063,4763.70521482666,32438.7904687329,,,16.1800000667572,1988.15795898438,13140.2621751817,13281.2845266804
2018-07-19T08:46:48Z,1531990008,1A907,40.9782206,43.7930927,4756.1,2,-7.3,6.2,542433.69,-118188.25,0.7,Weapon+Missile,Blue,Enemies,AIM-120B,,us,,707.657467745497,567.833740234375,2.19997985630472,4756.099609375,2919.94018554688,700.336484112461,-101.52783203125,0.0947867509108557,NaN,0.769243225083516,2.14656709291587,5000,3.69463682174683,3.69463682174683,3.69463682174683,25038.9545827985,4664.14042342773,29703.0950062262,,,17.1800000667572,1836.15942382812,13838.6323114184,13987.5168988594
2018-07-19T08:46:49Z,1531990009,1A907,40.9791774,43.7990362,4683.18,1.4,-5,7.1,542446.62,-117520.43,1.5,Weapon+Missile,Blue,Enemies,AIM-120B,,us,,671.914337795253,542.9189453125,2.08694247272713,4683.17822265625,2976.83923339844,667.945618066207,-72.92138671875,0.0427041655227282,NaN,0.569200644672183,2.33515117722086,5000,3.78241014480591,3.78241014480591,3.78241014480591,22573.4438667417,4592.62897172119,27166.0728384628,,,18.1800000667572,1706.33898925781,14504.7077459221,14658.0620816886
2018-07-19T08:46:50Z,1531990010,1A907,40.9801604,43.8046436,4640.35,1,-2.7,7.4,542465.25,-116889.74,1.8,Weapon+Missile,Blue,Enemies,AIM-120B,,us,,632.414377779238,514.289489746094,1.96319878157082,4640.34912109375,3172.81311035156,630.962449977215,-42.8291015625,0.0824089699486088,NaN,0.307686361730734,2.28308677961197,5000,3.28586649894714,3.28586649894714,3.28586649894714,19997.397261095,4550.6279708374,24548.0252319324,,,19.1800000667572,1467.53601074219,15133.8981694425,15289.1673254047
2018-07-19T08:46:51Z,1531990011,1A907,40.9811366,43.8099824,4621.21,0.8,-1,7.8,542486.19,-116288.96,2.3,Weapon+Missile,Blue,Enemies,AIM-120B,,us,,601.450577112782,491.425323486328,1.86662890824951,4621.2099609375,3206.70715332031,601.14597998973,-19.13916015625,0.0835447846292777,NaN,0.199987938897973,1.82974983548188,5000,2.60747170448303,2.60747170448303,2.60747170448303,18087.139835465,4531.85886634277,22618.9987018077,,,20.1800000667572,1414.50280761719,15733.3610231386,15889.3706432407
2018-07-19T08:46:52Z,1531990012,1A907,40.9821318,43.8150535,4617.69,0.6,0.2,8.5,542511.62,-115717.74,2.9,Weapon+Missile,Blue,Enemies,AIM-120B,,us,,571.795710449868,469.144378662109,1.77451513314707,4617.6875,3050.30444335938,571.784860553174,-3.5224609375,0.0799658611609024,NaN,0.199987938897973,1.38217522313376,5000,2.19850158691406,2.19850158691406,2.19850158691406,16347.5167244434,4528.4045121875,20875.9212366309,,,21.1800000667572,1567.38305664062,16303.5074502515,16459.9408795246
2018-07-19T08:46:53Z,1531990013,1A907,40.9831181,43.8198348,4625.45,0.4,1.4,8.5,542539.38,-115178.81,2.9,Weapon+Missile,Blue,Enemies,AIM-120B,,us,,539.699446089708,444.711242675781,1.67507072171793,4625.44775390625,2982.64465332031,539.643651467195,7.76025390625,0.0764337572147265,NaN,0.199987938897973,1.32354007682161,5000,2.37936806678772,2.37936806678772,2.37936806678772,14563.7746054769,4536.01472158447,19099.7893270613,,,22.1800000667572,1642.80310058594,16841.6239000661,16998.5031583942
2018-07-19T08:46:54Z,1531990014,1A907,40.9840407,43.8243947,4646.07,0.3,3,8.3,542564.38,-114664.98,2.7,Weapon+Missile,Blue,Enemies,AIM-120B,,us,,514.85689304114,425.444061279297,1.59838102224989,4646.0693359375,2927.87670898438,514.443748787468,20.62158203125,0.0303321487504173,NaN,0.107698422832761,1.34783036394429,5000,2.14630341529846,2.14630341529846,2.14630341529846,13253.8810155988,4556.23758532715,17810.1186009259,,,23.1800000667572,1718.19262695312,17354.6095490559,17512.2756726409
2018-07-19T08:46:55Z,1531990015,1A907,40.9848977,43.8287003,4676.4,0.2,4.2,8.2,542586.81,-114179.9,2.6,Weapon+Missile,Blue,Enemies,AIM-120B,,us,,486.543083414295,403.228057861328,1.51105689613845,4676.39990234375,3010.89904785156,485.596775895151,30.33056640625,0.0474517623595274,NaN,0,1.18268908969637,5000,1.83041226863861,1.83041226863861,1.83041226863861,11836.2086009145,4585.98171023193,16422.1903111464,,,24.1800000667572,1665.50085449219,17838.8224770155,17997.7907854314
2018-07-19T08:46:56Z,1531990016,1A907,40.9856984,43.8327725,4712.96,0.1,4.7,8.2,542607.25,-113721.2,2.6,Weapon+Missile,Blue,Enemies,AIM-120B,,us,,460.611658996025,382.527770996094,1.43118045033932,4712.962890625,3001.91772460938,459.158195278072,36.56298828125,0.0357827906398514,NaN,0,0.663092213623733,5000,1.23082590103149,1.23082590103149,1.23082590103149,10608.1550201535,4621.83775313477,15229.9927732883,,,25.1800000667572,1711.04516601562,18296.6775510165,18457.4393862027
2018-07-19T08:46:57Z,1531990017,1A907,40.9864653,43.83664,4749.94,0.1,5.1,8.3,542627.19,-113285.52,2.7,Weapon+Missile,Blue,Enemies,AIM-120B,,us,,437.700102395468,363.903869628906,1.36062519015998,4749.93701171875,3078.56787109375,436.135637166178,36.97412109375,0.059728593725459,NaN,0,0.334990016257434,5000,1.36846172809601,1.36846172809601,1.36846172809601,9579.06898185015,4658.09697959717,14237.1659614473,,,26.1800000667572,1671.369140625,18731.5804142515,18894.2325956096
2018-07-19T08:46:58Z,1531990018,1A907,40.9872057,43.8403204,4788.67,0.1,5.5,8.4,542647,-112870.81,2.8,Weapon+Missile,Blue,Enemies,AIM-120B,,us,,416.978599912017,346.667633056641,1.29684426061154,4788.666015625,3174.26428222656,415.176127734984,38.72900390625,0.0369615769567048,NaN,0,0.49268166187456,5000,1.29070508480072,1.29070508480072,1.29070508480072,8693.5576392293,4696.07715821289,13389.6347974422,,,27.1800000667572,1614.40173339844,19145.578807754,19310.3467924254
2018-07-19T08:46:59Z,1531990019,1A907,40.9879188,43.8437928,4828,0.1,5.9,8.6,542666.88,-112479.43,3,Weapon+Missile,Blue,Enemies,AIM-120B,,us,,393.856317850369,326.992401123047,1.22554033082881,4828.00146484375,3283.62805175781,391.887128578383,39.33544921875,0.0532367643199876,NaN,0,0.350685684248417,5000,1.1017233133316,1.1017233133316,1.1017233133316,7756.13995553255,4734.652056521,12490.7920120535,,,28.1800000667572,1544.37341308594,19536.3397543994,19703.3756807714
2018-07-19T08:47:00Z,1531990020,1A907,40.9886113,43.8470839,4866.22,0.1,5.9,8.8,542687,-112108.37,3.2,Weapon+Missile,Blue,Enemies,AIM-120B,,us,,373.567572863521,309.211761474609,1.1629706457769,4866.2158203125,3392.23498535156,371.607850470425,38.21435546875,0.0303800499648787,NaN,0,0.206534154949115,5000,1.03442406654358,1.03442406654358,1.03442406654358,6977.6365747571,4772.12753742676,11749.7641121839,,,29.1800000667572,1473.98083496094,19906.8996542897,20076.1809410132
2018-07-19T08:47:01Z,1531990021,1A907,40.9892834,43.8501988,4902.7,0.1,5.9,9,542707.38,-111757.05,3.4,Weapon+Missile,Blue,Enemies,AIM-120B,,us,,353.796348130327,291.543182373047,1.10192841951807,4902.6953125,3472.80578613281,351.910645761247,36.4794921875,0.0517749567559295,NaN,0,0.248857595563871,5000,1.01384270191193,1.01384270191193,1.01384270191193,6258.59279751778,4807.90169863281,11066.4944961506,,,30.1800000667572,1429.88952636719,20257.818322253,20429.2579118445
2018-07-19T08:47:02Z,1531990022,1A907,40.9899394,43.8531578,4937.47,0.1,5.9,9.3,542728.12,-111423.15,3.7,Weapon+Missile,Blue,Enemies,AIM-120B,,us,,336.344792062176,275.723907470703,1.04803549365413,4937.46728515625,3450.91711425781,334.542566895367,34.77197265625,0.0486917455242071,NaN,0,0.251400026760702,5000,1.02366042137146,1.02366042137146,1.02366042137146,5656.39095736742,4842.00135519775,10498.3923125652,,,31.1800000667572,1486.55017089844,20591.3939626155,20764.8969071917
2018-07-19T08:47:03Z,1531990023,1A907,40.9905782,43.8559619,4970.63,0.2,6,9.6,542749.25,-111106.6,3.9,Weapon+Missile,Blue,Enemies,AIM-120B,,us,,318.979084160301,260.005493164062,0.994342533860421,4970.62548828125,3406.09655761719,317.250988489028,33.158203125,0.0461073095699699,NaN,0.107692326355318,0.268341697347111,5000,1.06277549266815,1.06277549266815,1.06277549266815,5087.38280658722,4874.51844446533,9961.90125105255,,,32.1800000667572,1564.52893066406,20907.7346408792,21083.2149982691
2018-07-19T08:47:04Z,1531990024,1A907,40.9911978,43.8586093,5002.54,0.2,6.1,9.8,542770.44,-110807.62,4.2,Weapon+Missile,Blue,Enemies,AIM-120B,,us,,301.428337867902,244.256591796875,0.940012674894355,5002.5390625,3381.62878417969,299.734159965778,31.91357421875,0.0388440232117915,NaN,0,0.276069282660613,5000,1.08331954479218,1.08331954479218,1.08331954479218,4542.95214349031,4905.81496972656,9448.76711321688,,,33.1800000667572,1620.91027832031,21206.6054945673,21384.0172406322
2018-07-19T08:47:05Z,1531990025,1A907,40.9918064,43.8611423,5033.88,0.2,6.3,10,542792,-110521.43,4.4,Weapon+Missile,Blue,Enemies,AIM-120B,,us,,288.705138898778,232.866546630859,0.900693367884804,5033.8828125,3360.220703125,286.998652544746,31.34375,0.0320855605206703,NaN,0,0.249642640431599,5000,0.938985645771027,0.938985645771027,0.938985645771027,4167.53286132813,4936.55268832031,9104.08554964844,,,34.1800000667572,1673.662109375,21492.7777978516,21672.1247467713
2018-07-19T08:47:06Z,1531990026,1A907,40.9923836,43.8635668,5063.31,-0.1,4.8,8.5,542812.19,-110247.55,2.9,Weapon+Missile,Blue,Enemies,AIM-120B,,us,,276.197715424036,221.785720825195,0.861995303954837,5063.30810546875,3373.14343261719,274.625800206682,29.42529296875,0.0185986505570887,NaN,0.523083207396256,2.50984777939592,3277.23599344701,1.71633470058441,1.71633470058441,1.71633470058441,3814.25890027285,4965.40904324951,8779.66794352236,,,35.1800000667572,1690.16467285156,21766.617490315,21947.7563584512
2018-07-19T08:47:07Z,1531990027,1A907,40.9927414,43.865876,5075.32,-0.3,0.3,4.2,542816,-109988.18,358.6,Weapon+Missile,Blue,Enemies,AIM-120B,,us,,259.673033106362,207.566909790039,0.810546560828257,5075.31689453125,3417.08935546875,259.395206408889,12.0087890625,0.475840211161929,NaN,0.107698422832761,4.72278125915586,3725.42144033116,1.31345570087433,1.31345570087433,1.31345570087433,3371.50420613289,4977.18564237549,8348.68984850838,,,36.1800000667572,1658.2275390625,22025.2755532918,22206.8983981951
2018-07-19T08:47:08Z,1531990028,1A907,40.9929359,43.8680969,5074.41,-0.3,-0,3.8,542807.56,-109739.9,358.2,Weapon+Missile,Blue,Enemies,AIM-120B,,us,,248.426233654677,198.060913085938,0.775431720083437,5074.40966796875,3442.21081542969,248.424577101004,-0.9072265625,0.0532406985521757,NaN,0,1.59682672440611,5000,1.25943470001221,1.25943470001221,1.25943470001221,3085.77967839241,4976.29595703857,8062.07563543099,,,37.1800000667572,1632.19885253906,22272.9996800746,22454.8212904256
2018-07-19T08:47:09Z,1531990029,1A907,40.9931485,43.8702518,5075.88,-0.2,0.8,4.5,542801.38,-109498.82,358.9,Weapon+Missile,Blue,Enemies,AIM-120B,,us,,241.161997506764,191.934265136719,0.752771377687715,5075.8798828125,3463.88623046875,241.157515971959,1.47021484375,0.0428998346438211,NaN,0,1.01980423247379,5000,1.35461580753326,1.35461580753326,1.35461580753326,2907.95545207262,4977.73774527832,7885.69319735094,,,38.1800000667572,1611.99365234375,22513.4929550326,22695.5104185281
2018-07-19T08:47:10Z,1531990030,1A907,40.9933895,43.8723273,5080.38,-0.1,1.4,5.2,542798.31,-109266.34,359.6,Weapon+Missile,Blue,Enemies,AIM-120B,,us,,232.548088629837,184.678466796875,0.725925160120722,5080.3798828125,3485.20300292969,232.504545171467,4.5,0.0501472304129214,NaN,0.0923021092264945,1.04749552691632,5000,1.31910717487335,1.31910717487335,1.31910717487335,2703.93067626953,4982.15073777832,7686.08141404785,,,39.1800000667572,1595.17687988281,22745.3431659978,22927.5888550338
2018-07-19T08:47:11Z,1531990031,1A907,40.9936596,43.8743424,5087.52,-0.1,2.1,6,542798.19,-109040.34,0.4,Weapon+Missile,Blue,Enemies,AIM-120B,,us,,226.112843726042,179.2490234375,0.705900922016049,5087.521484375,3514.14916992188,226.000034568581,7.1416015625,0.0445060840350494,NaN,0,1.0194203544981,5000,1.29048943519592,1.29048943519592,1.29048943519592,2556.35090489388,4989.15425647461,7545.50516136848,,,40.1800000667572,1573.37231445312,22970.7093790073,23153.2477414589
2018-07-19T08:47:12Z,1531990032,1A907,40.9939556,43.8762774,5096.81,0,2.8,6.8,542801.12,-108823.05,1.2,Weapon+Missile,Blue,Enemies,AIM-120B,,us,,217.507278013684,172.026138305664,0.679115453745979,5096.80859375,3542.80810546875,217.308917415689,9.287109375,0.041273081684358,NaN,0,0.987036933539184,5000,1.25747764110565,1.25747764110565,1.25747764110565,2365.47079944611,4998.26179958984,7363.73259903595,,,41.1800000667572,1554.00048828125,23187.412266501,23370.3223960829
2018-07-19T08:47:13Z,1531990033,1A907,40.994278,43.8781456,5107.94,0.1,3.3,7.5,542806.81,-108612.95,1.9,Weapon+Missile,Blue,Enemies,AIM-120B,,us,,210.473295457519,166.122375488281,0.657246600792743,5107.94384765625,3561.99584960938,210.178529401058,11.13525390625,0.0532556302132751,NaN,0.20000001179094,0.927228915680496,5000,1.2283775806427,1.2283775806427,1.2283775806427,2214.9504050374,5009.18175336182,7224.13215839922,,,42.1800000667572,1545.94799804688,23396.9839127788,23580.3570777745
2018-07-19T08:47:14Z,1531990034,1A907,40.9946249,43.8799517,5120.61,0.1,3.8,8.4,542815.12,-108409.57,2.8,Weapon+Missile,Blue,Enemies,AIM-120B,,us,,203.938419940287,160.643890380859,0.636942747628377,5120.6083984375,3567.57873535156,203.544806569094,12.66455078125,0.0600523040353368,NaN,0,0.968623597310476,5000,1.2168710231781,1.2168710231781,1.2168710231781,2079.54395638704,5021.60143505371,7101.14539144075,,,43.1800000667572,1553.02966308594,23599.9562309821,23783.8865540575
2018-07-19T08:47:15Z,1531990035,1A907,40.9949944,43.8816887,5134.55,0.2,4.3,9.2,542826.06,-108213.7,3.6,Weapon+Missile,Blue,Enemies,AIM-120B,,us,,196.675154180625,154.585235595703,0.614367099550931,5134.5537109375,3567.3115234375,196.180132865818,13.9453125,0.0419361887020312,NaN,0.20000001179094,0.993460192845052,5000,1.17649602890015,1.17649602890015,1.17649602890015,1934.05581359863,5035.27711493652,6969.33292853516,,,44.1800000667572,1567.2421875,23795.5766607718,23980.1602854491
2018-07-19T08:47:16Z,1531990036,1A907,40.9953822,43.8833519,5149.35,0.2,4.7,10.1,542839.19,-108025.86,4.5,Weapon+Missile,Blue,Enemies,AIM-120B,,us,,188.874512447735,148.113174438477,0.59011092546167,5149.3515625,3577.55151367188,188.293932566888,14.7978515625,0.0633529574984792,NaN,0,0.888700992511218,5000,1.1249133348465,1.1249133348465,1.1249133348465,1783.67907261848,5049.78885003906,6833.46792265755,,,45.1800000667572,1571.80004882812,23983.3249564174,24168.6417351626
2018-07-19T08:47:17Z,1531990037,1A907,40.9957853,43.8849497,5164.54,0.3,4.9,10.8,542854.31,-107845.2,5.2,Weapon+Missile,Blue,Enemies,AIM-120B,,us,,181.931315127246,142.367370605469,0.5685279321541,5164.54150390625,3596.14245605469,181.29608132556,15.18994140625,0.035700419474059,NaN,0.200000025131153,0.759262184272012,5000,1.08439111709595,1.08439111709595,1.08439111709595,1654.95017119646,5064.68509392822,6719.63526512468,,,46.1800000667572,1568.39904785156,24164.1029857698,24350.2024648065
2018-07-19T08:47:18Z,1531990038,1A907,40.9962035,43.8864931,5179.85,0.3,5,11.5,542871.25,-107670.44,5.9,Weapon+Missile,Blue,Enemies,AIM-120B,,us,,176.242461953718,137.659729003906,0.550857942026416,5179.84619140625,3634.24353027344,175.576683919122,15.3046875,0.0540171350349252,NaN,0,0.732233845065802,5000,1.04367482662201,1.04367482662201,1.04367482662201,1553.07026977539,5079.69386529541,6632.7641350708,,,47.1800000667572,1545.60266113281,24339.1637175511,24526.0723516283
2018-07-19T08:47:19Z,1531990039,1A907,40.9966312,43.8879745,5194.83,0.3,5.1,12.2,542889.56,-107502.5,6.6,Weapon+Missile,Blue,Enemies,AIM-120B,,us,,169.595760915547,132.204681396484,0.530184470729162,5194.8251953125,3672.42578125,168.932979499268,14.97900390625,0.0366454963842691,NaN,0,0.718134146823927,5000,1.01878297328949,1.01878297328949,1.01878297328949,1438.13610602617,5094.38325016113,6532.5193561873,,,48.1800000667572,1522.3994140625,24507.6028244409,24695.3126290059
2018-07-19T08:47:20Z,1531990040,1A907,40.9970645,43.8893925,5209.22,0.4,4.9,12.8,542909.06,-107341.56,7.2,Weapon+Missile,Blue,Enemies,AIM-120B,,us,,162.752448680288,126.620971679688,0.508884574080856,5209.220703125,3707.85583496094,162.114554887123,14.3955078125,0.371209340978772,NaN,0,1.0905645653883,4937.06408105,0.48294934630394,0.48294934630394,0.48294934630394,1324.41797757149,5108.50042083008,6432.91839840157,,,49.1800000667572,1501.36486816406,24669.2287121477,24857.7096346337
2018-07-19T08:47:21Z,1531990041,1A907,40.9974917,43.8907563,5217.97,0.6,1.4,12.8,542928.62,-107186.7,7.2,Weapon+Missile,Blue,Enemies,AIM-120B,,us,,156.335097923501,121.438255310059,0.488873756987997,5217.9697265625,3719.34802246094,156.090093957434,8.7490234375,0.0346050842859722,NaN,0.199999998450727,2.77216311546096,2454.68823463509,0.00165638711769134,0.00165638711769134,0.00165638711769134,1222.03314213753,5117.08028189941,6339.11342403694,,,50.1800000667572,1498.62170410156,24824.8705521862,25013.7242070091
2018-07-19T08:47:22Z,1531990042,1A907,40.9979053,43.8920766,5216.81,0.9,-2.3,12.8,542947.56,-107036.77,7.2,Weapon+Missile,Blue,Enemies,AIM-120B,,us,,151.133171677822,117.302200317383,0.472599856864901,5216.806640625,3700.36401367188,151.128696191359,-1.1630859375,0.0532972508553774,NaN,0.16923074329176,3.6692911740258,2315.65730879776,0.00817415677011013,0.00817415677011013,0.00817415677011013,1142.0617790699,5115.93968422852,6258.00146329842,,,51.1800000667572,1516.44262695312,24975.5490004467,25164.530397136
2018-07-19T08:47:23Z,1531990043,1A907,40.9983062,43.8933558,5206.1,1,-6.2,12.8,542965.94,-106891.51,7.2,Weapon+Missile,Blue,Enemies,AIM-120B,,us,,146.805988458867,113.92700958252,0.459005895986259,5206.10498046875,3670.37780761719,146.41541147463,-10.70166015625,0.0745113875586536,NaN,0.0923076587551951,3.82696907922331,2195.12871463254,0.00301061081700027,0.00301061081700027,0.00301061081700027,1077.59991236925,5105.44494067139,6183.04485304064,,,52.1800000667572,1535.72717285156,25121.5330830355,25311.0251695249
2018-07-19T08:47:24Z,1531990044,1A907,40.9986966,43.8946007,5186.05,1.2,-10,12.8,542983.81,-106750.13,7.2,Weapon+Missile,Blue,Enemies,AIM-120B,,us,,143.905294707997,111.741333007812,0.449821459006144,5186.046875,3628.79138183594,142.500548244559,-20.05810546875,0.0975692142108074,NaN,0.200000105172432,3.87314073112577,2120.18723136915,0.00821561552584171,0.00821561552584171,0.00821561552584171,1035.43669224977,5085.77465867187,6121.21135092165,,,53.1800000667572,1557.25549316406,25263.6098966551,25454.6254881878
2018-07-19T08:47:25Z,1531990045,1A907,40.9990737,43.8958007,5157.09,1.3,-13.9,12.9,543001.12,-106613.85,7.3,Weapon+Missile,Blue,Enemies,AIM-120B,,us,,140.394190253584,109.120567321777,0.438684485760115,5157.0947265625,3583.33959960938,137.376496380613,-28.9521484375,0.0517480802181659,NaN,0.0153845742186306,3.85803576777629,2074.09090191309,0.00981525238603354,0.00981525238603354,0.00981525238603354,985.526432847977,5057.38230002441,6042.90873287239,,,54.1800000667572,1573.75512695312,25400.5745927709,25594.7254110419
2018-07-19T08:47:26Z,1531990046,1A907,40.9994421,43.8969698,5119.27,1.4,-17.8,12.9,543018.06,-106481.09,7.3,Weapon+Missile,Blue,Enemies,AIM-120B,,us,,139.082720205012,108.293869018555,0.434377324500305,5119.27392578125,3527.927734375,133.841660509315,-37.82080078125,0.0746870885663927,NaN,0,3.84650896977824,2072.93360198299,0.00854462757706642,0.00854462757706642,0.00854462757706642,967.200152981281,5020.29276442627,5987.49291740755,,,55.1800000667572,1591.34619140625,25534.0263266141,25733.5363760459
2018-07-19T08:47:27Z,1531990047,1A907,40.9997995,43.8981004,5073.12,1.5,-21.6,13,543034.5,-106352.67,7.3,Weapon+Missile,Blue,Enemies,AIM-120B,,us,,137.444489326933,107.25089263916,0.429008890294639,5073.115234375,3463.0537109375,129.46182006292,-46.15869140625,0.0611884241744709,NaN,0.138461381411087,3.79647655344743,2077.85194909813,0.0244860090315342,0.0244860090315342,0.0244860090315342,944.549382317066,4975.02655131836,5919.57593363543,,,56.1800000667572,1610.0615234375,25663.1073153842,25870.719331036
2018-07-19T08:47:28Z,1531990048,1A907,41.0001493,43.8992016,5018.5,1.5,-25.3,13,543050.75,-106227.59,7.4,Weapon+Missile,Blue,Enemies,AIM-120B,,us,,137.444911425618,107.558082580566,0.428712650785855,5018.5029296875,3389.59130859375,126.129298156755,-54.6123046875,0.0537647819704346,NaN,0,3.74647401919424,2135.81783332628,0.00340774981305003,0.00340774981305003,0.00340774981305003,944.555183839798,4921.47017554199,5866.02535938179,,,57.1800000667572,1628.91162109375,25788.8643413782,26007.9139586743
2018-07-19T08:47:29Z,1531990049,1A907,41.0004897,43.9002675,4956.01,1.5,-28.9,13.1,543066.5,-106106.49,7.5,Weapon+Missile,Blue,Enemies,AIM-120B,,us,,137.181195257163,107.698196411133,0.427551007918809,4956.0126953125,3316.56787109375,122.121459784681,-62.490234375,0.0327988154213438,NaN,0,3.6464680969142,2214.74416737066,0.0289001762866974,0.0289001762866974,0.0289001762866974,940.934016609192,4860.18818984863,5801.12220645783,,,58.1800000667572,1639.44482421875,25910.6253549633,26144.8590873937
2018-07-19T08:47:30Z,1531990050,1A907,41.0008224,43.9013024,4885.74,1.5,-32.4,13.2,543082.06,-105988.91,7.6,Weapon+Missile,Blue,Enemies,AIM-120B,,us,,137.857969580193,108.637176513672,0.429278099158616,4885.74169921875,3251.1962890625,118.603570286757,-70.27099609375,0.0363416993484903,NaN,0,3.49339694086846,2310.81438723902,0.0147825293242931,0.0147825293242931,0.0147825293242931,950.240988838673,4791.27588346436,5741.51687230303,,,59.1800000667572,1634.54541015625,26028.8742945593,26282.4905120113
2018-07-19T08:47:31Z,1531990051,1A907,41.0011476,43.9023069,4807.87,1.5,-35.8,13.3,543097.31,-105874.76,7.7,Weapon+Missile,Blue,Enemies,AIM-120B,,us,,139.025059125531,110.019500732422,0.43248639635377,4807.87158203125,3176.63012695312,115.17036039738,-77.8701171875,0.0846195248827496,NaN,0,3.00221519920781,3555.24499926684,0.259183168411255,0.259183168411255,0.259183168411255,966.398353242874,4714.91138499268,5681.30973823555,,,60.1800000667572,1631.24145507812,26143.7035004161,26421.3053139211
2018-07-19T08:47:32Z,1531990052,1A907,41.00147,43.9032903,4724.99,0.9,-35.5,13.6,543112.56,-105762.97,8,Weapon+Missile,Blue,Enemies,AIM-120B,,us,,139.99411070647,111.278633117676,0.435045880261851,4724.9921875,3100.7314453125,112.824452113134,-82.87939453125,0.0766400304219492,NaN,0.815415303872802,0.331023730742493,4695.57763337468,1.23759388923645,1.23759388923645,1.23759388923645,979.917551624775,4633.63446355469,5613.55201517946,,,61.1800000667572,1624.2607421875,26256.1866794933,26561.0922133534
2018-07-19T08:47:33Z,1531990053,1A907,41.0018115,43.904303,4644.68,0.3,-33.5,13.9,543129,-105647.79,8.3,Weapon+Missile,Blue,Enemies,AIM-120B,,us,,141.37414712421,112.864852905273,0.438890510309318,4644.6796875,3036.052734375,116.346688044171,-80.3125,0.165370698613894,NaN,0.569255286185543,1.89258480108165,4592.06663276941,1.27527785301208,1.27527785301208,1.27527785301208,999.332473754883,4554.87480574219,5554.20727949707,,,62.1800000667572,1608.626953125,26372.1947519303,26702.2578883601
2018-07-19T08:47:34Z,1531990054,1A907,41.0021716,43.9053446,4567.22,-0.2,-32.1,14.2,543146.62,-105529.24,8.6,Weapon+Missile,Blue,Enemies,AIM-120B,,us,,142.702655005801,114.402519226074,0.442583867884483,4567.2197265625,2977.45642089844,119.849915299368,-77.4599609375,0.0294346184828821,NaN,0.399975877795947,1.57292479757077,5000,1.21227860450745,1.21227860450745,1.21227860450745,1018.20238728523,4478.91253314941,5497.11492043465,,,63.1800000667572,1589.76330566406,26491.6906274994,26844.7357487996
2018-07-19T08:47:35Z,1531990055,1A907,41.002544,43.9063997,4492.89,-0.5,-30.9,14.5,543165.12,-105409.09,8.9,Weapon+Missile,Blue,Enemies,AIM-120B,,us,,142.48682259734,114.663467407227,0.441502763460606,4492.89208984375,2927.43933105469,121.564374031586,-74.32763671875,0.0418665163287684,NaN,0.230751110919711,1.37051299529108,5000,1.15086555480957,1.15086555480957,1.15086555480957,1015.12473069429,4406.02202128662,5421.14675198092,,,64.1800000667572,1565.45275878906,26612.8842186242,26986.9797489833
2018-07-19T08:47:36Z,1531990056,1A907,41.0029284,43.9074692,4420.81,-0.7,-29.9,14.7,543184.44,-105287.25,9.1,Weapon+Missile,Blue,Enemies,AIM-120B,,us,,142.877772187533,115.409881591797,0.442314895668739,4420.814453125,2885.22521972656,123.364792669191,-72.07763671875,0.0218584671908166,NaN,0.0923441575785724,1.11079121011994,5000,1.08905398845673,1.08905398845673,1.08905398845673,1020.70288926363,4335.33800567383,5356.04089493746,,,65.1800000667572,1535.58923339844,26735.8668667599,27129.6018449982
2018-07-19T08:47:37Z,1531990057,1A907,41.0033227,43.908549,4350.49,-0.9,-28.9,15,543204.38,-105164.19,9.3,Weapon+Missile,Blue,Enemies,AIM-120B,,us,,143.135327369705,116.039131164551,0.442723016496449,4350.48779296875,2838.91564941406,124.66708792821,-70.32666015625,0.1440502750264,NaN,0.184579032130425,0.747639283377913,5000,1.05036771297455,1.05036771297455,1.05036771297455,1024.38609706163,4266.3711114917,5290.75720855333,,,66.1800000667572,1511.57214355469,26860.1552861933,27272.4818695138
2018-07-19T08:47:38Z,1531990058,1A907,41.0037257,43.9096364,4281.56,-0.9,-28.4,15.2,543225,-105040.23,9.5,Weapon+Missile,Blue,Enemies,AIM-120B,,us,,143.329726027776,116.609352111816,0.442943283281724,4281.55517578125,2792.02490234375,125.665049440482,-68.9326171875,0.0624465580318662,NaN,0,0.540775585141558,5000,1.00600326061249,1.00600326061249,1.00600326061249,1027.17051815987,4198.77130645752,5225.94182461739,,,67.1800000667572,1489.5302734375,26985.4507826163,27415.5619903732
2018-07-19T08:47:39Z,1531990059,1A907,41.0041341,43.9107242,4213.94,-0.9,-28,15.3,543246,-104916.17,9.7,Weapon+Missile,Blue,Enemies,AIM-120B,,us,,142.83553211956,116.601356506348,0.441044556630227,4213.94287109375,2731.76354980469,125.81957514919,-67.6123046875,0.0638250559202719,NaN,0,0.479905793032051,5000,0.974439442157745,0.974439442157745,0.974439442157745,1020.0994617939,4132.46628568115,5152.56574747505,,,68.1800000667572,1482.17932128906,27110.8920189754,27558.1379131264
2018-07-19T08:47:40Z,1531990060,1A907,41.0045479,43.9118127,4147.23,-0.9,-27.7,15.5,543267.44,-104791.98,9.9,Weapon+Missile,Blue,Enemies,AIM-120B,,us,,142.59373036388,116.796539306641,0.439932914048852,4147.22802734375,2665.25085449219,126.024210223671,-66.71484375,0.0259863959867597,NaN,0,0.392172680153898,5000,0.957258701324463,0.957258701324463,0.957258701324463,1016.64859695435,4067.04137343506,5083.6899703894,,,69.1800000667572,1481.97717285156,27236.5271653014,27700.460640828
2018-07-19T08:47:41Z,1531990061,1A907,41.0049672,43.9129036,4081.11,-0.9,-27.5,15.7,543289.31,-104667.51,10.1,Weapon+Missile,Blue,Enemies,AIM-120B,,us,,142.632936074658,117.222152709961,0.439692935576828,4081.11279296875,2603.10241699219,126.384058475808,-66.115234375,0.0620966935682731,NaN,0,0.269796154114353,5000,0.935127675533295,0.935127675533295,0.935127675533295,1017.20772266388,4002.2044771167,5019.41219978058,,,70.1800000667572,1478.01037597656,27362.5313815497,27842.8290927386
2018-07-19T08:47:42Z,1531990062,1A907,41.0053878,43.9139858,4016,-0.9,-27.4,15.8,543311.31,-104543.98,10.2,Weapon+Missile,Blue,Enemies,AIM-120B,,us,,141.363860004451,116.545402526855,0.435429322721644,4015.99926757812,2552.03344726562,125.474976495565,-65.113525390625,0.0525893500727918,NaN,0,0.201012747417953,5000,0.920414388179779,0.920414388179779,0.920414388179779,999.187045767903,3938.3499217395,4937.53696750741,,,71.1800000667572,1463.9658203125,27487.6365040936,27983.9352182652
2018-07-19T08:47:43Z,1531990063,1A907,41.005813,43.9150697,3951.08,-0.8,-27.3,15.9,543333.75,-104420.22,10.3,Weapon+Missile,Blue,Enemies,AIM-120B,,us,,141.541072918352,117.078384399414,0.435625186441056,3951.08056640625,2508.00439453125,125.775345600937,-64.918701171875,0.0573540637509342,NaN,0.199987938897973,0.176938918595023,5000,0.910970747470856,0.910970747470856,0.910970747470856,1001.69376614392,3874.68642365479,4876.3801897987,,,72.1800000667572,1443.076171875,27613.0177494618,28125.1957483957
2018-07-19T08:47:44Z,1531990064,1A907,41.0062403,43.91615,3886.59,-0.8,-27.2,16.1,543356.31,-104296.84,10.4,Weapon+Missile,Blue,Enemies,AIM-120B,,us,,141.030510207344,117.030044555664,0.433708212145942,3886.58911132812,2470.90832519531,125.421118760957,-64.491455078125,0.0223959294186349,NaN,0,0.143677698265846,5000,0.909174740314484,0.909174740314484,0.909174740314484,994.480240467191,3811.4419108606,4805.92215132779,,,73.1800000667572,1415.68078613281,27738.0680034407,28265.9648347376
2018-07-19T08:47:45Z,1531990065,1A907,41.0066687,43.9172268,3822.49,-0.7,-27.1,16.1,543379.06,-104173.86,10.5,Weapon+Missile,Blue,Enemies,AIM-120B,,us,,140.539398121919,116.994049072266,0.431856421493118,3822.49072265625,2430.61828613281,125.070855894331,-64.098388671875,0.0277760183706565,NaN,0.0461510546132472,0.0550717152262136,5000,0.893561482429504,0.893561482429504,0.893561482429504,987.566121223569,3748.58286453369,4736.14898575726,,,74.1800000667572,1391.87243652344,27862.7560475373,28406.2306852271
2018-07-19T08:47:46Z,1531990066,1A907,41.0070986,43.9183022,3758.48,-0.6,-27,16.2,543402,-104051,10.6,Weapon+Missile,Blue,Enemies,AIM-120B,,us,,140.422661697503,117.273368835449,0.431157755635166,3758.47534179688,2390.88037109375,124.98221846183,-64.015380859375,0.0892697941012155,NaN,0.107715284862275,0.0484566469995765,5000,0.903529524803162,0.903529524803162,0.903529524803162,985.926195910573,3685.80522106323,4671.73141697381,,,75.1800000667572,1367.59497070312,27987.3345538075,28546.3600016397
2018-07-19T08:47:47Z,1531990067,1A907,41.0075279,43.9193733,3694.86,-0.5,-27,16.2,543424.81,-103928.64,10.6,Weapon+Missile,Blue,Enemies,AIM-120B,,us,,139.782530787694,117.104621887207,0.428856781798587,3694.85986328125,2349.98486328125,124.467774169223,-63.615478515625,0.095896506411645,NaN,0.199987938897973,0.0484566469995765,5000,0.880784034729004,0.880784034729004,0.880784034729004,976.957795670629,3623.41974782471,4600.37754349534,,,76.1800000667572,1344.875,28111.440892656,28685.8853274984
2018-07-19T08:47:48Z,1531990068,1A907,41.0079544,43.9204375,3631.53,-0.4,-27.1,16.2,543447.56,-103807.06,10.6,Weapon+Missile,Blue,Enemies,AIM-120B,,us,,138.959189655715,116.775856018066,0.42599949190916,3631.52856445312,2304.94250488281,123.688330001321,-63.331298828125,0.061767678698971,NaN,0.0307673875291158,0.0328053018670254,5000,0.911117017269135,0.911117017269135,0.911117017269135,965.482819488645,3561.31295965942,4526.79577914807,,,77.1800000667572,1326.58605957031,28234.7404415801,28824.5615698748
2018-07-19T08:47:49Z,1531990069,1A907,41.0083809,43.9215029,3568.37,-0.3,-27,16.2,543470.19,-103685.34,10.5,Weapon+Missile,Blue,Enemies,AIM-120B,,us,,138.983326434189,117.167373657227,0.425743844210099,3568.36987304688,2262.41235351562,123.803653930579,-63.15869140625,0.0336971688847933,NaN,0.199987938897973,0.065610617074264,5000,0.881731331348419,0.881731331348419,0.881731331348419,965.818251335621,3499.37544155151,4465.19369288713,,,78.1800000667572,1305.95751953125,28358.1717700107,28963.2753622842
2018-07-19T08:47:50Z,1531990070,1A907,41.0088058,43.9225677,3505.15,-0.2,-27,16.1,543492.81,-103563.7,10.5,Weapon+Missile,Blue,Enemies,AIM-120B,,us,,138.942005491971,117.503860473633,0.425288176371074,3505.15161132812,2217.2841796875,123.726845411134,-63.21826171875,0.0810021639461059,NaN,0.200042580411333,0.114070615802413,5000,0.866917848587036,0.866917848587036,0.866917848587036,965.24404450655,3437.3795049231,4402.62354942965,,,79.1800000667572,1287.86743164062,28481.5098357718,29101.9321420469
2018-07-19T08:47:51Z,1531990071,1A907,41.009224,43.9236206,3442.41,-0,-27.8,16,543515,-103443.45,10.4,Weapon+Missile,Blue,Enemies,AIM-120B,,us,,137.438897605207,116.579742431641,0.420364952307422,3442.4052734375,2172.89868164062,122.279792509842,-62.746337890625,0.158722820838621,NaN,0.169220564709071,1.26625015761084,3325.72054495295,0.305381566286087,0.305381566286087,0.305381566286087,944.472528746724,3375.84636747559,4320.31889622231,,,80.1800000667572,1269.50659179688,28603.4171064105,29239.0987492124
2018-07-19T08:47:52Z,1531990072,1A907,41.0096333,43.9246515,3374.58,0.4,-31.3,16.1,543536.62,-103325.7,10.4,Weapon+Missile,Blue,Enemies,AIM-120B,,us,,137.594927753933,117.11051940918,0.42049419264467,3374.58447265625,2123.85314941406,119.719267977214,-67.82080078125,0.0401182028634423,NaN,0.492307762378354,2.93106896060519,2276.02313868267,0.0227410066872835,0.0227410066872835,0.0227410066872835,946.6182071805,3309.33688187744,4255.95508905794,,,81.1800000667572,1250.73132324219,28722.774628751,29376.434504448
2018-07-19T08:47:53Z,1531990073,1A907,41.0100289,43.9256453,3299.63,0.8,-34.8,16.1,543557.69,-103212.19,10.5,Weapon+Missile,Blue,Enemies,AIM-120B,,us,,137.652867623774,117.599571228027,0.420287485408493,3299.62524414062,2068.05395507812,115.453133458519,-74.959228515625,0.0795648733283412,NaN,0.399999996901453,3.39643322753343,2361.84574855043,0.00395606458187103,0.00395606458187103,0.00395606458187103,947.415598252416,3235.82699004517,4183.24258829758,,,82.1800000667572,1231.5712890625,28837.860128841,29513.8296331288
2018-07-19T08:47:54Z,1531990074,1A907,41.0104126,43.9266047,3217.63,1,-38,16.2,543578.06,-103102.58,10.6,Weapon+Missile,Blue,Enemies,AIM-120B,,us,,138.392900801379,118.72403717041,0.422126139190557,3217.6298828125,2005.63061523438,111.487020378565,-81.995361328125,0.00632851017996857,NaN,0.200000105172432,3.26181404097389,2492.98038213613,0.0194826647639275,0.0194826647639275,0.0194826647639275,957.62974961102,3155.41700902832,4113.04675863934,,,83.1800000667572,1211.99926757812,28949.0056032266,29651.9932381159
2018-07-19T08:47:55Z,1531990075,1A907,41.0107843,43.9275288,3129.04,1.2,-41.1,16.3,543597.88,-102997,10.7,Weapon+Missile,Blue,Enemies,AIM-120B,,us,,139.240326859613,119.987319946289,0.424254887890137,3129.03759765625,1936.00866699219,107.421020451146,-88.59228515625,0.0303437094383801,NaN,0.200000105172432,3.07790458082554,2652.53308919928,0.0190286748111248,0.0190286748111248,0.0190286748111248,969.393431198597,3068.53765570557,4037.93108690416,,,84.1800000667572,1193.02893066406,29056.1034321171,29791.0254434999
2018-07-19T08:47:56Z,1531990076,1A907,41.0111447,43.9284184,3034.17,1.3,-44,16.4,543617.12,-102895.35,10.8,Weapon+Missile,Blue,Enemies,AIM-120B,,us,,140.365166758762,121.538818359375,0.42719152039827,3034.17236328125,1860.18688964844,103.455146542796,-94.865234375,0.0247973087192707,NaN,0.199999891729021,2.92514462527385,2835.83443919377,0.0315450616180897,0.0315450616180897,0.0315450616180897,985.119001960754,2975.50664063721,3960.62564259796,,,85.1800000667572,1173.98547363281,29159.2608545342,29931.2080096042
2018-07-19T08:47:57Z,1531990077,1A907,41.011495,43.9292763,2933.06,1.3,-46.8,16.6,543636,-102797.27,10.9,Weapon+Missile,Blue,Enemies,AIM-120B,,us,,142.127479619033,123.700378417969,0.432027301088333,2933.05541992188,1779.08764648438,99.8778465352333,-101.116943359375,0.0490233268128987,NaN,0,2.77894143788197,3030.39245310526,0.019556175917387,0.019556175917387,0.019556175917387,1010.01102314293,2876.34479337769,3886.35581652062,,,86.1800000667572,1153.9677734375,29258.8081616127,30073.1360758504
2018-07-19T08:47:58Z,1531990078,1A907,41.0118331,43.930097,2826.74,1.3,-49.3,16.7,543654.25,-102703.44,11.1,Weapon+Missile,Blue,Enemies,AIM-120B,,us,,142.972236889493,125.096656799316,0.434039096238232,2826.74072265625,1690.10400390625,95.5941717182795,-106.314697265625,0.0278328701069267,NaN,0,2.58209047680373,3257.46633404408,0.0219753067940474,0.0219753067940474,0.0219753067940474,1022.05302605927,2772.08569078369,3794.13871684296,,,87.1800000667572,1136.63671875,29354.1112108632,30215.942553422
2018-07-19T08:47:59Z,1531990079,1A907,41.0121625,43.9308888,2714.58,1.3,-51.8,16.9,543672.06,-102612.89,11.2,Weapon+Missile,Blue,Enemies,AIM-120B,,us,,145.242468746189,127.808395385742,0.440337571896197,2714.5830078125,1595.25244140625,92.2822936890692,-112.15771484375,0.0422012807171133,NaN,0,2.42112853127592,3544.46045563519,0.033097330480814,0.033097330480814,0.033097330480814,1054.76873637438,2662.09654535645,3716.86528173082,,,88.1800000667572,1119.33056640625,29446.1240420468,30361.0393186193
2018-07-19T08:48:00Z,1531990080,1A907,41.0124833,43.9316522,2596.81,1.3,-54,17,543689.56,-102525.55,11.4,Weapon+Missile,Blue,Enemies,AIM-120B,,us,,147.667356689773,130.71696472168,0.447058140301732,2596.81005859375,1492.4599609375,89.0796310278758,-117.77294921875,0.0337905861682779,NaN,0,2.24484583110953,3852.64684257995,0.0292347464710474,0.0292347464710474,0.0292347464710474,1090.28241158724,2546.60073611084,3636.88314769808,,,89.1800000667572,1104.35009765625,29534.908515698,30508.5510672993
2018-07-19T08:48:01Z,1531990081,1A907,41.012801,43.9324002,2471.65,1.2,-56.1,17.2,543707,-102439.96,11.6,Weapon+Missile,Blue,Enemies,AIM-120B,,us,,152.625196146702,135.983596801758,0.461377681168373,2471.6484375,1381.3173828125,87.3442562736893,-125.16162109375,0.0328059641430389,NaN,0,2.08324910487573,4357.56541732563,0.0153260957449675,0.0153260957449675,0.0153260957449675,1164.72252494097,2423.85911496094,3588.5816399019,,,90.1800000667572,1090.3310546875,29621.9823096673,30661.041405308
2018-07-19T08:48:02Z,1531990082,1A907,41.0131158,43.9331335,2339.19,1.1,-58.1,17.4,543724.25,-102356.02,11.7,Weapon+Missile,Blue,Enemies,AIM-120B,,us,,157.7612004309,141.517623901367,0.476152064061761,2339.19384765625,1261.76513671875,85.6993465011412,-132.45458984375,0.047768829688078,NaN,0.199987938897973,1.94020061110675,4935.80853599937,0.0347836837172508,0.0347836837172508,0.0347836837172508,1244.42981806993,2293.96553461182,3538.39535268175,,,91.1800000667572,1077.4287109375,29707.4291955278,30818.6830773718
2018-07-19T08:48:03Z,1531990083,1A907,41.0134276,43.9338524,2199.65,1,-59.8,17.5,543741.5,-102273.7,11.9,Weapon+Missile,Blue,Enemies,AIM-120B,,us,,162.931634277369,147.193450927734,0.490943657087792,2199.64526367188,1134.81384277344,84.1005954571666,-139.548583984375,0.0268542814170934,NaN,0.199987938897973,1.78684418794145,5000,0.0287494752556086,0.0287494752556086,0.0287494752556086,1327.33587241471,2157.11512249878,3484.45099491349,,,92.1800000667572,1064.83142089844,29791.2622981195,30981.4921636081
2018-07-19T08:48:04Z,1531990084,1A907,41.0137352,43.9345541,2053.7,1,-61.5,17.7,543758.62,-102193.33,12.1,Weapon+Missile,Blue,Enemies,AIM-120B,,us,,167.495016951954,152.419708251953,0.503823537261622,2053.69604492188,1001.87463378906,82.1791107885696,-145.94921875,0.0490855696990913,NaN,0,1.64144365449875,5000,0.0158349871635437,0.0158349871635437,0.0158349871635437,1402.72903518677,2013.98783189331,3416.71686708008,,,93.1800000667572,1051.82141113281,29873.1758365455,31148.8704104315
2018-07-19T08:48:05Z,1531990085,1A907,41.014042,43.9352467,1899.86,0.9,-62.9,17.9,543775.69,-102113.97,12.2,Weapon+Missile,Blue,Enemies,AIM-120B,,us,,173.93981942756,159.508361816406,0.522261691150549,1899.8583984375,861.719482421875,81.1728976114603,-153.837646484375,0.0276332453829224,NaN,0,1.49399801300815,5000,0.029527060687542,0.029527060687542,0.029527060687542,1512.75303912461,1863.12463630371,3375.87767542832,,,94.1800000667572,1038.13891601562,29954.1020620831,31322.7069301361
2018-07-19T08:48:06Z,1531990086,1A907,41.0143431,43.9359199,1740.62,0.8,-64.3,18,543792.56,-102036.8,12.4,Weapon+Missile,Blue,Enemies,AIM-120B,,us,,177.749698603786,164.259872436523,0.532704041295976,1740.623046875,714.62841796875,78.9877089584443,-159.2353515625,0.0395174901662197,NaN,0,1.39004819009097,5000,0.0278175305575132,0.0278175305575132,0.0278175305575132,1579.74776768684,1706.96810026367,3286.71586795052,,,95.1800000667572,1025.99462890625,30032.8421564935,31500.3566950269
2018-07-19T08:48:07Z,1531990087,1A907,41.014641,43.9365798,1574.84,0.7,-65.6,18.2,543809.38,-101961.16,12.6,Weapon+Missile,Blue,Enemies,AIM-120B,,us,,182.997489194154,170.468124389648,0.547368820702625,1574.84387207031,557.763549804688,77.4941691512426,-165.779174804688,0,NaN,0.199987938897973,1.25553903361008,5000,0.00874082371592522,0.00874082371592522,0.00874082371592522,1674.40405256823,1544.39426580383,3218.79831837206,,,96.1800000667572,1017.08032226562,30110.0841008026,31683.2559967141
2018-07-19T08:48:08Z,1531990088,1A907,41.0149356,43.9372264,1402.65,0.6,-66.8,18.4,543825.94,-101887.02,12.7,Weapon+Missile,Blue,Enemies,AIM-120B,,us,,188.209108728674,176.766052246094,0.561829078834345,1402.64770507812,393.644165039062,75.9680767272716,-172.196166992188,0.0302661659636776,NaN,0.107698422832761,1.17075482822566,5000,0.0301251467317343,0.0301251467317343,0.0301251467317343,1771.1334304221,1375.52751170044,3146.66094212254,,,97.1800000667572,1009.00354003906,30185.8327632239,31871.3837689589
2018-07-19T08:48:09Z,1531990089,1A907,41.0152253,43.9378564,1225.12,0.6,-67.9,18.5,543842.38,-101814.73,12.9,Weapon+Missile,Blue,Enemies,AIM-120B,,us,,192.379923132252,182.186126708984,0.573097681759561,1225.12231445312,223.206298828125,74.1267192570432,-177.525390625,0.0410554608651377,NaN,0,1.12087683820311,5000,0.0190216265618801,0.0190216265618801,0.0190216265618801,1850.50174121857,1201.43457450317,3051.93631572174,,,98.1800000667572,1001.916015625,30259.712811049,32063.6746288507
