ISOTime,UnixTime,Id,Longitude,Latitude,Altitude,Roll,Pitch,Yaw,U,V,Heading,Type,Color,Coalition,Name,Group,Country,Pilot,TAS,CAS,M,ASL,AGL,GS,VS,AOA,AOS,RRT,TRT,TRD,G,LatG,LonG,Ek,Ep,Em,FFW,FFV,RelativeTime,Elev,GroundDistance,AirDistance
2018-07-19T08:59:13Z,1531990753,1C70A,41.1037821,43.7432341,8479.48,8.7,-6,343.8,553084.88,-122739.91,338.1,Weapon+Missile,Blue,Enemies,R-27ER,,cn,,285.158774819855,193.865936279297,0.93131884686026,8479.48046875,6963.30871582031,NaN,NaN,NaN,NaN,NaN,NaN,NaN,NaN,NaN,NaN,NaN,8315.52971388672,NaN,,,0.190000057220459,1516.17175292969,NaN,NaN
2018-07-19T08:59:14Z,1531990754,1C70A,41.1026756,43.7458069,8424.87,6.7,-7.7,343.8,552967.62,-122462.81,338.2,Weapon+Missile,Blue,Enemies,R-27ER,,cn,,305.796227273815,210.298492431641,0.997961709403779,8424.865234375,6960.65893554688,300.879558609525,-54.615234375,3.45398140460457,NaN,1.67689340350817,1.87809726197306,5000,0.351282835006714,0.351282835006714,0.351282835006714,4675.56663074493,8261.97046506836,12937.5370958133,,,1.19000005722046,1464.20629882812,299.916943631821,305.240159568507
2018-07-19T08:59:15Z,1531990755,1C70A,41.1008511,43.7500675,8334.67,5.4,-9,342.1,552774.06,-122003.89,336.4,Weapon+Missile,Blue,Enemies,R-27ER,,cn,,506.172123413684,357.337585449219,1.64981893477357,8334.673828125,6972.48547363281,498.072011620574,-90.19140625,0.764272917987771,NaN,1.13845593085773,2.26834701793967,5000,3.43946003913879,3.43946003913879,3.43946003913879,12810.5109260559,8173.5229096582,20984.0338357141,,,2.19000005722046,1362.18835449219,796.37173220609,810.462787024821
2018-07-19T08:59:16Z,1531990756,1C70A,41.0976472,43.7564482,8200.88,5,-10.9,337.8,552446.25,-121320.35,332.2,Weapon+Missile,Blue,Enemies,R-27ER,,cn,,769.797563570706,521.781066894531,2.50443943041882,8200.876953125,6928.50158691406,758.08092254035,-133.796875,0.204405054853628,NaN,0.261568924454808,4.53413100739329,5000,7.76219177246094,7.76219177246094,7.76219177246094,29629.4144439697,8042.31299723633,37671.7274412061,,,3.19000005722046,1272.37536621094,1551.94527439489,1578.75569807243
2018-07-19T08:59:17Z,1531990757,1C70A,41.0924624,43.7645491,8003.31,5.2,-11.3,333.7,551940.19,-120461.34,328,Weapon+Missile,Blue,Enemies,R-27ER,,cn,,1016.37885052038,678.83642578125,3.29767425980899,8003.31103515625,6777.20422363281,996.99231483612,-197.56591796875,0.186248870019692,NaN,0.323095268498283,3.40289479993167,5000,2.85263872146606,2.85263872146606,2.85263872146606,51651.298389256,7848.5670162915,59499.8654055475,,,4.19000005722046,1226.10681152344,2545.41648776801,2592.91863065802
2018-07-19T08:59:18Z,1531990758,1C70A,41.0865758,43.7731099,7780.04,3.9,-12.3,333.6,551372.69,-119556.77,327.9,Weapon+Missile,Blue,Enemies,R-27ER,,cn,,1090.94062973017,733.788391113281,3.52878615133284,7780.044921875,6182.04211425781,1067.8500364079,-223.26611328125,0.0646760323183399,NaN,1.3384438697557,0.877677173912523,5000,0.48632287979126,0.48632287979126,0.48632287979126,59507.5728798032,7629.61775331055,67137.1906331137,,,5.19000005722046,1598.00280761719,3609.42809334441,3681.390833367
2018-07-19T08:59:19Z,1531990759,1C70A,41.0806009,43.7818229,7538.29,3,-12.7,333.7,550796.56,-118635.97,328.1,Weapon+Missile,Blue,Enemies,R-27ER,,cn,,1112.766086895,757.16650390625,3.58756111202972,7538.28662109375,5860.72387695312,1086.18658072496,-241.75830078125,0.0260306844684729,NaN,0.769243225083516,0.511868890552742,5000,0.983448147773743,0.983448147773743,0.983448147773743,61912.4182071805,7392.5338492749,69304.9520564554,,,6.19000005722046,1677.56274414062,4691.73556250546,4791.63924757794
2018-07-19T08:59:20Z,1531990760,1C70A,41.0745821,43.7907416,7288.42,2.3,-12.5,334.5,550214.75,-117692.62,328.9,Weapon+Missile,Blue,Enemies,R-27ER,,cn,,1136.15605925274,782.423278808594,3.65061907645667,7288.42138671875,5536.28796386719,1108.34018046241,-249.865234375,0.054534106298722,NaN,0.707716881040041,0.913942276754117,5000,3.79798054695129,3.79798054695129,3.79798054695129,64542.5295488358,7147.49975920654,71690.0293080423,,,7.19000005722046,1752.13342285156,5796.12241576028,5925.19112871399
2018-07-19T08:59:21Z,1531990761,1C70A,41.0687653,43.799908,7051.25,1.8,-11.2,336.3,549646.69,-116720.12,330.6,Weapon+Missile,Blue,Enemies,R-27ER,,cn,,1150.95678484657,802.022521972656,3.68641547879728,7051.25,5525.81372070312,1126.25541237601,-237.17138671875,0.0254859435112,NaN,0.399975877795947,1.96447339586968,5000,5.50035572052002,5.50035572052002,5.50035572052002,66235.0760292172,6914.91408125,73149.9901104672,,,8.19000005722046,1525.43627929688,6918.46890768963,7073.55759687064
2018-07-19T08:59:22Z,1531990762,1C70A,41.0632562,43.8093327,6843.34,1.7,-9.3,337.9,549100.62,-115716.47,332.2,Weapon+Missile,Blue,Enemies,R-27ER,,cn,,1161.34407386183,817.771789550781,3.70937539626167,6843.34228515625,5465.38134765625,1142.58235589494,-207.90771484375,0.0307411678596782,NaN,0,2.3641017877916,5000,5.78196048736572,5.78196048736572,5.78196048736572,67436.0028946996,6711.02626207275,74147.0291567723,,,9.19000005722046,1377.9609375,8057.15850956856,8232.29216635617
2018-07-19T08:59:23Z,1531990763,1C70A,41.0579721,43.8189964,6673.18,1.8,-7.6,338.8,548570.25,-114684.45,333.2,Weapon+Missile,Blue,Enemies,R-27ER,,cn,,1172.74194266904,832.813537597656,3.73732417145099,6673.1845703125,5392.72155761719,1160.33185605426,-170.15771484375,0.0928344161244137,NaN,0,1.83980792936496,5000,3.51214194297791,3.51214194297791,3.51214194297791,68766.1832047582,6544.15854664551,75310.3417514037,,,10.1900000572205,1280.46301269531,9213.62839634224,9402.42549629733
2018-07-19T08:59:24Z,1531990764,1C70A,41.0527865,43.8287765,6524.49,1.5,-7.1,339.3,548046.62,-113638.7,333.6,Weapon+Missile,Blue,Enemies,R-27ER,,cn,,1178.92773100589,843.536376953125,3.7496552966203,6524.48779296875,5099.01037597656,1169.5126606165,-148.69677734375,0.0639059634972042,NaN,0.399975877795947,0.891229870051415,5000,2.08200311660767,2.08200311660767,2.08200311660767,69493.5297467351,6398.3368214917,75891.8665682268,,,11.1900000572205,1425.47741699219,10379.28464767,10578.7240228406
2018-07-19T08:59:25Z,1531990765,1C70A,41.0479926,43.8381426,6388.37,1.1,-6.9,340.2,547559.12,-112635.84,334.6,Weapon+Missile,Blue,Enemies,R-27ER,,cn,,1123.34767608164,811.101440429688,3.56647693660791,6388.37451171875,4998.78259277344,1115.07092869709,-136.11328125,0.0469925532066981,NaN,0.369212705774209,0.848656553902785,5000,2.26031756401062,2.26031756401062,2.26031756401062,63095.5000679016,6264.85529053467,69360.3553584363,,,12.1900000572205,1389.59191894531,11490.7034445398,11699.5632900339
2018-07-19T08:59:26Z,1531990766,1C70A,41.0436643,43.8470471,6262.89,0.8,-6.7,341.1,547114.19,-111680.58,335.5,Weapon+Missile,Blue,Enemies,R-27ER,,cn,,1061.24895620171,773.207946777344,3.36377421202358,6262.88525390625,4849.89367675781,1053.80348889766,-125.4892578125,0.0452248666478879,NaN,0.276923189708997,0.983063364267823,5000,2.16373109817505,2.16373109817505,2.16373109817505,56312.4673519611,6141.79236752197,62454.2597194831,,,13.1900000572205,1412.99157714844,12541.1041818764,12758.4678490828
2018-07-19T08:59:27Z,1531990767,1C70A,41.0397395,43.8555702,6146.12,0.5,-6.7,342.1,546705.94,-110764.52,336.4,Weapon+Missile,Blue,Enemies,R-27ER,,cn,,1009.68922024353,741.827819824219,3.19546074093137,6146.12158203125,4711.87646484375,1002.91503449009,-116.763671875,0.0281136009358671,NaN,0.338449533752472,0.864591278514719,5000,1.60550582408905,1.60550582408905,1.60550582408905,50973.6160737991,6027.28632124268,57000.9023950418,,,14.1900000572205,1434.2451171875,13540.8350616908,13765.9603003216
2018-07-19T08:59:28Z,1531990768,1C70A,41.0361812,43.8636933,6032.09,0.2,-7,342.9,546331.5,-109889.98,337.3,Weapon+Missile,Blue,Enemies,R-27ER,,cn,,958.12956020131,709.951721191406,3.02777555708231,6032.0869140625,4704.21313476562,951.319267455891,-114.03466796875,0.0833488955462445,NaN,0.199987938897973,0.871074515419236,5000,1.83463060855865,1.83463060855865,1.83463060855865,45900.6127065778,5915.4565135791,51816.0692201569,,,15.1900000572205,1327.87377929688,14489.1310527247,14721.9869943522
2018-07-19T08:59:29Z,1531990769,1C70A,41.0329629,43.8714773,5923.3,0,-6.6,344,545988.25,-109050.45,338.3,Weapon+Missile,Blue,Enemies,R-27ER,,cn,,913.499800243053,682.384643554688,2.88265771074849,5923.2958984375,4669.1474609375,906.998566682097,-108.791015625,0.0513240619849412,NaN,0.199987938897973,0.996214359906154,5000,2.13733959197998,2.13733959197998,2.13733959197998,41724.0942522049,5808.76897224121,47532.8632244461,,,16.1900000572205,1254.1484375,15393.3164561698,15633.5350682286
2018-07-19T08:59:30Z,1531990770,1C70A,41.0300729,43.8789405,5823.73,-0.1,-6.5,344.9,545674.88,-108243.97,339.2,Weapon+Missile,Blue,Enemies,R-27ER,,cn,,870.931908443967,655.653442382812,2.74478062857569,5823.7265625,4438.30822753906,865.221553410926,-99.5693359375,0.0363775533647674,NaN,0.199987938897973,0.976271168025069,5000,1.72372889518738,1.72372889518738,1.72372889518738,37926.1194572926,5711.12480941406,43637.2442667066,,,17.1900000572205,1385.41833496094,16255.8732079831,16502.608778354
2018-07-19T08:59:31Z,1531990771,1C70A,41.0274938,43.886038,5729.73,-0.3,-6.6,345.8,545390.5,-107475.67,340.2,Weapon+Missile,Blue,Enemies,R-27ER,,cn,,824.611333817505,625.814025878906,2.59563913292869,5729.73388671875,4389.08276367188,819.236979609542,-93.99267578125,0.0455476786432341,NaN,0.200042580411333,0.932647923734961,5000,1.63004040718079,1.63004040718079,1.63004040718079,33999.1925930142,5618.94948201904,39618.1420750333,,,18.1900000572205,1340.65112304688,17072.6150379706,17325.4761573721
2018-07-19T08:59:32Z,1531990772,1C70A,41.0251658,43.8928971,5638.63,-0.4,-6.6,346.8,545128.94,-106731.88,341.1,Weapon+Missile,Blue,Enemies,R-27ER,,cn,,793.693059182053,606.548889160156,2.49537968949149,5638.6298828125,4368.33325195312,788.447038592965,-91.10400390625,0.0360895500102832,NaN,0.199987938897973,0.963051230164803,5000,1.76683807373047,1.76683807373047,1.76683807373047,31497.4336096883,5529.60697402832,37027.0405837166,,,19.1900000572205,1270.29663085938,17858.6790267882,18117.4978496138
2018-07-19T08:59:33Z,1531990773,1C70A,41.0230995,43.8994612,5553.45,-0.4,-6.1,347.7,544891.69,-106018.8,342.1,Weapon+Missile,Blue,Enemies,R-27ER,,cn,,756.322662584242,582.317810058594,2.37527832433991,5553.44775390625,4236.37756347656,751.510462238228,-85.18212890625,0.141718440840263,NaN,0,1.24253232571797,5000,3.23028492927551,3.23028492927551,3.23028492927551,28601.1984969258,5446.07184158447,34047.2703385103,,,20.1900000572205,1317.07019042969,18607.9493614579,18872.2478695244
2018-07-19T08:59:34Z,1531990774,1C70A,41.0212479,43.9057294,5492.63,0.3,-3.3,348,544674.81,-105336.91,342.3,Weapon+Missile,Blue,Enemies,R-27ER,,cn,,718.128403234593,556.648803710938,2.25356355533594,5492.6298828125,4134.51208496094,715.548454046189,-60.81787109375,0.182523226993641,NaN,0.769220653442743,2.04802774031668,5000,4.01751852035522,4.01751852035522,4.01751852035522,25785.4201766133,5386.42988402832,31171.8500606417,,,21.1900000572205,1358.11779785156,19321.3542940805,19588.8560052458
2018-07-19T08:59:35Z,1531990775,1C70A,41.0194235,43.9117385,5462.94,0.7,-1.7,347.2,544463,-104683.6,341.5,Weapon+Missile,Blue,Enemies,R-27ER,,cn,,687.425041341095,535.428466796875,2.1563904869853,5462.9375,4068.95422363281,686.783481066429,-29.6923828125,0.0370582990012497,NaN,0.369230741742486,2.25403222209979,5000,3.451824426651,3.451824426651,3.451824426651,23627.6593731403,5357.3116034375,28984.9709765778,,,22.1900000572205,1393.98327636719,20006.1049646015,20274.8376768106
2018-07-19T08:59:36Z,1531990776,1C70A,41.0174868,43.9174212,5453.76,0.9,-0.1,345.2,544245.81,-104067.43,339.6,Weapon+Missile,Blue,Enemies,R-27ER,,cn,,653.392971877053,511.284545898438,2.04939350750741,5453.76220703125,4102.15588378906,653.328546519487,-9.17529296875,0.0403138011049946,NaN,0.0923076587551951,2.2597604029359,5000,3.23854494094849,3.23854494094849,3.23854494094849,21346.1187849164,5348.3137147583,26694.4324996747,,,23.1900000572205,1351.60632324219,20657.4777480864,20926.8324625465
2018-07-19T08:59:37Z,1531990777,1C70A,41.0153807,43.9227745,5457.11,1,0.7,343.1,544018.56,-103489.17,337.5,Weapon+Missile,Blue,Enemies,R-27ER,,cn,,621.317825980671,488.233642578125,1.9488721732491,5457.10595703125,4216.0869140625,621.308828375459,3.34375,0.110247182307454,NaN,0.0154089067675488,1.94765490881217,5000,2.5123884677887,2.5123884677887,2.5123884677887,19301.7920440674,5351.59281335205,24653.3848574194,,,24.1900000572205,1241.01904296875,21276.8741966762,21546.7677193245
2018-07-19T08:59:38Z,1531990778,1C70A,41.0131502,43.9278743,5467.38,0.7,0.9,340.7,543784.12,-102940.06,335,Weapon+Missile,Blue,Enemies,R-27ER,,cn,,597.149495872108,470.684204101562,1.87331099489334,5467.3759765625,4304.36376953125,597.061175357384,10.27001953125,0.0429511871800654,NaN,0.553846379417994,3.41312428887424,5000,5.19652986526489,5.19652986526489,5.19652986526489,17829.3760210156,5361.66426205566,23191.0402830713,,,25.1900000572205,1163.01220703125,21872.0767859256,22142.5685609523
2018-07-19T08:59:39Z,1531990779,1C70A,41.010501,43.932467,5472.69,0.3,0.2,334,543521.56,-102450.56,328.4,Weapon+Missile,Blue,Enemies,R-27ER,,cn,,555.497611299292,440.59814453125,1.74276435739228,5472.69384765625,4364.74926757812,555.472156283508,5.31787109375,0.488287804153154,NaN,0.492320035374519,4.9797654191303,5000,4.32620716094971,4.32620716094971,4.32620716094971,15428.879807961,5366.87931211182,20795.7591200728,,,26.1900000572205,1107.94458007812,22425.701260251,22696.6933542621
2018-07-19T08:59:40Z,1531990780,1C70A,41.0075413,43.9366574,5472.78,0.1,0,332.7,543238.5,-102008.2,327.1,Weapon+Missile,Blue,Enemies,R-27ER,,cn,,525.179127112654,418.604644775391,1.64764798539389,5472.78369140625,4404.0234375,525.179119427753,0.08984375,0.0392156920556128,NaN,0.199987938897973,2.31951708765411,5000,1.00695526599884,1.00695526599884,1.00695526599884,13790.6557777405,5366.96741873291,19157.6231964734,,,27.1900000572205,1068.76025390625,22949.0495420365,23220.4907009671
2018-07-19T08:59:41Z,1531990781,1C70A,41.0046454,43.9407027,5472.52,0.1,0,332.7,542962.12,-101581.45,327.1,Weapon+Missile,Blue,Enemies,R-27ER,,cn,,508.427747790237,406.360443115234,1.59508828914674,5472.51611328125,4380.90808105469,508.427677378996,-0.267578125,0.0522212487528914,NaN,0,0.0523391626455858,5000,1.00204718112946,1.00204718112946,1.00204718112946,12924.9387361526,5366.70501423096,18291.6437503836,,,28.1900000572205,1091.60803222656,23455.6767403297,23727.5526725479
2018-07-19T08:59:42Z,1531990782,1C70A,41.0018762,43.9445699,5472.27,0.1,0,332.7,542697.94,-101173.48,327.1,Weapon+Missile,Blue,Enemies,R-27ER,,cn,,486.038678932109,389.839721679688,1.52484230677833,5472.2685546875,4415.87292480469,486.038615886446,-0.24755859375,0.0516308867014934,NaN,0,0.0139882274201861,5000,1.00022745132446,1.00022745132446,1.00022745132446,11811.6798709035,5366.46224218262,17178.1421130861,,,29.1900000572205,1056.39562988281,23940.0237484663,24212.3153098915
2018-07-19T08:59:43Z,1531990783,1C70A,40.9992018,43.9483041,5472.02,0.1,0,332.7,542442.75,-100779.55,327.1,Weapon+Missile,Blue,Enemies,R-27ER,,cn,,469.356116484927,377.381042480469,1.47249969339464,5472.02294921875,4494.59765625,469.356052224498,-0.24560546875,0.0544260986102536,NaN,0,0.0139882274201861,5000,1.00154566764832,1.00154566764832,1.00154566764832,11014.7582040906,5366.22138549561,16380.9795895862,,,30.1900000572205,977.42529296875,24407.7202778583,24680.4131656493
2018-07-19T08:59:44Z,1531990784,1C70A,40.9966209,43.9519073,5471.79,0.1,0,332.7,542196.5,-100399.41,327.1,Weapon+Missile,Blue,Enemies,R-27ER,,cn,,452.930469709464,364.951568603516,1.42096369934016,5471.79248046875,4470.96850585938,452.9304110737,-0.23046875,0.0503289276528132,NaN,0,0.0139882274201861,5000,1.00163340568542,1.00163340568542,1.00163340568542,10257.3005195618,5365.99537285889,15623.2958924207,,,31.1900000572205,1000.82397460938,24859.0231488186,25132.1032754958
2018-07-19T08:59:45Z,1531990785,1C70A,40.9941435,43.9553656,5471.58,0.1,0,332.7,541960.25,-100034.57,327.1,Weapon+Missile,Blue,Enemies,R-27ER,,cn,,434.655116813203,350.880523681641,1.36362527973161,5471.57763671875,4454.3759765625,434.655063716118,-0.21484375,0.0518454913155956,NaN,0,0.0139882274201861,5000,1.00012052059174,1.00012052059174,1.00012052059174,9446.25352859497,5365.78468311279,14812.0382117078,,,32.1900000572205,1017.20166015625,25292.1756056177,25565.6273789649
2018-07-19T08:59:46Z,1531990786,1C70A,40.9917493,43.9587074,5471.36,0,0,332.7,541731.88,-99682.02,327.1,Weapon+Missile,Blue,Enemies,R-27ER,,cn,,420.059512500784,339.415802001953,1.31783148224017,5471.36376953125,4525.25994873047,420.059458057098,-0.2138671875,0.0487796981430319,NaN,0,0.0139882274201861,5000,1.00101470947266,1.00101470947266,1.00101470947266,8822.49970211983,5365.57495104736,14188.0746531672,,,33.1900000572205,946.103820800781,25710.7456516682,25984.5565489931
2018-07-19T08:59:47Z,1531990787,1C70A,40.9894492,43.9619174,5471.16,0,0,332.7,541512.56,-99343.36,327.1,Weapon+Missile,Blue,Enemies,R-27ER,,cn,,403.467557528186,326.086242675781,1.26577506224682,5471.15966796875,4561.16394042969,403.467505903899,-0.2041015625,0.0532673421323067,NaN,0,0.0139882274201861,5000,1.00109755992889,1.00109755992889,1.00109755992889,8139.30349888802,5365.37479578857,13504.6782946766,,,34.1900000572205,909.995727539062,26112.8135851465,26386.9694341435
2018-07-19T08:59:48Z,1531990788,1C70A,40.9872344,43.965008,5470.97,0,0,332.7,541301.38,-99017.3,327.1,Weapon+Missile,Blue,Enemies,R-27ER,,cn,,388.480310247956,313.776763916016,1.21875342528723,5470.96630859375,4590.421875,388.480262127306,-0.193359375,0.049474712023673,NaN,0,0.0139882274201861,5000,1.00054967403412,1.00054967403412,1.00054967403412,7545.8475725174,5365.18517501709,12911.0327475345,,,35.1900000572205,880.54443359375,26499.9347967377,26774.4227603107
2018-07-19T08:59:49Z,1531990789,1C70A,40.9850986,43.9679882,5470.78,0,0,332.7,541097.75,-98702.89,327.1,Weapon+Missile,Blue,Enemies,R-27ER,,cn,,374.58572584077,302.148834228516,1.17516003295223,5470.7783203125,4612.12768554688,374.585678669196,-0.18798828125,0.0523962897143356,NaN,0,0.0139882274201861,5000,1.00084710121155,1.00084710121155,1.00084710121155,7015.72330018282,5365.00082148926,12380.7241216721,,,36.1900000572205,858.650634765625,26873.2218702152,27148.0300695519
2018-07-19T08:59:50Z,1531990790,1C70A,40.9830455,43.9708527,5470.6,0,0,332.7,540902,-98400.67,327.1,Weapon+Missile,Blue,Enemies,R-27ER,,cn,,360.075363832573,289.806060791016,1.12963514279518,5470.5986328125,4628.35345458984,360.075318998071,-0.1796875,0.054665718571485,NaN,0,0.0139882274201861,5000,1.00054812431335,1.00054812431335,1.00054812431335,6482.71338195801,5364.82460824707,11847.5379902051,,,37.1900000572205,842.245178222656,27232.0235437057,27507.1395412142
2018-07-19T08:59:51Z,1531990791,1C70A,40.9810748,43.973602,5470.42,0,0,332.7,540714.12,-98110.62,327.1,Weapon+Missile,Blue,Enemies,R-27ER,,cn,,345.584675227262,277.314453125,1.08417225717841,5470.42431640625,4641.009765625,345.58463126378,-0.17431640625,0.0495317175465399,NaN,0,0.0139882274201861,5000,1.00109672546387,1.00109672546387,1.00109672546387,5971.43838759661,5364.65366224854,11336.0920498451,,,38.1900000572205,829.41455078125,27576.3895866593,27851.8009901063
2018-07-19T08:59:52Z,1531990792,1C70A,40.9791726,43.9762554,5470.26,0,0,332.7,540532.81,-97830.68,327.1,Weapon+Missile,Blue,Enemies,R-27ER,,cn,,333.525491258202,266.836395263672,1.04633784699598,5470.2607421875,4650.74731445312,333.525451146535,-0.16357421875,0.0519662520153967,NaN,0,0.0139882274201861,5000,1.00000262260437,1.00000262260437,1.00000262260437,5561.96266595125,5364.49325073731,10926.4559166886,,,39.1900000572205,819.513427734375,27908.7575360868,28184.4540420696
2018-07-19T08:59:53Z,1531990793,1C70A,40.9773507,43.9787964,5470.1,0,0,332.7,540359.19,-97562.59,327.1,Weapon+Missile,Blue,Enemies,R-27ER,,cn,,319.405582560148,254.548370361328,1.00203869339113,5470.09716796875,4647.64453125,319.405540675271,-0.16357421875,0.0486797172897087,NaN,0,0.0139882274201861,5000,1.00179719924927,1.00179719924927,1.00179719924927,5100.99630852938,5364.33283922607,10465.3291477555,,,40.1900000572205,822.45263671875,28227.0530898521,28503.0226225027
2018-07-19T08:59:54Z,1531990794,1C70A,40.9755903,43.9812518,5469.95,0,0,332.7,540191.38,-97303.53,327.1,Weapon+Missile,Blue,Enemies,R-27ER,,cn,,308.659015074616,245.27783203125,0.968322763059853,5469.951171875,4644.1123046875,308.658980546448,-0.14599609375,0.0507810230835043,NaN,0,0.0139882274201861,5000,0.999403238296509,0.999403238296509,0.999403238296509,4763.5193793416,5364.1896659668,10127.7090453084,,,41.1900000572205,825.8388671875,28534.624462905,28810.8578098413
2018-07-19T08:59:55Z,1531990795,1C70A,40.9739069,43.9835992,5469.8,0,0,332.7,540030.94,-97055.86,327.1,Weapon+Missile,Blue,Enemies,R-27ER,,cn,,295.095869392218,233.627639770508,0.925770757930825,5469.79931640625,4653.57177734375,295.095830320026,-0.15185546875,0.0512681209987714,NaN,0,0.0139882274201861,5000,1.00102508068085,1.00102508068085,1.00102508068085,4354.07860661745,5364.04074662353,9718.11935324099,,,42.1900000572205,816.2275390625,28828.6743699886,29105.1599326102
2018-07-19T08:59:56Z,1531990796,1C70A,40.9722758,43.9858738,5469.66,0,0,332.7,539875.56,-96815.88,327.1,Weapon+Missile,Blue,Enemies,R-27ER,,cn,,285.891432293212,225.778442382812,0.896893086035238,5469.6572265625,4659.59143066406,285.891396983436,-0.14208984375,0.0509167615428463,NaN,0,0.0139882274201861,5000,1.00067341327667,1.00067341327667,1.00067341327667,4086.69555293322,5363.90140408691,9450.59695702013,,,43.1900000572205,810.065795898438,29113.5920619339,29390.321998131
2018-07-19T08:59:57Z,1531990797,1C70A,40.9707124,43.9880538,5469.52,0,0,332.7,539726.56,-96585.88,327.1,Weapon+Missile,Blue,Enemies,R-27ER,,cn,,274.045650259116,215.7431640625,0.859729228372032,5469.521484375,4660.38287353516,274.045616640734,-0.1357421875,0.0518057768861248,NaN,0,0.0139882274201861,5000,1.00082397460938,1.00082397460938,1.00082397460938,3755.05092129707,5363.76828647461,9118.81920777168,,,44.1900000572205,809.138610839844,29386.6735221704,29663.6376738508
2018-07-19T08:59:58Z,1531990798,1C70A,40.9691893,43.9901773,5469.39,0,0,332.7,539581.5,-96361.83,327.1,Weapon+Missile,Blue,Enemies,R-27ER,,cn,,266.908500182217,209.733535766602,0.837337362136934,5469.3935546875,4665.90844726562,266.908469523759,-0.1279296875,0.0485883652417831,NaN,0,0.0139882274201861,5000,0.999827086925507,0.999827086925507,0.999827086925507,3562.00737347603,5363.64283030762,8925.65020378365,,,45.1900000572205,803.485107421875,29652.6802908117,29929.8725825832
2018-07-19T08:59:59Z,1531990799,1C70A,40.9677197,43.9922262,5469.26,0,0,332.7,539441.44,-96145.64,327.1,Weapon+Missile,Blue,Enemies,R-27ER,,cn,,257.593780848927,201.930603027344,0.808114155307768,5469.263671875,4668.99865722656,257.593748104452,-0.1298828125,0.0552137799568569,NaN,0,0.0139882274201861,5000,1.00060260295868,1.00060260295868,1.00060260295868,3317.72779660225,5363.5154587793,8681.24325538155,,,46.1900000572205,800.265014648438,29909.3438532852,30186.7562699599
2018-07-19T09:00:00Z,1531990800,1C70A,40.9662967,43.9942099,5469.14,0,0,332.7,539305.88,-95936.35,327.1,Weapon+Missile,Blue,Enemies,R-27ER,,cn,,249.357411099394,195.068618774414,0.782274059608778,5469.1396484375,4669.1396484375,249.357380256488,-0.1240234375,0.0485996528245545,NaN,0,0.0139882274201861,5000,1.00075745582581,1.00075745582581,1.00075745582581,3108.9559235096,5363.39383333496,8472.34975684456,,,47.1900000572205,800,30157.8389889336,30435.4645191316
2018-07-19T09:00:01Z,1531990801,1C70A,40.9649118,43.9961403,5469.02,0,0,332.7,539174,-95732.68,327.1,Weapon+Missile,Blue,Enemies,R-27ER,,cn,,242.638129546292,189.496932983398,0.761193458433856,5469.02294921875,4669.02294921875,242.638101482466,-0.11669921875,0.0494161414456234,NaN,0,0.0139882274201861,5000,0.999961078166962,0.999961078166962,0.999961078166962,2943.66309548616,5363.27939049561,8306.94248598177,,,48.1900000572205,800,30399.6635709768,30677.496487397
2018-07-19T09:00:02Z,1531990802,1C70A,40.9635729,43.9980066,5468.91,0,0,332.7,539046.44,-95535.76,327.1,Weapon+Missile,Blue,Enemies,R-27ER,,cn,,234.628280462258,182.885314941406,0.736064211321364,5468.90576171875,4668.90576171875,234.628251197007,-0.1171875,0.0576865450825955,NaN,0,0.0139882274201861,5000,1.00005042552948,1.00005042552948,1.00005042552948,2752.52149963379,5363.16446881592,8115.68596844971,,,49.1900000572205,800,30633.4540889538,30911.4874995271
2018-07-19T09:00:03Z,1531990803,1C70A,40.9622777,43.9998117,5468.79,0,0,332.7,538923.06,-95345.29,327.1,Weapon+Missile,Blue,Enemies,R-27ER,,cn,,226.935561272953,176.565811157227,0.711929927002969,5468.7890625,4670.09332275391,226.93553126728,-0.11669921875,0.044999766109101,NaN,0,0.0139882274201861,5000,1.00099658966064,1.00099658966064,1.00099658966064,2574.98744851351,5363.05002597656,7938.03747449007,,,50.1900000572205,798.695739746094,30859.5880630547,31137.8153992354
2018-07-19T09:00:04Z,1531990804,1C70A,40.9610158,44.0015706,5468.68,0,0,332.7,538802.88,-95159.73,327.1,Weapon+Missile,Blue,Enemies,R-27ER,,cn,,221.084798204882,171.779220581055,0.693574278133183,5468.68212890625,4668.87701416016,221.08477234423,-0.10693359375,0.0539627425515486,NaN,0,0.0139882274201861,5000,0.977645576000214,0.977645576000214,0.977645576000214,2443.92439986467,5362.94515994385,7806.86955980852,,,51.1900000572205,799.805114746094,31079.9151258332,31358.331400543
2018-07-19T09:00:05Z,1531990805,1C70A,40.959795,44.003272,5468.36,-0.2,-0.6,332.7,538686.62,-94980.22,327.1,Weapon+Missile,Blue,Enemies,R-27ER,,cn,,213.86262795689,165.895568847656,0.67091449830091,5468.35595703125,4669.05548095703,213.862379226771,-0.326171875,0.0974029617281721,NaN,0.492320035374519,0.946240853956932,5000,0.339122027158737,0.339122027158737,0.339122027158737,2286.86118183136,5362.62529460205,7649.48647643341,,,52.1900000572205,799.300476074219,31293.0562915499,31571.6555596581
2018-07-19T09:00:06Z,1531990806,1C70A,40.9586081,44.0049257,5461.61,-1.2,-3.2,332.7,538573.62,-94805.72,327.1,Weapon+Missile,Blue,Enemies,R-27ER,,cn,,208.001826388337,161.192291259766,0.65247188623694,5461.60986328125,4661.94091796875,207.892400053489,-6.74609375,0.0936199724115673,NaN,0.938467991959752,2.25003143879345,4524.98319037006,0.0359295383095741,0.0359295383095741,0.0359295383095741,2163.23798904419,5356.00963657471,7519.2476256189,,,53.1900000572205,799.6689453125,31500.2355233174,31779.1220177885
2018-07-19T09:00:07Z,1531990807,1C70A,40.9574533,44.0065342,5445.72,-2.1,-5.8,332.6,538463.62,-94636.01,327,Weapon+Missile,Blue,Enemies,R-27ER,,cn,,202.865146630957,157.160873413086,0.636229067512758,5445.720703125,4645.72937011719,202.241940030076,-15.88916015625,0.0457462974089358,NaN,0.769243225083516,2.64278695286305,4380.53252093412,0.0504952967166901,0.0504952967166901,0.0504952967166901,2057.71338587999,5340.42769333008,7398.14107921007,,,54.1900000572205,799.991333007812,31701.7592418878,31981.4429386137
2018-07-19T09:00:08Z,1531990808,1C70A,40.9563352,44.0080898,5421.2,-2.9,-8.5,332.6,538357.19,-94471.88,327,Weapon+Missile,Blue,Enemies,R-27ER,,cn,,197.148056084929,152.734786987305,0.61810450846251,5421.197265625,4620.88598632812,195.616862849934,-24.5234375,0.0566572689753213,NaN,0.769188583570156,2.67740875487902,4247.16424491229,0.0656534433364868,0.0656534433364868,0.0656534433364868,1943.36780090332,5316.37841649414,7259.74621739746,,,55.1900000572205,800.311279296875,31896.6896865375,32178.0746875606
2018-07-19T09:00:09Z,1531990809,1C70A,40.9552432,44.0096065,5388.22,-3.4,-11.2,332.6,538253.25,-94311.87,327,Weapon+Missile,Blue,Enemies,R-27ER,,cn,,193.637189650722,150.156326293945,0.60684051257576,5388.22216796875,4588.37689208984,190.808815704072,-32.97509765625,0.058770614031693,NaN,0.569255286185543,2.67352707299634,4140.32222416316,0.0668055266141891,0.0668055266141891,0.0668055266141891,1874.76806079149,5284.04089235107,7158.80895314257,,,56.1900000572205,799.845275878906,32086.8304884437,32371.2124082868
2018-07-19T09:00:10Z,1531990810,1C70A,40.9541753,44.011086,5347,-3.9,-13.9,332.5,538151.69,-94155.82,326.9,Weapon+Missile,Blue,Enemies,R-27ER,,cn,,190.695662602901,148.097091674805,0.59730656738863,5347,4548.00354003906,186.18691845432,-41.22216796875,0.0529773860340884,NaN,0.569255286185543,2.67740875487902,4079.75976094918,0.0766433551907539,0.0766433551907539,0.0766433551907539,1818.24178677797,5243.615755,7061.85754177797,,,57.1900000572205,798.996459960938,32272.3943552307,32561.4522488184
2018-07-19T09:00:11Z,1531990811,1C70A,40.9531368,44.0125197,5298.07,-4.3,-16.5,332.4,538052.94,-94004.62,326.8,Weapon+Missile,Blue,Enemies,R-27ER,,cn,,187.105308103702,145.567123413086,0.585693871897349,5298.06689453125,4500.04888916016,180.593320778388,-48.93310546875,0.0258682947505792,NaN,0.369212705774209,2.65864366390806,4037.43325719498,0.0880523473024368,0.0880523473024368,0.0880523473024368,1750.41981602907,5195.62877112549,6946.04858715456,,,58.1900000572205,798.018005371094,32452.3492355496,32748.0863255133
2018-07-19T09:00:12Z,1531990812,1C70A,40.9521202,44.0139168,5241.46,-4.6,-19.2,332.3,537956.31,-93857.3,326.7,Weapon+Missile,Blue,Enemies,R-27ER,,cn,,185.046048058238,144.323532104492,0.57882895812032,5241.45703125,4443.1474609375,176.17424125351,-56.60986328125,0.0574807296943984,NaN,0.399975877795947,2.63084137889152,4026.56355887416,0.0877136588096619,0.0877136588096619,0.0877136588096619,1712.10199509859,5140.11345955078,6852.21545464937,,,59.1900000572205,798.3095703125,32627.8793147435,32932.6572320448
2018-07-19T09:00:13Z,1531990813,1C70A,40.9511253,44.0152766,5177.48,-4.8,-21.8,332.1,537861.94,-93713.97,326.5,Weapon+Missile,Blue,Enemies,R-27ER,,cn,,183.152653900157,143.261734008789,0.572438955304537,5177.47998046875,4377.99761962891,171.615359464134,-63.97705078125,0.0597361916545634,NaN,0.200042580411333,2.61044792813374,4013.77694679699,0.0956804752349854,0.0956804752349854,0.0956804752349854,1677.24473153353,5077.37340504639,6754.61813657991,,,60.1900000572205,799.482360839844,32798.9321510769,33115.4137673747
2018-07-19T09:00:14Z,1531990814,1C70A,40.9501447,44.0166081,5105.85,-5,-24.4,332,537768.94,-93573.68,326.4,Weapon+Missile,Blue,Enemies,R-27ER,,cn,,182.924631453994,143.600997924805,0.571204926440326,5105.84619140625,4305.39147949219,168.315243092029,-71.6337890625,0.0535517346369399,NaN,0.138461594854498,2.58062924320817,4098.72329683762,0.0974031314253807,0.0974031314253807,0.0974031314253807,1673.07103962898,5007.12465529541,6680.19569492439,,,61.1900000572205,800.454711914062,32966.655195661,33297.9179939232
2018-07-19T09:00:15Z,1531990815,1C70A,40.9491902,44.0178944,5027.79,-5,-26.9,331.8,537678.56,-93438.19,326.2,Weapon+Missile,Blue,Enemies,R-27ER,,cn,,180.606658513814,142.284683227539,0.563407463312229,5027.78857421875,4237.14862060547,162.867349393717,-78.0576171875,0.050228584265102,NaN,0.0769352508110236,2.52572199280068,4130.51988720798,0.104359671473503,0.104359671473503,0.104359671473503,1630.93825497627,4930.57628213623,6561.5145371125,,,62.1900000572205,790.639953613281,33128.9559606976,33478.1300861933
2018-07-19T09:00:16Z,1531990816,1C70A,40.9482483,44.0191532,4942.51,-5.1,-29.3,331.6,537589.5,-93305.66,326,Weapon+Missile,Blue,Enemies,R-27ER,,cn,,181.023624796254,143.244155883789,0.564097629422217,4942.50732421875,4158.75732421875,159.676739485789,-85.28125,0.0273025925219193,NaN,0,2.48706781785346,4227.98228613856,0.10870049148798,0.10870049148798,0.10870049148798,1638.47763671875,4846.94394510498,6485.42158182373,,,63.1900000572205,783.75,33288.0892572916,33658.784171871
2018-07-19T09:00:17Z,1531990817,1C70A,40.947322,44.0203793,4850.5,-5.1,-31.7,331.3,537502,-93176.64,325.7,Weapon+Missile,Blue,Enemies,R-27ER,,cn,,181.01629418063,143.908294677734,0.563418290963425,4850.49853515625,4074.98577880859,155.888683021381,-92.0087890625,0,NaN,0,2.45561586394261,4345.66972421748,0.106269188225269,0.106269188225269,0.106269188225269,1638.34493794441,4756.714145979,6395.05908392342,,,64.1900000572205,775.512756347656,33443.414782913,33839.4183146454
2018-07-19T09:00:18Z,1531990818,1C70A,40.9464131,44.0215703,4752.22,-5.1,-34.1,331.1,537416.31,-93051.4,325.5,Weapon+Missile,Blue,Enemies,R-27ER,,cn,,180.794041535659,144.442321777344,0.562028681197595,4752.220703125,3983.75756835938,151.749639821764,-98.27783203125,0.0527786841537006,NaN,0,2.36819990129361,4499.85256973505,0.115982472896576,0.115982472896576,0.115982472896576,1634.32427273989,4660.33651583008,6294.66078856997,,,65.1900000572205,768.463134765625,33594.6489018272,34019.8753426084
2018-07-19T09:00:19Z,1531990819,1C70A,40.9455197,44.0227282,4647.78,-5,-36.3,330.8,537332.19,-92929.7,325.2,Weapon+Missile,Blue,Enemies,R-27ER,,cn,,181.097674255377,145.456848144531,0.562232574423959,4647.78076171875,3883.32824707031,147.948187754246,-104.43994140625,0.0122459897218815,NaN,0,2.26687852726811,4622.71240915427,0.107328809797764,0.107328809797764,0.107328809797764,1639.81838103533,4557.91592069092,6197.73430172625,,,66.1900000572205,764.452514648438,33742.0587337692,34200.6221172774
2018-07-19T09:00:20Z,1531990820,1C70A,40.9446405,44.0238545,4537.27,-4.9,-38.6,330.5,537249.62,-92811.39,324.9,Weapon+Missile,Blue,Enemies,R-27ER,,cn,,181.731309520025,146.794784545898,0.563417138402034,4537.26513671875,3774.89050292969,144.265607442393,-110.515625,0.0184994465206289,NaN,0,2.16950564291312,4833.45918433171,0.121707059442997,0.121707059442997,0.121707059442997,1651.31344299316,4449.53711530029,6100.85055829346,,,67.1900000572205,762.374633789062,33885.8423792809,34382.0531584384
2018-07-19T09:00:21Z,1531990821,1C70A,40.9437734,44.0249519,4420.63,-4.8,-40.7,330.2,537168.25,-92696.21,324.6,Weapon+Missile,Blue,Enemies,R-27ER,,cn,,183.009221621109,148.724731445312,0.566550802123127,4420.62841796875,3660.04125976562,141.025710555195,-116.63671875,0.031320684822323,NaN,0.0615348817799374,2.12197392959218,5000,0.110956512391567,0.110956512391567,0.110956512391567,1674.61875991821,4335.15556750732,6009.77432742554,,,68.1900000572205,760.587158203125,34026.3443631692,34564.73503142
2018-07-19T09:00:22Z,1531990822,1C70A,40.9429228,44.0260149,4298.73,-4.6,-42.7,329.9,537088.62,-92584.72,324.3,Weapon+Missile,Blue,Enemies,R-27ER,,cn,,183.387753140026,149.950225830078,0.566859110092275,4298.72509765625,3538.72509765625,137.00601628591,-121.9033203125,0.0139823488916837,NaN,0.199987938897973,2.02470691316932,5000,0.1172019764781,0.1172019764781,0.1172019764781,1681.55340008736,4215.60924789307,5897.16264798042,,,69.1900000572205,760,34162.8623866265,34747.8281149504
2018-07-19T09:00:23Z,1531990823,1C70A,40.9420828,44.0270509,4170.94,-4.5,-44.6,329.6,537010.12,-92476.16,324,Weapon+Missile,Blue,Enemies,R-27ER,,cn,,185.140117167126,152.389129638672,0.571366157674219,4170.94091796875,3411.44018554688,133.970393767616,-127.7841796875,0.0383821347155388,NaN,0.184604645339812,1.93408481703524,5000,0.113098852336407,0.113098852336407,0.113098852336407,1713.84314923286,4090.29577531982,5804.13892455269,,,70.1900000572205,759.500732421875,34296.354858422,34932.6867321166
2018-07-19T09:00:24Z,1531990824,1C70A,40.9412551,44.0280583,4037.61,-4.3,-46.5,329.2,536932.88,-92370.66,323.6,Weapon+Missile,Blue,Enemies,R-27ER,,cn,,186.74351115632,154.76350402832,0.575361806301016,4037.61059570312,3278.43316650391,130.752300643374,-133.330322265625,0.0288803121545019,NaN,0.200042580411333,1.89816357152967,5000,0.107990920543671,0.107990920543671,0.107990920543671,1743.65694794953,3959.5433948352,5703.20034278473,,,71.1900000572205,759.177429199219,34426.6038113683,35119.1367387981
2018-07-19T09:00:25Z,1531990825,1C70A,40.9404442,44.0290319,3899.75,-4.1,-48.3,328.9,536857.38,-92268.79,323.3,Weapon+Missile,Blue,Enemies,R-27ER,,cn,,187.309857258023,156.302124023438,0.576123695742832,3899.74755859375,3141.28851318359,126.802072636846,-137.863037109375,0.0221818123860149,NaN,0.199987938897973,1.81170981178,5000,0.109315432608128,0.109315432608128,0.109315432608128,1754.24913130105,3824.34593954834,5578.59507084939,,,72.1900000572205,758.459045410156,34552.9302686731,35306.1780620541
2018-07-19T09:00:26Z,1531990826,1C70A,40.9396463,44.0299768,3756.94,-3.9,-50,328.5,536783.25,-92170.02,322.9,Weapon+Missile,Blue,Enemies,R-27ER,,cn,,188.794014294448,158.679931640625,0.579667590591366,3756.93994140625,2998.80224609375,123.48750668242,-142.8076171875,0.0242818328085061,NaN,0.199987938897973,1.75154075439065,5000,0.104516364634037,0.104516364634037,0.104516364634037,1782.15899167061,3684.29950763916,5466.45849930977,,,73.1900000572205,758.1376953125,34675.9859362372,35494.7381227159
2018-07-19T09:00:27Z,1531990827,1C70A,40.9388623,44.0308925,3609.44,-3.8,-51.6,328.2,536710.56,-92074.38,322.6,Weapon+Missile,Blue,Enemies,R-27ER,,cn,,190.23594476902,161.077072143555,0.583037847382175,3609.43530273438,2853.79919433594,120.133659947749,-147.504638671875,0.0197245262329675,NaN,0.200042580411333,1.67237192499933,5000,0.110363952815533,0.110363952815533,0.110363952815533,1809.48573410809,3539.64687115601,5349.1326052641,,,74.1900000572205,755.636108398438,34795.6860727022,35684.7441595135
2018-07-19T09:00:28Z,1531990828,1C70A,40.9380935,44.031778,3457.74,-3.6,-53.3,327.8,536639.38,-91981.97,322.2,Weapon+Missile,Blue,Enemies,R-27ER,,cn,,191.356673269635,163.245498657227,0.585385248047302,3457.7421875,2703.27673339844,116.64722540769,-151.693115234375,0.0639541157203387,NaN,0.199987938897973,1.56559557770452,5000,0.0982493013143539,0.0982493013143539,0.0982493013143539,1830.86882024109,3390.88674230469,5221.75556254578,,,75.1900000572205,754.465454101562,34911.8849267517,35875.8669992522
2018-07-19T09:00:29Z,1531990829,1C70A,40.9373391,44.0326351,3301.84,-3.4,-54.7,327.5,536569.69,-91892.61,321.9,Weapon+Missile,Blue,Enemies,R-27ER,,cn,,192.735534718909,165.690948486328,0.588484039673255,3301.83984375,2548.16253662109,113.320102173624,-155.90234375,0.0219099573102842,NaN,0.199987938897973,1.52544228295619,5000,0.0991189703345299,0.0991189703345299,0.0991189703345299,1857.34931716919,3237.99877037109,5095.34808754028,,,76.1900000572205,753.677307128906,35024.7936570402,36068.3960530061
2018-07-19T09:00:30Z,1531990830,1C70A,40.9365995,44.0334636,3141.99,-3.2,-56.2,327.1,536501.5,-91806.3,321.5,Weapon+Missile,Blue,Enemies,R-27ER,,cn,,194.035959477684,168.118270874023,0.591305914976239,3141.99438476562,2389.38598632812,109.997194566498,-159.845458984375,0.0121926855371734,NaN,0.199987938897973,1.49163764904139,5000,0.0925641879439354,0.0925641879439354,0.0925641879439354,1882.49767852128,3081.24392333618,4963.74160185746,,,77.1900000572205,752.6083984375,35134.3828211193,36262.2323039877
2018-07-19T09:00:31Z,1531990831,1C70A,40.9358733,44.0342661,2978,-3,-57.6,326.7,536434.69,-91722.77,321.2,Weapon+Missile,Blue,Enemies,R-27ER,,cn,,195.793958008864,171.007202148438,0.595480965867017,2977.99682617188,2228.18011474609,106.95828517729,-163.99755859375,0.0330798116308402,NaN,0.199987938897973,1.40269972814624,5000,0.0975235626101494,0.0975235626101494,0.0975235626101494,1916.76369963884,2920.41725753784,4837.18095717669,,,78.1900000572205,749.816711425781,35240.9617371862,36457.847146243
2018-07-19T09:00:32Z,1531990832,1C70A,40.9351648,44.0350385,2811.02,-2.9,-58.9,326.4,536369.56,-91642.48,320.8,Weapon+Missile,Blue,Enemies,R-27ER,,cn,,196.39688992544,172.906631469727,0.596114415899393,2811.01513671875,2063.80688476562,103.386912903741,-166.981689453125,0.0253213558610336,NaN,0.169258490935263,1.35243348455806,5000,0.0871016159653664,0.0871016159653664,0.0871016159653664,1928.58691861928,2756.66415905029,4685.25107766957,,,79.1900000572205,747.208251953125,35343.9588501282,36654.0636608804
2018-07-19T09:00:33Z,1531990833,1C70A,40.9344733,44.0357823,2641.05,-2.7,-60.2,326,536306.12,-91565.2,320.4,Weapon+Missile,Blue,Enemies,R-27ER,,cn,,197.18617295062,175.010711669922,0.597290905684614,2641.0537109375,1893.42309570312,99.9775002153805,-169.96142578125,0.019072868045735,NaN,0.199987938897973,1.26783358755952,5000,0.0827381983399391,0.0827381983399391,0.0827381983399391,1944.11934014559,2589.98893743652,4534.10827758211,,,80.1900000572205,747.630615234375,35443.5431894134,36851.0723049502
2018-07-19T09:00:34Z,1531990834,1C70A,40.933796,44.0365011,2467.58,-2.5,-61.4,325.6,536244.12,-91490.6,320.1,Weapon+Missile,Blue,Enemies,R-27ER,,cn,,198.749148081657,177.863983154297,0.600778764390574,2467.58374023438,1719.94152832031,97.0020264089437,-173.469970703125,0.0423921781871763,NaN,0.169220498008005,1.20063317058476,5000,0.0850809440016747,0.0850809440016747,0.0850809440016747,1975.06119315922,2419.87300861694,4394.93420177617,,,81.1900000572205,747.642211914062,35540.1993827472,37049.6717381175
2018-07-19T09:00:35Z,1531990835,1C70A,40.9331357,44.0371927,2291.48,-2.4,-62.5,325.3,536183.75,-91418.9,319.8,Weapon+Missile,Blue,Enemies,R-27ER,,cn,,199.494313487804,180.011581420898,0.601769013256073,2291.48291015625,1543.33410644531,93.736219039204,-176.100830078125,0.0128624120720145,NaN,0.200042580411333,1.18264778839624,5000,0.0800232663750648,0.0800232663750648,0.0800232663750648,1989.89905569851,2247.17708808838,4237.07614378689,,,82.1900000572205,748.148803710938,35633.5729918359,37249.0122504913
2018-07-19T09:00:36Z,1531990836,1C70A,40.9324945,44.0378558,2113.44,-2.3,-63.7,325,536125.19,-91350.2,319.4,Weapon+Missile,Blue,Enemies,R-27ER,,cn,,199.615278329917,181.611633300781,0.600865031027047,2113.44458007812,1364.87139892578,90.2696647037234,-178.038330078125,0.0141993692293371,NaN,0,1.14873109669036,5000,0.0682468190789223,0.0682468190789223,0.0682468190789223,1992.3129671365,2072.58112912231,4064.89409625882,,,83.1900000572205,748.573181152344,35723.4706465188,37448.4735691402
2018-07-19T09:00:37Z,1531990837,1C70A,40.9318692,44.0384941,1932.84,-2.1,-64.8,324.6,536068.25,-91284.14,319,Weapon+Missile,Blue,Enemies,R-27ER,,cn,,200.563792984476,184.010498046875,0.602435061331217,1932.83532714844,1185.07531738281,87.2131458697598,-180.609252929688,0.00707824603761696,NaN,0.199987938897973,1.09878896692264,5000,0.0778182223439217,0.0778182223439217,0.0778182223439217,2011.29175281599,1895.46395609802,3906.75570891401,,,84.1900000572205,747.760009765625,35810.3796201414,37648.9172380773
2018-07-19T09:00:38Z,1531990838,1C70A,40.931259,44.0391095,1749.45,-2,-65.8,324.3,536012.69,-91220.51,318.7,Weapon+Missile,Blue,Enemies,R-27ER,,cn,,201.903775207067,186.81755065918,0.605154840649908,1749.45373535156,1002.38500976562,84.4767792527044,-183.381591796875,0.0455151639344563,NaN,0.200042580411333,1.03933611890079,5000,0.0626798644661903,0.0626798644661903,0.0626798644661903,2038.25672214329,1715.62804737854,3753.88476952183,,,85.1900000572205,747.068725585938,35894.5041541305,37850.6840136979
2018-07-19T09:00:39Z,1531990839,1C70A,40.9306685,44.0396974,1564.97,-1.9,-66.8,324,535959.06,-91159.77,318.4,Weapon+Missile,Blue,Enemies,R-27ER,,cn,,201.490854260189,187.999053955078,0.602615369323043,1564.96997070312,818.606750488281,81.0203982441498,-184.483764648438,0.0181454885128638,NaN,0,1.00564855869723,5000,0.0662880018353462,0.0662880018353462,0.0662880018353462,2029.92821752504,1534.71127631958,3564.63949384462,,,86.1900000572205,746.363220214844,35975.2275101714,38052.0640183357
2018-07-19T09:00:40Z,1531990840,1C70A,40.9300933,44.0402633,1378.11,-1.8,-67.7,323.6,535906.88,-91101.35,318,Weapon+Missile,Blue,Enemies,R-27ER,,cn,,202.619753773531,190.667633056641,0.604674225417905,1378.10607910156,632.106079101562,78.336777025645,-186.863891601562,0.00946267225991529,NaN,0,0.955297791518075,5000,0.0660878196358681,0.0660878196358681,0.0660878196358681,2052.73823096231,1351.46039806213,3404.19862902444,,,87.1900000572205,746,36053.2521207629,38254.5702238931
2018-07-19T09:00:41Z,1531990841,1C70A,40.9295349,44.0408061,1189.6,-1.7,-68.6,323.3,535856.25,-91045.38,317.7,Weapon+Missile,Blue,Enemies,R-27ER,,cn,,203.054409514956,192.704803466797,0.604648159386582,1189.59692382812,443.596923828125,75.4678183172304,-188.509155273438,0.0235137287582088,NaN,0,0.926859445135081,5000,0.0529142953455448,0.0529142953455448,0.0529142953455448,2061.55466117337,1166.59606730591,3228.15072847928,,,88.1900000572205,746,36128.4012845908,38457.5120189861
2018-07-19T09:00:42Z,1531990842,1C70A,40.9289944,44.0413254,999.97,-1.6,-69.5,323,535807.38,-90991.88,317.4,Weapon+Missile,Blue,Enemies,R-27ER,,cn,,203.00314430832,194.293060302734,0.603173481570034,999.967651367188,254.558044433594,72.4638918703653,-189.629272460938,0.0114930182327939,NaN,0.015387775869804,0.89871927919804,5000,0.0574246272444725,0.0574246272444725,0.0574246272444725,2060.51382995322,980.633276828003,3041.14710678123,,,89.1900000572205,745.409606933594,36200.597112156,38660.4240392433
2018-07-19T09:00:43Z,1531990843,1C70A,40.9284748,44.041819,810.49,-1.5,-70.4,322.7,535760.44,-90941.08,317.1,Weapon+Missile,Blue,Enemies,R-27ER,,cn,,201.710705877838,194.678131103516,0.59802931567301,810.486877441406,65.4868774414062,69.1682382182939,-189.480773925781,0.0149631920517167,NaN,0,0.826518683503157,5000,0.0575464218854904,0.0575464218854904,0.0575464218854904,2034.36044328678,794.816113666077,2829.17655695286,,,90.1900000572205,745,36269.5028067666,38862.0482100804
2018-07-19T09:00:44Z,1531990844,1C70A,40.9279696,44.0422936,619,-1.4,-71.1,322.4,535714.81,-90892.27,316.8,Weapon+Missile,Blue,Enemies,R-27ER,,cn,,202.807204949018,197.405517578125,0.59996388299219,619,-126,66.8097159623707,-191.486877441406,0.0346999959065027,NaN,0,0.812067604044997,5000,0.0414640307426453,0.0414640307426453,0.0414640307426453,2056.53811896164,607.031635,2663.56975396164,,,91.1900000572205,745,36336.0275449914,39064.7641614704
2018-07-19T09:00:45Z,1531990845,1C70A,40.9274821,44.0427464,426.98,-1.3,-72,322.1,535670.94,-90845.75,316.5,Weapon+Missile,Blue,Enemies,R-27ER,,cn,,202.38929507876,198.665161132812,0.597418937855226,426.979217529297,-317.705108642578,63.9487752956724,-192.020782470703,0.0529259483416813,NaN,0,0.77583457107599,5000,0.0591728799045086,0.0591728799045086,0.0591728799045086,2048.07133812387,418.723574358368,2466.79491248224,,,92.1900000572205,744.684326171875,36399.761189559,39267.0872311343
2018-07-19T09:00:46Z,1531990846,1C70A,40.9270135,44.0431769,235.08,-1.2,-72.7,321.8,535628.69,-90801.55,316.2,Weapon+Missile,Blue,Enemies,R-27ER,,cn,,201.410184016182,199.366241455078,0.593235742547985,235.075378417969,-508.529907226562,61.1471893038889,-191.903839111328,0.0262713983464304,NaN,0,0.739679071426233,5000,0.0369897224009037,0.0369897224009037,0.0369897224009037,2028.30311127161,230.530195976257,2258.83330724786,,,93.1900000572205,743.605285644531,36460.6180985958,39468.4104321935
2018-07-19T09:00:47Z,1531990847,1C70A,40.9265615,44.0435878,42.62,-1.1,-73.5,321.4,535588.06,-90759.41,315.9,Weapon+Missile,Blue,Enemies,R-27ER,,cn,,201.164292755033,200.796157836914,0.591224728541469,42.6153831481934,-700.471347808838,58.5339465642855,-192.459995269775,0.0308963192903443,NaN,0.200042580411333,0.773244808802644,5000,0.0443413145840168,0.0443413145840168,0.0443413145840168,2023.35363398163,41.791414715023,2065.14504869665,,,94.1900000572205,743.086730957031,36518.9267340967,39669.5096484487
2018-07-19T09:00:48Z,1531990848,1C70A,40.9261272,44.0439784,-149.64,-1.1,-74.1,321.2,535549.06,-90719.38,315.6,Weapon+Missile,Blue,Enemies,R-27ER,,cn,,200.216084114363,201.519485473633,0.587166862834916,-149.643829345703,-892.789825439453,55.8826945423752,-192.259212493896,0.0196332905398062,NaN,0.0461509478915415,0.723157804319324,5000,0.0398481152951717,0.0398481152951717,0.0398481152951717,2004.32401690448,-146.750465905304,1857.57355099918,,,95.1900000572205,743.14599609375,36574.5874964761,39869.6637722354
2018-07-19T09:00:49Z,1531990849,1C70A,40.9257085,44.0443512,-342.48,-1,-74.8,320.9,535511.5,-90681.22,315.3,Weapon+Missile,Blue,Enemies,R-27ER,,cn,,200.136735834209,203.118850708008,0.585667994450587,-342.483856201172,-1085.26254272461,53.5484553722505,-192.840026855469,0.0266458894733342,NaN,0,0.673414657172032,5000,0.0356504507362843,0.0356504507362843,0.0356504507362843,2002.73565151859,-335.861930841522,1666.87372067707,,,96.1900000572205,742.778686523438,36627.9252557037,40069.7436887953
2018-07-19T09:00:50Z,1531990850,1C70A,40.9253071,44.0447049,-534.77,-0.9,-75.5,320.6,535475.56,-90645.03,315,Weapon+Missile,Blue,Enemies,R-27ER,,cn,,198.936156803712,203.575210571289,0.580907802224765,-534.771545410156,-1277.12579345703,51.0003829642484,-192.287689208984,0.0167793353200925,NaN,0.199987938897973,0.623940608805868,5000,0.0401860065758228,0.0401860065758228,0.0401860065758228,1978.77972419155,-524.431737579651,1454.3479866119,,,97.1900000572205,742.354248046875,36678.7319290995,40268.6293807336
2018-07-19T09:00:51Z,1531990851,1C70A,40.9249198,44.0450429,-727.86,-0.9,-76.1,320.3,535440.88,-90610.48,314.8,Weapon+Missile,Blue,Enemies,R-27ER,,cn,,199.196550197775,205.524765014648,0.580422495470894,-727.858459472656,-1469.90197753906,48.9561970389411,-193.0869140625,0.0266508738346522,NaN,0,0.611106629994561,5000,0.0338237248361111,0.0338237248361111,0.0338237248361111,1983.96328053474,-713.785316158752,1270.17796437599,,,98.1900000572205,742.043518066406,36727.4784218891,40467.7733150194
