ISOTime,UnixTime,Id,Longitude,Latitude,Altitude,Roll,Pitch,Yaw,U,V,Heading,Type,Color,Coalition,Name,Group,Country,Pilot,TAS,CAS,M,ASL,AGL,GS,VS,AOA,AOS,RRT,TRT,TRD,G,LatG,LonG,Ek,Ep,Em,FFW,FFV,RelativeTime,Elev,GroundDistance,AirDistance
2018-07-19T08:59:38Z,1531990778,1DC0B,41.2206965,43.7428168,8231.83,-1.1,-1.2,319.7,562507.25,-121852.26,313.9,Weapon+Missile,Blue,Enemies,R-27ER,,cn,,365.761293178916,259.404846191406,1.19046736612131,8231.830078125,6772.97766113281,NaN,NaN,NaN,NaN,NaN,NaN,NaN,NaN,NaN,NaN,NaN,8072.66764356445,NaN,,,0.149999856948853,1458.85241699219,NaN,NaN
2018-07-19T08:59:39Z,1531990779,1DC0B,41.2166439,43.7462742,8218.54,-0.9,-1.1,319.7,562142.44,-121500.71,313.9,Weapon+Missile,Blue,Enemies,R-27ER,,cn,,506.803725888888,359.637145996094,1.64922447264084,8218.5390625,6714.17761230469,506.629416317801,-13.291015625,0.648068263704939,NaN,0.199987938897973,2.48423778322683,5000,0.477287113666534,0.477287113666534,0.477287113666534,12842.500828743,8059.63360972656,20902.1344384695,,,1.14999985694885,1504.36145019531,504.327202300518,505.15245740501
2018-07-19T08:59:40Z,1531990780,1DC0B,41.2105646,43.7514303,8186.38,-2.3,-3.9,319.2,561595.56,-120976.7,313.5,Weapon+Missile,Blue,Enemies,R-27ER,,cn,,758.083382482346,515.048461914062,2.46583525970639,8186.3837890625,6497.783203125,757.401117761279,-32.1552734375,0.327529625092946,NaN,2.47695444212678,2.56000932899073,5000,4.76220417022705,4.76220417022705,4.76220417022705,28734.5207397938,8028.10005850098,36762.6207982948,,,2.14999985694885,1688.6005859375,1258.27362788862,1260.75298767187
2018-07-19T08:59:41Z,1531990781,1DC0B,41.2024636,43.7584253,8080.79,-3.8,-6.7,321.5,560865.69,-120264.57,315.7,Weapon+Missile,Blue,Enemies,R-27ER,,cn,,1025.18345225751,681.547485351562,3.329786852236,8080.7880859375,6348.63708496094,1019.73067927966,-105.595703125,0.0348512317254575,NaN,0.569200644672183,3.36752466531476,5000,6.07222604751587,6.07222604751587,6.07222604751587,52550.0555391312,7924.5460482959,60474.6015874271,,,3.14999985694885,1732.15100097656,2273.47072748535,2282.71475107968
2018-07-19T08:59:42Z,1531990782,1DC0B,41.1941864,43.7663977,7937,-4.4,-8,324.7,560110.88,-119445.19,319,Weapon+Missile,Blue,Enemies,R-27ER,,cn,,1123.30124139086,748.029968261719,3.64127197170232,7936.998046875,6513.26428222656,1114.06018848923,-143.7900390625,0.0476030084339573,NaN,0.584609551439731,3.38211117461756,5000,6.24239015579224,6.24239015579224,6.24239015579224,63090.2839455128,7783.53618963867,70873.8201351514,,,4.14999985694885,1423.73376464844,3382.73171471508,3402.63777460576
2018-07-19T08:59:43Z,1531990783,1DC0B,41.1864096,43.7747783,7767.19,-4.8,-9.1,327.5,559392,-118576.38,321.8,Weapon+Missile,Blue,Enemies,R-27ER,,cn,,1140.3737165693,765.604736328125,3.68803637066519,7767.18701171875,6415.21484375,1127.65971187289,-169.81103515625,0.0846081923647788,NaN,0.24621465920062,2.88632439135244,5000,4.87751150131226,4.87751150131226,4.87751150131226,65022.6106721044,7617.00845084717,72639.6191229515,,,5.14999985694885,1351.97216796875,4505.74326656296,4539.78237732766
2018-07-19T08:59:44Z,1531990784,1DC0B,41.1790377,43.7834883,7580.29,-4.6,-9.5,329.3,558702.25,-117667.67,323.6,Weapon+Missile,Blue,Enemies,R-27ER,,cn,,1156.03947826488,783.26806640625,3.72919980883614,7580.2890625,6361.34265136719,1140.83146515371,-186.89794921875,0.0653635859889592,NaN,0.307703437203659,1.8674053087064,5000,2.66338992118835,2.66338992118835,2.66338992118835,66821.363765347,7433.72417347656,74255.0879388236,,,6.14999985694885,1218.94641113281,5642.04202816439,5692.69802658535
2018-07-19T08:59:45Z,1531990785,1DC0B,41.1718439,43.7924339,7383.93,-4.1,-9.7,330.3,558024.38,-116731.31,324.5,Weapon+Missile,Blue,Enemies,R-27ER,,cn,,1172.53588385421,802.167419433594,3.77236935816328,7383.9296875,6343.57751464844,1155.97724665124,-196.359375,0.044330208132226,NaN,0.569242479580849,0.990747753970911,5000,1.93977844715118,1.93977844715118,1.93977844715118,68742.0199462891,7241.16140699219,75983.1813532813,,,7.14999985694885,1040.35217285156,6793.50738362603,6862.11754953351
2018-07-19T08:59:46Z,1531990786,1DC0B,41.1647284,43.8015604,7186.25,-3.4,-9.4,330.9,557350.94,-115774.18,325.2,Weapon+Missile,Blue,Enemies,R-27ER,,cn,,1186.88672180976,820.037536621094,3.80838458383975,7186.24609375,5968.71557617188,1170.30820178721,-197.68359375,0.0383077070872889,NaN,0.769192852438387,0.626834954827514,5000,2.02004981040955,2.02004981040955,2.02004981040955,70435.0045204163,7047.30002552734,77482.3045459436,,,8.14999985694885,1217.53051757812,7959.28950577915,8045.85448518458
2018-07-19T08:59:47Z,1531990787,1DC0B,41.1575996,43.8108676,6993.58,-2.7,-9,331.2,556674.69,-114797.02,325.5,Weapon+Missile,Blue,Enemies,R-27ER,,cn,,1203.85548490747,839.730224609375,3.85287220576285,6993.58154296875,5596.58349609375,1188.33850371603,-192.66455078125,0.0572752044452455,NaN,0.769239383102108,0.581068898767873,5000,2.22821760177612,2.22821760177612,2.22821760177612,72463.4014270902,6858.36064383545,79321.7620709256,,,9.14999985694885,1396.998046875,9143.11511604661,9246.55432862603
2018-07-19T08:59:48Z,1531990788,1DC0B,41.1504576,43.8202824,6810.91,-2.1,-8.4,331.4,555996.31,-113807.98,325.6,Weapon+Missile,Blue,Enemies,R-27ER,,cn,,1213.1669087061,854.129638671875,3.87322766007724,6810.91357421875,5540.07727050781,1199.33580017119,-182.66796875,0.0908047465899184,NaN,0.569200644672183,0.583924344727762,5000,2.01806116104126,2.01806116104126,2.01806116104126,73588.6974189758,6679.22456026123,80267.9219792371,,,10.1499998569489,1270.83630371094,10337.8997359618,10456.5002664244
2018-07-19T08:59:49Z,1531990789,1DC0B,41.143622,43.8294539,6641.63,-1.7,-8.1,332.3,555345.44,-112843.48,326.6,Weapon+Missile,Blue,Enemies,R-27ER,,cn,,1175.81450590178,836.278991699219,3.74554999283664,6641.6318359375,5340.30493164062,1163.56497256214,-169.28173828125,0.0673389929882379,NaN,0.353824716460994,0.853084063949687,5000,2.7084014415741,2.7084014415741,2.7084014415741,69126.9876144528,6513.21588438965,75640.2034988425,,,11.1499998569489,1301.32690429688,11497.1033358817,11629.2086634267
2018-07-19T08:59:50Z,1531990790,1DC0B,41.1374131,43.83822,6483.4,-1.9,-8.5,333.7,554749.56,-111918.98,328,Weapon+Missile,Blue,Enemies,R-27ER,,cn,,1111.22370775452,798.814880371094,3.53240303682208,6483.40283203125,5340.3037109375,1099.90077325118,-158.22900390625,0.0712572706349482,NaN,0.369212705774209,1.35442203010189,5000,2.64137744903564,2.64137744903564,2.64137744903564,61740.906433785,6358.04623827393,68098.9526720589,,,12.1499998569489,1143.09912109375,12592.9395838713,12737.525366604
2018-07-19T08:59:51Z,1531990791,1DC0B,41.1318305,43.8465797,6319.46,-2.2,-9.5,334.7,554208.69,-111034.62,329,Weapon+Missile,Blue,Enemies,R-27ER,,cn,,1049.53024456731,762.883544921875,3.32910036008774,6319.46240234375,5306.07965087891,1036.64712886082,-163.9404296875,0.0283921261074071,NaN,0.230751110919711,1.39787686754027,5000,1.57915663719177,1.57915663719177,1.57915663719177,55075.6867130756,6197.27559679443,61272.9623098701,,,13.1499998569489,1013.38275146484,13625.8473103435,13784.3861504144
2018-07-19T08:59:52Z,1531990792,1DC0B,41.1266865,43.8545411,6146.64,-2.3,-10.5,335.1,553707.56,-110190.98,329.4,Weapon+Missile,Blue,Enemies,R-27ER,,cn,,996.348055834033,732.513244628906,3.15326012466299,6146.64208984375,4962.24060058594,981.245426971082,-172.8203125,0.0441732727994581,NaN,0,0.994198600327354,5000,0.51822954416275,0.51822954416275,0.51822954416275,49635.4724182129,6027.79676503662,55663.2691832495,,,14.1499998569489,1184.40148925781,14603.5943207916,14778.2299389186
2018-07-19T08:59:53Z,1531990793,1DC0B,41.121832,43.8621111,5968.92,-2.1,-11,335.3,553234.12,-109388.52,329.6,Weapon+Missile,Blue,Enemies,R-27ER,,cn,,948.516819336251,705.428283691406,2.99493420566161,5968.92041015625,4934.17761230469,931.718391539425,-177.7216796875,0.0715167631697281,NaN,0.169220498008005,0.522088667820079,5000,1.14992010593414,1.14992010593414,1.14992010593414,44984.2078281879,5853.51133402588,50837.7191622138,,,15.1499998569489,1034.74279785156,15532.0088178485,15724.367651487
2018-07-19T08:59:54Z,1531990794,1DC0B,41.1172579,43.8693873,5798.12,-1.8,-10.6,335.9,552786.5,-108616.44,330.2,Weapon+Missile,Blue,Enemies,R-27ER,,cn,,908.649553266598,683.148193359375,2.86269970814145,5798.12451171875,4692.42419433594,892.453232236018,-170.7958984375,0.0515621403564516,NaN,0.323057275571025,0.773687597159932,5000,2.42131185531616,2.42131185531616,2.42131185531616,41282.2005325794,5686.01777428467,46968.2183068641,,,16.1499998569489,1105.70031738281,16421.3068047179,16630.724018761
2018-07-19T08:59:55Z,1531990795,1DC0B,41.1130637,43.8763487,5645.57,-1.5,-9.8,337.1,552372.94,-107876.3,331.4,Weapon+Missile,Blue,Enemies,R-27ER,,cn,,861.461065770989,654.574645996094,2.70868551575066,5645.5693359375,4676.19567871094,847.845555618263,-152.55517578125,0.022365554016432,NaN,0.384646798864322,1.22803418198756,5000,2.71123027801514,2.71123027801514,2.71123027801514,37105.7583919644,5536.41225282715,42642.1706447916,,,17.1499998569489,969.373657226562,17266.1822136073,17490.0079316789
2018-07-19T08:59:56Z,1531990796,1DC0B,41.1092418,43.8830691,5510.02,-1.3,-9.2,338.3,551992.06,-107159.97,332.6,Weapon+Missile,Blue,Enemies,R-27ER,,cn,,822.535855204548,630.910217285156,2.58178231881233,5510.0205078125,4479.13342285156,811.290175147595,-135.548828125,0.0265663095555227,NaN,0.123069550116463,1.3489916028249,5000,2.45827555656433,2.45827555656433,2.45827555656433,33828.2616548538,5403.48426129395,39231.7459161478,,,18.1499998569489,1030.88708496094,18074.7050898808,18310.5117933334
2018-07-19T08:59:57Z,1531990797,1DC0B,41.1058007,43.8895113,5388.48,-1.3,-8.8,339.6,551644.81,-106471.52,333.9,Weapon+Missile,Blue,Enemies,R-27ER,,cn,,780.590657230547,604.287048339844,2.44630494479305,5388.482421875,4325.9130859375,771.07085784788,-121.5380859375,0.0358253422065019,NaN,0.0615346683365258,1.33436581993438,5000,2.25267887115479,2.25267887115479,2.25267887115479,30466.0887077808,5284.29611424805,35750.3848220289,,,19.1499998569489,1062.5693359375,18843.1570592085,19089.1640918672
2018-07-19T08:59:58Z,1531990798,1DC0B,41.1026933,43.8957268,5277.12,-1.2,-8.5,340.8,551327,-105805.59,335.1,Weapon+Missile,Blue,Enemies,R-27ER,,cn,,746.229382740372,582.519897460938,2.33528896665221,5277.1201171875,4178.30114746094,737.873111557648,-111.3623046875,0.038206776130987,NaN,0,1.26740894189221,5000,1.97116577625275,1.97116577625275,1.97116577625275,27842.9145832539,5175.08699972168,33018.0015829755,,,20.1499998569489,1098.81896972656,19578.5952361723,19833.5938747972
2018-07-19T08:59:59Z,1531990799,1DC0B,41.0998938,43.9017355,5171.62,-1.3,-8.5,342.1,551036.19,-105160.19,336.4,Weapon+Missile,Blue,Enemies,R-27ER,,cn,,715.717969544793,563.120727539062,2.23679109854222,5171.6162109375,3937.31042480469,707.899101352242,-105.50390625,0.0634198048593157,NaN,0,1.25507127237364,5000,1.8195698261261,1.8195698261261,1.8195698261261,25612.6105964661,5071.62301149902,30684.2336079651,,,21.1499998569489,1234.30578613281,20284.1681346531,20547.5827256452
2018-07-19T09:00:00Z,1531990800,1DC0B,41.097401,43.9075152,5069.62,-1.4,-8.6,343.4,550772.56,-104537.8,337.7,Weapon+Missile,Blue,Enemies,R-27ER,,cn,,683.572843433094,542.189270019531,2.13355799890741,5069.6181640625,3757.20751953125,675.92028428868,-101.998046875,0.0439817687236907,NaN,0,1.32723222095483,5000,1.80153608322144,1.80153608322144,1.80153608322144,23363.5916139603,4971.59709686035,28335.1887108206,,,22.1499998569489,1312.41064453125,20957.9166253894,21229.5429881232
2018-07-19T09:00:01Z,1531990801,1DC0B,41.0951963,43.9130848,4970.56,-1.5,-8.8,344.8,550534.44,-103936.46,339.1,Weapon+Missile,Blue,Enemies,R-27ER,,cn,,654.308917665709,523.047485351562,2.0396531053616,4970.56396484375,3670.38989257812,646.767674945188,-99.05419921875,0.0709095149350558,NaN,0,1.35004323851367,5000,1.94671189785004,1.94671189785004,1.94671189785004,21406.0079868436,4874.4581105835,26280.4660974271,,,23.1499998569489,1300.17407226562,21602.6339489824,21882.3268218083
2018-07-19T09:00:02Z,1531990802,1DC0B,41.0932611,43.91847,4876.81,-1.5,-8.2,346.3,550320,-103353.47,340.6,Weapon+Missile,Blue,Enemies,R-27ER,,cn,,628.214163699855,505.890960693359,1.95598493387367,4876.810546875,3655.36010742188,621.178985552703,-93.75341796875,0.0813002109735961,NaN,0,1.42461268255093,5000,2.19405245780945,2.19405245780945,2.19405245780945,19732.6517736554,4782.51741495117,24515.1691886066,,,24.1499998569489,1221.45043945312,22221.8774636645,22509.0999069839
2018-07-19T09:00:03Z,1531990803,1DC0B,41.0915957,43.9236383,4792.67,-1.4,-8,347.7,550129.56,-102792.45,342,Weapon+Missile,Blue,Enemies,R-27ER,,cn,,598.401650655678,485.540588378906,1.8611817808363,4792.67041015625,3672.88610839844,592.456726605742,-84.14013671875,0.0292967893658699,NaN,0,1.51865777067625,5000,1.95686411857605,1.95686411857605,1.95686411857605,17904.226775372,4700.00412777588,22604.2309031479,,,25.1499998569489,1119.78430175781,22812.4955562888,23106.1244731072
2018-07-19T09:00:04Z,1531990804,1DC0B,41.0901681,43.9286446,4713.86,-1.5,-7.8,349.2,549960.12,-102247.53,343.5,Weapon+Missile,Blue,Enemies,R-27ER,,cn,,576.07292815971,470.447662353516,1.78995388714061,4713.85986328125,3659.29870605469,570.656565948177,-78.810546875,0.0567213039606437,NaN,0.138461594854498,1.51814198467221,5000,1.88726377487183,1.88726377487183,1.88726377487183,16593.0009279251,4622.71738282471,21215.7183107498,,,26.1499998569489,1054.56115722656,23381.42676802,23680.9083025852
2018-07-19T09:00:05Z,1531990805,1DC0B,41.0889777,43.9334659,4639.67,-1.5,-7.7,350.8,549811.69,-101721.28,345.1,Weapon+Missile,Blue,Enemies,R-27ER,,cn,,551.794650234472,453.605407714844,1.71291692754,4639.6669921875,3609.10693359375,546.784010287655,-74.19287109375,0.0497641795048247,NaN,0,1.53043909994258,5000,1.37359285354614,1.37359285354614,1.37359285354614,15223.8668013692,4549.95903089355,19773.8258322627,,,27.1499998569489,1030.56005859375,23926.5584094005,24231.4617018292
2018-07-19T09:00:06Z,1531990806,1DC0B,41.0879379,43.9380753,4569.89,-0.7,-7.6,348.7,549677.69,-101217.41,343.1,Weapon+Missile,Blue,Enemies,R-27ER,,cn,,526.037034312206,435.329956054688,1.63152750430939,4569.88916015625,3583.61535644531,521.388545736287,-69.77783203125,0.0341810264749198,NaN,1.52306921910643,2.3525350758756,5000,4.96644115447998,4.96644115447998,4.96644115447998,13835.7480733991,4481.53035324463,18317.2784266437,,,28.1499998569489,986.273803710938,24446.3954520426,24756.3329531248
2018-07-19T09:00:07Z,1531990807,1DC0B,41.0863976,43.9423138,4504.83,0.8,-7.5,341.9,549507.62,-100758.67,336.2,Weapon+Missile,Blue,Enemies,R-27ER,,cn,,493.548977385845,411.491668701172,1.5295158093856,4504.83447265625,3514.76531982422,489.242762555452,-65.0546875,0.0793522288728019,NaN,1.46153839275131,6.44361113516061,4277.09357587523,5.73402452468872,5.73402452468872,5.73402452468872,12179.5296539307,4417.73349812744,16597.2631520581,,,29.1499998569489,990.069152832031,24934.1123014749,25248.713286621
2018-07-19T09:00:08Z,1531990808,1DC0B,41.0843229,43.9461443,4444.53,2.1,-7.4,335.5,549299.06,-100349.51,329.8,Weapon+Missile,Blue,Enemies,R-27ER,,cn,,463.195005254919,388.749298095703,1.43436484630955,4444.53466796875,3453.83898925781,459.253248706804,-60.2998046875,0.0536523673093001,NaN,1.15384648149188,6.3932705065435,4279.56768808204,5.06724739074707,5.06724739074707,5.06724739074707,10727.4806446552,4358.59959016357,15086.0802348188,,,30.1499998569489,990.695678710938,25391.8016529104,25710.6760983767
2018-07-19T09:00:09Z,1531990809,1DC0B,41.0818604,43.9495428,4389.57,3,-7.2,329.4,549064.19,-99991.41,323.7,Weapon+Missile,Blue,Enemies,R-27ER,,cn,,431.769165002739,364.448364257812,1.33613045246545,4389.5654296875,3406.38830566406,428.255758501788,-54.96923828125,0.153817854665259,NaN,0.769230845365645,5.72459669434654,4953.69186006304,3.94404053688049,3.94404053688049,3.94404053688049,9321.23059235811,4304.69318210449,13625.9237744626,,,31.1499998569489,983.177124023438,25818.5020793723,26141.1957155064
2018-07-19T09:00:10Z,1531990810,1DC0B,41.0791306,43.952619,4339.11,3.1,-7,326.5,548811.44,-99671.22,320.9,Weapon+Missile,Blue,Enemies,R-27ER,,cn,,411.032746140512,348.134521484375,1.27115945440346,4339.1142578125,3339.60375976562,407.924745089398,-50.451171875,0.0498568528537804,NaN,0.261514282941448,2.91181316323104,5000,1.24304747581482,1.24304747581482,1.24304747581482,8447.39591999054,4255.2174836377,12702.6134036282,,,32.1499998569489,999.510498046875,26224.8599923887,26550.9494618557
2018-07-19T09:00:11Z,1531990811,1DC0B,41.0764662,43.9555186,4291.6,2.5,-7,326.5,548565.81,-99370.13,320.8,Weapon+Missile,Blue,Enemies,R-27ER,,cn,,391.461336278064,332.26708984375,1.20991566182761,4291.60009765625,3268.02838134766,388.567088654268,-47.51416015625,0.0468150561867799,NaN,0.569200644672183,0.252177174222203,5000,0.996800184249878,0.996800184249878,0.996800184249878,7662.09889003038,4208.62200976807,11870.7208997985,,,33.1499998569489,1023.57171630859,26611.8751919174,26941.1303272662
2018-07-19T09:00:12Z,1531990812,1DC0B,41.0738945,43.9583153,4245.81,2.1,-7,326.5,548328.81,-99079.73,320.8,Weapon+Missile,Blue,Enemies,R-27ER,,cn,,377.619679651849,320.906036376953,1.16646874813202,4245.81396484375,3249.34478759766,374.833633099328,-45.7861328125,0.053104423093627,NaN,0.369212705774209,0.00989117029631303,5000,0.995788156986237,0.995788156986237,0.995788156986237,7129.83112301827,4163.7211518335,11293.5522748518,,,34.1499998569489,996.469177246094,26985.2278366297,27317.5280055701
2018-07-19T09:00:13Z,1531990813,1DC0B,41.0714373,43.9609872,4202.11,1.8,-7,326.5,548102.38,-98802.3,320.8,Weapon+Missile,Blue,Enemies,R-27ER,,cn,,360.770425943907,306.605377197266,1.11381541944132,4202.11279296875,3216.83190917969,358.113819633507,-43.701171875,0.0591460738823249,NaN,0.369212705774209,0.00989117029631303,5000,0.993587851524353,0.993587851524353,0.993587851524353,6507.76501178741,4120.8649421167,10628.6299539041,,,35.1499998569489,985.280883789062,27341.9284671736,27677.13016483
2018-07-19T09:00:14Z,1531990814,1DC0B,41.0690732,43.9635575,4160.09,1.5,-7,326.5,547884.56,-98535.39,320.8,Weapon+Missile,Blue,Enemies,R-27ER,,cn,,347.054566965747,294.837066650391,1.07091055666363,4160.09326171875,3152.00738525391,344.501424445985,-42.01953125,0.0547171568938872,NaN,0.215396845665522,0.0474363941624125,5000,0.993868947029114,0.993868947029114,0.993868947029114,6022.34362258911,4079.65785850342,10102.0014810925,,,36.1499998569489,1008.08587646484,27685.0822232702,28023.0702994334
2018-07-19T09:00:15Z,1531990815,1DC0B,41.0668069,43.9660211,4119.84,1.2,-6.9,326.4,547675.75,-98279.59,320.8,Weapon+Missile,Blue,Enemies,R-27ER,,cn,,332.654588532319,282.298767089844,1.02596335268273,4119.83935546875,3092.08129882812,330.210082073856,-40.25390625,0.0579611131654284,NaN,0.215396845665522,0.0504352774299245,5000,0.995991885662079,0.995991885662079,0.995991885662079,5532.95376358032,4040.18226153076,9573.13602511109,,,37.1499998569489,1027.75805664062,28013.9927786544,28354.6468596195
2018-07-19T09:00:16Z,1531990816,1DC0B,41.0646375,43.9683792,4081.33,1,-6.9,326.4,547475.88,-98034.71,320.8,Weapon+Missile,Blue,Enemies,R-27ER,,cn,,318.429058607802,269.900238037109,0.981620244651911,4081.32592773438,3043.21313476562,316.091412806485,-38.513427734375,0.0569965083538566,NaN,0.199987938897973,0.0139882274201861,5000,0.995613813400269,0.995613813400269,0.995613813400269,5069.85326829255,4002.41349092163,9072.26675921418,,,38.1499998569489,1038.11279296875,28328.8298719128,28672.0317590538
2018-07-19T09:00:17Z,1531990817,1DC0B,41.0625514,43.9706466,4044.31,0.8,-6.9,326.4,547283.69,-97799.27,320.8,Weapon+Missile,Blue,Enemies,R-27ER,,cn,,306.170684457923,259.2724609375,0.943398484418548,4044.31298828125,3008.6962890625,303.925205164811,-37.012939453125,0.0523016034680709,NaN,0.199987938897973,0,5000,0.993242204189301,0.993242204189301,0.993242204189301,4687.02440107167,3966.11619665283,8653.1405977245,,,39.1499998569489,1035.61669921875,28631.5560412685,28977.2036455211
2018-07-19T09:00:18Z,1531990818,1DC0B,41.0605467,43.9728252,4008.75,0.7,-6.9,326.4,547099.12,-97573.04,320.8,Weapon+Missile,Blue,Enemies,R-27ER,,cn,,294.119608058479,248.852691650391,0.905866694047775,4008.75219726562,2983.86376953125,291.961939277736,-35.560791015625,0.0540412497757316,NaN,0.199987938897973,0,5000,0.996221303939819,0.996221303939819,0.996221303939819,4325.31719222367,3931.24297353149,8256.56016575516,,,40.1499998569489,1024.88842773438,28922.4288333353,29270.4243983776
2018-07-19T09:00:19Z,1531990819,1DC0B,41.0586224,43.9749163,3974.64,0.6,-6.9,326.4,546921.88,-97355.89,320.8,Weapon+Missile,Blue,Enemies,R-27ER,,cn,,282.373727987261,238.725830078125,0.869323206788272,3974.63598632812,2946.69323730469,280.305202250496,-34.1162109375,0.0512609111898396,NaN,0,0,5000,0.993724822998047,0.993724822998047,0.993724822998047,3986.74611287117,3897.78639953247,7884.53251240364,,,41.1499998569489,1027.94274902344,29201.6229498784,29551.8686535322
2018-07-19T09:00:20Z,1531990820,1DC0B,41.0567628,43.9769369,3941.67,0.5,-6.9,326.4,546750.56,-97146.05,320.8,Weapon+Missile,Blue,Enemies,R-27ER,,cn,,272.884413294258,230.625747680664,0.839766820612609,3941.66918945312,2889.38037109375,270.885756958084,-32.966796875,0.0494578188711273,NaN,0,0,5000,0.994337320327759,0.994337320327759,0.994337320327759,3723.29515094757,3865.45701567505,7588.75216662262,,,42.1499998569489,1052.28881835938,29471.4215492114,29823.8401001072
2018-07-19T09:00:21Z,1531990821,1DC0B,41.0549581,43.9788976,3909.69,0.4,-6.9,326.4,546584.38,-96942.45,320.8,Weapon+Missile,Blue,Enemies,R-27ER,,cn,,264.753200270318,223.73762512207,0.814422306730149,3909.69458007812,2879.37268066406,262.815299038491,-31.974609375,0.0524326948998158,NaN,0,0,5000,0.992991328239441,0.992991328239441,0.992991328239441,3504.71285266876,3834.10063537231,7338.81348804108,,,43.1499998569489,1030.32189941406,29733.2167895526,30087.7406815564
2018-07-19T09:00:22Z,1531990822,1DC0B,41.0532081,43.9807988,3878.69,0.3,-6.9,326.4,546423.25,-96745.02,320.8,Weapon+Missile,Blue,Enemies,R-27ER,,cn,,256.718271742043,216.935943603516,0.789403418437141,3878.6875,2872.98919677734,254.838835406321,-31.007080078125,0.0491647625164977,NaN,0.199987938897973,0,5000,0.994300484657288,0.994300484657288,0.994300484657288,3295.21355231106,3803.6930771875,7098.90662949856,,,44.1499998569489,1005.69830322266,29987.0690889489,30343.6335150471
2018-07-19T09:00:23Z,1531990823,1DC0B,41.051515,43.9826381,3848.69,0.3,-6.9,326.4,546267.31,-96554,320.8,Weapon+Missile,Blue,Enemies,R-27ER,,cn,,248.400982578231,209.885543823242,0.763545408363267,3848.69458007812,2831.39038085938,246.583602253659,-29.992919921875,0.0465795879211934,NaN,0,0,5000,0.993052303791046,0.993052303791046,0.993052303791046,3085.15240729153,3774.28007037231,6859.43247766385,,,45.1499998569489,1017.30419921875,30232.6636097053,30591.2003589367
2018-07-19T09:00:24Z,1531990824,1DC0B,41.0498756,43.9844188,3819.66,0.2,-6.9,326.4,546116.38,-96369.09,320.8,Weapon+Missile,Blue,Enemies,R-27ER,,cn,,240.448460463709,203.157913208008,0.73883616501232,3819.65991210938,2803.30767822266,238.689024036114,-29.03466796875,0.052189359538434,NaN,0,0,5000,0.993073582649231,0.993073582649231,0.993073582649231,2890.7731069684,3745.80678770874,6636.57989467714,,,46.1499998569489,1016.35223388672,30470.4404967497,30830.8852669652
2018-07-19T09:00:25Z,1531990825,1DC0B,41.0482804,43.9861515,3791.4,0.2,-6.9,326.4,545969.5,-96189.14,320.8,Weapon+Missile,Blue,Enemies,R-27ER,,cn,,233.995329024185,197.749618530273,0.71875716991786,3791.40356445312,2786.11163330078,232.283001578388,-28.25634765625,0.0465210004913315,NaN,0,0,5000,0.9941126704216,0.9941126704216,0.9941126704216,2737.69070025682,3718.09677653442,6455.78747679125,,,47.1499998569489,1005.29193115234,30701.8078529983,31064.1087057911
2018-07-19T09:00:26Z,1531990826,1DC0B,41.0467326,43.9878325,3764,0.2,-6.9,326.4,545827,-96014.58,320.8,Weapon+Missile,Blue,Enemies,R-27ER,,cn,,227.000510152693,191.862319946289,0.697036239509119,3764.00073242188,2775.83740234375,225.340445562376,-27.40283203125,0.0514636596027639,NaN,0,0,5000,0.99259090423584,0.99259090423584,0.99259090423584,2576.46158047915,3691.2237782605,6267.68535873964,,,48.1499998569489,988.163330078125,30926.2670551702,31290.3664077036
2018-07-19T09:00:27Z,1531990827,1DC0B,41.0452236,43.9894713,3737.28,0.1,-6.9,326.4,545688.12,-95844.39,320.8,Weapon+Missile,Blue,Enemies,R-27ER,,cn,,221.277769018672,187.087997436523,0.679240530919282,3737.28369140625,2751.71594238281,219.658941956047,-26.717041015625,0.0435425415887479,NaN,0,0,5000,0.994484484195709,0.994484484195709,0.994484484195709,2448.19255309403,3665.02331123291,6113.21586432694,,,49.1499998569489,985.567749023438,31145.1023709424,31510.9543359324
2018-07-19T09:00:28Z,1531990828,1DC0B,41.0437665,43.9910537,3711.49,0.1,-6.9,326.4,545553.94,-95680.06,320.8,Weapon+Missile,Blue,Enemies,R-27ER,,cn,,213.717704641126,180.701217651367,0.655825988714605,3711.49145507812,2717.29162597656,212.155645275504,-25.792236328125,0.0589017525136711,NaN,0,0,5000,0.993035316467285,0.993035316467285,0.993035316467285,2283.76286385357,3639.72976779419,5923.49263164776,,,50.1499998569489,994.199829101562,31356.407788495,31723.9505310159
2018-07-19T09:00:29Z,1531990829,1DC0B,41.0423436,43.9925988,3686.31,0.1,-6.9,326.4,545422.94,-95519.59,320.8,Weapon+Missile,Blue,Enemies,R-27ER,,cn,,208.681550918239,176.518325805664,0.640173685218659,3686.30688476562,2696.79547119141,207.156286681859,-25.1845703125,0.0448416037981579,NaN,0,0,5000,0.992001891136169,0.992001891136169,0.992001891136169,2177.39948468208,3615.03214114868,5792.43162583077,,,51.1499998569489,989.511413574219,31562.7310891019,31931.9239813761
2018-07-19T09:00:30Z,1531990830,1DC0B,41.0409602,43.9941009,3661.82,0.1,-6.9,326.4,545295.62,-95363.59,320.8,Weapon+Missile,Blue,Enemies,R-27ER,,cn,,202.840440336715,171.627868652344,0.622067814941694,3661.81665039062,2673.4404296875,201.35658086154,-24.490234375,0.0447740873640391,NaN,0,0,5000,0.993572413921356,0.993572413921356,0.993572413921356,2057.21221179962,3591.01542545532,5648.22763725494,,,52.1499998569489,988.376220703125,31763.3134895963,32134.110618655
2018-07-19T09:00:31Z,1531990831,1DC0B,41.0396113,43.9955655,3637.94,0.1,-6.9,326.4,545171.5,-95211.48,320.8,Weapon+Missile,Blue,Enemies,R-27ER,,cn,,197.76706411922,167.402969360352,0.606331241722656,3637.94384765625,2632.25109863281,196.320913149724,-23.872802734375,0.0494541721007378,NaN,0,0,5000,0.911837577819824,0.911837577819824,0.911837577819824,1955.59058251679,3567.60420336182,5523.19478587861,,,53.1499998569489,1005.69274902344,31958.8942498887,32331.2540592078
2018-07-19T09:00:32Z,1531990832,1DC0B,41.0383036,43.9969852,3613.99,-0.6,-8.2,326.4,545051.12,-95064.03,320.8,Weapon+Missile,Blue,Enemies,R-27ER,,cn,,191.849267577479,162.443984985352,0.588015242608621,3613.99438476562,2602.26086425781,190.348534791486,-23.949462890625,0.0723985200978262,NaN,1.30768069773396,1.32693724216005,4742.73894523121,0.210259169340134,0.210259169340134,0.210259169340134,1840.30707350075,3544.11780333618,5384.42487683693,,,54.1499998569489,1011.73352050781,32148.4849925524,32522.4584188338
2018-07-19T09:00:33Z,1531990833,1DC0B,41.037036,43.9983604,3583.17,-1.8,-10.9,326.4,544934.44,-94921.22,320.7,Weapon+Missile,Blue,Enemies,R-27ER,,cn,,186.980026540258,158.45051574707,0.572874659602378,3583.169921875,2569.07263183594,184.421752546981,-30.824462890625,0.039226509199589,NaN,1.29232643247977,2.71585034018832,3805.57309407848,0.0551282651722431,0.0551282651722431,0.0551282651722431,1748.07651624978,3513.88933143555,5261.96584768532,,,55.1499998569489,1014.09729003906,32332.1630315198,32708.807151531
2018-07-19T09:00:34Z,1531990834,1DC0B,41.0358033,43.9996957,3544.11,-2.8,-13.8,326.3,544821.06,-94782.58,320.7,Weapon+Missile,Blue,Enemies,R-27ER,,cn,,183.305526754239,155.554473876953,0.561348094084158,3544.1083984375,2519.23217773438,179.095263827357,-39.0615234375,0.0673340082860382,NaN,0.953822257213941,2.78892013081594,3753.23324673912,0.0720587894320488,0.0720587894320488,0.0720587894320488,1680.04580693245,3475.58306255371,5155.62886948616,,,56.1499998569489,1024.87622070312,32510.5943337343,32891.5614110663
2018-07-19T09:00:35Z,1531990835,1DC0B,41.0346097,44.0009855,3497.38,-3.7,-16.5,326.3,544711.25,-94648.66,320.6,Weapon+Missile,Blue,Enemies,R-27ER,,cn,,179.381831494444,152.492599487305,0.549018417043855,3497.37524414062,2477.81506347656,173.18733718077,-46.733154296875,0.0243051248757864,NaN,0.769243225083516,2.77738949083649,3709.83945879642,0.0829052701592445,0.0829052701592445,0.0829052701592445,1608.89207351506,3429.75349379517,5038.64556731022,,,57.1499998569489,1019.56018066406,32683.0839940206,33070.361653624
2018-07-19T09:00:36Z,1531990836,1DC0B,41.0334426,44.0022422,3442.93,-4.3,-19.3,326.2,544604,-94518.21,320.5,Weapon+Missile,Blue,Enemies,R-27ER,,cn,,177.435226141001,151.200973510742,0.542699525607709,3442.92602539062,2426.30157470703,168.874338054136,-54.44921875,0.0581384105515684,NaN,0.569200644672183,2.76139660289491,3728.44105396685,0.099512867629528,0.099512867629528,0.099512867629528,1574.1629737854,3376.3570506897,4950.5200244751,,,58.1499998569489,1016.62445068359,32851.32151037,33247.2779791881
2018-07-19T09:00:37Z,1531990837,1DC0B,41.0323134,44.0034526,3381.71,-4.8,-22,326,544500.25,-94392.61,320.4,Weapon+Missile,Blue,Enemies,R-27ER,,cn,,174.03224284474,148.681335449219,0.531893902827605,3381.7099609375,2366.68182373047,162.910450869309,-61.216064453125,0.0689869607464552,NaN,0.400030519309307,2.73056640964194,3692.86950126688,0.103962853550911,0.103962853550911,0.103962853550911,1514.36107747853,3316.32459884277,4830.6856763213,,,59.1499998569489,1015.02813720703,33013.5903336743,33420.7909745922
2018-07-19T09:00:38Z,1531990838,1DC0B,41.0312058,44.0046329,3313.2,-5.3,-24.7,325.8,544398.56,-94270.19,320.2,Weapon+Missile,Blue,Enemies,R-27ER,,cn,,173.265356785707,148.507614135742,0.529108415848901,3313.20141601562,2297.45776367188,159.146043415366,-68.508544921875,0.0675015506575029,NaN,0.369267347287569,2.63822310583701,3762.71611179476,0.110430307686329,0.110430307686329,0.110430307686329,1501.04419310391,3249.14066663696,4750.18485974087,,,60.1499998569489,1015.74365234375,33172.1070349609,33593.5548242701
2018-07-19T09:00:39Z,1531990839,1DC0B,41.0301249,44.0057769,3238.06,-5.5,-27.3,325.7,544299.44,-94151.57,320,Weapon+Missile,Blue,Enemies,R-27ER,,cn,,171.878687522171,147.834945678711,0.524394587339042,3238.05834960938,2205.775390625,154.582673011596,-75.14306640625,0.105483018361023,NaN,0.199987938897973,2.58320934716715,3825.19054050581,0.121838502585888,0.121838502585888,0.121838502585888,1477.11416121721,3175.45049141968,4652.56465263689,,,61.1499998569489,1032.28295898438,33326.0862247701,33764.9620315854
2018-07-19T09:00:40Z,1531990840,1DC0B,41.0290705,44.006884,3156.65,-5.7,-29.7,325.4,544202.81,-94036.85,319.8,Weapon+Missile,Blue,Enemies,R-27ER,,cn,,170.657896133647,147.346466064453,0.520155905361663,3156.64990234375,2099.96118164062,149.98927370503,-81.408447265625,0.0273086322898777,NaN,0.153870501622047,2.53686779430908,3885.87394075296,0.123345881700516,0.123345881700516,0.123345881700516,1456.20587563813,3095.61607648193,4551.82195212006,,,62.1499998569489,1056.68872070312,33475.4720236332,33935.15554466
2018-07-19T09:00:41Z,1531990841,1DC0B,41.0280378,44.0079586,3068.93,-5.8,-32.2,325.2,544108.31,-93925.57,319.5,Weapon+Missile,Blue,Enemies,R-27ER,,cn,,170.318994424344,147.675872802734,0.518571792308917,3068.92993164062,1983.74401855469,145.992351174856,-87.719970703125,0,NaN,0,2.50531616232503,3996.98555594998,0.130685448646545,0.130685448646545,0.130685448646545,1450.42799308598,3009.59217141235,4460.02016449833,,,63.1499998569489,1085.18591308594,33620.8922881222,34105.0451937334
2018-07-19T09:00:42Z,1531990842,1DC0B,41.027026,44.0090011,2975.13,-5.9,-34.6,324.9,544015.81,-93817.71,319.3,Weapon+Missile,Blue,Enemies,R-27ER,,cn,,170.258426320495,148.294815063477,0.517800179200667,2975.13208007812,1863.93115234375,142.09114953223,-93.7978515625,0.0304181497668392,NaN,0,2.42064294751461,4142.63736810883,0.132444396615028,0.132444396615028,0.132444396615028,1449.39658665657,2917.60790130981,4367.00448796639,,,64.1499998569489,1111.20092773438,33762.4155746798,34274.8858892621
2018-07-19T09:00:43Z,1531990843,1DC0B,41.0260358,44.0100103,2875.67,-5.9,-36.9,324.6,543925.44,-93713.36,318.9,Weapon+Missile,Blue,Enemies,R-27ER,,cn,,170.147562222564,148.910263061523,0.516842912093874,2875.6669921875,1747.58422851562,138.046692177652,-99.465087890625,0.0519181978923953,NaN,0.0307674408899687,2.32048804173331,4258.6423578045,0.13223722577095,0.13223722577095,0.13223722577095,1447.50964651406,2820.06597089355,4267.57561740761,,,65.1499998569489,1128.08276367188,33899.920854332,34444.6455842732
2018-07-19T09:00:44Z,1531990844,1DC0B,41.0250587,44.0109947,2769.87,-5.8,-39.2,324.3,543836.38,-93611.66,318.6,Weapon+Missile,Blue,Enemies,R-27ER,,cn,,171.66163177238,151.026031494141,0.520779071552176,2769.86694335938,1636.31982421875,135.18160189435,-105.800048828125,0.00453372907251982,NaN,0,2.23864231179587,4446.00246636383,0.129864573478699,0.129864573478699,0.129864573478699,1473.38579113781,2716.31156600952,4189.69735714734,,,66.1499998569489,1133.54711914062,34034.5597543966,34615.9270273902
2018-07-19T09:00:45Z,1531990845,1DC0B,41.0241046,44.0119442,2659.05,-5.7,-41.4,323.9,543749.56,-93513.67,318.3,Weapon+Missile,Blue,Enemies,R-27ER,,cn,,171.518079067688,151.702056884766,0.519652433470769,2659.0537109375,1519.83874511719,130.915541351228,-110.813232421875,0.0759084846951682,NaN,0.0615348817799374,2.15514922560799,4659.96349223542,0.13823738694191,0.13823738694191,0.13823738694191,1470.92257235348,2607.64090743652,4078.56347979001,,,67.1499998569489,1139.21496582031,34164.9713309299,34787.103050726
2018-07-19T09:00:46Z,1531990846,1DC0B,41.0231705,44.0128618,2543.25,-5.6,-43.4,323.6,543664.69,-93419.06,317.9,Weapon+Missile,Blue,Enemies,R-27ER,,cn,,171.947474602011,152.932586669922,0.520232237709777,2543.24682617188,1397.27294921875,127.101138715948,-115.806884765625,0.0297082105636861,NaN,0.0461507344481299,2.05590166776924,4855.46384220445,0.13706448674202,0.13706448674202,0.13706448674202,1478.29670110047,2494.07314878784,3972.36984988831,,,68.1499998569489,1145.97387695312,34291.566643577,34958.7150615272
2018-07-19T09:00:47Z,1531990847,1DC0B,41.0222505,44.0137537,2421.89,-5.4,-45.4,323.2,543581.19,-93327.2,317.5,Weapon+Missile,Blue,Enemies,R-27ER,,cn,,173.604623061753,155.324890136719,0.524486255282154,2421.89306640625,1270.97436523438,124.144392298485,-121.353759765625,0.0529323353167993,NaN,0.184604645339812,1.99270534247369,5000,0.129394233226776,0.129394233226776,0.129394233226776,1506.92825742066,2375.06576396728,3881.99402138794,,,69.1499998569489,1150.91870117188,34415.1872593772,35131.9798602616
2018-07-19T09:00:48Z,1531990848,1DC0B,41.0213528,44.0146121,2296.3,-5.2,-47.2,322.8,543499.88,-93238.88,317.2,Weapon+Missile,Blue,Enemies,R-27ER,,cn,,173.739570549081,156.376281738281,0.524110539566279,2296.30151367188,1141.76208496094,120.050823638772,-125.591552734375,0.0203050319178222,NaN,0.200042580411333,1.95618239999093,5000,0.136599332094193,0.136599332094193,0.136599332094193,1509.27191872895,2251.90252390503,3761.17444263398,,,70.1499998569489,1154.53942871094,34534.7498360477,35305.4129154212
2018-07-19T09:00:49Z,1531990849,1DC0B,41.0204699,44.0154445,2165.71,-5,-49.1,322.4,543420,-93153.32,316.8,Weapon+Missile,Blue,Enemies,R-27ER,,cn,,175.369902731788,158.841445922852,0.528210150134683,2165.70678710938,1008.80249023438,117.04537657773,-130.5947265625,0.0338602879290566,NaN,0.199987938897973,1.82038906122438,5000,0.126629382371902,0.126629382371902,0.126629382371902,1537.73013920784,2123.83284638062,3661.56298558846,,,71.1499998569489,1156.904296875,34651.2992432873,35480.4793356893
2018-07-19T09:00:50Z,1531990850,1DC0B,41.0196055,44.0162483,2030.79,-4.8,-50.8,322,543341.94,-93070.81,316.4,Weapon+Missile,Blue,Enemies,R-27ER,,cn,,176.362850033683,160.769744873047,0.53035448485282,2030.78991699219,875.727905273438,113.583859019603,-134.916870117188,0.0419124715563032,NaN,0.199987938897973,1.7476799899623,5000,0.124779306352139,0.124779306352139,0.124779306352139,1555.19274360016,1991.52459394714,3546.7173375473,,,72.1499998569489,1155.06201171875,34764.4124944479,35656.563375365
2018-07-19T09:00:51Z,1531990851,1DC0B,41.0187563,44.0170264,1891.23,-4.6,-52.4,321.6,543265.38,-92991.02,316,Weapon+Missile,Blue,Enemies,R-27ER,,cn,,178.059892423268,163.400390625,0.53457811920977,1891.22912597656,740.048217773438,110.580789022682,-139.560791015625,0.0139231069513224,NaN,0.199987938897973,1.68310780843582,5000,0.114507831633091,0.114507831633091,0.114507831633091,1585.26626448929,1854.66221082581,3439.9284753151,,,73.1499998569489,1151.18090820312,34874.5278547554,35834.3555692547
2018-07-19T09:00:52Z,1531990852,1DC0B,41.0179262,44.0177761,1747.87,-4.4,-54.1,321.2,543190.75,-92914.25,315.6,Weapon+Missile,Blue,Enemies,R-27ER,,cn,,178.925883359602,165.303909301758,0.536274549442759,1747.87145996094,596.815673828125,107.06564028934,-143.357666015625,0.0732252363923472,NaN,0.276927458577228,1.57699559031609,5000,0.132521212100983,0.132521212100983,0.132521212100983,1600.72358680069,1714.07636528259,3314.79995208329,,,74.1499998569489,1151.05578613281,34981.1976471517,36013.0630341485
2018-07-19T09:00:53Z,1531990853,1DC0B,41.0171166,44.0184967,1601.16,-4.1,-55.5,320.8,543117.94,-92840.53,315.2,Weapon+Missile,Blue,Enemies,R-27ER,,cn,,179.614275591757,167.078796386719,0.5374143184234,1601.15686035156,450.470825195312,103.615222133683,-146.714599609375,0.0237955717368644,NaN,0.199987938897973,1.52906335043335,5000,0.106870509684086,0.106870509684086,0.106870509684086,1613.06439981759,1570.19849245667,3183.26289227425,,,75.1499998569489,1150.68603515625,35084.3308988819,36192.4152771584
2018-07-19T09:00:54Z,1531990854,1DC0B,41.0163236,44.0191926,1450.53,-3.9,-57,320.4,543046.81,-92769.45,314.8,Weapon+Missile,Blue,Enemies,R-27ER,,cn,,181.111497443564,169.660247802734,0.540943024121894,1450.52685546875,294.774291992188,100.558322058664,-150.630004882812,0.0295358792939362,NaN,0.215371232456135,1.49514409740654,5000,0.110554970800877,0.110554970800877,0.110554970800877,1640.0687253125,1422.48091871826,3062.54964403076,,,76.1499998569489,1155.75256347656,35184.4811631434,36373.3137939166
2018-07-19T09:00:55Z,1531990855,1DC0B,41.0155481,44.0198633,1296.34,-3.7,-58.4,320,542977.38,-92701.02,314.4,Weapon+Missile,Blue,Enemies,R-27ER,,cn,,182.423855515089,172.113586425781,0.543887396830165,1296.33776855469,130.458862304688,97.4894278247527,-154.189086914062,0.0156018462976851,NaN,0.199987938897973,1.40607981801175,5000,0.111013568937778,0.111013568937778,0.111013568937778,1663.9231530495,1271.27307779968,2935.19623084918,,,77.1499998569489,1165.87890625,35281.5815443025,36555.5411780679
2018-07-19T09:00:56Z,1531990856,1DC0B,41.0147908,44.0205089,1138.88,-3.5,-59.7,319.6,542909.62,-92635.22,314,Weapon+Missile,Blue,Enemies,R-27ER,,cn,,183.608928432998,174.489547729492,0.54642353209184,1138.88000488281,-37.5364990234375,94.4419994481567,-157.457763671875,0.0334311913524977,NaN,0.199987938897973,1.35178194854426,5000,0.0996915474534035,0.0996915474534035,0.0996915474534035,1685.61193001568,1116.8597599884,2802.47169000409,,,78.1499998569489,1176.41650390625,35375.6038977906,36738.9438112799
2018-07-19T09:00:57Z,1531990857,1DC0B,41.0140546,44.0211279,978.9,-3.3,-61,319.2,542843.88,-92572.23,313.6,Weapon+Missile,Blue,Enemies,R-27ER,,cn,,184.072624913001,176.207366943359,0.546793464352238,978.903015136719,-210.524108886719,91.0499532901617,-159.976989746094,0.0173841994173336,NaN,0.200042580411333,1.30503528009105,5000,0.0984315946698189,0.0984315946698189,0.0984315946698189,1694.13656211812,959.97592533905,2654.11248745717,,,79.1499998569489,1189.42712402344,35466.2712832175,36922.8349252451
2018-07-19T09:00:58Z,1531990858,1DC0B,41.0133403,44.0217199,816.84,-3.1,-62.2,318.8,542780.19,-92512.05,313.1,Weapon+Missile,Blue,Enemies,R-27ER,,cn,,184.230502571858,177.654296875,0.546244064142152,816.843811035156,-384.871765136719,87.6224425809259,-162.059204101562,0.0110699969481556,NaN,0.107685616228067,1.23530449147222,5000,0.094280831515789,0.094280831515789,0.094280831515789,1697.04390389398,801.050135948792,2498.09403984277,,,80.1499998569489,1201.71557617188,35553.522443019,37106.8949535598
2018-07-19T09:00:59Z,1531990859,1DC0B,41.0126423,44.0222905,651.62,-3,-63.3,318.4,542718.06,-92454.14,312.8,Weapon+Missile,Blue,Enemies,R-27ER,,cn,,185.778018242751,180.488327026367,0.549791325439512,651.616943359375,-561.890258789062,84.9326454330366,-165.226867675781,0.0203416912916732,NaN,0.0461635410528237,1.19130473300411,5000,0.0972887426614761,0.0972887426614761,0.0972887426614761,1725.6736031102,639.017929759522,2364.69153286972,,,81.1499998569489,1213.50720214844,35638.1173533309,37292.5232498031
