ISOTime,UnixTime,Id,Longitude,Latitude,Altitude,Roll,Pitch,Yaw,U,V,Heading,Type,Color,Coalition,Name,Group,Country,Pilot,TAS,CAS,M,ASL,AGL,GS,VS,AOA,AOS,RRT,TRT,TRD,G,LatG,LonG,Ek,Ep,Em,FFW,FFV,RelativeTime,Elev,GroundDistance,AirDistance
2018-07-19T09:00:09Z,1531990809,1FF08,40.80585,43.5852796,8176.05,115.6,-5.1,342.6,530747.31,-142608.47,337.1,Weapon+Missile,Blue,Enemies,AIM-120B,,us,,302.771704335645,210.612869262695,0.984691987774884,8176.04833984375,6276.32690429688,NaN,NaN,NaN,NaN,NaN,NaN,NaN,NaN,NaN,NaN,NaN,8017.96444519287,NaN,,,0.349999904632568,1899.72143554688,NaN,NaN
2018-07-19T09:00:10Z,1531990810,1FF08,40.8042246,43.5878941,8147.28,93.5,-7.2,344.4,530588.62,-142330.36,338.9,Weapon+Missile,Blue,Enemies,AIM-120B,,us,,321.487662804294,225.658447265625,1.04514617529624,8147.27734375,6376.6787109375,320.197668822152,-28.77099609375,6.54334249109664,NaN,21.0461624178838,10.1769745818802,2527.04446090519,3.71394062042236,3.71394062042236,3.71394062042236,5167.71586676836,7989.74973630859,13157.465603077,,,1.34999990463257,1770.5986328125,319.200201411901,320.901021689521
2018-07-19T09:00:11Z,1531990811,1FF08,40.8026164,43.5916731,8094.16,75.6,-5.8,348.6,530419.06,-141922.77,343.2,Weapon+Missile,Blue,Enemies,AIM-120B,,us,,444.640505306401,319.621215820312,1.44445444993904,8094.16357421875,6483.95361328125,441.45680020282,-53.11376953125,0.696794096164804,NaN,16.8153793214378,4.1580462775404,2972.50744649732,7.86870193481445,7.86870193481445,7.86870193481445,9885.25894795656,7937.66292151123,17822.9218694678,,,2.34999990463257,1610.2099609375,759.404037947163,764.854002189142
2018-07-19T09:00:12Z,1531990812,1FF08,40.8014893,43.5967522,8056.46,61.6,-1.7,352.8,530274.69,-141367.05,347.3,Weapon+Missile,Blue,Enemies,AIM-120B,,us,,575.403268780571,406.000335693359,1.86827920742457,8056.46142578125,6573.67297363281,574.166761251958,-37.7021484375,0.377097447968971,NaN,13.1692057764315,4.45421480589637,5000,4.52676630020142,4.52676630020142,4.52676630020142,16554.4460861683,7900.68974411377,24455.1358302821,,,3.34999990463257,1482.78845214844,1332.05926597714,1339.47246478053
2018-07-19T09:00:13Z,1531990813,1FF08,40.8004605,43.6031149,8040.72,50,-1.3,353.6,530124.81,-140667.94,348.1,Weapon+Missile,Blue,Enemies,AIM-120B,,us,,715.167245346199,492.435791015625,2.32157677220559,8040.72119140625,6609.63024902344,714.994009651753,-15.740234375,0.0360703594729351,NaN,11.0769275883599,1.94032675616298,5000,0.961026608943939,0.961026608943939,0.961026608943939,25573.2094408035,7885.25384717041,33458.4632879739,,,4.34999990463257,1431.09094238281,2045.18998531913,2053.67655541074
2018-07-19T09:00:14Z,1531990814,1FF08,40.7993101,43.6106622,8020.01,40.4,-1.5,353.9,529952.75,-139838.16,348.5,Weapon+Missile,Blue,Enemies,AIM-120B,,us,,847.685950587555,574.148254394531,2.75097569967755,8020.0078125,6532.55017089844,847.43284498408,-20.71337890625,0.0204947431964105,NaN,9.03076683756414,0.419883664751139,5000,0.979514300823212,0.979514300823212,0.979514300823212,35928.5735411763,7864.94096144531,43793.5145026216,,,5.34999990463257,1487.45764160156,2890.45630558603,2900.26053956828
2018-07-19T09:00:15Z,1531990815,1FF08,40.7981459,43.6188975,7994.05,32.8,-1.7,354.4,529772.31,-138932.03,349,Weapon+Missile,Blue,Enemies,AIM-120B,,us,,924.280246733946,622.111328125,2.99847593745806,7994.05078125,6207.89721679688,923.915692599303,-25.95703125,0.0230341145164653,NaN,7.29229244849913,0.492383694872018,5000,1.0762015581131,1.0762015581131,1.0762015581131,42714.6987251282,7839.48580939453,50554.1845345227,,,6.34999990463257,1786.15356445312,3811.99111744477,3823.31727165058
2018-07-19T09:00:16Z,1531990816,1FF08,40.7970045,43.6276939,7963.31,26.5,-1.9,354.9,529587.88,-137963.41,349.5,Weapon+Missile,Blue,Enemies,AIM-120B,,us,,986.507199154444,661.673583984375,3.1989974611165,7963.31201171875,5875.7421875,986.028185211381,-30.73876953125,0.043270986843491,NaN,6.01537492278691,0.500659856433663,5000,0.819146335124969,0.819146335124969,0.819146335124969,48659.8226991773,7809.34137397217,56469.1640731494,,,7.34999990463257,2087.56982421875,4795.51108359021,4808.54719977402
2018-07-19T09:00:17Z,1531990817,1FF08,40.7958671,43.6370688,7925.89,21.4,-2.3,355.1,529397.69,-136930.45,349.6,Weapon+Missile,Blue,Enemies,AIM-120B,,us,,1050.98230422185,703.178283691406,3.4063255186279,7925.890625,5685.8525390625,1050.31587801171,-37.42138671875,0.0389416574989032,NaN,4.78462947586397,0.433413495764567,5000,0.165856137871742,0.165856137871742,0.165856137871742,55228.1901893735,7772.64352976563,63000.8337191391,,,8.34999990463257,2240.0380859375,5843.13920215046,5858.14754712647
2018-07-19T09:00:18Z,1531990818,1FF08,40.7947001,43.6468616,7876.95,17.2,-2.9,355.1,529200.69,-135851.31,349.7,Weapon+Missile,Blue,Enemies,AIM-120B,,us,,1098.06589145507,734.538024902344,3.55654235523034,7876.94970703125,5477.25708007812,1096.97469821568,-48.94091796875,0.0557235201306943,NaN,4.03074051603465,0.619613203718989,5000,0.408762365579605,0.408762365579605,0.408762365579605,60287.4350988507,7724.6488844458,68012.0839832965,,,9.34999990463257,2399.69262695312,6937.31204204579,6954.7685123487
2018-07-19T09:00:19Z,1531990819,1FF08,40.7935631,43.6563236,7816.12,13.9,-3.7,354.9,529009.62,-134808.69,349.5,Weapon+Missile,Blue,Enemies,AIM-120B,,us,,1061.7308624933,713.987487792969,3.43599607500777,7816.11669921875,5187.78271484375,1059.98668365751,-60.8330078125,0.0388403698282159,NaN,3.15385350963173,0.788531732660485,5000,0.682867467403412,0.682867467403412,0.682867467403412,56363.6212185383,7664.99208283936,64028.6133013776,,,10.3499999046326,2628.333984375,7994.59282277504,8015.0964749227
2018-07-19T09:00:20Z,1531990820,1FF08,40.7924022,43.6654873,7743.02,11.2,-4.4,354.6,528819.75,-133799.39,349.2,Weapon+Missile,Blue,Enemies,AIM-120B,,us,,1029.59980123729,696.405578613281,3.32868921001576,7743.0205078125,5532.55859375,1027.00180014923,-73.09619140625,0.0347335689812714,NaN,2.50766297263516,0.848079883165595,5000,0.831624865531921,0.831624865531921,0.831624865531921,53003.7875353932,7593.30920629395,60597.0967416872,,,11.3499999046326,2210.4619140625,9018.96408314452,9043.31867646169
2018-07-19T09:00:21Z,1531990821,1FF08,40.7912009,43.6742243,7661.01,9,-5.1,354.1,528631.19,-132837.81,348.6,Weapon+Missile,Blue,Enemies,AIM-120B,,us,,983.317887927861,670.023864746094,3.17551002349559,7661.009765625,5596.01489257812,979.89198735614,-82.0107421875,0.0319133133108366,NaN,2.10768709483921,0.916081086459683,5000,1.14064800739288,1.14064800739288,1.14064800739288,48345.7034359455,7512.88414180664,55858.5875777522,,,12.3499999046326,2064.99487304688,9996.36555788711,10025.3308985607
2018-07-19T09:00:22Z,1531990822,1FF08,40.7899025,43.6826855,7570.48,7.4,-5.8,353.3,528437.62,-131907.61,347.8,Weapon+Missile,Blue,Enemies,AIM-120B,,us,,954.43145732267,654.755004882812,3.07843444902284,7570.48291015625,5705.05981445312,950.128567703348,-90.52685546875,0.0551421965774031,NaN,1.53848645016703,0.909541927381336,5000,1.20046305656433,1.20046305656433,1.20046305656433,45546.9703363538,7424.10762308838,52971.0779594422,,,13.3499999046326,1865.42309570312,10944.041918835,10978.4476740654
2018-07-19T09:00:23Z,1531990823,1FF08,40.7885111,43.6908152,7473.32,6,-6.3,352.6,528240.12,-131014.95,347.2,Weapon+Missile,Blue,Enemies,AIM-120B,,us,,919.392087891574,635.598876953125,2.96151433215664,7473.3212890625,5857.7802734375,914.243638569097,-97.16162109375,0.0597349995520757,NaN,1.24615435369049,1.20932330564313,5000,1.99558770656586,1.99558770656586,1.99558770656586,42264.0905638814,7328.82462193848,49592.9151858199,,,14.3499999046326,1615.541015625,11855.9439504305,11896.5806847742
2018-07-19T09:00:24Z,1531990824,1FF08,40.7869897,43.6985617,7359.59,4.7,-8.9,351.2,528036.12,-130165.85,345.8,Weapon+Missile,Blue,Enemies,AIM-120B,,us,,880.638073547331,614.34619140625,2.83232323176223,7359.59375,6024.22436523438,873.263684942836,-113.7275390625,0.284950229647693,NaN,1.32308960450151,1.77345306846511,5000,1.94629633426666,1.94629633426666,1.94629633426666,38776.1708290577,7217.29600484375,45993.4668339014,,,15.3499999046326,1335.36938476562,12726.9320772207,12775.9665691635
2018-07-19T09:00:25Z,1531990825,1FF08,40.7854036,43.7059166,7227.54,3.8,-9.1,351.1,527831.06,-129360.76,345.7,Weapon+Missile,Blue,Enemies,AIM-120B,,us,,841.227358212094,592.910705566406,2.70076019346572,7227.544921875,5766.31884765625,830.79875733857,-132.048828125,0.0384322450918184,NaN,0.769243225083516,1.0272139205062,5000,0.917751967906952,0.917751967906952,0.917751967906952,35383.1734102249,7087.80034081055,42470.9737510355,,,16.3499999046326,1461.22607421875,13555.5675511566,13615.9933034171
2018-07-19T09:00:26Z,1531990826,1FF08,40.7838674,43.7130195,7099.35,3.1,-9.1,351.1,527632.75,-128583.29,345.7,Weapon+Missile,Blue,Enemies,AIM-120B,,us,,812.538178269968,577.982116699219,2.6041673546111,7099.3544921875,5365.26159667969,802.362452313674,-128.1904296875,0.0403403978199299,NaN,0.676953709018304,0.0139882274201861,5000,0.990975201129913,0.990975201129913,0.990975201129913,33010.9145573139,6962.08847308105,39973.003030395,,,17.3499999046326,1734.09289550781,14355.8568948787,14427.3719257456
2018-07-19T09:00:27Z,1531990827,1FF08,40.7823861,43.7198651,6975.85,2.5,-9.1,351.1,527441.5,-127833.97,345.7,Weapon+Missile,Blue,Enemies,AIM-120B,,us,,783.142102278235,562.205078125,2.50580862716953,6975.84716796875,5106.39099121094,773.341769998943,-123.50732421875,0.0432304565953562,NaN,0.538492114163805,0.0139882274201861,5000,0.989711582660675,0.989711582660675,0.989711582660675,30665.5776180387,6840.96916297607,37506.5467810147,,,18.3499999046326,1869.45617675781,15127.1727180727,15209.3538713186
2018-07-19T09:00:28Z,1531990828,1FF08,40.7809512,43.7264937,6856.3,2,-9.1,351.1,527256.38,-127108.43,345.7,Weapon+Missile,Blue,Enemies,AIM-120B,,us,,758.268226213464,549.043762207031,2.4223541792481,6856.2958984375,4735.412109375,748.784479565635,-119.55126953125,0.0434648320315508,NaN,0.569200644672183,0.0139882274201861,5000,0.989915788173676,0.989915788173676,0.989915788173676,28748.5351442456,6723.72941724121,35472.2645614868,,,19.3499999046326,2120.8837890625,15874.0418180796,15966.5304251845
2018-07-19T09:00:29Z,1531990829,1FF08,40.7795733,43.7328572,6741.56,1.6,-9.1,351.1,527078.5,-126411.9,345.7,Weapon+Missile,Blue,Enemies,AIM-120B,,us,,727.983633769171,531.957397460938,2.32206198956241,6741.5576171875,4232.58178710938,718.884759785296,-114.73828125,0.0500688402563094,NaN,0.369212705774209,0.0139882274201861,5000,0.988717019557953,0.988717019557953,0.988717019557953,26498.0085517883,6611.20960065918,33109.2181524475,,,20.3499999046326,2508.97583007812,16591.0414845813,16693.407298407
2018-07-19T09:00:30Z,1531990830,1FF08,40.7782449,43.7389901,6631.01,1.4,-9.1,351.1,526907.12,-125740.6,345.7,Weapon+Missile,Blue,Enemies,AIM-120B,,us,,701.591459586845,517.106079101562,2.23460095194724,6631.005859375,3899.11791992188,692.826735201353,-110.5517578125,0.0472663862023037,NaN,0.24616001768726,0.0139882274201861,5000,0.986648857593536,0.986648857593536,0.986648857593536,24611.52880826,6502.79536108398,31114.3241693439,,,21.3499999046326,2731.88793945312,17282.0575611955,17393.9260914104
2018-07-19T09:00:31Z,1531990831,1FF08,40.7769608,43.744917,6524.18,1.1,-9.1,351.1,526741.56,-125091.87,345.7,Weapon+Missile,Blue,Enemies,AIM-120B,,us,,677.996588988325,503.820556640625,2.15640284405858,6524.17822265625,3760.44384765625,669.527617587871,-106.82763671875,0.0513198641178787,NaN,0.199987938897973,0.0139882274201861,5000,0.988563716411591,0.988563716411591,0.988563716411591,22983.9687339902,6398.03323672119,29382.0019707114,,,22.3499999046326,2763.734375,17949.8787507272,18070.91768894
2018-07-19T09:00:32Z,1531990832,1FF08,40.7757266,43.7506127,6421.54,0.9,-9.1,351.1,526582.38,-124468.44,345.7,Weapon+Missile,Blue,Enemies,AIM-120B,,us,,651.566981551678,488.321807861328,2.06954008972221,6421.54150390625,3835.15893554688,643.432386045805,-102.63671875,0.052798218153748,NaN,0.199987938897973,0.0139882274201861,5000,1.01721298694611,1.01721298694611,1.01721298694611,21226.9765724182,6297.38099892822,27524.3575713464,,,23.3499999046326,2586.38256835938,18591.6369208235,18721.4745344142
2018-07-19T09:00:33Z,1531990833,1FF08,40.7745248,43.7560888,6323.08,1.2,-8.7,349.5,526428.12,-123869.17,344.1,Weapon+Missile,Blue,Enemies,AIM-120B,,us,,626.584364419286,473.487060546875,1.98761417057494,6323.0751953125,3845.95458984375,618.799120722259,-98.46630859375,0.568200983707746,NaN,0.846153823180504,3.62111870358335,5000,7.13711357116699,7.13711357116699,7.13711357116699,19630.398286736,6200.81853641113,25831.2168231471,,,24.3499999046326,2477.12060546875,19208.8427818,19347.0944340949
2018-07-19T09:00:34Z,1531990834,1FF08,40.7726492,43.7609116,6245.18,3.6,-7.3,339.3,526226.5,-123347.58,333.8,Weapon+Missile,Blue,Enemies,AIM-120B,,us,,564.606403436438,432.532623291016,1.78918222280669,6245.1796875,3648.72509765625,559.207189388747,-77.8955078125,0.722204307721005,NaN,1.90769275263889,6.76714737774718,4920.29476855551,6.64952945709229,6.64952945709229,6.64952945709229,15939.0195400715,6124.42913824219,22063.4486783137,,,25.3499999046326,2596.45458984375,19766.4959332171,19910.7058571229
2018-07-19T09:00:35Z,1531990835,1FF08,40.7702274,43.7651818,6178.98,3.4,-7.5,336.6,525986.69,-122891.56,331.1,Weapon+Missile,Blue,Enemies,AIM-120B,,us,,519.463534212573,402.226654052734,1.64470282834765,6178.982421875,3701.9423828125,515.228381788495,-66.197265625,0.0566512146682478,NaN,0.399975877795947,4.1153388122076,5000,1.93025243282318,1.93025243282318,1.93025243282318,13492.1181688309,6059.51179674805,19551.6299655789,,,26.3499999046326,2477.0400390625,20280.1844622358,20429.1383453278
2018-07-19T09:00:36Z,1531990836,1FF08,40.7677125,43.7691976,6111.25,3,-8.1,334.7,525742.06,-122464.48,329.3,Weapon+Missile,Blue,Enemies,AIM-120B,,us,,496.814450291942,387.269744873047,1.57160044903579,6111.25146484375,3591.81420898438,492.175898920818,-67.73095703125,0.0248225510361442,NaN,0.369212705774209,1.96512141006718,5000,1.73373532295227,1.73373532295227,1.73373532295227,12341.2299009442,5993.090417771,18334.3203187152,,,27.3499999046326,2519.43725585938,20770.8127458344,20924.8879415338
2018-07-19T09:00:37Z,1531990837,1FF08,40.7651174,43.7730004,6042.34,2.9,-8.2,332.7,525493.31,-122061.7,327.3,Weapon+Missile,Blue,Enemies,AIM-120B,,us,,478.39774549155,375.080902099609,1.51198191583742,6042.33984375,3616.70751953125,473.408482570421,-68.91162109375,0,NaN,0.199999891729021,1.97627532242523,5000,1.92748165130615,1.92748165130615,1.92748165130615,11443.2201445699,5925.51120287109,17368.731347441,,,28.3499999046326,2425.63232421875,21242.7403776277,21402.2652450056
2018-07-19T09:00:38Z,1531990838,1FF08,40.7624695,43.7765583,5976.43,2.5,-8.9,330.8,525242.88,-121686.5,325.3,Weapon+Missile,Blue,Enemies,AIM-120B,,us,,455.888251348162,359.521453857422,1.43960419714757,5976.43359375,3441.88940429688,451.099173052027,-65.90625,0.101330524624573,NaN,0.615372723461469,1.95483044942209,5000,1.39281022548676,1.39281022548676,1.39281022548676,10391.7048858643,5860.87925021484,16252.5841360791,,,29.3499999046326,2534.54418945312,21692.3703702877,21857.1189592177
2018-07-19T09:00:39Z,1531990839,1FF08,40.7597813,43.7799226,5905.89,2.1,-9.6,329.1,524991.19,-121333.12,323.7,Weapon+Missile,Blue,Enemies,AIM-120B,,us,,439.540951015521,348.256561279297,1.38671043398797,5905.89453125,3365.75659179688,433.843852418413,-70.5390625,0.0174158535913109,NaN,0.399975877795947,1.86065601458937,5000,1.24667155742645,1.24667155742645,1.24667155742645,9659.81238098145,5791.70406048828,15451.5164414697,,,30.3499999046326,2540.13793945312,22124.7428846412,22295.6052063852
2018-07-19T09:00:40Z,1531990840,1FF08,40.7570873,43.7830901,5832.47,1.8,-10.3,327.8,524741.12,-121001.65,322.3,Weapon+Missile,Blue,Enemies,AIM-120B,,us,,421.662980679502,335.514831542969,1.32904018431349,5832.46630859375,3269.94873046875,415.220381716826,-73.42822265625,0.10980810542276,NaN,0.199987938897973,1.44182209121672,5000,0.766232848167419,0.766232848167419,0.766232848167419,8889.98346377611,5719.69557251709,14609.6790362932,,,31.3499999046326,2562.517578125,22538.516423444,22716.2184295141
2018-07-19T09:00:41Z,1531990841,1FF08,40.7544357,43.7860998,5756.18,0.9,-11.7,327.6,524496.19,-120687.36,322.2,Weapon+Missile,Blue,Enemies,AIM-120B,,us,,405.699322491064,323.927215576172,1.27746153625887,5756.177734375,3103.33911132812,398.462035473116,-76.28857421875,0.256740399953516,NaN,1.13845593085773,1.51258711988628,5000,1.39443838596344,1.39443838596344,1.39443838596344,8229.59701348543,5644.88203788086,13874.4790513663,,,32.3499999046326,2652.83862304688,22935.5896123827,23120.9080198793
2018-07-19T09:00:42Z,1531990842,1FF08,40.752054,43.7890166,5669.49,-2,-14.5,331.9,524273.94,-120381.36,326.4,Weapon+Missile,Blue,Enemies,AIM-120B,,us,,388.003282302376,310.705780029297,1.22037239454617,5669.48583984375,3061.46484375,378.194477088178,-86.69189453125,0.0633532818820606,NaN,3.27696083923204,4.32204381526746,3872.65730000113,3.36389803886414,3.36389803886414,3.36389803886414,7527.32735387087,5559.86633113037,13087.1936850012,,,33.3499999046326,2608.02099609375,23312.4991781134,23507.9879910935
2018-07-19T09:00:43Z,1531990843,1FF08,40.7501697,43.7918384,5567.29,-5.3,-18.3,336.9,524092.78,-120082.14,331.4,Weapon+Missile,Blue,Enemies,AIM-120B,,us,,364.406957920566,292.269714355469,1.14464671750301,5567.294921875,3036.56616210938,349.78485854254,-102.19091796875,0.0398785070641605,NaN,3.44613096459491,6.19220852039854,3156.31246620121,3.58570051193237,3.58570051193237,3.58570051193237,6639.62154904604,5459.65127456055,12099.2728236066,,,34.3499999046326,2530.72875976562,23661.211957977,23871.6608009555
2018-07-19T09:00:44Z,1531990844,1FF08,40.7487839,43.7945111,5447.1,-9,-23.2,342.3,523953.28,-119795.7,336.9,Weapon+Missile,Blue,Enemies,AIM-120B,,us,,340.525836677159,273.208099365234,1.06798174226375,5447.1005859375,2943.34448242188,318.608171667367,-120.1943359375,0.111689065709274,NaN,3.64611890349289,6.93375447462401,2716.99281053036,3.62930393218994,3.62930393218994,3.62930393218994,5797.89227223396,5341.7808961084,11139.6731683424,,,35.3499999046326,2503.75610351562,23978.8877607797,24211.571001317
2018-07-19T09:00:45Z,1531990845,1FF08,40.7478757,43.7969815,5310.38,-12.4,-28,348.1,523854.34,-119528.1,342.7,Weapon+Missile,Blue,Enemies,AIM-120B,,us,,316.365390880347,253.780242919922,0.990471392493085,5310.3818359375,2812.82446289062,285.298166740189,-136.71875,0.167528292282124,NaN,3.32307827650796,6.99666051687983,2875.21295219477,2.97469520568848,2.97469520568848,2.97469520568848,5004.35302734375,5207.70560313965,10212.0586304834,,,36.3499999046326,2497.55737304688,24263.4142199546,24527.4569314157
2018-07-19T09:00:46Z,1531990846,1FF08,40.7473566,43.7992567,5164.36,-13.1,-29.2,351.7,523788.78,-119279.26,346.3,Weapon+Missile,Blue,Enemies,AIM-120B,,us,,295.87654357406,237.644775390625,0.924600024954718,5164.36376953125,2675.07543945312,257.335682174689,-146.01806640625,0.298379574530331,NaN,1.80001780858141,2.2707418530174,5000,2.48502922058105,2.48502922058105,2.48502922058105,4377.14645186663,5064.51079604736,9441.65724791399,,,37.3499999046326,2489.28833007812,24520.0981943432,24822.9500578973
2018-07-19T09:00:47Z,1531990847,1FF08,40.7468365,43.8014614,5040.75,-7.8,-23.3,349.1,523723.84,-119038.25,343.7,Weapon+Missile,Blue,Enemies,AIM-120B,,us,,278.535471008649,224.028503417969,0.869042152460821,5040.75,2541.70336914062,249.602973925162,-123.61376953125,0.163049269586947,NaN,4.81540630826405,4.91788646657092,2629.68388847888,3.81540179252625,3.81540179252625,3.81540179252625,3879.10043050051,4943.28709875,8822.38752925051,,,38.3499999046326,2499.04663085938,24769.0522519847,25101.082566623
2018-07-19T09:00:48Z,1531990848,1FF08,40.7462027,43.8036342,4947.43,-4.1,-17.8,347.3,523650.09,-118801.65,341.8,Weapon+Missile,Blue,Enemies,AIM-120B,,us,,264.815793868866,213.229385375977,0.825258506967433,4947.43310546875,2481.255859375,247.829299876833,-93.31689453125,0.109284774078635,NaN,3.30770266691262,5.77684379951573,2730.21012499137,3.49341177940369,3.49341177940369,3.49341177940369,3506.37023411989,4851.77448637451,8358.14472049441,,,39.3499999046326,2466.17724609375,25016.2263578934,25365.466367031
2018-07-19T09:00:49Z,1531990849,1FF08,40.7455025,43.8057624,4880.85,-1.7,-12.6,346.2,523571.5,-118570.49,340.8,Weapon+Missile,Blue,Enemies,AIM-120B,,us,,253.067118010212,203.863555908203,0.787980946899412,4880.85400390625,2448.44970703125,244.151980235928,-66.5791015625,0.137823949267931,NaN,2.12308319500207,5.09526605242933,3171.19736647791,2.99228382110596,2.99228382110596,2.99228382110596,3202.14831089973,4786.48269174072,7988.63100264046,,,40.3499999046326,2432.404296875,25259.7272442111,25618.0863577223
2018-07-19T09:00:50Z,1531990850,1FF08,40.7448082,43.8078256,4836.12,-0.8,-9.5,346.8,523494.03,-118346.53,341.4,Weapon+Missile,Blue,Enemies,AIM-120B,,us,,241.166703489839,194.18147277832,0.750501682580095,4836.1162109375,2421.57177734375,236.980819376677,-44.73779296875,0.117113632495621,NaN,0.353824929904405,2.91354589684611,5000,1.60859954357147,1.60859954357147,1.60859954357147,2908.06894360781,4742.60990399902,7650.67884760683,,,41.3499999046326,2414.54443359375,25496.0741172284,25858.8070430106
2018-07-19T09:00:51Z,1531990851,1FF08,40.7441826,43.8098381,4798.13,-0.9,-9.4,348,523422.69,-118127.66,342.5,Weapon+Missile,Blue,Enemies,AIM-120B,,us,,233.315072463656,187.888153076172,0.725719386149693,4798.12744140625,2366.81665039062,230.201599534457,-37.98876953125,0.0585665465100717,NaN,0,1.25155735348908,5000,1.10984134674072,1.10984134674072,1.10984134674072,2721.79615193605,4705.35564732666,7427.15179926271,,,42.3499999046326,2431.31079101562,25725.6769851694,26091.7024786802
2018-07-19T09:00:52Z,1531990852,1FF08,40.74362,43.8118239,4761.13,-1,-9.2,348.9,523356.66,-117911.32,343.5,Weapon+Missile,Blue,Enemies,AIM-120B,,us,,229.202487494521,184.749084472656,0.712594514103551,4761.126953125,2332.28588867188,226.196251384998,-37.00048828125,0.0387158736554835,NaN,0,1.02949765828821,5000,1.17009496688843,1.17009496688843,1.17009496688843,2626.6890136838,4669.07056348633,7295.75957717012,,,43.3499999046326,2428.84106445312,25951.3015077238,26320.5076055347
2018-07-19T09:00:53Z,1531990853,1FF08,40.7431176,43.8137632,4726.27,-1,-8.8,349.9,523295.94,-117699.65,344.4,Weapon+Missile,Blue,Enemies,AIM-120B,,us,,222.950499647273,179.784622192383,0.692852398152449,4726.267578125,2296.17749023438,220.2084223357,-34.859375,0.00869108113036345,NaN,0.0307672274465571,0.947274453677426,5000,1.2153913974762,1.2153913974762,1.2153913974762,2485.34626464844,4634.88519450195,7120.23145915039,,,44.3499999046326,2430.09008789062,26170.9288655289,26543.0455341646
2018-07-19T09:00:54Z,1531990854,1FF08,40.7426603,43.81568,4693.72,-0.8,-8.2,350.6,523239.09,-117490.14,345.2,Weapon+Missile,Blue,Enemies,AIM-120B,,us,,219.509344560274,177.169143676758,0.681878819917518,4693.7158203125,2259.9833984375,217.082324044584,-32.5517578125,0.0471721199452882,NaN,0.16922060472971,0.889911376737338,5000,1.24296736717224,1.24296736717224,1.24296736717224,2409.21761746407,4602.96282492676,7012.18044239082,,,45.3499999046326,2433.732421875,26387.4466117266,26762.1546730066
2018-07-19T09:00:55Z,1531990855,1FF08,40.7422436,43.8175432,4664.39,-0.7,-7.6,351.1,523186.09,-117286.3,345.7,Weapon+Missile,Blue,Enemies,AIM-120B,,us,,212.652866179083,171.650787353516,0.66033621936567,4664.390625,2258.6484375,210.621163262533,-29.3251953125,0.0253768082521099,NaN,0.199987938897973,0.804927121515425,5000,1.23920428752899,1.23920428752899,1.23920428752899,2261.06207470894,4574.20463226563,6835.26670697456,,,46.3499999046326,2405.7421875,26597.5346479671,26974.4321619327
2018-07-19T09:00:56Z,1531990856,1FF08,40.7418541,43.8193658,4638.07,-0.5,-7,351.4,523135.69,-117086.75,346,Weapon+Missile,Blue,Enemies,AIM-120B,,us,,207.490664127896,167.535064697266,0.644093134718291,4638.07275390625,2281.93408203125,205.814832704857,-26.31787109375,0.0375383048396342,NaN,0.199987938897973,0.693739966120668,5000,1.22397911548615,1.22397911548615,1.22397911548615,2152.61878501177,4548.39561720947,6701.01440222124,,,47.3499999046326,2356.138671875,26802.8207661536,27181.5468823648
2018-07-19T09:00:57Z,1531990857,1FF08,40.7414844,43.821148,4614.58,-0.3,-6.3,351.6,523087.31,-116891.53,346.2,Weapon+Missile,Blue,Enemies,AIM-120B,,us,,202.49062367678,163.534469604492,0.628386385105461,4614.5791015625,2298.14208984375,201.123099062645,-23.49365234375,0.0564330598934998,NaN,0.184604271813842,0.64483901331455,5000,1.2200835943222,1.2200835943222,1.2200835943222,2050.12263385057,4525.35621463379,6575.47884848436,,,48.3499999046326,2316.43701171875,27003.4252540844,27383.6669260265
2018-07-19T09:00:58Z,1531990858,1FF08,40.7411325,43.8228776,4593.97,-0.2,-5.7,351.7,523040.91,-116702.04,346.3,Weapon+Missile,Blue,Enemies,AIM-120B,,us,,196.177305641495,158.414596557617,0.60863674433245,4593.970703125,2310.31958007812,195.091848016768,-20.6083984375,0.0277147336253339,NaN,0.200042580411333,0.663239756381976,5000,1.21020984649658,1.21020984649658,1.21020984649658,1924.27676243782,4505.14627958008,6429.4230420179,,,49.3499999046326,2283.65112304688,27198.0303923709,27579.4999233364
2018-07-19T09:00:59Z,1531990859,1FF08,40.7407937,43.8245704,4575.9,-0.1,-5.1,351.9,522995.97,-116516.54,346.4,Weapon+Missile,Blue,Enemies,AIM-120B,,us,,191.71915838296,154.830612182617,0.594670446213685,4575.8984375,2324.3916015625,190.865473321526,-18.072265625,0.0469657408519534,NaN,0,0.637207237412413,5000,1.19711410999298,1.19711410999298,1.19711410999298,1837.81178455353,4487.42344121094,6325.23522576447,,,50.3499999046326,2251.5068359375,27388.4272011635,27770.8887642388
2018-07-19T09:01:00Z,1531990860,1FF08,40.7404709,43.8262104,4560.33,0,-4.5,352,522952.84,-116336.77,346.6,Weapon+Missile,Blue,Enemies,AIM-120B,,us,,185.520401493393,149.779144287109,0.575330831381234,4560.330078125,2354.66235351562,184.866020557161,-15.568359375,0.0464803978308261,NaN,0,0.600853822359284,5000,1.18305373191833,1.18305373191833,1.18305373191833,1720.89096851349,4472.15609606445,6193.04706457794,,,51.3499999046326,2205.66772460938,27572.8229312997,27956.0721373894
2018-07-19T09:01:01Z,1531990861,1FF08,40.7401632,43.8278001,4547.04,0.1,-3.9,352.1,522911.47,-116162.48,346.7,Weapon+Missile,Blue,Enemies,AIM-120B,,us,,179.633087730039,144.977737426758,0.556980329884968,4547.03515625,2400.05981445312,179.140423299058,-13.294921875,0.0509880914332891,NaN,0,0.540504138482903,5000,1.16256177425385,1.16256177425385,1.16256177425385,1613.4023103714,4459.11823150391,6072.52054187531,,,52.3499999046326,2146.97534179688,27751.502502411,28135.3728573052
2018-07-19T09:01:02Z,1531990862,1FF08,40.7398689,43.8293445,4535.71,0.1,-3.5,352.3,522871.66,-115993.1,346.8,Weapon+Missile,Blue,Enemies,AIM-120B,,us,,174.359453461936,140.679153442383,0.540551799408517,4535.70849609375,2445.14111328125,173.991165813814,-11.32666015625,0.047767917762689,NaN,0.0769230711963513,0.492780966421789,5000,1.14321041107178,1.14321041107178,1.14321041107178,1520.06095057726,4448.01057232178,5968.07152289904,,,53.3499999046326,2090.5673828125,27925.0478926819,28309.41078514
2018-07-19T09:01:03Z,1531990863,1FF08,40.7395884,43.8308435,4526.11,0.2,-3,352.4,522833.41,-115828.7,347,Weapon+Missile,Blue,Enemies,AIM-120B,,us,,169.06959202429,136.360717773438,0.524089030671921,4526.1142578125,2478.73742675781,168.797149084522,-9.59423828125,0.0404420366753732,NaN,0,0.49268166187456,5000,1.12686705589294,1.12686705589294,1.12686705589294,1429.226347363,4438.6018386377,5867.82818600069,,,54.3499999046326,2047.37683105469,28093.4192265109,28478.1746641365
2018-07-19T09:01:04Z,1531990864,1FF08,40.7393244,43.8322928,4518.06,0.2,-2.6,352.7,522797.03,-115669.66,347.3,Weapon+Missile,Blue,Enemies,AIM-120B,,us,,163.336991600342,131.672637939453,0.506267739035302,4518.05859375,2507.0927734375,163.138220848342,-8.0556640625,0.0333717794875131,NaN,0,0.504747030960828,5000,1.10742664337158,1.10742664337158,1.10742664337158,1333.94864125252,4430.70193083984,5764.65057209236,,,55.3499999046326,2010.9658203125,28256.15241062,28641.2223496232
2018-07-19T09:01:05Z,1531990865,1FF08,40.7390805,43.8336913,4511.3,0.2,-2.3,353,522762.78,-115516.14,347.6,Weapon+Missile,Blue,Enemies,AIM-120B,,us,,157.442592053147,126.850807189941,0.487956542090036,4511.30126953125,2531.14099121094,157.29751543434,-6.75732421875,0.236687758471556,NaN,0,0.436338257472361,5000,0.706860721111298,0.706860721111298,0.706860721111298,1239.40848962069,4424.07525948486,5663.48374910555,,,56.3499999046326,1980.16027832031,28413.0498356607,28798.3761758711
2018-07-19T09:01:06Z,1531990866,1FF08,40.7388514,43.835045,4501.85,-0.3,-5.4,353.1,522730.22,-115367.48,347.6,Weapon+Missile,Blue,Enemies,AIM-120B,,us,,152.473761343065,122.816711425781,0.472500863499608,4501.85400390625,2548.9287109375,152.180803882462,-9.447265625,0.0563688651646229,NaN,0.569255286185543,2.43180582449594,2392.72702312156,0.0190257485955954,0.0190257485955954,0.0190257485955954,1162.41239490509,4414.81065674072,5577.22305164581,,,57.3499999046326,1952.92529296875,28564.8609576706,28950.5880250559
2018-07-19T09:01:07Z,1531990867,1FF08,40.7386295,43.8363548,4483.24,-0.9,-9.1,353.1,522698.66,-115223.64,347.6,Weapon+Missile,Blue,Enemies,AIM-120B,,us,,148.437366867006,119.610229492188,0.459885229147316,4483.2412109375,2557.74780273438,147.265799900427,-18.61279296875,0.0557422466020154,NaN,0.569255286185543,3.74615983049242,2259.07197526888,0.00617994554340839,0.00617994554340839,0.00617994554340839,1101.6825941205,4396.55774212402,5498.24033624453,,,58.3499999046326,1925.49340820312,28711.7528454388,29098.7570839751
2018-07-19T09:01:08Z,1531990868,1FF08,40.7384152,43.8376169,4455.74,-1.3,-12.9,353,522668.22,-115085.02,347.6,Weapon+Missile,Blue,Enemies,AIM-120B,,us,,144.560222036322,116.586860656738,0.447718931702893,4455.73681640625,2563.02209472656,141.919576086811,-27.50439453125,0.0235282426943591,NaN,0.461556863352782,3.74617263709711,2190.52077558126,0.011760245077312,0.011760245077312,0.011760245077312,1044.88288975954,4369.58514506103,5414.46803482057,,,59.3499999046326,1892.71472167969,28853.3052574596,29243.0542389767
2018-07-19T09:01:09Z,1531990869,1FF08,40.7382065,43.8388393,4419.55,-1.6,-16.6,353,522638.69,-114950.78,347.6,Weapon+Missile,Blue,Enemies,AIM-120B,,us,,142.13545923406,114.806343078613,0.440009921321459,4419.55078125,2553.95629882812,137.452026654203,-36.18603515625,0.0430326489971713,NaN,0.369267347287569,3.76185432454464,2163.29222960248,0.022521797567606,0.022521797567606,0.022521797567606,1010.12443858385,4334.09876689453,5344.22320547838,,,60.3499999046326,1865.59448242188,28990.4079769475,29384.9441628488
2018-07-19T09:01:10Z,1531990870,1FF08,40.7380039,43.8400183,4375.15,-1.9,-20.5,352.9,522610.03,-114821.33,347.5,Weapon+Missile,Blue,Enemies,AIM-120B,,us,,139.822530592132,113.160751342773,0.432609647726069,4375.154296875,2531.7080078125,132.58692332326,-44.396484375,0.0666760973788501,NaN,0.199987938897973,3.74647401919424,2145.90388068389,0.0178713910281658,0.0178713910281658,0.0178713910281658,977.517003059387,4290.56068854492,5268.07769160431,,,61.3499999046326,1843.4462890625,29122.6611137159,29524.5366634311
2018-07-19T09:01:11Z,1531990871,1FF08,40.7378048,43.8411644,4322.43,-2.1,-24.1,352.8,522582.03,-114695.51,347.4,Weapon+Missile,Blue,Enemies,AIM-120B,,us,,139.263884477108,113.005104064941,0.430597703495431,4322.431640625,2496.46557617188,128.898219683585,-52.72265625,0.0274400871760347,NaN,0.200042580411333,3.69646252031776,2185.69480464044,0.0193690210580826,0.0193690210580826,0.0193690210580826,969.721475982666,4238.85742485352,5208.57890083618,,,62.3499999046326,1825.96606445312,29251.2348903812,29663.5814227997
2018-07-19T09:01:12Z,1531990872,1FF08,40.7376096,43.8422745,4261.81,-2.2,-27.7,352.7,522554.75,-114573.66,347.3,Weapon+Missile,Blue,Enemies,AIM-120B,,us,,138.805785517843,112.976699829102,0.428857070598985,4261.81005859375,2455.06774902344,124.86821006667,-60.62158203125,0.0507091296811915,NaN,0,3.58974892538595,2248.87359311714,0.0326498709619045,0.0326498709619045,0.0326498709619045,963.352304661274,4179.40796111084,5142.76026577211,,,63.3499999046326,1806.74230957031,29375.8033169108,29802.192968571
2018-07-19T09:01:13Z,1531990873,1FF08,40.7374181,43.843346,4193.78,-2.3,-31.2,352.6,522528.12,-114456.05,347.2,Weapon+Missile,Blue,Enemies,AIM-120B,,us,,138.452063245268,113.075942993164,0.427402167799952,4193.77978515625,2408.02734375,120.585470571253,-68.0302734375,0.0470192311641224,NaN,0,3.3294990812146,2905.2013178532,0.182393923401833,0.182393923401833,0.182393923401833,958.448690843582,4112.69305301025,5071.14174385384,,,64.3499999046326,1785.75244140625,29496.0706337092,29940.4374165155
2018-07-19T09:01:14Z,1531990874,1FF08,40.7372291,43.8443918,4119.78,-2,-32,352.7,522502,-114341.29,347.2,Weapon+Missile,Blue,Enemies,AIM-120B,,us,,139.025493898802,113.981834411621,0.428777953724226,4119.7783203125,2360.19152832031,117.69397246582,-74.00146484375,0.0351209324288337,NaN,0.538466927841241,0.942354903206018,5000,1.05838072299957,1.05838072299957,1.05838072299957,966.404397690296,4040.12240648926,5006.52680417955,,,65.3499999046326,1759.58679199219,29613.4781735947,30079.2852485784
2018-07-19T09:01:15Z,1531990875,1FF08,40.7370415,43.8454533,4047.12,-1.7,-30.7,352.8,522475.81,-114224.78,347.4,Weapon+Missile,Blue,Enemies,AIM-120B,,us,,139.779939308051,115.035179138184,0.430716535564419,4047.12451171875,2313.47607421875,119.414636999763,-72.65380859375,0.0251273991994519,NaN,0.36920865034939,1.25538311319794,5000,1.13393437862396,1.13393437862396,1.13393437862396,976.921571648121,3968.87335928467,4945.79493093279,,,66.3499999046326,1733.6484375,29732.5933476648,30218.8745533946
2018-07-19T09:01:16Z,1531990876,1FF08,40.7368569,43.8465283,3976.72,-1.4,-29.7,353.1,522449.75,-114106.74,347.6,Weapon+Missile,Blue,Enemies,AIM-120B,,us,,139.891817100386,115.541084289551,0.430685721927422,3976.716796875,2264.78088378906,120.882067247913,-70.40771484375,0.0962545393467746,NaN,0.215371659342958,1.03740424258274,5000,1.07968640327454,1.07968640327454,1.07968640327454,978.486024582386,3899.82697760742,4878.31300218981,,,67.3499999046326,1711.93591308594,29853.1809786293,30358.5775318406
2018-07-19T09:01:17Z,1531990877,1FF08,40.7366766,43.8476113,3908.19,-1.2,-28.9,353.3,522423.91,-113987.77,347.9,Weapon+Missile,Blue,Enemies,AIM-120B,,us,,139.703944292686,115.784553527832,0.429743234930728,3908.19140625,2222.53662109375,121.743430585083,-68.525390625,0.0877637640300461,NaN,0.199987938897973,0.700826287384556,5000,1.03046321868896,1.03046321868896,1.03046321868896,975.859602546692,3832.62652541016,4808.48612795685,,,68.3499999046326,1685.65478515625,29974.6042241862,30498.0679113963
2018-07-19T09:01:18Z,1531990878,1FF08,40.7365009,43.8486999,3841.09,-1,-28.5,353.5,522398.41,-113868.16,348.1,Weapon+Missile,Blue,Enemies,AIM-120B,,us,,139.497200210566,116.003425598145,0.428752165570321,3841.08837890625,2175.30407714844,122.297394035567,-67.10302734375,0.0364016535506085,NaN,0.199987938897973,0.570962193147811,5000,0.998213350772858,0.998213350772858,0.998213350772858,972.973443329334,3766.8209351001,4739.79437842943,,,69.3499999046326,1665.78430175781,30096.5992497704,30637.3650407917
2018-07-19T09:01:19Z,1531990879,1FF08,40.7363295,43.8497976,3774.78,-0.9,-28.1,353.7,522373.12,-113747.51,348.3,Weapon+Missile,Blue,Enemies,AIM-120B,,us,,139.980069730926,116.801864624023,0.429885023429691,3774.77587890625,2129.53796386719,123.276405956797,-66.3125,0.0301857797368297,NaN,0.199987938897973,0.465415973594692,5000,0.971438109874725,0.971438109874725,0.971438109874725,979.72099609375,3701.7905872876,4681.51158338135,,,70.3499999046326,1645.23791503906,30219.5691222141,30777.1398547828
2018-07-19T09:01:20Z,1531990880,1FF08,40.7361638,43.8508941,3709.53,-0.9,-27.8,353.9,522348.34,-113626.93,348.5,Weapon+Missile,Blue,Enemies,AIM-120B,,us,,139.318377052956,116.623565673828,0.427509810874909,3709.53466796875,2085.458984375,123.098312661377,-65.2412109375,0.0208500030263734,NaN,0,0.331909227415788,5000,0.943284630775452,0.943284630775452,0.943284630775452,970.480509233475,3637.81081516357,4608.29132439705,,,71.3499999046326,1624.07568359375,30342.3591877336,30916.249571518
2018-07-19T09:01:21Z,1531990881,1FF08,40.736004,43.8519878,3645.13,-0.8,-27.6,354.1,522324.06,-113506.63,348.7,Weapon+Missile,Blue,Enemies,AIM-120B,,us,,138.595812508677,116.386283874512,0.42495640157776,3645.13061523438,2041.31616210938,122.722928731057,-64.404052734375,0.064742281875917,NaN,0.107685829671479,0.267245665428735,5000,0.932756304740906,0.932756304740906,0.932756304740906,960.439962247014,3574.65201478882,4535.09197703583,,,72.3499999046326,1603.814453125,30464.7767200956,31054.6375035037
2018-07-19T09:01:22Z,1531990882,1FF08,40.735849,43.8530858,3581,-0.8,-27.4,354.3,522300.12,-113385.82,348.9,Weapon+Missile,Blue,Enemies,AIM-120B,,us,,138.855338149436,116.983436584473,0.42541760358469,3581.00463867188,1996.21545410156,123.161130485637,-64.1259765625,0.0538574231974347,NaN,0,0.202225879727997,5000,0.918038904666901,0.918038904666901,0.918038904666901,964.040246629715,3511.76591398315,4475.80616061287,,,73.3499999046326,1584.78918457031,30587.6359367048,31193.2868239637
2018-07-19T09:01:23Z,1531990883,1FF08,40.7356999,43.8541797,3517.45,-0.8,-27.3,354.5,522276.69,-113265.41,349.1,Weapon+Missile,Blue,Enemies,AIM-120B,,us,,138.157528171352,116.758422851562,0.422950588733412,3517.45434570312,1948.09106445312,122.673806715223,-63.55029296875,0.0378003091718035,NaN,0,0.184782630464629,5000,0.910759329795837,0.910759329795837,0.910759329795837,954.375129520893,3449.44436592896,4403.81949544985,,,74.3499999046326,1569.36328125,30710.0012731317,31331.2309584188
2018-07-19T09:01:24Z,1531990884,1FF08,40.7355562,43.8552734,3454.18,-0.8,-27.2,354.7,522253.72,-113144.98,349.3,Weapon+Missile,Blue,Enemies,AIM-120B,,us,,137.960300754724,116.959831237793,0.422020342393015,3454.1767578125,1905.34155273438,122.59278712501,-63.277587890625,0.0564813261121469,NaN,0,0.198810464977873,5000,0.898864150047302,0.898864150047302,0.898864150047302,951.652229216695,3387.3902502002,4339.04247941689,,,75.3499999046326,1548.83520507812,30832.2945907706,31468.9845806375
2018-07-19T09:01:25Z,1531990885,1FF08,40.7354181,43.8563646,3391.15,-0.8,-27.3,354.9,522231.19,-113024.79,349.5,Weapon+Missile,Blue,Enemies,AIM-120B,,us,,137.575269884576,116.996719360352,0.42051902265928,3391.14990234375,1864.81005859375,122.288880825426,-63.02685546875,0.061670581134692,NaN,0,0.204630559883091,5000,0.907405853271484,0.907405853271484,0.907405853271484,946.347744190693,3325.58201898193,4271.92976317263,,,76.3499999046326,1526.33984375,30954.2694869611,31606.3389826555
2018-07-19T09:01:26Z,1531990886,1FF08,40.7352856,43.8574527,3328.52,-0.8,-27.2,355.1,522209.16,-112904.9,349.7,Weapon+Missile,Blue,Enemies,AIM-120B,,us,,137.04612420846,116.90552520752,0.418582109409455,3328.52001953125,1822.49499511719,121.89806372315,-62.6298828125,0.0144422622484669,NaN,0,0.187411266119306,5000,0.883396923542023,0.883396923542023,0.883396923542023,939.08200802803,3264.16308495361,4203.24509298164,,,77.3499999046326,1506.02502441406,31075.8637592548,31743.1719109042
2018-07-19T09:01:27Z,1531990887,1FF08,40.7351586,43.8585376,3266.02,-0.8,-27.2,355.3,522187.62,-112785.32,349.9,Weapon+Missile,Blue,Enemies,AIM-120B,,us,,136.635839224487,116.914680480957,0.41701178695476,3266.01538085938,1780.94580078125,121.501122237937,-62.504638671875,0.0249269838975935,NaN,0,0.180497220368975,5000,0.904159843921661,0.904159843921661,0.904159843921661,933.467628028989,3202.86697347046,4136.33460149945,,,78.3499999046326,1485.06958007812,31197.0673102793,31879.5988997222
2018-07-19T09:01:28Z,1531990888,1FF08,40.7350374,43.8596175,3203.97,-0.8,-27.1,355.5,522166.59,-112666.26,350.1,Weapon+Missile,Blue,Enemies,AIM-120B,,us,,135.895373904353,116.632438659668,0.414439466458056,3203.97216796875,1737.48388671875,120.905716915341,-62.043212890625,0.0308693077265794,NaN,0,0.178590023445381,5000,0.846595466136932,0.846595466136932,0.846595466136932,923.377632430196,3142.02336610107,4065.40099853127,,,79.3499999046326,1466.48828125,31317.6687471879,32015.2780239593
2018-07-19T09:01:29Z,1531990889,1FF08,40.7349215,43.860694,3141.66,-0.9,-28.3,355.6,522146,-112547.55,350.2,Weapon+Missile,Blue,Enemies,AIM-120B,,us,,135.644347501319,116.775566101074,0.413361413533434,3141.65844726562,1696.50207519531,120.483979105902,-62.313720703125,0.0301733694289334,NaN,0.199987938897973,1.51032045757719,2827.69595357091,0.216837644577026,0.216837644577026,0.216837644577026,919.969450452924,3080.91448118774,4000.88393164067,,,80.3499999046326,1445.15637207031,31437.8616828547,32150.7170060228
2018-07-19T09:01:30Z,1531990890,1FF08,40.7348087,43.8617422,3073.65,-1.1,-31.9,355.6,522125.97,-112431.94,350.1,Weapon+Missile,Blue,Enemies,AIM-120B,,us,,135.614930761127,117.14469909668,0.4129316113983,3073.65380859375,1651.48046875,117.33191622254,-68.004638671875,0.0577792160555423,NaN,0.199987938897973,3.22336840023977,2215.74204209903,0.0147863300517201,0.0147863300517201,0.0147863300517201,919.57047226727,3014.22471220459,3933.79518447186,,,81.3499999046326,1422.17333984375,31554.897541022,32286.1251813538
2018-07-19T09:01:31Z,1531990891,1FF08,40.7346981,43.8627521,2998.53,-1.3,-35.3,355.5,522106.53,-112320.56,350.1,Weapon+Missile,Blue,Enemies,AIM-120B,,us,,135.741221458455,117.692558288574,0.412941013515316,2998.53076171875,1596.47973632812,113.058423088463,-75.123046875,0,NaN,0.199987938897973,3.43179268997976,2328.43470789173,0.0243196133524179,0.0243196133524179,0.0243196133524179,921.283960151672,2940.55416944092,3861.83812959259,,,82.3499999046326,1402.05102539062,31667.674754558,32421.676955756
2018-07-19T09:01:32Z,1531990892,1FF08,40.7345894,43.8637247,2916.65,-1.4,-38.6,355.4,522087.59,-112213.34,349.9,Weapon+Missile,Blue,Enemies,AIM-120B,,us,,136.235091165418,118.605079650879,0.41403423694218,2916.65380859375,1531.55029296875,108.886016603678,-81.876953125,0.0447847285082723,NaN,0,3.27790105745997,2439.98844515287,0.0165647678077221,0.0165647678077221,0.0165647678077221,928.000003242493,2860.26030720459,3788.26031044708,,,83.3499999046326,1385.103515625,31776.290904867,32557.7366751978
2018-07-19T09:01:33Z,1531990893,1FF08,40.7344819,43.8646636,2828,-1.5,-41.7,355.2,522069.16,-112109.83,349.8,Weapon+Missile,Blue,Enemies,AIM-120B,,us,,137.528647656904,120.269157409668,0.417519596510193,2827.99536132812,1457.09362792969,105.13709457078,-88.658447265625,0.0777383926164196,NaN,0.199987938897973,3.0778725643138,2609.96723413713,0.0263982638716698,0.0263982638716698,0.0263982638716698,945.706446316838,2773.31607101685,3719.02251733368,,,84.3499999046326,1370.90173339844,31881.1683529931,32695.1030045444
2018-07-19T09:01:34Z,1531990894,1FF08,40.7343758,43.8655661,2733.22,-1.5,-44.6,355.1,522051.19,-112010.36,349.7,Weapon+Missile,Blue,Enemies,AIM-120B,,us,,138.562478816126,121.749618530273,0.420179499363499,2733.21850585938,1373.47998046875,101.078722801216,-94.77685546875,0.0227480096360451,NaN,0,2.92896163380283,2790.40002408605,0.0250850468873978,0.0250850468873978,0.0250850468873978,959.978026783466,2680.37172604858,3640.34975283205,,,85.3499999046326,1359.73852539062,31981.9946363229,32833.5134721489
2018-07-19T09:01:35Z,1531990895,1FF08,40.734271,43.8664321,2632.77,-1.5,-47.4,355,522033.72,-111914.95,349.6,Weapon+Missile,Blue,Enemies,AIM-120B,,us,,139.638458008272,123.311111450195,0.422932849986551,2632.77001953125,1282.17687988281,97.0000028315278,-100.448486328125,0.0424217863648345,NaN,0,2.77516605081824,2994.08595944606,0.0294094197452068,0.0294094197452068,0.0294094197452068,974.944947746396,2581.86541120361,3556.81035895001,,,86.3499999046326,1350.59313964844,32078.7610286574,32973.0179973378
2018-07-19T09:01:36Z,1531990896,1FF08,40.7341669,43.8672674,2526.33,-1.4,-50,354.8,522016.59,-111822.92,349.4,Weapon+Missile,Blue,Enemies,AIM-120B,,us,,141.739381762707,125.839324951172,0.428750141622737,2526.33471679688,1184.57006835938,93.6033048258255,-106.435302734375,0.0231390371366382,NaN,0.184604218452989,2.59036738541732,3216.8464819684,0.0241641905158758,0.0241641905158758,0.0241641905158758,1004.50261712372,2477.48803504761,3481.99065217133,,,87.3499999046326,1341.7646484375,32172.1273821112,33114.6259145677
2018-07-19T09:01:37Z,1531990897,1FF08,40.7340637,43.8680702,2414.47,-1.4,-52.4,354.6,521999.91,-111734.52,349.2,Weapon+Missile,Blue,Enemies,AIM-120B,,us,,143.557991568397,128.167297363281,0.433672397731715,2414.46533203125,1081.1826171875,89.9674257457248,-111.869384765625,0.0209052432633058,NaN,0,2.41005850217862,3500.7157793475,0.0274866372346878,0.0274866372346878,0.0274866372346878,1030.4448471576,2367.78164483643,3398.22649199402,,,88.3499999046326,1333.28271484375,32261.8726942878,33258.066566705
2018-07-19T09:01:38Z,1531990898,1FF08,40.7339616,43.8688397,2297.7,-1.3,-54.7,354.5,521983.66,-111649.79,349.1,Weapon+Missile,Blue,Enemies,AIM-120B,,us,,145.174804319628,130.36083984375,0.437948088357793,2297.70458984375,971.982421875,86.2708113620499,-116.7607421875,0.0279046016939815,NaN,0,2.25941355739211,3766.41609431178,0.0256839208304882,0.0256839208304882,0.0256839208304882,1053.78619046211,2253.27847159912,3307.06466206123,,,89.3499999046326,1325.72216796875,32347.9196101561,33403.127291188
2018-07-19T09:01:39Z,1531990899,1FF08,40.7338604,43.8695785,2176.05,-1.2,-56.8,354.3,521967.81,-111568.48,348.9,Weapon+Missile,Blue,Enemies,AIM-120B,,us,,147.182113111733,132.959808349609,0.443363461943974,2176.05004882812,857.528076171875,82.8416988618202,-121.654541015625,0.0169092791216341,NaN,0.199987938897973,2.16000570355128,4080.69635357304,0.0267610680311918,0.0267610680311918,0.0267610680311918,1083.12872100174,2133.97612113403,3217.10484213578,,,90.3499999046326,1318.52197265625,32430.566746635,33550.2162725666
2018-07-19T09:01:40Z,1531990900,1FF08,40.7337605,43.8702863,2049.9,-1.1,-58.8,354.1,521952.38,-111490.59,348.7,Weapon+Missile,Blue,Enemies,AIM-120B,,us,,149.058124835506,135.489334106445,0.448345449942369,2049.90307617188,737.111328125,79.4057042607181,-126.14697265625,0.0267802440751089,NaN,0.200042580411333,2.010487313091,4468.46589138703,0.026237066835165,0.026237066835165,0.026237066835165,1110.91622897387,2010.26820019409,3121.18442916796,,,91.3499999046326,1312.79174804688,32509.7692294396,33699.1801910005
2018-07-19T09:01:41Z,1531990901,1FF08,40.733661,43.8709701,1918.5,-1,-60.6,354,521937.22,-111415.38,348.5,Weapon+Missile,Blue,Enemies,AIM-120B,,us,,152.158374629001,139.20588684082,0.456962223819124,1918.50378417969,607.88818359375,76.7228586126156,-131.399291992188,0.0134949897848502,NaN,0.199987938897973,1.84893797129456,4904.20088174136,0.0264563225209713,0.0264563225209713,0.0264563225209713,1157.60854848698,1881.40951351257,3039.01806199955,,,92.3499999046326,1310.61560058594,32586.3077545988,33851.2576883821
2018-07-19T09:01:42Z,1531990902,1FF08,40.7335635,43.8716204,1784.06,-1,-62.3,353.8,521922.56,-111343.85,348.3,Weapon+Missile,Blue,Enemies,AIM-120B,,us,,152.984668147574,140.865478515625,0.458718505690206,1784.06457519531,469.740478515625,73.0096416638166,-134.439208984375,0.0306243843239023,NaN,0.0153837204449843,1.71305637367733,5000,0.0205578561872244,0.0205578561872244,0.0205578561872244,1170.21543441117,1749.56968663391,2919.78512104508,,,93.3499999046326,1314.32409667969,32659.1157842285,34004.1563078089
2018-07-19T09:01:43Z,1531990903,1FF08,40.7334677,43.8722416,1646.12,-0.9,-64,353.6,521908.38,-111275.58,348.2,Weapon+Missile,Blue,Enemies,AIM-120B,,us,,154.566653793373,143.266555786133,0.462713781513774,1646.12145996094,328.287109375,69.7319684529012,-137.943115234375,0.0235812440098153,NaN,0,1.60913131019589,5000,0.0185964312404394,0.0185964312404394,0.0185964312404394,1194.54252324402,1614.29370153259,2808.83622477662,,,94.3499999046326,1317.83435058594,32728.6917847291,34158.6610865277
2018-07-19T09:01:44Z,1531990904,1FF08,40.7333738,43.8728346,1504.89,-0.8,-65.5,353.4,521894.66,-111210.4,348,Weapon+Missile,Blue,Enemies,AIM-120B,,us,,156.150302302678,145.711441040039,0.46668447175048,1504.89001464844,186.448364257812,66.6077755533103,-141.2314453125,0.012105937357235,NaN,0,1.54082877816552,5000,0.0236537717282772,0.0236537717282772,0.0236537717282772,1219.14584546089,1475.79296621521,2694.9388116761,,,95.3499999046326,1318.44165039062,32795.1347008825,34314.7481247782
2018-07-19T09:01:45Z,1531990905,1FF08,40.7332822,43.8733979,1361.25,-0.7,-66.9,353.3,521881.41,-111148.5,347.8,Weapon+Missile,Blue,Enemies,AIM-120B,,us,,156.966065658197,147.467041015625,0.468339088573964,1361.25378417969,46.173095703125,63.3007035106357,-143.63623046875,0.014225183815727,NaN,0.138453163839742,1.42155211747253,5000,0.021007539704442,0.021007539704442,0.021007539704442,1231.91728841066,1334.93394226257,2566.85123067324,,,96.3499999046326,1315.08068847656,32858.2665147255,34471.6518654735
