ISOTime,UnixTime,Id,Longitude,Latitude,Altitude,Roll,Pitch,Yaw,U,V,Heading,Type,Color,Coalition,Name,Group,Country,Pilot,TAS,CAS,M,ASL,AGL,GS,VS,AOA,AOS,RRT,TRT,TRD,G,LatG,LonG,Ek,Ep,Em,FFW,FFV,RelativeTime,Elev,GroundDistance,AirDistance
2018-07-19T09:00:39Z,1531990839,25F0A,40.9990924,43.8825976,3493.31,52.3,4.2,337,543145.56,-108080.63,331.4,Weapon+Missile,Blue,Enemies,R-27ET,,cn,,389.364398976417,341.28173828125,1.19163461554862,3493.30834960938,1937.63293457031,NaN,NaN,1.41795097120931,NaN,11.6923549533347,3.3170007687158,NaN,NaN,NaN,NaN,NaN,3425.76523266968,NaN,,,0.990000009536743,1555.67541503906,NaN,NaN
2018-07-19T09:00:40Z,1531990840,25F0A,40.9956852,43.8876494,3542.69,43.2,6.3,333,542817.06,-107546.02,327.4,Weapon+Missile,Blue,Enemies,R-27ET,,cn,,629.410682038736,536.915771484375,1.9274505938613,3542.68823242188,2008.76452636719,627.470663726911,49.3798828125,0.450502159481365,NaN,8.23076044045889,2.3822822572583,5000,3.88669919967651,3.88669919967651,3.88669919967651,19807.8903332233,3474.190355448,23282.0806886713,,,1.99000000953674,1533.92370605469,625.281002818138,627.571611069278
2018-07-19T09:00:41Z,1531990841,25F0A,40.990752,43.8945517,3643.59,35.8,6.9,332.7,542346.06,-106817.73,327.1,Weapon+Missile,Blue,Enemies,R-27ET,,cn,,873.177229033933,729.200073242188,2.67724711714046,3643.58984375,2046.7470703125,867.327699393237,100.901611328125,0.0508616737263236,NaN,7.1230676816229,1.49239206477955,5000,1.56811010837555,1.56811010837555,1.56811010837555,38121.9236651689,3573.14103412109,41695.06469929,,,2.99000000953674,1596.8427734375,1489.57495532271,1498.21910668618
2018-07-19T09:00:42Z,1531990842,25F0A,40.9851375,43.902406,3764.65,29.6,7.2,332.8,541810.06,-105988.98,327.2,Weapon+Missile,Blue,Enemies,R-27ET,,cn,,994.367094983899,821.939880371094,3.0533652252295,3764.65307617188,2304.10034179688,986.969915115089,121.063232421875,0.0571285314675469,NaN,5.81533234237558,0.287015621300911,5000,1.46865081787109,1.46865081787109,1.46865081787109,49438.2959793359,3691.86350894409,53130.15948828,,,3.99000000953674,1460.552734375,2473.08104963235,2489.71513600911
2018-07-19T09:00:43Z,1531990843,25F0A,40.9796392,43.910149,3888.21,24.5,7.3,333,541284.75,-105171.66,327.3,Weapon+Missile,Blue,Enemies,R-27ET,,cn,,979.404372374045,805.155029296875,3.01200240277466,3888.21362304688,2585.923828125,971.578980773744,123.560546875,0.0308109366966535,NaN,4.90768216395092,0.211911741641523,5000,1.1708437204361,1.1708437204361,1.1708437204361,47961.6462312698,3813.03501264526,51774.6812439151,,,4.99000000953674,1302.28979492188,3441.28490846132,3466.34763025422
2018-07-19T09:00:44Z,1531990844,25F0A,40.9742479,43.9177854,4011.43,20.2,7.4,333.1,540769.25,-104365.31,327.5,Weapon+Missile,Blue,Enemies,R-27ET,,cn,,964.948367038186,788.977416992188,2.97206829561366,4011.42993164062,2833.19665527344,957.049158792897,123.21630859375,0.0636904846099211,NaN,4.20001992442424,0.166101235991424,5000,1.11774969100952,1.11774969100952,1.11774969100952,46556.2675524831,3933.86893391235,50490.1364863954,,,5.99000000953674,1178.23327636719,4394.99509907695,4428.57020056484
2018-07-19T09:00:45Z,1531990845,25F0A,40.9689415,43.9253609,4134.23,16.7,7.4,333.4,540261.38,-103565.06,327.8,Weapon+Missile,Blue,Enemies,R-27ET,,cn,,955.727916741578,777.102783203125,2.94815401418165,4134.2255859375,3146.251953125,947.80645604733,122.795654296875,0.0364658206757017,NaN,3.29231510448623,0.223374640018229,5000,1.05884885787964,1.05884885787964,1.05884885787964,45670.7925419599,4054.2903342334,49725.0828761933,,,6.99000000953674,987.9736328125,5339.54496325165,5381.66673158879
2018-07-19T09:00:46Z,1531990846,25F0A,40.9636866,43.9329241,4256.79,13.7,7.4,333.3,539757.81,-102765.72,327.7,Weapon+Missile,Blue,Enemies,R-27ET,,cn,,952.652837006954,770.13818359375,2.94315077253744,4256.7890625,3317.86651611328,944.735741924858,122.5634765625,0.0454920080131617,NaN,2.87693031992273,0.0504352774299245,5000,0.986933767795563,0.986933767795563,0.986933767795563,45377.37139287,4174.48404597656,49551.8554388465,,,7.99000000953674,938.922546386719,6281.00335032054,6331.68365204945
2018-07-19T09:00:47Z,1531990847,25F0A,40.9584587,43.9404066,4377.92,11.3,7.4,333.3,539257.44,-101975.12,327.7,Weapon+Missile,Blue,Enemies,R-27ET,,cn,,943.450274133519,758.5478515625,2.91912744824156,4377.9189453125,3481.40130615234,935.642010200718,121.1298828125,0.0466349522661106,NaN,2.27691186171545,0.0699411571112504,5000,1.04614746570587,1.04614746570587,1.04614746570587,44504.9209881306,4293.27188250488,48798.1928706355,,,8.99000000953674,896.517639160156,7213.43863823183,7272.57974244569
2018-07-19T09:00:48Z,1531990848,25F0A,40.9532354,43.947881,4499.46,9.3,7.4,333.3,538757.56,-101185.34,327.7,Weapon+Missile,Blue,Enemies,R-27ET,,cn,,942.544318033974,753.420227050781,2.9207625678103,4499.4619140625,3641.88433837891,934.674862294673,121.54296875,0.048781489385595,NaN,1.73841974755165,0.0139882274201861,5000,1.03805613517761,1.03805613517761,1.03805613517761,44419.4895729065,4412.4648179541,48831.9543908606,,,9.99000000953674,857.577575683594,8144.87813387452,8212.55856348698
2018-07-19T09:00:49Z,1531990849,25F0A,40.9482369,43.955034,4616.23,7.7,7.5,333.3,538279.38,-100429.53,327.7,Weapon+Missile,Blue,Enemies,R-27ET,,cn,,901.970209903274,718.328796386719,2.79912984681305,4616.228515625,3694.68078613281,894.380131886045,116.7666015625,0.0583722441299008,NaN,1.53848645016703,0.0504352774299245,5000,1.03523278236389,1.03523278236389,1.03523278236389,40677.5129776478,4526.97373727539,45204.4867149232,,,10.9900000095367,921.547729492188,9036.22571786064,9112.15339873856
2018-07-19T09:00:50Z,1531990850,25F0A,40.9436352,43.961619,4724.08,6.4,7.5,333.3,537839.19,-99733.7,327.7,Weapon+Missile,Blue,Enemies,R-27ET,,cn,,830.405725478458,660.701232910156,2.5805402337742,4724.07958984375,3721.65173339844,823.372221232454,107.85107421875,0.239009423877381,NaN,1.3384438697557,1.12131332997976,5000,2.86803841590881,2.86803841590881,2.86803841590881,34478.6834453702,4632.73951097412,39111.4229563443,,,11.9900000095367,1002.42785644531,9856.78744449131,9940.36822098091
2018-07-19T09:00:51Z,1531990851,25F0A,40.9397303,43.9677622,4810.05,5.2,5,338.5,537459.69,-99081.52,332.9,Weapon+Missile,Blue,Enemies,R-27ET,,cn,,759.439794190977,605.023132324219,2.36256974646519,4810.0458984375,3793.22021484375,754.558542982317,85.96630859375,0.463993742075054,NaN,1.15386483762527,3.38054514030692,5000,5.47626113891602,5.47626113891602,5.47626113891602,28837.4400500417,4717.04366099121,33554.4837110329,,,12.9900000095367,1016.82568359375,10608.8251259308,10697.8618540713
2018-07-19T09:00:52Z,1531990852,25F0A,40.9366591,43.9736237,4864.51,4.1,3.8,340.3,537150.19,-98454.16,334.7,Weapon+Missile,Blue,Enemies,R-27ET,,cn,,701.667025142425,560.615417480469,2.18434530104931,4864.51220703125,3785.52368164062,699.549880566347,54.46630859375,0.1574484031776,NaN,1.09228385206844,3.88069620100827,5000,3.38666677474976,3.38666677474976,3.38666677474976,24616.830708611,4770.4568635083,29387.2875721193,,,13.9900000095367,1078.98852539062,11306.1781261341,11397.8659271207
2018-07-19T09:00:53Z,1531990853,25F0A,40.9341304,43.9791671,4890.17,2.5,0.5,343.3,536887.69,-97857.91,337.7,Weapon+Missile,Blue,Enemies,R-27ET,,cn,,651.98039111262,523.188049316406,2.03032565589901,4890.166015625,3849.75231933594,651.475488794475,25.65380859375,0.107055792858547,NaN,1.53848645016703,3.86943962236927,5000,4.23496055603027,4.23496055603027,4.23496055603027,21253.9215197682,4795.61465571289,26049.5361754811,,,14.9900000095367,1040.41369628906,11955.6636979354,12048.3542196415
2018-07-19T09:00:54Z,1531990854,25F0A,40.9320914,43.9844117,4875.14,0.7,-4,345.8,536667.75,-97291.05,340.2,Weapon+Missile,Blue,Enemies,R-27ET,,cn,,608.224221715367,491.108215332031,1.89370494479717,4875.1396484375,3881.31762695312,608.038577863617,-15.0263671875,0.126732531425608,NaN,1.93846232796298,5.20713686707132,5000,5.31403684616089,5.31403684616089,5.31403684616089,18496.8351940632,4780.87882333496,23277.7140173981,,,15.9900000095367,993.822021484375,12561.9021570547,12655.2428247946
2018-07-19T09:00:55Z,1531990855,25F0A,40.93052,43.9893029,4808.82,-1.3,-10,348.3,536489.12,-96759.83,342.7,Weapon+Missile,Blue,Enemies,R-27ET,,cn,,564.35620172926,459.797271728516,1.75564980387289,4808.82470703125,3799.6708984375,560.446474675827,-66.31494140625,0.122427832525259,NaN,2.10768709483921,6.50727575530112,4606.66382991801,5.86853504180908,5.86853504180908,5.86853504180908,15924.8961215138,4715.8460813208,20640.7422028346,,,16.9900000095367,1009.15380859375,13120.7407172836,13218.4235734358
2018-07-19T09:00:56Z,1531990856,25F0A,40.929355,43.9937793,4688.16,-3.3,-17,350.6,536347.56,-96271.53,345,Weapon+Missile,Blue,Enemies,R-27ET,,cn,,522.526731092269,430.537689208984,1.62305153662535,4688.158203125,3729.27697753906,508.403166336536,-120.66650390625,0.135829182502609,NaN,1.90769915594124,7.18397674732013,4155.16623287889,5.56941223144531,5.56941223144531,5.56941223144531,13651.7092352986,4597.51266426758,18249.2218995662,,,17.9900000095367,958.881225585938,13627.7125903722,13739.9249911297
2018-07-19T09:00:57Z,1531990857,25F0A,40.9285207,43.9978234,4519.78,-5,-23.3,352.6,536237.19,-95828.7,347.1,Weapon+Missile,Blue,Enemies,R-27ET,,cn,,486.453601600566,405.741058349609,1.50780959899978,4519.78125,3598.43975830078,456.383948191108,-168.376953125,0.387178226809628,NaN,1.55384071542122,6.12138842332879,5000,3.7223858833313,3.7223858833313,3.7223858833313,11831.8553255081,4432.39127953125,16264.2466050394,,,18.9900000095367,921.341491699219,14082.8374490638,14225.5056574862
2018-07-19T09:00:58Z,1531990858,25F0A,40.9280662,44.0015462,4330.5,-7.7,-25.1,357.8,536160.75,-95418.61,352.2,Weapon+Missile,Blue,Enemies,R-27ET,,cn,,458.084177504664,386.478759765625,1.41651835495237,4330.49853515625,3395.54125976562,417.148855375996,-189.28271484375,0.23961380711222,NaN,2.76923189708997,4.61948574701682,5000,3.20723557472229,3.20723557472229,3.20723557472229,10492.0556840062,4246.768345979,14738.8240299852,,,19.9900000095367,934.957275390625,14498.8482368841,14682.8164372872
2018-07-19T09:00:59Z,1531990859,25F0A,40.9280135,44.0050115,4140.61,-8.6,-27.2,1,536119.25,-95034.01,355.4,Weapon+Missile,Blue,Enemies,R-27ET,,cn,,430.926633281781,367.414520263672,1.32939386725184,4140.611328125,3238.16369628906,386.834088308465,-189.88720703125,0.127749096870705,NaN,0.769243225083516,3.74148157779778,5000,2.03713917732239,2.03713917732239,2.03713917732239,9284.88816357851,4060.5526080957,13345.4407716742,,,20.9900000095367,902.447631835938,14884.6293773337,15113.027977949
2018-07-19T09:01:00Z,1531990860,25F0A,40.9282022,44.0082577,3950.6,-9.3,-27.9,4.1,536099.44,-94671.9,358.5,Weapon+Missile,Blue,Enemies,R-27ET,,cn,,409.415011667571,352.245330810547,1.26006129618116,3950.59838867188,3099.69030761719,362.650981825695,-190.012939453125,0.0750987882875179,NaN,0.738480053061779,2.81650598421316,5000,1.9317182302475,1.9317182302475,1.9317182302475,8381.03258893788,3874.2135688269,12255.2461577648,,,21.9900000095367,850.908081054688,15246.3130254594,15521.7894990382
2018-07-19T09:01:01Z,1531990861,25F0A,40.9285988,44.0113389,3766.39,-9.5,-28.4,6.6,536098.12,-94326.49,1,Weapon+Missile,Blue,Enemies,R-27ET,,cn,,391.459806037931,339.408172607422,1.20206639605505,3766.3876953125,2952.22106933594,345.408743657876,-184.210693359375,0.0614995411181939,NaN,0,2.24589255759984,5000,1.36465013027191,1.36465013027191,1.36465013027191,7662.03898716271,3693.56458922363,11355.6035763863,,,22.9900000095367,814.166625976562,15590.7699047851,15912.5934414507
2018-07-19T09:01:02Z,1531990862,25F0A,40.9291234,44.0142421,3587.84,-9.1,-29,8.4,536109,-93999.88,2.8,Weapon+Missile,Blue,Enemies,R-27ET,,cn,,372.387691119629,324.954711914062,1.14099709244705,3587.83618164062,2784.54364013672,326.790375413491,-178.551513671875,0.0151784850560127,NaN,0.369263932192984,1.75198781161617,5000,1.10153234004974,1.10153234004974,1.10153234004974,6933.62962487042,3518.4653690686,10452.094993939,,,23.9900000095367,803.292541503906,15916.6705863801,16284.365411908
2018-07-19T09:01:03Z,1531990863,25F0A,40.9297368,44.016983,3414.36,-8.8,-29.5,10.1,536128.69,-93690.59,4.5,Weapon+Missile,Blue,Enemies,R-27ET,,cn,,355.164915527748,311.586334228516,1.08592104425284,3414.35766601562,2613.71765136719,309.91502357643,-173.478515625,0.0426329487859454,NaN,0.323112343971208,1.63106400811615,5000,1.15841865539551,1.15841865539551,1.15841865539551,6307.10586109161,3348.34106054321,9655.44692163483,,,24.9900000095367,800.640014648438,16225.7164517857,16638.9200978853
2018-07-19T09:01:04Z,1531990864,25F0A,40.9304364,44.0195859,3246,-8.7,-29.8,12.1,536156.81,-93395.98,6.5,Weapon+Missile,Blue,Enemies,R-27ET,,cn,,340.485797961209,300.152160644531,1.03890793312858,3245.99829101562,2450.55133056641,295.948812234296,-168.359375,0.0534534046932438,NaN,0,1.73790609598172,5000,1.37750804424286,1.37750804424286,1.37750804424286,5796.52893066406,3183.23691405884,8979.7658447229,,,25.9900000095367,795.446960449219,16520.8328800596,16978.8164887633
2018-07-19T09:01:05Z,1531990865,25F0A,40.9312335,44.0220473,3084.87,-9.1,-29.5,14.5,536194.25,-93116.34,9,Weapon+Missile,Blue,Enemies,R-27ET,,cn,,324.909826452911,287.653106689453,0.989446743637544,3084.87231445312,2295.78552246094,282.143252626111,-161.1259765625,0.039933506142857,NaN,0.523083207396256,2.30162924910467,5000,2.01199817657471,2.01199817657471,2.01199817657471,5278.31976628304,3025.22630825317,8303.54607453621,,,26.9900000095367,789.086791992188,16802.1595056528,17303.1385944324
2018-07-19T09:01:06Z,1531990866,25F0A,40.9321712,44.0243753,2935.74,-10.1,-27.7,17.7,536244.31,-92850.41,12.2,Weapon+Missile,Blue,Enemies,R-27ET,,cn,,308.974598837807,274.588684082031,0.939225710458963,2935.73999023438,2152.84735107422,270.600910198206,-149.13232421875,0.766880399052607,NaN,0.84617847589454,2.1056672798356,5000,2.35377955436707,2.35377955436707,2.35377955436707,4773.2651363492,2878.97745752319,7652.24259387239,,,27.9900000095367,782.892639160156,17071.9660784742,17611.5292040837
2018-07-19T09:01:07Z,1531990867,25F0A,40.9330475,44.0266373,2807.19,-5.9,-24.3,13.6,536290.25,-92592.29,8,Weapon+Missile,Blue,Enemies,R-27ET,,cn,,291.99289621988,260.282501220703,0.886231808155919,2807.18994140625,2035.32989501953,262.173103863001,-128.550048828125,0.15591726857986,NaN,3.64614451670227,3.78934925104852,3429.15256883902,3.22487664222717,3.22487664222717,3.22487664222717,4262.99257214367,2752.91292388916,7015.90549603283,,,28.9900000095367,771.860046386719,17333.3570901033,17902.9256874427
2018-07-19T09:01:08Z,1531990868,25F0A,40.9337182,44.0288873,2701.23,-3.6,-20.3,11,536319.81,-92337.11,5.4,Weapon+Missile,Blue,Enemies,R-27ET,,cn,,277.881499277523,248.36279296875,0.842329885757654,2701.22998046875,1945.17169189453,256.886384066668,-105.9599609375,0.134243625459274,NaN,1.80000969773177,4.63710763507545,3497.88013116007,3.10063362121582,3.10063362121582,3.10063362121582,3860.90638203621,2649.00169879639,6509.9080808326,,,29.9900000095367,756.058288574219,17589.5109026868,18180.2323207141
2018-07-19T09:01:09Z,1531990869,25F0A,40.9342866,44.0311135,2618.39,-2.9,-15.9,10.4,536341.44,-92085.36,4.8,Weapon+Missile,Blue,Enemies,R-27ET,,cn,,265.909191086298,238.156021118164,0.805239354629698,2618.39282226562,1867.53820800781,252.677072812315,-82.837158203125,0.12708445013128,NaN,0.29234490308124,4.32194178931673,3557.24646182966,2.93291783332825,2.93291783332825,2.93291783332825,3535.38489520848,2567.76619704712,6103.1510922556,,,30.9900000095367,750.854614257812,17841.4710222239,18445.5601477163
2018-07-19T09:01:10Z,1531990870,25F0A,40.93487,44.0332662,2557.76,-3.3,-12,12.1,536365,-91841.67,6.6,Weapon+Missile,Blue,Enemies,R-27ET,,cn,,252.219278652987,226.120910644531,0.763229354712206,2557.7646484375,1806.60998535156,244.823996092091,-60.628173828125,0.133875976572197,NaN,0.569200644672183,4.09513212443494,3484.63793759341,2.67490887641907,2.67490887641907,2.67490887641907,3180.72822621167,2508.31026895996,5689.03849517163,,,31.9900000095367,751.154663085938,18085.617604399,18697.2180766383
2018-07-19T09:01:11Z,1531990871,25F0A,40.9355611,44.0353313,2513.5,-3.9,-9.3,15.3,536398.19,-91606.86,9.7,Weapon+Missile,Blue,Enemies,R-27ET,,cn,,241.242220802099,216.428817749023,0.729626345559033,2513.49853515625,1765.55572509766,237.146200291086,-44.26611328125,0.0866574989869751,NaN,0.569255286185543,4.0224550696846,3455.01569067734,2.37181234359741,2.37181234359741,2.37181234359741,2909.89045487642,2464.900040979,5374.79049585543,,,32.9900000095367,747.942810058594,18322.0641087422,18937.8649106268
2018-07-19T09:01:12Z,1531990872,25F0A,40.9363853,44.0372802,2480.05,-4.2,-7.5,18.9,536443.25,-91383.94,13.3,Weapon+Missile,Blue,Enemies,R-27ET,,cn,,229.877377812034,206.279846191406,0.694976460698113,2480.0498046875,1729.47485351562,227.430849402111,-33.44873046875,0.0786192965581349,NaN,0.276923189708997,3.93545297381062,3445.5749956533,2.113605260849,2.113605260849,2.113605260849,2642.18044148684,2432.09804171387,5074.2784832007,,,33.9900000095367,750.574951171875,18548.8183294298,19167.1606969736
2018-07-19T09:01:13Z,1531990873,25F0A,40.9373388,44.0391164,2453.37,-4.2,-6.5,21.9,536499.94,-91172.52,16.3,Weapon+Missile,Blue,Enemies,R-27ET,,cn,,220.501675298954,197.90559387207,0.66641938232704,2453.37377929688,1702.74645996094,218.882110915908,-26.676025390625,0.242382049440313,NaN,0.230755379787942,2.79935345821655,5000,1.41821527481079,1.41821527481079,1.41821527481079,2431.04944048226,2405.93779727417,4836.98723775643,,,34.9900000095367,750.627319335938,18766.9991809092,19387.050036746
2018-07-19T09:01:14Z,1531990874,25F0A,40.9383368,44.0408562,2429.8,-3.9,-6,24.1,536561.19,-90971.48,18.5,Weapon+Missile,Blue,Enemies,R-27ET,,cn,,211.487839353699,189.841552734375,0.638997460756004,2429.80053710938,1675.79504394531,210.169951342397,-23.5732421875,0.0664169200799675,NaN,0,2.63300035899948,3651.28328182307,1.75866961479187,1.75866961479187,1.75866961479187,2236.35530972481,2382.82034372437,4619.17565344917,,,35.9900000095367,754.005493164062,18976.4946853165,19597.9473387166
2018-07-19T09:01:15Z,1531990875,25F0A,40.9394261,44.0424871,2410.09,-4,-5.1,27.6,536630.88,-90781.81,22,Weapon+Missile,Blue,Enemies,R-27ET,,cn,,203.020101759476,182.250152587891,0.613268758105488,2410.09375,1656.07818603516,202.061387356055,-19.706787109375,0.0859086161501203,NaN,0.138461594854498,3.50267767384663,3334.99122062892,1.76988506317139,1.76988506317139,1.76988506317139,2060.85808592141,2363.49458734375,4424.35267326516,,,36.9900000095367,754.015563964844,19177.8896772398,19800.3802510485
2018-07-19T09:01:16Z,1531990876,25F0A,40.9405995,44.0440082,2394.11,-3.9,-4.3,30.8,536708.56,-90603.71,25.2,Weapon+Missile,Blue,Enemies,R-27ET,,cn,,194.964276477376,175.010711669922,0.5888222197291,2394.10766601562,1641.19665527344,194.307782194104,-15.986083984375,0.0338242893896171,NaN,0,3.38182131846466,3380.27837304909,1.68014574050903,1.68014574050903,1.68014574050903,1900.55345511735,2347.81759429321,4248.37104941056,,,37.9900000095367,752.911010742188,19371.5018816286,19994.7239703023
2018-07-19T09:01:17Z,1531990877,25F0A,40.941842,44.0454241,2381.44,-3.8,-3.4,34,536792.81,-90436.74,28.4,Weapon+Missile,Blue,Enemies,R-27ET,,cn,,187.448869475494,168.244659423828,0.566039194225719,2381.44067382812,1633.67016601562,187.020389200115,-12.6669921875,0.0704330183174348,NaN,0.184655017984941,3.26640969106825,3305.524785183,1.62776100635529,1.62776100635529,1.62776100635529,1756.85393338203,2335.39551839966,4092.24945178169,,,38.9900000095367,747.7705078125,19557.8609285534,20181.5826210069
2018-07-19T09:01:18Z,1531990878,25F0A,40.9431396,44.0467383,2371.75,-3.6,-2.8,36.9,536882.69,-90280.64,31.4,Weapon+Missile,Blue,Enemies,R-27ET,,cn,,180.386090171153,161.874694824219,0.544648919223315,2371.7490234375,1628.68969726562,180.125549103789,-9.691650390625,0.488453670044559,NaN,0.292289834681056,2.29192803260572,5000,0.78214305639267,0.78214305639267,0.78214305639267,1626.95707636178,2325.89125606934,3952.84833243111,,,39.9900000095367,743.059326171875,19737.2564734621,20361.30651397
2018-07-19T09:01:19Z,1531990879,25F0A,40.9444344,44.0479788,2358.65,-1.7,-6,37,536973.06,-90132.75,31.4,Weapon+Missile,Blue,Enemies,R-27ET,,cn,,173.812544445813,155.981399536133,0.524719331212492,2358.65234375,1620.26129150391,173.318428298582,-13.0966796875,0.0812665016545725,NaN,1.73846606477195,2.43180582449594,3046.37697396376,0.00131115177646279,0.00131115177646279,0.00131115177646279,1510.54003033638,2313.04780068359,3823.58783101997,,,40.9900000095367,738.391052246094,19909.8895389805,20534.4994857459
2018-07-19T09:01:20Z,1531990880,25F0A,40.9456809,44.049173,2336.42,-0.1,-9.3,37,537060.06,-89990.39,31.4,Weapon+Missile,Blue,Enemies,R-27ET,,cn,,168.313612737706,151.134765625,0.507984418181365,2336.419921875,1601.24725341797,166.83881937484,-22.232421875,0.0648631633808309,NaN,1.53847812587398,3.27691388168149,2926.24581898145,0.0145142860710621,0.0145142860710621,0.0145142860710621,1416.47361164093,2291.24524268555,3707.71885432648,,,41.9900000095367,735.172668457031,20076.0772875616,20702.2283816665
2018-07-19T09:01:21Z,1531990881,25F0A,40.9468791,44.0503201,2305.59,1.1,-12.6,37.1,537143.69,-89853.62,31.5,Weapon+Missile,Blue,Enemies,R-27ET,,cn,,163.24340816643,146.73600769043,0.492501679073753,2305.5908203125,1571.87640380859,160.305885127904,-30.8291015625,0.0605249448774508,NaN,1.13846169382984,3.27731771661617,2850.75005993002,0.0361487790942192,0.0361487790942192,0.0361487790942192,1332.42051548958,2261.01222180176,3593.43273729134,,,42.9900000095367,733.714416503906,20235.7568993022,20864.9138832734
2018-07-19T09:01:22Z,1531990882,25F0A,40.9480405,44.0514302,2266.4,2.2,-15.9,37.1,537224.81,-89721.26,31.5,Weapon+Missile,Blue,Enemies,R-27ET,,cn,,160.118580555492,144.160598754883,0.482849454991125,2266.40380859375,1533.11993408203,155.249276815257,-39.18701171875,0.0547844552524043,NaN,1.06153818240645,3.27834971551108,2805.38945660172,0.0414211116731167,0.0414211116731167,0.0414211116731167,1281.89799195528,2222.58289095459,3504.48088290987,,,43.9900000095367,733.283874511719,20390.3638064134,21024.4634213927
2018-07-19T09:01:23Z,1531990883,25F0A,40.949162,44.0524996,2219.4,3.1,-19.1,37.2,537303.12,-89593.72,31.6,Weapon+Missile,Blue,Enemies,R-27ET,,cn,,156.871173359831,141.519073486328,0.472793010251431,2219.3984375,1485.40270996094,149.66315551808,-47.00537109375,0.0809478053516995,NaN,0.923077441325598,3.22826159044985,2774.54903720678,0.0583325810730457,0.0583325810730457,0.0583325810730457,1230.4282515645,2176.48636871094,3406.91462027544,,,44.9900000095367,733.995727539062,20539.4356248987,21180.8205253196
2018-07-19T09:01:24Z,1531990884,25F0A,40.9502454,44.0535288,2164.97,3.8,-22.3,37.3,537378.88,-89470.95,31.7,Weapon+Missile,Blue,Enemies,R-27ET,,cn,,154.183086467397,139.428604125977,0.464391866204823,2164.96533203125,1428.78973388672,144.254848035138,-54.43310546875,0.0504005367668591,NaN,0.769229991591999,3.19753320970419,2779.62444094722,0.064875528216362,0.064875528216362,0.064875528216362,1188.62120763063,2123.10572733643,3311.72693496706,,,45.9900000095367,736.175598144531,20683.1070678943,21334.5040898362
2018-07-19T09:01:25Z,1531990885,25F0A,40.9512969,44.0545225,2103.29,4.2,-25.5,37.5,537452.38,-89352.37,31.9,Weapon+Missile,Blue,Enemies,R-27ET,,cn,,152.542447171337,138.336212158203,0.459115234131847,2103.2861328125,1362.17846679688,139.51657454494,-61.67919921875,0.0753125864345878,NaN,0.492307228769825,3.18007055043059,2817.47382162841,0.0775498524308205,0.0775498524308205,0.0775498524308205,1163.45990945101,2062.61909543457,3226.07900488558,,,46.9900000095367,741.107666015625,20822.0749396056,21486.5873525212
2018-07-19T09:01:26Z,1531990886,25F0A,40.9523162,44.0554797,2034.8,4.6,-28.5,37.7,537523.69,-89238.07,32.1,Weapon+Missile,Blue,Enemies,R-27ET,,cn,,151.129172321967,137.490386962891,0.454493815104182,2034.796875,1285.51171875,134.71914597048,-68.4892578125,0.079407177863876,NaN,0.369230635020781,3.06291573069194,2855.22494356273,0.085937388241291,0.085937388241291,0.085937388241291,1142.00133633614,1995.45407742187,3137.45541375801,,,47.9900000095367,749.28515625,20956.2562360019,21637.276044475
2018-07-19T09:01:27Z,1531990887,25F0A,40.9533104,44.0564063,1959.37,4.9,-31.5,37.9,537593.38,-89127.4,32.3,Weapon+Missile,Blue,Enemies,R-27ET,,cn,,150.977035258985,137.846130371094,0.453632652353529,1959.36840820312,1195.87145996094,130.784599904827,-75.428466796875,0.0761785849211504,NaN,0.199999891729021,2.98198759398081,2941.38151693663,0.0811844244599342,0.0811844244599342,0.0811844244599342,1139.70325877965,1921.48402003052,3061.18727881016,,,48.9900000095367,763.496948242188,21086.5115340374,21787.8300971828
2018-07-19T09:01:28Z,1531990888,25F0A,40.9542786,44.0573006,1877.43,5,-34.4,38.2,537661.25,-89020.51,32.6,Weapon+Missile,Blue,Enemies,R-27ET,,cn,,150.821203421002,138.240631103516,0.45272761067359,1877.42687988281,1092.57763671875,126.619987908271,-81.9415283203125,0.047783971532507,NaN,0,2.88459208462419,3059.37651187686,0.0964804962277412,0.0964804962277412,0.0964804962277412,1137.35177006796,1841.12683116028,2978.47860122824,,,49.9900000095367,784.849243164062,21212.6392879666,21938.2701033787
2018-07-19T09:01:29Z,1531990889,25F0A,40.9552183,44.0581597,1789.59,5.1,-37.1,38.5,537727.25,-88917.74,32.9,Weapon+Missile,Blue,Enemies,R-27ET,,cn,,150.439180543102,138.464141845703,0.451115210541308,1789.5908203125,982.835571289062,122.134244508412,-87.8360595703125,0.040902604823453,NaN,0,2.73807385475684,3287.40112122071,0.120087131857872,0.120087131857872,0.120087131857872,1131.59735212401,1754.98908180176,2886.58643392576,,,50.9900000095367,806.755249023438,21334.2835334723,22088.3401022273
2018-07-19T09:01:30Z,1531990890,25F0A,40.956137,44.0589905,1695.78,4.8,-39.1,38.8,537791.94,-88818.27,33.2,Weapon+Missile,Blue,Enemies,R-27ET,,cn,,151.25947064648,139.846527099609,0.453076511091768,1695.77758789062,869.233459472656,118.652875577512,-93.813232421875,0.130141463805546,NaN,0.584609551439731,1.64051901763986,5000,0.604558169841766,0.604558169841766,0.604558169841766,1143.97137301266,1662.98972822876,2806.96110124142,,,51.9900000095367,826.544128417969,21452.4210974259,22239.2209632853
2018-07-19T09:01:31Z,1531990891,25F0A,40.957056,44.0598138,1600.36,3.7,-38.9,39,537856.62,-88719.66,33.4,Weapon+Missile,Blue,Enemies,R-27ET,,cn,,151.7011634259,140.892181396484,0.453892742840166,1600.35766601562,762.58935546875,117.933377354083,-95.419921875,0.0163249723005602,NaN,0.969231163981489,0.267062557662041,5000,0.82473623752594,0.82473623752594,0.82473623752594,1150.66214923859,1569.41475054321,2720.0768997818,,,52.9900000095367,837.768310546875,21569.9069228399,22390.598024782
2018-07-19T09:01:32Z,1531990892,25F0A,40.9579862,44.0606417,1504.68,3,-38.8,39.1,537922.25,-88620.45,33.5,Weapon+Missile,Blue,Enemies,R-27ET,,cn,,152.65996960786,142.430633544922,0.456251845031415,1504.68078613281,661.8515625,118.957979877613,-95.6768798828125,0.0158321555711089,NaN,0.769243225083516,0.19026081570495,5000,0.811161875724792,0.811161875724792,0.811161875724792,1165.25331603363,1475.58778313293,2640.84109916657,,,53.9900000095367,842.829223632812,21688.3578145783,22542.8856158256
2018-07-19T09:01:33Z,1531990893,25F0A,40.9589227,44.0614705,1409.09,2.3,-38.6,39.3,537988.31,-88521.06,33.7,Weapon+Missile,Blue,Enemies,R-27ET,,cn,,152.901282711025,143.299072265625,0.456464744954655,1409.08996582031,561.312133789062,119.336487826063,-95.5908203125,0.0299061136068263,NaN,0.569200644672183,0.127438923514141,5000,0.808022797107697,0.808022797107697,0.808022797107697,1168.94011273384,1381.84521133118,2550.78532406502,,,54.9900000095367,847.77783203125,21807.2045646716,22695.4261294376
2018-07-19T09:01:34Z,1531990894,25F0A,40.9598624,44.0622988,1313.75,1.8,-38.6,39.4,538054.62,-88421.73,33.8,Weapon+Missile,Blue,Enemies,R-27ET,,cn,,152.823844586078,143.867523193359,0.455728520180851,1313.74768066406,461.523986816406,119.436075518471,-95.34228515625,0.0457138093069577,NaN,0.430793691331044,0.12705448524949,5000,0.803225934505463,0.803225934505463,0.803225934505463,1167.75637370348,1288.34636925842,2456.1027429619,,,55.9900000095367,852.223693847656,21926.1619931049,22847.8960044718
2018-07-19T09:01:35Z,1531990895,25F0A,40.9608127,44.0631338,1217.75,1.4,-38.5,39.5,538121.75,-88321.55,33.9,Weapon+Missile,Blue,Enemies,R-27ET,,cn,,154.131643651946,145.759033203125,0.459117301454158,1217.75378417969,360.983154296875,120.589118135086,-95.993896484375,0.0407132199299923,NaN,0.399975877795947,0.0927874461938555,5000,0.800235211849213,0.800235211849213,0.800235211849213,1187.82817874253,1194.20851476257,2382.0366935051,,,56.9900000095367,856.770629882812,22046.2468210365,23001.6520388724
2018-07-19T09:01:36Z,1531990896,25F0A,40.9617634,44.0639669,1122.09,1.1,-38.4,39.5,538188.94,-88221.58,33.9,Weapon+Missile,Blue,Enemies,R-27ET,,cn,,153.81637518778,146.108337402344,0.457671546651722,1122.08996582031,263.18115234375,120.448790499583,-95.663818359375,0.0434212262519087,NaN,0.353858440520021,0.064102125773363,5000,0.792542457580566,0.792542457580566,0.792542457580566,1182.9738637954,1100.39435633118,2283.36822012658,,,57.9900000095367,858.908813476562,22166.1751265957,23155.0783778253
2018-07-19T09:01:37Z,1531990897,25F0A,40.9627151,44.0647993,1026.58,0.9,-38.4,39.6,538256.12,-88121.68,34,Weapon+Missile,Blue,Enemies,R-27ET,,cn,,153.673149896452,146.620941162109,0.456741707760798,1026.5830078125,170.1181640625,120.390439700133,-95.5069580078125,0.0244762309761088,NaN,0.199987938897973,0.064102125773363,5000,0.797102689743042,0.797102689743042,0.797102689743042,1180.77184995487,1006.73402535645,2187.50587531132,,,58.9900000095367,856.46484375,22286.1053563471,23308.4070603667
2018-07-19T09:01:38Z,1531990898,25F0A,40.9636735,44.0656363,930.62,0.7,-38.4,39.6,538323.88,-88021.22,34,Weapon+Missile,Blue,Enemies,R-27ET,,cn,,154.566414743001,148.134857177734,0.458889308023478,930.623046875,78.5989990234375,121.171211363834,-95.9599609375,0.22735489004604,NaN,0.199987938897973,0.650729731308569,5000,0.469329625368118,0.469329625368118,0.469329625368118,1194.53882832527,912.629450263672,2107.16827858894,,,59.9900000095367,852.024047851562,22406.7588364318,23462.5824272973
