ISOTime,UnixTime,Id,Longitude,Latitude,Altitude,Roll,Pitch,Yaw,U,V,Heading,Type,Color,Coalition,Name,Group,Country,Pilot,TAS,CAS,M,ASL,AGL,GS,VS,AOA,AOS,RRT,TRT,TRD,G,LatG,LonG,Ek,Ep,Em,FFW,FFV,RelativeTime,Elev,GroundDistance,AirDistance
2018-07-19T09:01:15Z,1531990875,27C0B,41.1561156,43.820504,2529.2,11.8,2.5,317.5,556449.06,-113738.2,311.8,Weapon+Missile,Blue,Enemies,R-77,,cn,,306.467719783415,276.955047607422,0.927071702786219,2529.19750976562,1264.38452148438,NaN,NaN,NaN,NaN,NaN,NaN,NaN,NaN,NaN,NaN,NaN,2480.29547591431,NaN,,,0.200000047683716,1264.81298828125,NaN,NaN
2018-07-19T09:01:16Z,1531990876,27C0B,41.1534636,43.8225793,2527.43,8.8,0.6,317.5,556212.81,-113528.8,311.8,Weapon+Missile,Blue,Enemies,R-77,,cn,,315.702635439064,285.659271240234,0.954987405984849,2527.43286132812,1301.20593261719,315.69770356951,-1.7646484375,2.64336897942527,NaN,3.72310879581727,0.755686671298332,5000,0.630976498126984,0.630976498126984,0.630976498126984,4983.40770115852,2478.56494695435,7461.97264811287,,,1.20000004768372,1226.22692871094,314.226722124278,314.356235658131
2018-07-19T09:01:17Z,1531990877,27C0B,41.149959,43.8253208,2510.72,6.6,-0.7,317.3,555900.69,-113252.15,311.6,Weapon+Missile,Blue,Enemies,R-77,,cn,,417.415434965974,379.675445556641,1.26241253325099,2510.72143554688,1367.86242675781,417.080775865049,-16.71142578125,0.602084282932303,NaN,1.53843180865367,1.49599488284503,5000,2.07576870918274,2.07576870918274,2.07576870918274,8711.78226739168,2462.17663659058,11173.9589039823,,,2.20000004768372,1142.85900878906,729.392046726919,730.021601132719
2018-07-19T09:01:18Z,1531990878,27C0B,41.1453867,43.8288947,2503.03,5.4,-1.1,317.2,555493.56,-112891.54,311.5,Weapon+Missile,Blue,Enemies,R-77,,cn,,543.920116860435,488.711517333984,1.64485656496488,2503.02685546875,1233.50903320312,543.865688348595,-7.694580078125,0.0318242247842627,NaN,1.13845593085773,0.453275098901583,5000,0.352685332298279,0.352685332298279,0.352685332298279,14792.4546762735,2454.63083121826,17247.0855074917,,,3.20000004768372,1269.51782226562,1270.78588364475,1271.68288394587
2018-07-19T09:01:19Z,1531990879,27C0B,41.1397529,43.833291,2486.63,4,-1.8,317.2,554992,-112447.98,311.5,Weapon+Missile,Blue,Enemies,R-77,,cn,,669.762356088498,595.889526367188,2.02501694882431,2486.62622070312,1188.63452148438,669.561522798689,-16.400634765625,0.0536938273310042,NaN,1.3384438697557,0.671158773755224,5000,0.149907693266869,0.149907693266869,0.149907693266869,22429.0806816608,2438.54730272583,24867.6279843866,,,4.20000004768372,1297.99169921875,1937.26690727289,1938.62628593597
2018-07-19T09:01:20Z,1531990880,27C0B,41.1330874,43.8385064,2457.38,3,-2.4,317.3,554398.56,-111921.59,311.6,Weapon+Missile,Blue,Enemies,R-77,,cn,,793.789821036824,702.452819824219,2.39917535003091,2457.3798828125,1381.39050292969,793.250863032408,-29.246337890625,0.0490689762142555,NaN,0.969231163981489,0.611986603819582,5000,0.321063697338104,0.321063697338104,0.321063697338104,31505.1139990836,2409.86644277832,33914.980441862,,,5.20000004768372,1075.98937988281,2726.9053094715,2729.11194416006
2018-07-19T09:01:21Z,1531990881,27C0B,41.1254595,43.8445054,2415.52,2.3,-2.8,317.5,553719.19,-111315.77,311.8,Weapon+Missile,Blue,Enemies,R-77,,cn,,911.219317482059,804.711853027344,2.75272479821343,2415.52294921875,1365.09643554688,910.257458998605,-41.85693359375,0.0464569790894859,NaN,0.630781630229018,0.467094706026634,5000,0.562905430793762,0.562905430793762,0.562905430793762,41516.0322276235,2368.81881299561,43884.8510406191,,,6.20000004768372,1050.42651367188,3633.02529596075,3636.54394614131
2018-07-19T09:01:22Z,1531990882,27C0B,41.1169698,43.8512306,2362.75,1.7,-3.1,317.8,552962.69,-110636.05,312.1,Weapon+Missile,Blue,Enemies,R-77,,cn,,1018.38377404688,899.461608886719,3.07452889810318,2362.74926757812,1137.02758789062,1017.01546191199,-52.773681640625,0.0366673519951213,NaN,0.60001845820728,0.468140845547557,5000,0.804517567157745,0.804517567157745,0.804517567157745,51855.2755620986,2317.0655104895,54172.3410725881,,,7.20000004768372,1225.7216796875,4645.45053689276,4650.72241700136
2018-07-19T09:01:23Z,1531990883,27C0B,41.1088837,43.85772,2306.76,1.2,-3.4,318.3,552241.38,-109979.23,312.6,Weapon+Missile,Blue,Enemies,R-77,,cn,,977.153569193664,865.993103027344,2.94809123683227,2306.7607421875,1266.97180175781,975.548247301229,-55.988525390625,0.0352979431005763,NaN,0.553846379417994,0.579129231765295,5000,1.01762783527374,1.01762783527374,1.01762783527374,47741.4548893958,2262.1595232373,50003.6144126331,,,8.20000004768372,1039.78894042969,5616.62653279386,5623.86586568798
2018-07-19T09:01:24Z,1531990884,27C0B,41.1015633,43.8637051,2250.73,0.8,-3.8,318.8,551587.25,-109372.34,313.1,Weapon+Missile,Blue,Enemies,R-77,,cn,,894.06048762296,795.957641601562,2.69560453516315,2250.73461914062,1057.4609375,892.303327946804,-56.026123046875,0.0397948093773742,NaN,0.399975877795947,0.742583556009928,5000,1.26472914218903,1.26472914218903,1.26472914218903,39967.2077764303,2207.21666527954,42174.4244417098,,,9.20000004768372,1193.27368164062,6504.95444884023,6514.27553748703
2018-07-19T09:01:25Z,1531990885,27C0B,41.0949484,43.8692743,2188.25,-0.4,-5.4,320.2,550994.5,-108806,314.5,Weapon+Missile,Blue,Enemies,R-77,,cn,,822.188404448456,735.675109863281,2.47707377435068,2188.24609375,1019.2734375,819.810317453985,-62.488525390625,0.282100926242091,NaN,1.72306548229746,1.34597735496681,5000,1.63767051696777,1.63767051696777,1.63767051696777,33799.6886204749,2145.93635552734,35945.6249760023,,,10.2000000476837,1168.97265625,7321.16076289845,7333.15360689355
2018-07-19T09:01:26Z,1531990886,27C0B,41.0889991,43.8744639,2114.87,-0.5,-5.6,320.4,550459.5,-108276.53,314.7,Weapon+Missile,Blue,Enemies,R-77,,cn,,756.270957550456,680.658203125,2.27650133469106,2114.873046875,980.457397460938,752.703233171323,-73.373046875,0.050651662400213,NaN,0,0.926806617890719,5000,0.925077319145203,0.925077319145203,0.925077319145203,28597.2880617142,2073.98197651367,30671.2700382278,,,11.2000000476837,1134.41564941406,8070.61505741384,8086.44263220818
2018-07-19T09:01:27Z,1531990887,27C0B,41.0834831,43.8792813,2046.13,-0.4,-5.6,320.4,549963.5,-107784.95,314.7,Weapon+Missile,Blue,Enemies,R-77,,cn,,701.711463170185,635.112060546875,2.11055325962394,2046.12536621094,979.157104492188,698.335688582328,-68.7476806640625,0.0583330505221585,NaN,0.199987938897973,0,5000,0.994883000850677,0.994883000850677,0.994883000850677,24619.9488772221,2006.56353225525,26626.5124094773,,,12.2000000476837,1066.96826171875,8765.95401149907,8785.39755322579
2018-07-19T09:01:28Z,1531990888,27C0B,41.0783719,43.8837444,1982.41,-0.3,-5.6,320.4,549503.94,-107329.5,314.7,Weapon+Missile,Blue,Enemies,R-77,,cn,,650.144803418143,591.793334960938,1.95398583190347,1982.40612792969,873.95751953125,647.014778876397,-63.71923828125,0.0573765538546789,NaN,0.107685829671479,0,5000,0.9966801404953,0.9966801404953,0.9966801404953,21134.4132705808,1944.07630544617,23078.4895760269,,,13.2000000476837,1108.44860839844,9410.17331286868,9432.96285740193
2018-07-19T09:01:29Z,1531990889,27C0B,41.0736494,43.8878673,1923.53,-0.3,-5.6,320.4,549079.38,-106908.73,314.7,Weapon+Missile,Blue,Enemies,R-77,,cn,,600.635633183783,549.914184570312,1.80393645941029,1923.5322265625,800.596557617188,597.74327899851,-58.8739013671875,0.0596198107308296,NaN,0,0,5000,0.995896100997925,0.995896100997925,0.995896100997925,18038.1581925042,1886.34073096191,19924.4989234661,,,14.2000000476837,1122.93566894531,10005.3302053915,10031.2059631916
2018-07-19T09:01:30Z,1531990890,27C0B,41.0692586,43.8917,1868.79,-0.2,-5.6,320.4,548684.75,-106517.59,314.7,Weapon+Missile,Blue,Enemies,R-77,,cn,,558.315405273557,513.996459960938,1.67575342294827,1868.79455566406,723.056884765625,555.62566458938,-54.7376708984375,0.0594198041054339,NaN,0.200042580411333,0,5000,0.996082782745361,0.996082782745361,0.996082782745361,15585.8045882888,1832.6614129303,17418.4660012191,,,15.2000000476837,1145.73767089844,10558.6068184811,10587.3473667892
2018-07-19T09:01:31Z,1531990891,27C0B,41.0651893,43.8952517,1818.06,-0.2,-5.6,320.4,548319,-106155.13,314.7,Weapon+Missile,Blue,Enemies,R-77,,cn,,517.42192996552,478.990173339844,1.55208837193859,1818.05541992188,664.884155273438,514.928144223424,-50.7391357421875,0.0619024076135733,NaN,0,0,5000,0.997156202793121,0.997156202793121,0.997156202793121,13386.2726804622,1782.90331837769,15169.1759988398,,,16.2000000476837,1153.17126464844,11071.3248580166,11102.7173564611
2018-07-19T09:01:32Z,1531990892,27C0B,41.0614058,43.8985533,1770.88,-0.2,-5.6,320.4,547978.94,-105818.16,314.7,Weapon+Missile,Blue,Enemies,R-77,,cn,,481.062303073214,447.6171875,1.44222335852258,1770.88305664062,608.248168945312,478.743885162585,-47.17236328125,0.061693555880663,NaN,0,0,5000,0.996559262275696,0.996559262275696,0.996559262275696,11571.0469719052,1736.64303274048,13307.6900046457,,,17.2000000476837,1162.63488769531,11547.9655908745,11581.8201371256
2018-07-19T09:01:33Z,1531990893,27C0B,41.0579041,43.9016087,1727.23,-0.1,-5.6,320.4,547664.31,-105506.31,314.7,Weapon+Missile,Blue,Enemies,R-77,,cn,,445.130324846926,416.182952880859,1.33381666521654,1727.22998046875,552.344360351562,442.984666821621,-43.653076171875,0.0566650384137264,NaN,0.199987938897973,0,5000,0.99608850479126,0.99608850479126,0.99608850479126,9907.0503049165,1693.83398879639,11600.8842937129,,,18.2000000476837,1174.88562011719,11989.0771603503,12025.2068083529
2018-07-19T09:01:34Z,1531990894,27C0B,41.0546732,43.9044273,1686.95,-0.1,-5.6,320.4,547374.06,-105218.63,314.7,Weapon+Missile,Blue,Enemies,R-77,,cn,,410.64228576322,385.473083496094,1.22989422485543,1686.95068359375,511.16845703125,408.662042646608,-40.279296875,0.0607069846464908,NaN,0,0,5000,0.99756783246994,0.99756783246994,0.99756783246994,8431.3543428421,1654.33349212646,10085.6878349686,,,19.2000000476837,1175.7822265625,12396.0209673764,12434.2475669389
2018-07-19T09:01:35Z,1531990895,27C0B,41.0516683,43.9070486,1649.49,-0.1,-5.6,320.4,547104.06,-104951.07,314.7,Weapon+Missile,Blue,Enemies,R-77,,cn,,381.959116032856,359.433288574219,1.1434854257916,1649.49304199219,419.470947265625,380.117996688199,-37.4576416015625,0.102335615557938,NaN,0,0.595209364701356,5000,1.84757542610168,1.84757542610168,1.84757542610168,7294.63831603006,1617.60009402527,8912.23841005532,,,20.2000000476837,1230.02209472656,12774.4855709693,12814.6598015692
2018-07-19T09:01:36Z,1531990896,27C0B,41.0490512,43.9094933,1619.69,0.4,-3.1,327.3,546867.25,-104700.07,321.6,Weapon+Missile,Blue,Enemies,R-77,,cn,,346.365696614173,325.963958740234,1.03656686000309,1619.69311523438,285.608764648438,345.081381932219,-29.7999267578125,0.951446843022926,NaN,0.769230845365645,4.92448955195103,2641.29556557701,4.90938806533813,4.90938806533813,4.90938806533813,5998.45978955105,1588.37634885132,7586.83613840237,,,21.2000000476837,1334.08435058594,13118.163901021,13159.7154188407
2018-07-19T09:01:37Z,1531990897,27C0B,41.0471071,43.9118634,1607.19,0.7,-1.9,330.7,546685.25,-104452.06,325.1,Weapon+Missile,Blue,Enemies,R-77,,cn,,307.876930634323,289.014617919922,0.921247116150254,1607.18994140625,182.384643554688,307.622943001713,-12.503173828125,0.0599092191829171,NaN,0.199999998450727,5.29788916368646,5000,1.76709127426147,1.76709127426147,1.76709127426147,4739.41022084057,1576.11492388916,6315.52514472973,,,22.2000000476837,1424.80529785156,13424.6205499041,13466.5044793597
2018-07-19T09:01:38Z,1531990898,27C0B,41.0454003,43.9141275,1598.99,0.7,-1.4,332.2,546523.5,-104213.95,326.5,Weapon+Missile,Blue,Enemies,R-77,,cn,,287.969401433749,269.986145019531,0.861596115986678,1598.98999023438,170.403564453125,287.852630633959,-8.199951171875,0.0356730445010568,NaN,0,1.67786510463931,5000,1.40273809432983,1.40273809432983,1.40273809432983,4146.31880810559,1568.07351877319,5714.39232687878,,,23.2000000476837,1428.58642578125,13711.4313777405,13753.5045599793
2018-07-19T09:01:39Z,1531990899,27C0B,41.0438598,43.9162872,1593.55,0.7,-0.9,333.4,546376.25,-103986.13,327.7,Weapon+Missile,Blue,Enemies,R-77,,cn,,271.319461613245,254.102600097656,0.811728396572433,1593.55004882812,202.517700195312,271.26492085708,-5.43994140625,0.306104129030219,NaN,0.0307691484372612,0.227282388677549,5000,1.11685466766357,1.11685466766357,1.11685466766357,3680.71251250505,1562.73875863403,5243.45127113909,,,24.2000000476837,1391.03234863281,13981.7253357213,14023.9208879563
2018-07-19T09:01:40Z,1531990900,27C0B,41.04236,43.9182967,1588.49,0.5,-1.5,329.7,546233.88,-103774.68,324.1,Weapon+Missile,Blue,Enemies,R-77,,cn,,254.967961670832,238.542755126953,0.76276321766089,1588.49072265625,257.1484375,254.917760654815,-5.059326171875,0.19496164345539,NaN,0.199987938897973,1.63875778932934,5000,1.26568877696991,1.26568877696991,1.26568877696991,3250.43307392895,1557.77725453369,4808.21032846264,,,25.2000000476837,1331.34228515625,14235.6984162313,14278.0076969605
2018-07-19T09:01:41Z,1531990901,27C0B,41.0408493,43.9201508,1582.05,0.4,-1.5,329.5,546092.38,-103580.56,323.9,Weapon+Missile,Blue,Enemies,R-77,,cn,,240.30226181318,224.641098022461,0.718835205581762,1582.05297851562,296.175415039062,240.21601212848,-6.437744140625,0.0693762487003894,NaN,0,0.912281153403629,5000,0.99662059545517,0.99662059545517,0.99662059545517,2887.25885162652,1551.46398417603,4438.72283580254,,,26.2000000476837,1285.87756347656,14475.0227253763,14517.478039057
2018-07-19T09:01:42Z,1531990902,27C0B,41.0393905,43.9219377,1575.81,0.3,-1.5,329.5,545955.75,-103393.52,323.9,Weapon+Missile,Blue,Enemies,R-77,,cn,,231.715188562132,216.539459228516,0.693097469147462,1575.8076171875,310.320678710938,231.63100844288,-6.245361328125,0.0587106858509691,NaN,0,0.0139882274201861,5000,1.00113213062286,1.00113213062286,1.00113213062286,2684.59643051922,1545.33937690918,4229.9358074284,,,27.2000000476837,1265.48693847656,14705.7805717188,14748.377487944
2018-07-19T09:01:43Z,1531990903,27C0B,41.0380012,43.9236392,1569.87,0.3,-1.5,329.5,545825.69,-103215.4,323.9,Weapon+Missile,Blue,Enemies,R-77,,cn,,220.629280570524,206.073959350586,0.65989196322661,1569.86682128906,326.476196289062,220.549283356714,-5.9407958984375,0.066170455328719,NaN,0,0.0139882274201861,5000,0.999848663806915,0.999848663806915,0.999848663806915,2433.86397225335,1539.51344629944,3973.37741855279,,,28.2000000476837,1243.390625,14925.5146146207,14968.245990986
2018-07-19T09:01:44Z,1531990904,27C0B,41.0366694,43.9252703,1564.17,0.2,-1.5,329.5,545701,-103044.66,323.9,Weapon+Missile,Blue,Enemies,R-77,,cn,,211.500252226556,197.475280761719,0.632545374540658,1564.16687011719,357.407836914062,211.423431171985,-5.699951171875,0.0734734145659179,NaN,0,0.0139882274201861,5000,1.00130569934845,1.00130569934845,1.00130569934845,2236.61783459485,1533.92370368347,3770.54153827832,,,29.2000000476837,1206.75903320312,15136.1601630266,15179.0203776923
2018-07-19T09:01:45Z,1531990905,27C0B,41.0353915,43.9268352,1558.71,0.2,-1.5,329.5,545581.38,-102880.84,323.9,Weapon+Missile,Blue,Enemies,R-77,,cn,,202.921262041668,189.404937744141,0.606849051798016,1558.70764160156,393.492553710938,202.84781342819,-5.459228515625,0.507847294447949,NaN,0,1.46725803585097,4079.27076699883,1.5742506980896,1.5742506980896,1.5742506980896,2058.85192942917,1528.5700293512,3587.42195878037,,,30.2000000476837,1165.21508789062,15338.2660143385,15381.2494068335
2018-07-19T09:01:46Z,1531990906,27C0B,41.0342783,43.9283615,1556.09,0.8,0.2,335.7,545475.38,-102720.02,330,Weapon+Missile,Blue,Enemies,R-77,,cn,,192.622720318102,179.695526123047,0.576033004689047,1556.08996582031,424.667114257812,192.60493284506,-2.61767578125,0.138201521184726,NaN,0.769230845365645,4.63613262557143,1892.61532778369,2.46802353858948,2.46802353858948,2.46802353858948,1855.17561913729,1526.00296633118,3381.17858546846,,,31.2000000476837,1131.4228515625,15530.1867904609,15573.2348922476
2018-07-19T09:01:47Z,1531990907,27C0B,41.0334368,43.9298439,1559.9,1.2,1.9,338.2,545391.62,-102561.93,332.5,Weapon+Missile,Blue,Enemies,R-77,,cn,,178.947480411425,166.769500732422,0.535161357221241,1559.8984375,439.098510742188,178.906948688592,3.8084716796875,0.0642532440309995,NaN,0.0307691484372612,2.80337622619427,5000,1.2624728679657,1.2624728679657,1.2624728679657,1601.11003727987,1529.73780121094,3130.84783849081,,,32.2000000476837,1120.79992675781,15708.4648917414,15751.597206434
2018-07-19T09:01:48Z,1531990908,27C0B,41.0326171,43.9312537,1565.95,1,2.1,336.4,545310.5,-102411.74,330.7,Weapon+Missile,Blue,Enemies,R-77,,cn,,170.804401387564,159.060089111328,0.51084468525701,1565.94763183594,456.261840820312,170.69724889772,6.0491943359375,0.0603123169850214,NaN,0.199987938897973,1.38518136014221,5000,1.1212146282196,1.1212146282196,1.1212146282196,1458.7071766682,1535.67003437439,2994.37721104259,,,33.2000000476837,1109.68579101562,15878.6103546527,15921.891835889
2018-07-19T09:01:49Z,1531990909,27C0B,41.0317866,43.9325807,1571.92,0.7,2.1,335.1,545229.38,-102270.83,329.4,Weapon+Missile,Blue,Enemies,R-77,,cn,,162.707315265517,151.407623291016,0.486661693419155,1571.91687011719,470.454223632812,162.597781766093,5.96923828125,0.115060051688999,NaN,0.199987938897973,1.65522142671513,5000,0.92980968952179,0.92980968952179,0.92980968952179,1323.68352204561,1541.52385743347,2865.20737947908,,,34.2000000476837,1101.46264648438,16040.6407544865,16084.0719827096
2018-07-19T09:01:50Z,1531990910,27C0B,41.0309355,43.9338416,1575.72,-0.4,0,333.1,545147.31,-102137.44,327.4,Weapon+Missile,Blue,Enemies,R-77,,cn,,156.658056357606,145.703872680664,0.468588990633498,1575.71606445312,471.054321289062,156.611981483348,3.7991943359375,0.230063304134697,NaN,1.33849851126906,2.5267302994769,2376.60224650947,0.196251422166824,0.196251422166824,0.196251422166824,1227.08733108714,1545.24959434692,2772.33692543407,,,35.2000000476837,1104.66174316406,16196.7062672103,16240.2222296281
2018-07-19T09:01:51Z,1531990911,27C0B,41.0300895,43.9350559,1569.56,-2.4,-5.1,333.9,545066.25,-102009.18,328.3,Weapon+Missile,Blue,Enemies,R-77,,cn,,151.852144366315,141.238586425781,0.45418111449913,1569.5615234375,463.479248046875,151.727371866566,-6.154541015625,0.0719365547606122,NaN,2.30772967525055,4.93824640671308,1414.07743445605,0.748609304428101,0.748609304428101,0.748609304428101,1152.95368743241,1539.21405138184,2692.16773881424,,,36.2000000476837,1106.08227539062,16347.9357296017,16391.6141323607
2018-07-19T09:01:52Z,1531990912,27C0B,41.0293377,43.9362342,1548.76,-5.2,-11.2,337.4,544993,-101884.17,331.8,Weapon+Missile,Blue,Enemies,R-77,,cn,,146.373350434044,136.237915039062,0.437688091709879,1548.76147460938,445.65234375,144.887941824139,-20.800048828125,0.220126878561152,NaN,2.87693031992273,6.36927050246054,1253.23932192685,1.22930693626404,1.22930693626404,1.22930693626404,1071.25788586438,1518.8161714978,2590.07405736218,,,37.2000000476837,1103.10913085938,16492.2926985574,16537.4968458231
2018-07-19T09:01:53Z,1531990913,27C0B,41.0287535,43.937395,1517.15,-6.9,-13.8,342.8,544933.5,-101759.79,337.2,Weapon+Missile,Blue,Enemies,R-77,,cn,,141.4583726723,131.828506469727,0.422835323612903,1517.15234375,419.938598632812,137.881594295287,-31.609130859375,0.244471426667389,NaN,1.16921910287946,5.53328266880766,1631.02420590087,1.51317286491394,1.51317286491394,1.51317286491394,1000.52355995476,1487.81820318359,2488.34176313836,,,38.2000000476837,1097.21374511719,16629.7383611202,16678.5625372119
2018-07-19T09:01:54Z,1531990914,27C0B,41.0283327,43.9385383,1486.13,-6.9,-12.4,347.5,544887.31,-101636.08,341.9,Weapon+Missile,Blue,Enemies,R-77,,cn,,135.647041027779,126.564277648926,0.405318005669859,1486.12915039062,402.358032226562,132.051812609214,-31.023193359375,0.0768044702669748,NaN,0.107685616228067,4.7607122878247,1652.46756222626,1.73063600063324,1.73063600063324,1.73063600063324,920.005986979604,1457.39484326782,2377.40083024743,,,39.2000000476837,1083.77111816406,16761.3986420347,16813.8586248955
2018-07-19T09:01:55Z,1531990915,27C0B,41.0280458,43.9396697,1459.98,-6.7,-10.6,351.9,544851.94,-101512.62,346.3,Weapon+Missile,Blue,Enemies,R-77,,cn,,131.063856562633,122.415351867676,0.391504039419268,1459.98071289062,389.971923828125,128.428944219669,-26.1484375,0.0979820376070401,NaN,0.323057702457848,4.65437776839183,1627.53567400281,1.72196388244629,1.72196388244629,1.72196388244629,858.886724853516,1431.75198580688,2290.6387106604,,,40.2000000476837,1070.0087890625,16889.4345598664,16944.5663524964
2018-07-19T09:01:56Z,1531990916,27C0B,41.0278805,43.9407809,1438.98,-6.2,-8.3,355.9,544826.56,-101390.48,350.3,Weapon+Missile,Blue,Enemies,R-77,,cn,,126.503723815579,118.251312255859,0.377789993576276,1438.9814453125,384.636596679688,124.748638871896,-20.999267578125,0.109137127175819,NaN,0.584580523135759,4.48146726068472,1631.23600496349,1.69630801677704,1.69630801677704,1.69630801677704,800.159606960416,1411.15873906738,2211.3183460278,,,41.2000000476837,1054.34484863281,17013.8374532823,17070.7570179463
2018-07-19T09:01:57Z,1531990917,27C0B,41.0278222,43.9418567,1423.34,-5.6,-6.9,359.8,544810.25,-101271.4,354.1,Weapon+Missile,Blue,Enemies,R-77,,cn,,121.203185264284,113.356994628906,0.361894642729003,1423.34448242188,386.763305664062,120.190255469259,-15.636962890625,0.704758177955894,NaN,0.523078938528025,2.90071880158483,2705.20046857914,0.778175294399261,0.778175294399261,0.778175294399261,734.510605910421,1395.82411685425,2130.33472276467,,,42.2000000476837,1036.58117675781,17133.678991747,17191.6410736627
2018-07-19T09:01:58Z,1531990918,27C0B,41.0278166,43.9428959,1404.84,-5,-11.5,359.8,544798.5,-101155.99,354.2,Weapon+Missile,Blue,Enemies,R-77,,cn,,117.469360049846,109.946067810059,0.350670517137517,1404.8408203125,383.633972167969,116.002866512266,-18.503662109375,0.0837142953998535,NaN,0.56922625788157,3.36501947999325,1431.77178601838,0.0213688109070063,0.0213688109070063,0.0213688109070063,689.952527526021,1377.67822305176,2067.63075057778,,,43.2000000476837,1021.20684814453,17249.3682441244,17308.8260727127
2018-07-19T09:01:59Z,1531990919,27C0B,41.0278094,43.9438825,1377.86,-4.3,-16.2,359.7,544787.19,-101046.42,354.1,Weapon+Missile,Blue,Enemies,R-77,,cn,,113.408956845511,106.267196655273,0.338443195857502,1377.85998535156,365.865905761719,110.152739582807,-26.9808349609375,0.0729722105751119,NaN,0.569251017317311,4.74333842101031,1363.55794958167,0.0196809396147728,0.0196809396147728,0.0196809396147728,643.07957463935,1351.21906253479,1994.29863717414,,,44.2000000476837,1011.99407958984,17359.1975505681,17421.9441759932
2018-07-19T09:02:00Z,1531990920,27C0B,41.0278001,43.9448314,1342.36,-3.8,-20.9,359.6,544776.12,-100941.06,353.9,Weapon+Missile,Blue,Enemies,R-77,,cn,,111.729331380612,104.866027832031,0.333293248022044,1342.35693359375,333.337219238281,105.938552032018,-35.5030517578125,0.0507631229446526,NaN,0.369246002946413,4.73173136828952,1360.59718291871,0.0239278376102448,0.0239278376102448,0.0239278376102448,624.172174537927,1316.40246228271,1940.57463682064,,,45.2000000476837,1009.01971435547,17464.8320843349,17533.4066404353
2018-07-19T09:02:01Z,1531990921,27C0B,41.0277887,43.9457398,1298.83,-3.4,-25.6,359.5,544765.31,-100840.23,353.8,Weapon+Missile,Blue,Enemies,R-77,,cn,,110.353443451979,103.786285400391,0.329022657448502,1298.82922363281,287.927429199219,101.406217498069,-43.5277099609375,0.0622375060410732,NaN,0.399975877795947,4.65498992409619,1379.21377850286,0.0236672479659319,0.0236672479659319,0.0236672479659319,608.894124085456,1273.71636059387,1882.61048467933,,,46.2000000476837,1010.90179443359,17565.9597274708,17643.5233834681
2018-07-19T09:02:02Z,1531990922,27C0B,41.0277748,43.9466087,1247.66,-3.1,-30.1,359.3,544754.75,-100743.81,353.7,Weapon+Missile,Blue,Enemies,R-77,,cn,,109.668900315973,103.393829345703,0.32678774429853,1247.65771484375,234.539978027344,96.9986823867501,-51.1715087890625,0.139542627169144,NaN,0.215371659342958,4.17707006192617,1838.24255415462,0.230224549770355,0.230224549770355,0.230224549770355,601.363384825736,1223.53425292725,1824.89763775298,,,47.2000000476837,1013.11773681641,17662.6864527958,17752.9688882018
2018-07-19T09:02:03Z,1531990923,27C0B,41.0277489,43.9474469,1190.99,-1.2,-31.1,357.7,544743.56,-100650.88,352,Weapon+Missile,Blue,Enemies,R-77,,cn,,109.416507550151,103.435882568359,0.325821826902156,1190.99304199219,174.744506835938,93.6006782833204,-56.6646728515625,0.0682489816239026,NaN,2.67696778079073,1.8979057318885,3237.19257854694,1.01498281955719,1.01498281955719,1.01498281955719,598.598606223613,1167.96519152527,1766.56379774888,,,48.2000000476837,1016.24853515625,17756.0185054161,17862.1709398077
2018-07-19T09:02:04Z,1531990924,27C0B,41.0276783,43.9482917,1134.83,0.8,-30.4,355.5,544728.69,-100557.59,349.9,Weapon+Missile,Blue,Enemies,R-77,,cn,,109.90999742232,104.183555603027,0.327078843302712,1134.82690429688,116.357177734375,94.4752481328608,-56.1661376953125,0.0636719673961927,NaN,1.81539192407287,1.98628283021977,3487.75555539476,1.04184246063232,1.04184246063232,1.04184246063232,604.010376668722,1112.88502610229,1716.89540277102,,,49.2000000476837,1018.4697265625,17850.2287938227,17971.8680240202
2018-07-19T09:02:05Z,1531990925,27C0B,41.027567,43.9491374,1079.86,2,-30,353.8,544710.56,-100464.48,348.2,Weapon+Missile,Blue,Enemies,R-77,,cn,,109.624099819093,104.185211181641,0.326021031705324,1079.86303710938,61.79736328125,94.8494415636771,-54.9638671875,0.109230924788172,NaN,1.13846148038643,1.63552903084263,4183.8686546503,0.988867580890656,0.988867580890656,0.988867580890656,600.872163057327,1058.98388528687,1659.85604834419,,,50.2000000476837,1018.06567382812,17944.8001049314,18081.2657634667
2018-07-19T09:02:06Z,1531990926,27C0B,41.0274204,43.949988,1025.35,2.9,-29.6,352.2,544689.56,-100371.15,346.6,Weapon+Missile,Blue,Enemies,R-77,,cn,,110.110630546355,104.92163848877,0.327262128926235,1025.34924316406,14.241943359375,95.669207318781,-54.5137939453125,0.125523050007555,NaN,0.769230845365645,1.42872893874292,4868.91358840637,0.962424874305725,0.962424874305725,0.962424874305725,606.217547965795,1005.52411554749,1611.74166351328,,,51.2000000476837,1011.10729980469,18040.2132384259,18191.1676508057
2018-07-19T09:02:07Z,1531990927,27C0B,41.0272452,43.9508341,971.61,3.4,-29.2,350.9,544666.25,-100278.51,345.2,Weapon+Missile,Blue,Enemies,R-77,,cn,,109.609144080062,104.710571289062,0.325570018974019,971.605346679688,-26.9260864257812,95.5288336401143,-53.743896484375,0.0715162477060897,NaN,0.35385289099132,1.19744998226642,5000,0.931428968906403,0.931428968906403,0.931428968906403,600.708223298192,952.819357301636,1553.52758059983,,,52.2000000476837,998.531433105469,18135.4383037111,18300.5251323288
2018-07-19T09:02:08Z,1531990928,27C0B,41.0270455,43.9516788,918.21,3.6,-29.2,349.9,544641.06,-100186.22,344.2,Weapon+Missile,Blue,Enemies,R-77,,cn,,109.555538536684,104.925582885742,0.325210951216395,918.213073730469,-67.712158203125,95.6644197880221,-53.3922729492188,0.0775170555699101,NaN,0.0307631720217374,0.948925758630982,5000,0.917963445186615,0.917963445186615,0.917963445186615,600.120801203139,900.45942394989,1500.58022515303,,,53.2000000476837,985.925231933594,18230.8302600311,18409.8551672073
