ISOTime,UnixTime,Id,Longitude,Latitude,Altitude,Roll,Pitch,Yaw,U,V,Heading,Type,Color,Coalition,Name,Group,Country,Pilot,TAS,CAS,M,ASL,AGL,GS,VS,AOA,AOS,RRT,TRT,TRD,G,LatG,LonG,Ek,Ep,Em,FFW,FFV,RelativeTime,Elev,GroundDistance,AirDistance
2018-07-19T09:01:17Z,1531990877,27C08,40.8288798,43.7421885,5366.53,-46,5.5,318.2,530952.31,-124998.76,312.7,Weapon+Missile,Blue,Enemies,AIM-120B,,us,,326.048629711273,261.545562744141,1.02152141884072,5366.53125,3811.9951171875,NaN,NaN,NaN,NaN,NaN,NaN,NaN,NaN,NaN,NaN,NaN,5262.76936828125,NaN,,,0.210000038146973,1554.5361328125,NaN,NaN
2018-07-19T09:01:18Z,1531990878,27C08,40.8261646,43.744541,5386.57,-37,7.9,318.9,530708.75,-124758.16,313.4,Weapon+Missile,Blue,Enemies,AIM-120B,,us,,342.942372705816,276.049163818359,1.07472593890052,5386.56689453125,3840.15734863281,342.356603478467,20.03564453125,3.66267477576233,NaN,8.81541097303364,1.37778461748626,5000,1.13241004943848,1.13241004943848,1.13241004943848,5880.47354985476,5282.41762362549,11162.8911734802,,,1.21000003814697,1546.40954589844,340.978514735476,341.853585919903
2018-07-19T09:01:19Z,1531990879,27C08,40.8226697,43.7476159,5420.53,-33,4,319.6,530394.81,-124443.28,314.1,Weapon+Missile,Blue,Enemies,AIM-120B,,us,,445.938804606379,360.367828369141,1.39810876754699,5420.52978515625,3856.99780273438,444.64360955057,33.962890625,0.468053923862501,NaN,3.10771558178829,1.86097169739507,5000,0.706678092479706,0.706678092479706,0.706678092479706,9943.07087268829,5315.72384176025,15258.7947144485,,,2.21000003814697,1563.53198242188,783.871333379705,786.42082535728
2018-07-19T09:01:20Z,1531990880,27C08,40.8180492,43.751552,5454.86,-28.1,3,319.7,529981.12,-124041.3,314.2,Weapon+Missile,Blue,Enemies,AIM-120B,,us,,577.847391517391,457.058898925781,1.81246736769243,5454.86376953125,3798.33630371094,576.826477721325,34.333984375,0.0662308755143576,NaN,5.015353266027,1.84002073244629,5000,0.399119555950165,0.399119555950165,0.399119555950165,16695.3803941727,5349.39397854736,22044.77437272,,,3.21000003814697,1656.52746582031,1358.36620736791,1362.42966462294
2018-07-19T09:01:21Z,1531990881,27C08,40.8123184,43.7564513,5490.53,-23.7,2.6,319.8,529467.88,-123540.77,314.3,Weapon+Missile,Blue,Enemies,AIM-120B,,us,,717.789080798024,556.459716796875,2.25243786803485,5490.52734375,3633.48217773438,716.902555433314,35.66357421875,0.0589332984882472,NaN,4.10770308760235,0.468558661025691,5000,0.456190913915634,0.456190913915634,0.456190913915634,25761.0582256436,5384.36799755859,31145.4262232022,,,4.21000003814697,1857.04516601562,2072.3570862866,2077.92255012974
2018-07-19T09:01:22Z,1531990882,27C08,40.8055946,43.7622223,5526.23,-20,2.2,320,528865.62,-122950.95,314.5,Weapon+Missile,Blue,Enemies,AIM-120B,,us,,843.727908443454,645.618347167969,2.64885208860496,5526.2275390625,3829.37585449219,842.972288714769,35.7001953125,0.0322974262496577,NaN,3.49230645847878,0.496341949578599,5000,0.389905571937561,0.389905571937561,0.389905571937561,35593.8391743183,5419.37792959473,41013.217103913,,,5.21000003814697,1696.85168457031,2911.97277062935,2919.02133909778
2018-07-19T09:01:23Z,1531990883,27C08,40.7983189,43.7685148,5556.7,-17,1.6,320.2,528213.5,-122307.36,314.8,Weapon+Missile,Blue,Enemies,AIM-120B,,us,,916.73263561252,697.054138183594,2.87917650430165,5556.70458984375,3803.4501953125,916.225886216251,30.47705078125,0.0271409996959566,NaN,2.86157263957396,0.586849319878967,5000,0.476162701845169,0.476162701845169,0.476162701845169,42019.9362598538,5449.26570659912,47469.201966453,,,6.21000003814697,1753.25439453125,3824.54272996012,3832.89249632174
2018-07-19T09:01:24Z,1531990884,27C08,40.790671,43.775192,5579.83,-14.4,1.1,320.5,527527.56,-121623.79,315,Weapon+Missile,Blue,Enemies,AIM-120B,,us,,968.665674231744,733.598449707031,3.04318807181721,5579.8251953125,3628.63195800781,968.389707730105,23.12060546875,0.0457932303043544,NaN,2.50769370848643,0.58316987562874,5000,0.520937860012054,0.520937860012054,0.520937860012054,46915.659421742,5471.93927516113,52387.5986969031,,,7.21000003814697,1951.19323730469,4789.1359946411,4798.6046845472
2018-07-19T09:01:25Z,1531990885,27C08,40.7826847,43.782228,5596.51,-12.2,0.8,320.7,526810.69,-120902.88,315.3,Weapon+Missile,Blue,Enemies,AIM-120B,,us,,1016.805796098,767.651306152344,3.19511321343251,5596.51171875,3408.71142578125,1016.66886787885,16.6865234375,0.0369408451356328,NaN,2.13844172912449,0.44609520938215,5000,0.610732138156891,0.610732138156891,0.610732138156891,51694.7013489246,5488.30316466797,57183.0045135926,,,8.21000003814697,2187.80029296875,5801.80973025146,5812.30301651631
2018-07-19T09:01:26Z,1531990886,27C08,40.7743645,43.7896179,5608.24,-10.3,0.5,321,526063.38,-120145.15,315.5,Weapon+Missile,Blue,Enemies,AIM-120B,,us,,1064.31902828933,801.462890625,3.34491992088623,5608.24365234375,3257.64453125,1064.2543660765,11.73193359375,0.0401176181813881,NaN,1.73846585132854,0.380909191284445,5000,0.651576459407806,0.651576459407806,0.651576459407806,56638.7496989369,5499.80826132568,62138.5579602626,,,9.21000003814697,2350.59912109375,6861.91273937769,6873.40204901181
2018-07-19T09:01:27Z,1531990887,27C08,40.7664358,43.7967417,5612.05,-9.4,-1,322,525350.5,-119413.93,316.6,Weapon+Missile,Blue,Enemies,AIM-120B,,us,,1021.21796102752,770.23388671875,3.20962029291942,5612.05126953125,3119.46728515625,1021.21086264129,3.8076171875,0.171226938549062,NaN,0.107686470001714,1.77684479099655,5000,4.17423057556152,4.17423057556152,4.17423057556152,52144.3061962605,5503.54225823486,57647.8484544953,,,10.210000038147,2492.583984375,7879.15536236428,7891.54654855969
2018-07-19T09:01:28Z,1531990888,27C08,40.7592374,43.8036048,5577.93,-8.6,-2.4,323.1,524699.25,-118706.06,317.6,Weapon+Missile,Blue,Enemies,AIM-120B,,us,,962.479437035338,729.214477539062,3.02367947010249,5577.931640625,3253.96923828125,961.874481228793,-34.11962890625,0.0517489573462256,NaN,1.41538765830318,1.6595329836287,5000,0.55477112531662,0.55477112531662,0.55477112531662,46318.333335793,5470.08233235352,51788.4156681465,,,11.210000038147,2323.96240234375,8837.38320194501,8851.2216837575
2018-07-19T09:01:29Z,1531990889,27C08,40.7524082,43.8101731,5539.32,-7.1,-2.4,323.1,524081,-118028.1,317.6,Weapon+Missile,Blue,Enemies,AIM-120B,,us,,918.343558930599,698.805053710938,2.88359076205506,5539.32080078125,3291.45874023438,917.531522769588,-38.61083984375,0.0552940450374696,NaN,1.33843618579288,0.08791467985022,5000,0.95652037858963,0.95652037858963,0.95652037858963,42167.7446114659,5432.21803309814,47599.9626445641,,,12.210000038147,2247.86206054688,9751.51136636172,9766.96086995966
2018-07-19T09:01:30Z,1531990890,27C08,40.7458956,43.8164364,5502.08,-5.9,-2.4,323.1,523491.47,-117381.6,317.6,Weapon+Missile,Blue,Enemies,AIM-120B,,us,,875.726232544432,669.372192382812,2.74845604951387,5502.0771484375,3106.84057617188,874.933908776293,-37.24365234375,0.0494451251439173,NaN,1.16922764061593,0.0541761800424684,5000,0.970345795154572,0.970345795154572,0.970345795154572,38344.8217183232,5395.69448677246,43740.5162050957,,,13.210000038147,2395.23657226562,10623.175560048,10640.1741525997
2018-07-19T09:01:31Z,1531990891,27C08,40.7396646,43.8224277,5466.17,-5,-2.5,323.1,522927.53,-116763.14,317.6,Weapon+Missile,Blue,Enemies,AIM-120B,,us,,837.740356139931,643.165222167969,2.62802511828049,5466.16796875,3197.78466796875,836.97039082612,-35.9091796875,0.0619166000780904,NaN,0.969226895113258,0.0541761800424684,5000,0.972940981388092,0.972940981388092,0.972940981388092,35090.4452152729,5360.47961107422,40450.9248263471,,,14.210000038147,2268.38330078125,11457.0235788897,11475.5113226373
2018-07-19T09:01:32Z,1531990892,27C08,40.73372,43.8281422,5431.69,-4.1,-2.5,323.1,522389.66,-116173.22,317.6,Weapon+Missile,Blue,Enemies,AIM-120B,,us,,799.065747356269,616.358276367188,2.50559218701475,5431.68994140625,3350.13720703125,798.321573194985,-34.47802734375,1.23284588871503,NaN,0.769238956215285,2.11809395525679,5000,5.34154367446899,5.34154367446899,5.34154367446899,31925.3034299016,5326.66821638916,37251.9716462908,,,15.210000038147,2081.552734375,12252.3834752695,12272.2970114239
2018-07-19T09:01:33Z,1531990893,27C08,40.727851,43.8331984,5424.77,-2,0.1,318.7,521864.78,-115655.84,313.3,Weapon+Missile,Blue,Enemies,AIM-120B,,us,,737.033591189456,571.953430175781,2.31087582064686,5424.77197265625,3424.25317382812,737.001123642291,-6.91796875,0.0998764748853788,NaN,0.630777361360786,2.76379079764241,5000,2.99379563331604,2.99379563331604,2.99379563331604,27160.9257270813,5319.88400656494,32480.8097336462,,,16.210000038147,2000.51879882812,12986.5043743843,13007.0752648575
2018-07-19T09:01:34Z,1531990894,27C08,40.722041,43.8378833,5425.3,-1.8,0,317.5,521348.62,-115179.23,312.1,Weapon+Missile,Blue,Enemies,AIM-120B,,us,,702.548254113983,547.188354492188,2.202766313117,5425.2998046875,3341.93701171875,702.548055831025,0.52783203125,0.0253809910037173,NaN,0.276906327679484,1.30146821379701,5000,1.7148711681366,1.7148711681366,1.7148711681366,24678.7024679303,5320.40163296387,29999.1041008942,,,17.210000038147,2083.36279296875,13686.2447120593,13707.4109778146
2018-07-19T09:01:35Z,1531990895,27C08,40.7163778,43.8422607,5424.72,-1.5,-0.1,316.3,520847.53,-114735.65,310.9,Weapon+Missile,Blue,Enemies,AIM-120B,,us,,669.226242265749,523.302368164062,2.09827310709593,5424.72265625,3336.91723632812,669.225993395965,-0.5771484375,0.0440727142385504,NaN,0.200042580411333,1.15531454527661,5000,1.46074020862579,1.46074020862579,1.46074020862579,22393.1881668568,5319.83564369141,27713.0238105482,,,18.210000038147,2087.80541992188,14352.7400911183,14374.4735032665
2018-07-19T09:01:36Z,1531990896,27C08,40.7108539,43.8463686,5421.23,-1.5,-0.5,315.3,520360.53,-114320.92,309.9,Weapon+Missile,Blue,Enemies,AIM-120B,,us,,639.671267653764,502.180114746094,2.00551738023494,5421.228515625,3634.02294921875,639.661724384902,-3.494140625,0.0345798635491599,NaN,0,1.06601579829422,5000,1.15112769603729,1.15112769603729,1.15112769603729,20458.9665330887,5316.40906227539,25775.3755953641,,,19.210000038147,1787.20556640625,14989.7683826928,15012.0529991893
2018-07-19T09:01:37Z,1531990897,27C08,40.7054884,43.8502331,5413.5,-1.5,-0.9,314.5,519888.88,-113932.03,309.1,Weapon+Missile,Blue,Enemies,AIM-120B,,us,,611.355301010445,482.0078125,1.9165502299592,5413.49755859375,3885.61279296875,611.306417745596,-7.73095703125,0.0211965312286434,NaN,0,0.989166138291229,5000,1.15813338756561,1.15813338756561,1.15813338756561,18687.7652036786,5308.82758329834,23996.592786977,,,20.210000038147,1527.884765625,15598.539320413,15621.3900505117
2018-07-19T09:01:38Z,1531990898,27C08,40.7002691,43.8538772,5402.95,-1.4,-1.2,313.6,519431.31,-113566.49,308.2,Weapon+Missile,Blue,Enemies,AIM-120B,,us,,585.741867802079,463.778747558594,1.83600577944547,5402.9482421875,4018.46313476562,585.646862554243,-10.54931640625,0.0213737101496536,NaN,0,0.897084516108879,5000,1.10459470748901,1.10459470748901,1.10459470748901,17154.6767848134,5298.4822379248,22453.1590227382,,,21.210000038147,1384.48510742188,16181.727096511,16205.1676548293
2018-07-19T09:01:39Z,1531990899,27C08,40.6952237,43.857297,5389.97,-1.3,-1.4,312.7,518990.09,-113224.53,307.3,Weapon+Missile,Blue,Enemies,AIM-120B,,us,,558.372330351136,444.238555908203,1.74992494761122,5389.9716796875,4200.97326660156,558.221522450937,-12.9765625,0.0437643609046841,NaN,0.199987938897973,0.830121608290339,5000,1.26491689682007,1.26491689682007,1.26491689682007,15588.9829650879,5285.75657726074,20874.7395423486,,,22.210000038147,1188.99841308594,16737.5650915577,16761.6272636923
2018-07-19T09:01:40Z,1531990900,27C08,40.6903158,43.8605262,5377.17,-1.1,-1.5,311.9,518561.97,-112902.69,306.5,Weapon+Missile,Blue,Enemies,AIM-120B,,us,,535.759519317341,428.0263671875,1.67878156741286,5377.17138671875,4393.98431396484,535.606586067668,-12.80029296875,0.0793113573279562,NaN,0,0.733168620486742,5000,0.743670225143433,0.743670225143433,0.743670225143433,14351.9131269574,5273.20377795654,19625.116904914,,,23.210000038147,983.187072753906,17270.8624864499,17295.5282627965
2018-07-19T09:01:41Z,1531990901,27C08,40.6856007,43.8635726,5360.75,-1.5,-2.3,311.7,518151.28,-112599.67,306.3,Weapon+Missile,Blue,Enemies,AIM-120B,,us,,510.639271755917,409.894653320312,1.59973163370011,5360.74658203125,4308.10424804688,510.375049988134,-16.4248046875,0.0679378290604003,NaN,0.569200644672183,0.960864182248224,5000,0.201847165822983,0.201847165822983,0.201847165822983,13037.6232929707,5257.09654686768,18294.7198398383,,,24.210000038147,1052.64233398438,17779.0248504832,17804.3835340059
2018-07-19T09:01:42Z,1531990902,27C08,40.6810621,43.8664917,5333.71,-2.3,-4.1,311.7,517756.12,-112309.46,306.3,Weapon+Missile,Blue,Enemies,AIM-120B,,us,,491.02129103518,395.809814453125,1.53773999113347,5333.70849609375,3919.61669921875,490.276299813372,-27.0380859375,0.0558850561415444,NaN,0.769243225083516,1.59658147792622,5000,0.580155313014984,0.580155313014984,0.580155313014984,12055.0954124928,5230.58124232178,17285.6766548145,,,25.210000038147,1414.091796875,18267.1618024701,18293.6773499799
2018-07-19T09:01:43Z,1531990903,27C08,40.676756,43.8692766,5293.03,-3.2,-5.9,312.1,517381.09,-112032.4,306.7,Weapon+Missile,Blue,Enemies,AIM-120B,,us,,468.046090384309,379.197631835938,1.46502555993027,5293.02587890625,3696.81359863281,466.274669462981,-40.6826171875,0.0306525357389528,NaN,0.769243225083516,1.85301089847401,5000,0.568574547767639,0.568574547767639,0.568574547767639,10953.3571362019,5190.6852235376,16144.0423597395,,,26.210000038147,1596.21228027344,18731.4265843626,18760.1064773586
2018-07-19T09:01:44Z,1531990904,27C08,40.672678,43.8719653,5241.24,-3.4,-7,312.7,517025.44,-111764.29,307.4,Weapon+Missile,Blue,Enemies,AIM-120B,,us,,448.39207696339,364.952453613281,1.40257850808954,5241.2431640625,3470.80224609375,445.391967964122,-51.78271484375,0.109086891534336,NaN,0.0923023226699061,1.03101737537854,5000,0.843716144561768,0.843716144561768,0.843716144561768,10052.7727341771,5139.90372748535,15192.6764616625,,,27.210000038147,1770.44091796875,19174.9112186508,19206.9678017027
2018-07-19T09:01:45Z,1531990905,27C08,40.6687854,43.8745601,5189.83,-2.5,-6.5,312.5,516685.66,-111505.2,307.1,Weapon+Missile,Blue,Enemies,AIM-120B,,us,,430.372078865989,351.637359619141,1.34532878421246,5189.830078125,3289.82141113281,427.290089824017,-51.4130859375,0.0768793942977744,NaN,1.13843928227162,0.266512487310017,5000,1.4781242609024,1.4781242609024,1.4781242609024,9261.00631337166,5089.48471356445,14350.4910269361,,,28.210000038147,1900.00866699219,19600.3673122075,19635.8644676574
2018-07-19T09:01:46Z,1531990906,27C08,40.6650576,43.8770163,5145.31,-1.7,-5.9,312.4,516360.59,-111260.26,307,Weapon+Missile,Blue,Enemies,AIM-120B,,us,,409.446070380342,335.498779296875,1.27918876394839,5145.3076171875,3134.29663085938,407.018224434696,-44.5224609375,0.0371960658604898,NaN,0.769239169658696,0.841361378260682,5000,1.68869936466217,1.68869936466217,1.68869936466217,8382.30422749519,5045.82309440918,13428.1273219044,,,29.210000038147,2011.01098632812,20005.6372197541,20043.8990200014
2018-07-19T09:01:47Z,1531990907,27C08,40.6614797,43.879376,5109.29,-0.7,-4.6,312.4,516048.62,-111024.92,307,Weapon+Missile,Blue,Enemies,AIM-120B,,us,,392.434236146271,321.968017578125,1.22547847203874,5109.2919921875,3060.1015625,390.778075709944,-36.015625,0.0545834501492287,NaN,0.969218464098501,1.13082927759747,5000,1.89762008190155,1.89762008190155,1.89762008190155,7700.23148498535,5010.50383151855,12710.7353165039,,,30.210000038147,2049.1904296875,20394.7661148913,20435.002550124
2018-07-19T09:01:48Z,1531990908,27C08,40.6580874,43.8816128,5083.78,0.4,-3.2,312.4,515752.84,-110801.84,307,Weapon+Missile,Blue,Enemies,AIM-120B,,us,,371.355195639934,304.463317871094,1.15927738508385,5083.78125,3063.78173828125,370.477912110582,-25.5107421875,0.0534433591808733,NaN,1.16920949792594,1.51543168023218,5000,2.06821131706238,2.06821131706238,2.06821131706238,6895.23406643868,4985.48633953125,11880.7204059699,,,31.210000038147,2019.99951171875,20763.6678520884,20805.0793843974
2018-07-19T09:01:49Z,1531990909,27C08,40.6548639,43.8837338,5069.82,1.4,-1.4,312.3,515471.84,-110590.31,307,Weapon+Missile,Blue,Enemies,AIM-120B,,us,,351.99175432183,287.865234375,1.09863450273289,5069.81591796875,3101.646484375,351.71460676494,-13.96533203125,0.0828852021861984,NaN,0.969230737094666,1.55772933421478,5000,1.87557852268219,1.87557852268219,1.87557852268219,6194.90975552797,4971.79102719482,11166.7007827228,,,32.210000038147,1968.16943359375,21113.8659817785,21155.8343864471
2018-07-19T09:01:50Z,1531990910,27C08,40.6518153,43.8857406,5064.92,1.9,-0.1,312.4,515206.12,-110390.18,307,Weapon+Missile,Blue,Enemies,AIM-120B,,us,,332.691342363702,270.961090087891,1.03832960347766,5064.923828125,3124.13220214844,332.65537233107,-4.89208984375,0.0956437513672286,NaN,0.569230740193213,1.28949414513004,5000,1.70813477039337,1.70813477039337,1.70813477039337,5534.1764641881,4966.9935259082,10501.1699900963,,,33.210000038147,1940.79162597656,21445.1296761116,21487.3973591295
2018-07-19T09:01:51Z,1531990911,27C08,40.6489315,43.8876448,5067,2.4,1,312.5,514954.69,-110200.2,307.1,Weapon+Missile,Blue,Enemies,AIM-120B,,us,,315.149484774934,255.522552490234,0.983607451968536,5067.001953125,3130.69067382812,315.142633025731,2.078125,0.0804675999176209,NaN,0.600000102073886,1.17355179069078,5000,1.57835841178894,1.57835841178894,1.57835841178894,4965.95988769531,4969.03147036133,9934.99135805664,,,34.210000038147,1936.31127929688,21758.9203880592,21801.4441814329
2018-07-19T09:01:52Z,1531990912,27C08,40.6461997,43.8894535,5074.46,2.4,1.7,312.6,514716.47,-110019.67,307.2,Weapon+Missile,Blue,Enemies,AIM-120B,,us,,298.985698601928,241.331008911133,0.933247378376004,5074.4560546875,3141.16809082031,298.892763944494,7.4541015625,0.0252614408550239,NaN,0.199987938897973,0.808384211091656,5000,1.27377510070801,1.27377510070801,1.27377510070801,4469.62239842415,4976.34144687012,9445.96384529427,,,35.210000038147,1933.28796386719,22056.5283363823,22099.3819948347
2018-07-19T09:01:53Z,1531990913,27C08,40.6436033,43.8911778,5084.16,2.3,2.3,312.7,514490.03,-109847.53,307.3,Weapon+Missile,Blue,Enemies,AIM-120B,,us,,284.605994520653,228.789962768555,0.888472549039388,5084.16357421875,3136.08374023438,284.440391262635,9.70751953125,0.0560969303978243,NaN,0.199987938897973,0.479905793032051,5000,1.23451256752014,1.23451256752014,1.23451256752014,4050.02860585451,4985.86127151123,9035.88987736574,,,36.210000038147,1948.07983398438,22339.7763517251,22383.0217460361
2018-07-19T09:01:54Z,1531990914,27C08,40.6411041,43.8928451,5095.76,2.1,2.5,313,514272.03,-109680.97,307.6,Weapon+Missile,Blue,Enemies,AIM-120B,,us,,274.593590603174,220.074279785156,0.857342682859339,5095.76416015625,3154.53503417969,274.348439773675,11.6005859375,0.686465114752375,NaN,0.338449533752472,1.58735837466918,5000,1.10401296615601,1.10401296615601,1.10401296615601,3770.08200001717,4997.23756011963,8767.3195601368,,,37.210000038147,1941.22912597656,22612.9874277317,22656.6968278432
2018-07-19T09:01:55Z,1531990915,27C08,40.6388142,43.8944996,5099.89,0.5,0,316.1,514070.94,-109514.25,310.8,Weapon+Missile,Blue,Enemies,AIM-120B,,us,,261.248604551266,208.659927368164,0.815719427166641,5099.88671875,3177.22424316406,261.216075099954,4.12255859375,0.247446067755367,NaN,0.769243225083516,1.6904781161588,5000,0.861717283725739,0.861717283725739,0.861717283725739,3412.5416689992,5001.28040904297,8413.82207804217,,,38.210000038147,1922.66247558594,22873.1176250967,22917.0675774646
2018-07-19T09:01:56Z,1531990916,27C08,40.6366234,43.8961132,5102.24,1.1,1.2,314.8,513878.25,-109351.35,309.4,Weapon+Missile,Blue,Enemies,AIM-120B,,us,,252.328995220969,201.085739135742,0.787892559582361,5102.2421875,3202.24719238281,252.318000935707,2.35546875,0.150392322521879,NaN,0.692307654107375,0.547697021370014,5000,1.39313793182373,1.39313793182373,1.39313793182373,3183.49609146118,5003.59033480469,8187.08642626587,,,39.210000038147,1899.99499511719,23124.4107976881,23168.5727579548
2018-07-19T09:01:57Z,1531990917,27C08,40.6344805,43.897645,5107.74,1,1.3,314.7,513690.28,-109197.16,309.3,Weapon+Missile,Blue,Enemies,AIM-120B,,us,,243.179590003441,193.329895019531,0.759376876760571,5107.74462890625,3249.25390625,243.117329972202,5.50244140625,0.0551221254301877,NaN,0.169224766876236,0.589095811785666,5000,1.01165628433228,1.01165628433228,1.01165628433228,2956.81564971209,5008.98638650635,7965.80203621843,,,40.210000038147,1858.49072265625,23366.5363112797,23410.954531265
2018-07-19T09:01:58Z,1531990918,27C08,40.6323961,43.8991336,5113.21,0.8,1.3,314.7,513507.47,-109047.34,309.3,Weapon+Missile,Blue,Enemies,AIM-120B,,us,,236.424207830035,187.618865966797,0.738333194499303,5113.2099609375,3306.71228027344,236.361029346734,5.46533203125,0.0590542353982829,NaN,0.199987938897973,0.00989117029631303,5000,1.0014580488205,1.0014580488205,1.0014580488205,2794.82030240297,5014.34604634277,7809.16634874575,,,41.210000038147,1806.49768066406,23601.9390270361,23646.6092481007
2018-07-19T09:01:59Z,1531990919,27C08,40.6303666,43.9005829,5118.55,0.7,1.3,314.7,513329.47,-108901.48,309.3,Weapon+Missile,Blue,Enemies,AIM-120B,,us,,230.195049361993,182.371490478516,0.71892891619215,5118.55078125,3371.21081542969,230.133084082146,5.3408203125,0.0576440761989222,NaN,0.0307631720217374,0.00989117029631303,5000,0.999141931533813,0.999141931533813,0.999141931533813,2649.48803753853,5019.58360189453,7669.07163943306,,,42.210000038147,1747.33996582031,23831.1273588494,23876.043581826
2018-07-19T09:02:00Z,1531990920,27C08,40.6283975,43.901989,5123.73,0.6,1.3,314.7,513156.78,-108759.95,309.3,Weapon+Missile,Blue,Enemies,AIM-120B,,us,,223.330875882879,176.619552612305,0.697537198885037,5123.72998046875,3412.51696777344,223.270813180018,5.17919921875,0.0622180974677113,NaN,0,0.00989117029631303,5000,1.00061738491058,1.00061738491058,1.00061738491058,2493.8340061307,5024.66266129639,7518.49666742708,,,43.210000038147,1711.21301269531,24053.4955773401,24098.6506024997
2018-07-19T09:02:01Z,1531990921,27C08,40.6264778,43.9033596,5128.79,0.5,1.3,314.7,512988.41,-108622.01,309.3,Weapon+Missile,Blue,Enemies,AIM-120B,,us,,217.726110056641,171.933853149414,0.680075448047719,5128.79052734375,3430.0302734375,217.667291676362,5.060546875,0.0602163481497455,NaN,0,0.00989117029631303,5000,1.00010311603546,1.00010311603546,1.00010311603546,2370.23295001984,5029.62536249756,7399.85831251739,,,44.210000038147,1698.76025390625,24270.2597132686,24315.6479728782
2018-07-19T09:02:02Z,1531990922,27C08,40.6246123,43.9046915,5133.71,0.4,1.3,314.7,512824.84,-108487.93,309.3,Weapon+Missile,Blue,Enemies,AIM-120B,,us,,211.551126428507,166.79638671875,0.660829088545987,5133.71435546875,3446.6953125,211.493817899639,4.923828125,0.058242650287108,NaN,0.0154089067675488,0.00989117029631303,5000,0.999399304389954,0.999399304389954,0.999399304389954,2237.69395465851,5034.45398840576,7272.14794306427,,,45.210000038147,1687.01904296875,24480.9008674987,24526.5160834835
2018-07-19T09:02:03Z,1531990923,27C08,40.6228026,43.9059835,5138.49,0.3,1.3,314.7,512666.16,-108357.88,309.3,Weapon+Missile,Blue,Enemies,AIM-120B,,us,,205.223611462436,161.554138183594,0.641102621306188,5138.4912109375,3454.74438476562,205.168010063742,4.77685546875,0.0639250306769306,NaN,0.199987938897973,0.00989117029631303,5000,0.99994170665741,0.99994170665741,0.99994170665741,2105.83653508425,5039.13848337402,7144.97501845827,,,46.210000038147,1683.74682617188,24685.2347158559,24731.0702585435
2018-07-19T09:02:04Z,1531990924,27C08,40.6210343,43.9072459,5143.16,0.3,1.3,314.7,512511.09,-108230.81,309.3,Weapon+Missile,Blue,Enemies,AIM-120B,,us,,200.531978007822,157.671463012695,0.626483600239942,5143.16357421875,3457.68310546875,200.477537956494,4.67236328125,0.0627258681967109,NaN,0,0.00989117029631303,5000,1.00007057189941,1.00007057189941,1.00007057189941,2010.65371018648,5043.72050651123,7054.37421669771,,,47.210000038147,1685.48046875,24884.8888729786,24930.9399589401
2018-07-19T09:02:05Z,1531990925,27C08,40.6193263,43.9084651,5147.68,0.2,1.3,314.7,512361.31,-108108.08,309.3,Weapon+Missile,Blue,Enemies,AIM-120B,,us,,193.697146724174,152.052673339844,0.605165690407588,5147.68408203125,3466.68176269531,193.644389689459,4.5205078125,0.0612810480962396,NaN,0.199987938897973,0.00989117029631303,5000,0.999535083770752,0.999535083770752,0.999535083770752,1875.9292324543,5048.15361030518,6924.08284275948,,,48.210000038147,1681.00231933594,25077.7307769309,25123.9903677446
2018-07-19T09:02:06Z,1531990926,27C08,40.6176629,43.9096523,5152.09,0.2,1.3,314.7,512215.47,-107988.58,309.3,Weapon+Missile,Blue,Enemies,AIM-120B,,us,,188.600197094165,147.869735717773,0.589274399715337,5152.0869140625,3505.39270019531,188.548798495409,4.40283203125,0.065676266232998,NaN,0,0.00989117029631303,5000,0.99911504983902,0.99911504983902,0.99911504983902,1778.5017171979,5052.4713135791,6830.973030777,,,49.210000038147,1646.69421386719,25265.5108233579,25311.9736003479
2018-07-19T09:02:07Z,1531990927,27C08,40.6160517,43.9108023,5156.35,0.2,1.3,314.7,512074.22,-107872.82,309.3,Weapon+Missile,Blue,Enemies,AIM-120B,,us,,182.673479365677,143.028106689453,0.570787580099657,5156.34912109375,3547.34045410156,182.623748879452,4.26220703125,0.0620197093201764,NaN,0,0.00989117029631303,5000,1.00005877017975,1.00005877017975,1.00005877017975,1668.48000317812,5056.6511108374,6725.13111401552,,,50.210000038147,1609.00866699219,25447.4020864768,25494.0617414873
2018-07-19T09:02:08Z,1531990928,27C08,40.6144823,43.9119225,5160.51,0.1,1.3,314.7,511936.62,-107760.05,309.3,Weapon+Missile,Blue,Enemies,AIM-120B,,us,,177.952743440099,139.177871704102,0.556066472572857,5160.50732421875,3588.08288574219,177.904154658144,4.158203125,0.0638972439100774,NaN,0.199987938897973,0.00989117029631303,5000,0.99858146905899,0.99858146905899,0.99858146905899,1583.35894489288,5060.72891510498,6644.08785999786,,,51.210000038147,1572.42443847656,25624.5737414333,25671.4254372686
2018-07-19T09:02:09Z,1531990929,27C08,40.612972,43.9130003,5164.5,0.1,1.3,314.7,511804.22,-107651.55,309.3,Weapon+Missile,Blue,Enemies,AIM-120B,,us,,171.224773169451,133.722564697266,0.535070152642383,5164.50146484375,3615.4951171875,171.178181400544,3.994140625,0.0679424608220413,NaN,0,0.00989117029631303,5000,1.00007712841034,1.00007712841034,1.00007712841034,1465.8961473465,5064.645829021,6530.54197636749,,,52.210000038147,1549.00634765625,25795.0586856643,25842.0951164397
2018-07-19T09:02:10Z,1531990930,27C08,40.6115065,43.9140462,5168.38,0.1,1.3,314.7,511675.75,-107546.26,309.3,Weapon+Missile,Blue,Enemies,AIM-120B,,us,,166.152713046365,129.617446899414,0.51924586908531,5168.3837890625,3621.71435546875,166.107349660778,3.88232421875,0.0624300250269378,NaN,0,0.0139882274201861,5000,0.916994035243988,0.916994035243988,0.916994035243988,1380.33620263338,5068.45308850098,6448.78929113436,,,53.210000038147,1546.66943359375,25960.4897990032,26007.7057448255
2018-07-19T09:02:11Z,1531990931,27C08,40.610097,43.915052,5171.31,-0.8,-0.1,314.7,511552.19,-107445.01,309.3,Weapon+Missile,Blue,Enemies,AIM-120B,,us,,159.774268765717,124.484092712402,0.499331137196749,5171.31005859375,3629.57348632812,159.747469170094,2.92626953125,0.0517033320878233,NaN,1.76923756108674,1.51923769642547,3257.54400152086,0.213396742939949,0.213396742939949,0.213396742939949,1276.39084798098,5071.32277861084,6347.71362659182,,,54.210000038147,1541.73657226562,26119.5888200637,26166.9606118095
2018-07-19T09:02:12Z,1531990932,27C08,40.6087249,43.916031,5166.53,-2.7,-3.5,314.7,511431.91,-107346.45,309.3,Weapon+Missile,Blue,Enemies,AIM-120B,,us,,155.574601217302,121.15544128418,0.486176595578883,5166.52978515625,3635.92565917969,155.501143178387,-4.7802734375,0.115146164771753,NaN,1.8769359839195,3.20003113794971,2645.25992460896,0.0799834504723549,0.0799834504723549,0.0799834504723549,1210.17282719612,5066.63493176025,6276.80775895638,,,55.210000038147,1530.60412597656,26274.4539399719,26322.0249361834
2018-07-19T09:02:13Z,1531990933,27C08,40.6074031,43.9169736,5153.08,-4.3,-6.9,314.6,511316.06,-107251.56,309.3,Weapon+Missile,Blue,Enemies,AIM-120B,,us,,150.348822493647,117.066596984863,0.469765355195394,5153.0849609375,3643.23583984375,149.746469497458,-13.44482421875,0.0640932862198144,NaN,1.53843180865367,3.38848395455659,2577.55184223387,0.109766937792301,0.109766937792301,0.109766937792301,1130.23842126131,5053.45006321777,6183.68848447908,,,56.210000038147,1509.84912109375,26423.6028335998,26471.898758569
2018-07-19T09:02:14Z,1531990934,27C08,40.6061209,43.9178867,5131.46,-5.6,-10.2,314.6,511203.66,-107159.65,309.3,Weapon+Missile,Blue,Enemies,AIM-120B,,us,,146.803093932476,114.369331359863,0.458560384589793,5131.45654296875,3638.04235839844,145.201101663577,-21.62841796875,0.0932881924262885,NaN,1.32303496298815,3.37729461059223,2517.04193959442,0.119774997234344,0.119774997234344,0.119774997234344,1077.55741940737,5032.23983071045,6109.79725011782,,,57.210000038147,1493.41418457031,26568.1866365651,26618.2066050083
2018-07-19T09:02:15Z,1531990935,27C08,40.6048734,43.9187729,5101.96,-6.7,-13.5,314.5,511094.38,-107070.48,309.2,Weapon+Missile,Blue,Enemies,AIM-120B,,us,,144.098208529497,112.387130737305,0.449942318120641,5101.9560546875,3616.44213867188,141.046144550562,-29.50048828125,0.0508514654445328,NaN,1.12310166560354,3.31685554728726,2512.7826741141,0.138831913471222,0.138831913471222,0.138831913471222,1038.21468507051,5003.30973437012,6041.52441944063,,,58.210000038147,1485.51391601562,26708.6754698457,26761.8696518587
2018-07-19T09:02:16Z,1531990936,27C08,40.6036573,43.9196335,5064.92,-7.5,-16.8,314.4,510987.84,-106983.91,309,Weapon+Missile,Blue,Enemies,AIM-120B,,us,,142.178197025679,111.071594238281,0.443738125929181,5064.9248046875,3574.75964355469,137.270995599617,-37.03125,0.0768228059319908,NaN,0.876941647916277,3.2788282556398,2527.74895166052,0.152358025312424,0.152358025312424,0.152358025312424,1010.73198547363,4966.99448358887,5977.7264690625,,,59.210000038147,1490.16516113281,26845.3797643192,26903.6059514844
2018-07-19T09:02:17Z,1531990937,27C08,40.6024778,43.9204641,5020.96,-8.1,-19.9,314.2,510884.59,-106900.4,308.9,Weapon+Missile,Blue,Enemies,AIM-120B,,us,,139.881260848527,109.489967346191,0.436325641329098,5020.962890625,3516.80102539062,132.793513578545,-43.9619140625,0.042145975447027,NaN,0.569255286185543,3.18013223557653,2540.30536170573,0.163374155759811,0.163374155759811,0.163374155759811,978.33835682869,4923.88257313477,5902.22092996346,,,60.210000038147,1504.16186523438,26977.6394295406,27043.0797530714
2018-07-19T09:02:18Z,1531990938,27C08,40.6013215,43.9212731,4969.93,-8.6,-23,314,510783.44,-106819.12,308.7,Weapon+Missile,Blue,Enemies,AIM-120B,,us,,139.43438491522,109.423767089844,0.434650201520187,4969.93359375,3442.68383789062,129.761159663163,-51.029296875,0.0409428287295023,NaN,0.399975877795947,3.08369530058124,2601.63877331441,0.16860468685627,0.16860468685627,0.16860468685627,972.09738483429,4873.83992771484,5845.93731254913,,,61.210000038147,1527.24975585938,27106.8911452516,27182.1343256958
2018-07-19T09:02:19Z,1531990939,27C08,40.6001881,43.9220598,4912.09,-9,-26.1,313.8,510684.31,-106740.13,308.4,Weapon+Missile,Blue,Enemies,AIM-120B,,us,,139.325924261222,109.666664123535,0.433993885371834,4912.08740234375,3349.20239257812,126.749876966548,-57.84619140625,0.0591586288900399,NaN,0.261514282941448,3.01626980752899,2690.38707641007,0.175470739603043,0.175470739603043,0.175470739603043,970.585658562183,4817.11219241943,5787.69785098162,,,62.210000038147,1562.88500976562,27233.1027844843,27321.0596639709
2018-07-19T09:02:20Z,1531990940,27C08,40.5990797,43.9228224,4847.87,-9.2,-29,313.5,510587.44,-106663.66,308.2,Weapon+Missile,Blue,Enemies,AIM-120B,,us,,139.131605024087,109.877304077148,0.433036619439129,4847.86767578125,3239.73254394531,123.42378310851,-64.2197265625,0.0668813139235804,NaN,0.199987938897973,2.88659589137194,2782.05814879579,0.178748235106468,0.178748235106468,0.178748235106468,967.880175828934,4754.13415427002,5722.01433009895,,,63.210000038147,1608.13513183594,27356.0044304138,27459.8116383299
2018-07-19T09:02:21Z,1531990941,27C08,40.5979949,43.9235608,4777.53,-9.3,-31.8,313.2,510492.75,-106589.67,307.8,Weapon+Missile,Blue,Enemies,AIM-120B,,us,,139.237581202652,110.364631652832,0.432981638655629,4777.52783203125,3119.15209960938,120.164097801259,-70.33984375,0.0458577406387354,NaN,0.184633673643785,2.8080911911557,2905.03969436225,0.186053290963173,0.186053290963173,0.186053290963173,969.355200958252,4685.15433139893,5654.50953235718,,,64.210000038147,1658.37573242188,27475.6858297684,27598.7107213403
2018-07-19T09:02:22Z,1531990942,27C08,40.5969314,43.9242764,4701.22,-9.2,-34.4,312.8,510400,-106518.07,307.5,Weapon+Missile,Blue,Enemies,AIM-120B,,us,,139.83024270064,111.282669067383,0.434406516377742,4701.21826171875,3000.115234375,117.172293023741,-76.3095703125,0.192816213392671,NaN,0.123103914505725,2.13047132524991,5000,0.483569741249084,0.483569741249084,0.483569741249084,977.624838685989,4610.32020662842,5587.94504531441,,,65.210000038147,1701.10302734375,27592.3711289377,27738.2057084697
2018-07-19T09:02:23Z,1531990943,27C08,40.5958665,43.924986,4621.06,-7.2,-33.7,312.7,510307.19,-106447.15,307.3,Weapon+Missile,Blue,Enemies,AIM-120B,,us,,141.666821513465,113.240943908691,0.439668519044107,4621.0595703125,2896.91430664062,116.807844384552,-80.15869140625,0.0432375874777461,NaN,2.55383163632986,0.201498878128001,5000,1.22914969921112,1.22914969921112,1.22914969921112,1003.4744158864,4531.71138352051,5535.18579940691,,,66.210000038147,1724.14526367188,27708.6871798471,27879.5373090498
2018-07-19T09:02:24Z,1531990944,27C08,40.594779,43.9257095,4544,-5.2,-32.2,312.7,510212.44,-106374.84,307.4,Weapon+Missile,Blue,Enemies,AIM-120B,,us,,141.928530293313,113.905502319336,0.440054728633722,4544,2807.51306152344,119.186955387209,-77.0595703125,0.0851051403179748,NaN,1.90773330688709,1.56537679820767,5000,1.21052217483521,1.21052217483521,1.21052217483521,1007.18538556099,4456.14176,5463.32714556099,,,67.210000038147,1736.48693847656,27827.3865098632,28021.1281333903
2018-07-19T09:02:25Z,1531990945,27C08,40.5936688,43.926449,4469.55,-3.6,-30.8,312.7,510115.69,-106300.93,307.4,Weapon+Missile,Blue,Enemies,AIM-120B,,us,,142.713670213781,114.987159729004,0.442076378611563,4469.54638671875,2737.38305664062,121.753238705399,-74.45361328125,0.08978948425703,NaN,1.5384322355405,1.2978536563439,5000,1.14361798763275,1.14361798763275,1.14361798763275,1018.35958329439,4383.12770733154,5401.48729062593,,,68.210000038147,1732.16333007812,27948.6316971634,28163.4816294041
2018-07-19T09:02:26Z,1531990946,27C08,40.5925452,43.9271991,4397.39,-2.5,-29.9,312.8,510017.75,-106225.94,307.5,Weapon+Missile,Blue,Enemies,AIM-120B,,us,,142.908401366289,115.573638916016,0.442280144150961,4397.38525390625,2672.23229980469,123.351457600975,-72.1611328125,0.0239263016004535,NaN,0.938450916486827,0.989462931355008,5000,1.0909276008606,1.0909276008606,1.0909276008606,1021.14055905342,4312.36181002197,5333.50236907539,,,69.210000038147,1725.15295410156,28071.4666517748,28306.0180755871
2018-07-19T09:02:27Z,1531990947,27C08,40.5914155,43.9279556,4327.28,-1.7,-29.1,312.9,509919.28,-106150.28,307.6,Weapon+Missile,Blue,Enemies,AIM-120B,,us,,142.599928608966,115.733871459961,0.440939272594423,4327.27978515625,2597.44519042969,124.177143189176,-70.10546875,0.0307512114055726,NaN,0.769226576497414,0.794958140256674,5000,1.04792392253876,1.04792392253876,1.04792392253876,1016.73698196411,4243.61183051025,5260.34881247437,,,70.210000038147,1729.83459472656,28195.1356917555,28448.2493523355
2018-07-19T09:02:28Z,1531990948,27C08,40.590277,43.9287206,4258.46,-1.2,-28.5,313,509819.97,-106073.75,307.7,Weapon+Missile,Blue,Enemies,AIM-120B,,us,,143.026723195394,116.495651245117,0.441879703936883,4258.45654296875,2524.82641601562,125.379443621403,-68.8232421875,0.0318252984888178,NaN,0.230755379787942,0.583505301950011,5000,1.00443887710571,1.00443887710571,1.00443887710571,1022.83217740059,4176.11928571045,5198.95146311104,,,71.210000038147,1733.63012695312,28319.973553821,28590.8751428576
2018-07-19T09:02:29Z,1531990949,27C08,40.5891373,43.9294889,4190.88,-0.8,-28.1,313.1,509720.59,-105996.84,307.8,Weapon+Missile,Blue,Enemies,AIM-120B,,us,,142.676441334706,116.605804443359,0.440426960568357,4190.8798828125,2469.19653320312,125.658115193817,-67.57666015625,0.0238416960931283,NaN,0.292290048124468,0.413544422108147,5000,0.978930115699768,0.978930115699768,0.978930115699768,1017.82834559679,4109.84922027832,5127.67756587511,,,72.210000038147,1721.68334960938,28445.1215854786,28733.1754932567
2018-07-19T09:02:30Z,1531990950,27C08,40.5879984,43.9302594,4124.31,-0.5,-27.7,313.2,509621.25,-105919.7,307.9,Weapon+Missile,Blue,Enemies,AIM-120B,,us,,142.313469711337,116.698699951172,0.438943293125116,4124.30615234375,2429.88049316406,125.781803424637,-66.57373046875,0.0498591042057564,NaN,0.199987938897973,0.409502711027645,5000,0.949924409389496,0.949924409389496,0.949924409389496,1012.65618306398,4044.56269288818,5057.21887595217,,,73.210000038147,1694.42565917969,28570.3939828241,28875.1110455508
2018-07-19T09:02:31Z,1531990951,27C08,40.5868589,43.931033,4058.3,-0.3,-27.5,313.3,509521.81,-105842.22,308,Weapon+Missile,Blue,Enemies,AIM-120B,,us,,142.292796178801,117.073081970215,0.438520353144305,4058.30004882812,2404.20080566406,126.057265332334,-66.006103515625,0.0511375654226753,NaN,0.169220551368858,0.298380442430004,5000,0.939953565597534,0.939953565597534,0.939953565597534,1012.36199221909,3979.83281738403,4992.19480960312,,,74.210000038147,1654.09924316406,28695.9432965085,29017.0253311758
2018-07-19T09:02:32Z,1531990952,27C08,40.5857234,43.9318062,3993.01,-0.3,-27.4,313.4,509422.72,-105764.73,308.1,Weapon+Missile,Blue,Enemies,AIM-120B,,us,,141.729011494088,116.987854003906,0.436429874927982,3993.01220703125,2379.37487792969,125.795907773654,-65.287841796875,0.0352744109595533,NaN,0.0461720787892862,0.158258924844207,5000,0.921590924263,0.921590924263,0.921590924263,1004.35563495457,3915.8073160083,4920.16295096287,,,75.210000038147,1613.63732910156,28821.2221387675,29158.3657318222
2018-07-19T09:02:33Z,1531990953,27C08,40.5845906,43.93258,3928.15,-0.3,-27.3,313.5,509323.81,-105687.16,308.1,Weapon+Missile,Blue,Enemies,AIM-120B,,us,,141.442949757494,117.131736755371,0.435199828597805,3928.14526367188,2354.12915039062,125.691637332451,-64.866943359375,0.03828028003977,NaN,0.153870501622047,0.111028180073782,5000,0.90890234708786,0.90890234708786,0.90890234708786,1000.30540180504,3852.19457499878,4852.49997680382,,,76.210000038147,1574.01611328125,28946.3873042453,29299.4100560531
2018-07-19T09:02:34Z,1531990954,27C08,40.5834642,43.9333517,3863.77,-0.1,-27.1,313.6,509225.44,-105609.78,308.2,Weapon+Missile,Blue,Enemies,AIM-120B,,us,,140.746350444557,116.925300598145,0.432712516559398,3863.77294921875,2327.59643554688,125.162855094513,-64.372314453125,0.0679239215137418,NaN,0.184604258473629,0.0917269792839317,5000,0.900311410427094,0.900311410427094,0.900311410427094,990.476758173108,3789.06689924561,4779.54365741871,,,77.210000038147,1536.17651367188,29071.0287157235,29439.7605501882
2018-07-19T09:02:35Z,1531990955,27C08,40.5823411,43.9341231,3799.62,-0.2,-27.2,313.6,509127.34,-105532.4,308.3,Weapon+Missile,Blue,Enemies,AIM-120B,,us,,140.447853173832,117.051856994629,0.431453569100824,3799.62377929688,2303.22436523438,124.941920344905,-64.149169921875,0.0448340353812331,NaN,0.0769352508110236,0.0984159489567691,5000,0.912070393562317,0.912070393562317,0.912070393562317,986.279973056912,3726.15805352417,4712.43802658108,,,78.210000038147,1496.3994140625,29195.4462150652,29579.8085232723
2018-07-19T09:02:36Z,1531990956,27C08,40.5812219,43.934894,3735.87,-0.1,-27.1,313.7,509029.59,-105455.06,308.4,Weapon+Missile,Blue,Enemies,AIM-120B,,us,,139.999900817836,117.047729492188,0.429740225954357,3735.87377929688,2284.59497070312,124.643129489771,-63.75,0.0337403917726967,NaN,0.0615263440434749,0.0484566469995765,5000,0.870141685009003,0.870141685009003,0.870141685009003,979.998611450195,3663.64065977417,4643.63927122437,,,79.210000038147,1451.27880859375,29319.6001313764,29719.4382981405
2018-07-19T09:02:37Z,1531990957,27C08,40.5801112,43.9356606,3672.31,-0.6,-27.8,313.7,508932.56,-105378.12,308.4,Weapon+Missile,Blue,Enemies,AIM-120B,,us,,139.197780941158,116.739791870117,0.426944512823115,3672.30981445312,2264.17980957031,123.837169671651,-63.56396484375,0.147768238344532,NaN,0.830769569126991,1.2348686400258,3495.07375721056,0.318897068500519,0.318897068500519,0.318897068500519,968.801110947132,3601.30570419067,4570.10681513781,,,80.210000038147,1408.13000488281,29442.9313205807,29858.249796311
2018-07-19T09:02:38Z,1531990958,27C08,40.5790219,43.9364115,3603.77,-2.4,-31.1,313.6,508837.41,-105302.76,308.3,Weapon+Missile,Blue,Enemies,AIM-120B,,us,,139.397939279294,117.313674926758,0.427199123345767,3603.767578125,2243.17919921875,121.382648325257,-68.542236328125,0.0202668634187953,NaN,1.56924962218877,2.7738768526124,2514.20522177603,0.0745594948530197,0.0745594948530197,0.0745594948530197,971.589273765683,3534.08873200195,4505.67800576764,,,81.210000038147,1360.58837890625,29563.8124185378,29997.271205342
2018-07-19T09:02:39Z,1531990959,27C08,40.577961,43.9371393,3528.26,-3.9,-34.2,313.5,508744.75,-105229.77,308.2,Weapon+Missile,Blue,Enemies,AIM-120B,,us,,140.047991825738,118.316078186035,0.428794651470073,3528.25903320312,2187.77746582031,117.94871622109,-75.508544921875,0.0265790642569936,NaN,1.3384438697557,3.03767391284052,2704.79089461761,0.0983265340328217,0.0983265340328217,0.0983265340328217,980.672000721097,3460.04014479614,4440.71214551724,,,82.210000038147,1340.48156738281,29681.2734328328,30136.9639483179
2018-07-19T09:02:40Z,1531990960,27C08,40.5769378,43.9378365,3447.1,-4.9,-37,313.3,508655.44,-105159.89,307.9,Weapon+Missile,Blue,Enemies,AIM-120B,,us,,139.451591269557,118.283988952637,0.426545352213532,3447.10229492188,2123.18688964844,113.40339562447,-81.15673828125,0.0422013565700492,NaN,0.969231163981489,2.83656219438066,2847.77590367672,0.1107087880373,0.1107087880373,0.1107087880373,972.337315380573,3380.45257204956,4352.78988743013,,,83.210000038147,1323.91540527344,29794.1895774457,30276.0697340229
2018-07-19T09:02:41Z,1531990961,27C08,40.5759363,43.938513,3359.55,-5.6,-39.7,313,508568.12,-105092.16,307.7,Weapon+Missile,Blue,Enemies,AIM-120B,,us,,140.983335951779,120.126167297363,0.430770362996119,3359.55297851562,2066.3447265625,110.50528590475,-87.54931640625,0.0498010722434819,NaN,0.569200644672183,2.70563920737915,3100.68107385874,0.130779102444649,0.130779102444649,0.130779102444649,993.815050804615,3294.59602167602,4288.41107248064,,,84.210000038147,1293.20825195312,29904.2613271396,30416.75948535
2018-07-19T09:02:42Z,1531990962,27C08,40.5749664,43.9391616,3266.98,-6,-42.2,312.7,508483.59,-105027.28,307.4,Weapon+Missile,Blue,Enemies,AIM-120B,,us,,141.153565420963,120.828842163086,0.430804904446285,3266.978515625,2012.86694335938,106.556547671002,-92.574462890625,0.0083721561434382,NaN,0.369212705774209,2.56871952772979,3293.29411392613,0.136850357055664,0.136850357055664,0.136850357055664,996.21645155251,3203.81148602539,4200.0279375779,,,85.210000038147,1254.11157226562,30010.3683181425,30557.6155285871
2018-07-19T09:02:43Z,1531990963,27C08,40.5740146,43.9397906,3168.56,-6.3,-44.6,312.3,508400.75,-104964.45,307,Weapon+Missile,Blue,Enemies,AIM-120B,,us,,143.165011058335,123.175025939941,0.436422128254139,3168.56225585938,1959.4853515625,103.973362959357,-98.416259765625,0.0658063008648422,NaN,0.199987938897973,2.37138234256001,3555.59286504698,0.141843840479851,0.141843840479851,0.141843840479851,1024.81101956666,3107.29810464233,4132.10912420899,,,86.210000038147,1209.07690429688,30113.9211210128,30700.5132738107
2018-07-19T09:02:44Z,1531990964,27C08,40.5730849,43.940397,3065.03,-6.4,-46.9,311.9,508319.91,-104903.96,306.6,Weapon+Missile,Blue,Enemies,AIM-120B,,us,,144.620018255871,125.082862854004,0.440305087849507,3065.02514648438,1901.796875,100.970375173105,-103.537109375,0.0399582492565268,NaN,0,2.22389465271734,3806.49770781248,0.144178777933121,0.144178777933121,0.144178777933121,1045.74748401642,3005.7628852771,4051.51036929352,,,87.210000038147,1163.22827148438,30214.4730141021,30844.8756656478
2018-07-19T09:02:45Z,1531990965,27C08,40.5721792,43.9409798,2956.9,-6.4,-49,311.5,508241.22,-104845.93,306.2,Weapon+Missile,Blue,Enemies,AIM-120B,,us,,145.775771102083,126.769706726074,0.443244522286481,2956.89916992188,1825.7353515625,97.7719214949389,-108.1259765625,0.069199475504983,NaN,0,2.12471795809123,4106.05053380978,0.149617582559586,0.149617582559586,0.149617582559586,1062.52877202034,2899.72752447144,3962.25629649178,,,88.210000038147,1131.16381835938,30311.8334116992,30990.4065063353
2018-07-19T09:02:46Z,1531990966,27C08,40.5712962,43.9415396,2844.46,-6.3,-50.9,311.1,508164.59,-104790.27,305.8,Weapon+Missile,Blue,Enemies,AIM-120B,,us,,147.012338478117,128.567077636719,0.446399262451374,2844.45532226562,1735.89001464844,94.7048509267741,-112.44384765625,0,NaN,0.199987938897973,1.97488772680666,4368.89422959924,0.147967711091042,0.147967711091042,0.147967711091042,1080.63138324022,2789.45777860962,3870.08916184984,,,89.210000038147,1108.56530761719,30406.1334439299,31137.1859501615
2018-07-19T09:02:47Z,1531990967,27C08,40.5704302,43.9420802,2727.21,-6.2,-52.8,310.6,508089.53,-104736.63,305.3,Weapon+Missile,Blue,Enemies,AIM-120B,,us,,149.194793153941,131.250762939453,0.452388494693483,2727.2060546875,1629.38745117188,92.2588508309128,-117.249267578125,0.0679755125182507,NaN,0.199987938897973,1.88981515937321,4698.69582142488,0.143038600683212,0.143038600683212,0.143038600683212,1112.95431521237,2674.47552562012,3787.42984083249,,,90.210000038147,1097.81860351562,30498.0001821561,31286.1633387994
2018-07-19T09:02:48Z,1531990968,27C08,40.5695876,43.942598,2606.24,-6,-54.5,310.2,508016.59,-104685.33,304.9,Weapon+Missile,Blue,Enemies,AIM-120B,,us,,150.282529307303,133.000564575195,0.455026814085365,2606.23999023438,1511.20446777344,89.1742668359132,-120.966064453125,0.0563191270130509,NaN,0.199987938897973,1.75684247529046,5000,0.144175678491592,0.144175678491592,0.144175678491592,1129.24193075001,2555.84834002319,3685.09027077321,,,91.210000038147,1095.03552246094,30586.7948654229,31436.2429142851
2018-07-19T09:02:49Z,1531990969,27C08,40.5687643,43.9430959,2481.26,-5.8,-56.2,309.8,507945.41,-104636.11,304.4,Weapon+Missile,Blue,Enemies,AIM-120B,,us,,152.017790833151,135.372894287109,0.459594223333091,2481.26293945312,1391.75854492188,86.5456267399601,-124.97705078125,0.0605778202997025,NaN,0.261522820677911,1.65906106024574,5000,0.141718462109566,0.141718462109566,0.141718462109566,1155.47043648958,2433.2877205188,3588.75815700838,,,92.210000038147,1089.50439453125,30672.9748324094,31588.0723423523
2018-07-19T09:02:50Z,1531990970,27C08,40.567962,43.9435733,2352.74,-5.5,-57.7,309.3,507876.09,-104589.01,304,Weapon+Missile,Blue,Enemies,AIM-120B,,us,,153.430532561406,137.495910644531,0.463155904503016,2352.73999023438,1259.45324707031,83.8020276973738,-128.52294921875,0.0365924547004798,NaN,0.369254540682876,1.60904006313744,5000,0.131771445274353,0.131771445274353,0.131771445274353,1177.04641610384,2307.24976252319,3484.29617862703,,,93.210000038147,1093.28674316406,30756.3991768485,31741.3141298341
2018-07-19T09:02:51Z,1531990971,27C08,40.5671751,43.9440339,2219.94,-5.2,-59.1,308.8,507808.22,-104543.66,303.5,Weapon+Missile,Blue,Enemies,AIM-120B,,us,,155.883826091574,140.614120483398,0.469820248679538,2219.93676757812,1118.19812011719,81.6276380220725,-132.80322265625,0.0151496085743327,NaN,0.338478562056444,1.47984532743936,5000,0.133605450391769,0.133605450391769,0.133605450391769,1214.9883618474,2177.014290177,3392.0026520244,,,94.210000038147,1101.73864746094,30837.6820467287,31897.0329097528
2018-07-19T09:02:52Z,1531990972,27C08,40.5663867,43.9444879,2080.14,-5,-60.5,308.4,507740.28,-104499.05,303.1,Weapon+Missile,Blue,Enemies,AIM-120B,,us,,161.707648509357,146.906433105469,0.486567124741369,2080.13989257812,963.75,81.2785170057879,-139.796875,0.0144572834504719,NaN,0.276906114236072,1.35795825382295,5000,0.139622285962105,0.139622285962105,0.139622285962105,1307.46817932129,2039.92038775513,3347.38856707642,,,95.210000038147,1116.38989257812,30918.6012799479,32058.5739381389
