ISOTime,UnixTime,Id,Longitude,Latitude,Altitude,Roll,Pitch,Yaw,U,V,Heading,Type,Color,Coalition,Name,Group,Country,Pilot,TAS,CAS,M,ASL,AGL,GS,VS,AOA,AOS,RRT,TRT,TRD,G,LatG,LonG,Ek,Ep,Em,FFW,FFV,RelativeTime,Elev,GroundDistance,AirDistance
2018-07-19T09:01:31Z,1531990891,2C60B,41.1316624,43.8616017,2300.45,-15.1,-0.9,350.9,554029.94,-109366.91,345.2,Weapon+Missile,Blue,Enemies,R-77,,cn,,325.776640891722,297.891998291016,0.982800711354366,2300.4453125,1272.09423828125,NaN,NaN,NaN,NaN,NaN,NaN,NaN,NaN,NaN,NaN,NaN,2255.96620238281,NaN,,,0.0799999237060547,1028.35107421875,NaN,NaN
2018-07-19T09:01:32Z,1531990892,2C60B,41.1310543,43.8644489,2283.04,-12.3,-0.8,350.3,553949.75,-109055.41,344.6,Weapon+Missile,Blue,Enemies,R-77,,cn,,322.126199172445,294.635894775391,0.971587249912247,2283.03833007812,1310.33392333984,321.655538046914,-17.406982421875,3.16121412237431,NaN,2.6769560414031,2.03903346443486,5000,1.37956476211548,1.37956476211548,1.37956476211548,5188.26440966427,2238.89578396606,7427.16019363034,,,1.07999992370605,972.704406738281,320.684050503511,321.271191712717
2018-07-19T09:01:33Z,1531990893,2C60B,41.1300973,43.8680619,2256.59,-10,-1.5,348.8,553833.06,-108661.6,343.1,Weapon+Missile,Blue,Enemies,R-77,,cn,,411.57942973656,378.143920898438,1.24100377864143,2256.58984375,1295.66870117188,410.728748145565,-26.448486328125,1.03126697681469,NaN,2.27694089001942,0.95155175292344,5000,2.28493475914001,2.28493475914001,2.28493475914001,8469.88134911358,2212.95867912109,10682.8400282347,,,2.07999992370605,960.921142578125,730.150022395557,731.735878641971
2018-07-19T09:01:34Z,1531990894,2C60B,41.128867,43.8727695,2239.39,-8.4,-2.2,349.8,553682.44,-108148.35,344.1,Weapon+Missile,Blue,Enemies,R-77,,cn,,535.172348534631,486.397369384766,1.61333473143852,2239.38549804688,1270.93182373047,534.895740425179,-17.204345703125,0.0275300838272749,NaN,1.56923596181043,1.00350558684514,5000,0.937914192676544,0.937914192676544,0.937914192676544,14320.4721318036,2196.08697944214,16516.5591112458,,,3.07999992370605,968.453674316406,1263.4150778386,1265.46624027702
2018-07-19T09:01:35Z,1531990895,2C60B,41.1274579,43.8786182,2211.17,-6.9,-2.7,350.5,553504.81,-107509.73,344.8,Weapon+Missile,Blue,Enemies,R-77,,cn,,663.45965428658,597.552978515625,1.99940172095678,2211.16918945312,1226.07464599609,662.85937633514,-28.21630859375,0.0499321320181329,NaN,1.33849082730624,0.823197183854121,5000,0.888713121414185,0.888713121414185,0.888713121414185,22008.9356433034,2168.41623317505,24177.3518764784,,,4.07999992370605,985.094543457031,1924.23462313402,1927.11825925033
2018-07-19T09:01:36Z,1531990896,2C60B,41.1258915,43.8855276,2172.5,-5.7,-2.9,351,553302.94,-106754.52,345.3,Weapon+Missile,Blue,Enemies,R-77,,cn,,782.682665828809,701.852661132812,2.35761204004175,2172.5029296875,1224.16632080078,781.726982868462,-38.666259765625,0.844247071789552,NaN,1.13844824689491,1.20770369703619,5000,2.25743389129639,2.25743389129639,2.25743389129639,30629.6077694446,2130.49758554199,32760.1053549866,,,5.07999992370605,948.336608886719,2703.59015160253,2707.6998704183
2018-07-19T09:01:37Z,1531990897,2C60B,41.1243932,43.8933833,2120.91,-4.6,-2.9,351.4,553096.12,-105893.62,345.7,Weapon+Missile,Blue,Enemies,R-77,,cn,,886.893056537165,794.453125,2.66988617974654,2120.91064453125,1165.31378173828,885.391173350057,-51.59228515625,0.14079769976649,NaN,1.35386046048606,0.34378249743165,5000,2.33779215812683,2.33779215812683,2.33779215812683,39328.9646866918,2079.90283721924,41408.867523911,,,6.07999992370605,955.596862792969,3586.30478651457,3592.21752638294
2018-07-19T09:01:38Z,1531990898,2C60B,41.1225416,43.9021887,2073.43,-3.8,-2.6,351.5,552850.62,-104930.03,345.8,Weapon+Missile,Blue,Enemies,R-77,,cn,,995.508892021559,891.645263671875,2.99517980166965,2073.42602539062,1043.88647460938,994.375766518403,-47.484619140625,0.235659179834827,NaN,0.769238956215285,0.972605811040005,5000,4.28427314758301,4.28427314758301,4.28427314758301,49551.8977046996,2033.3363331897,51585.2340378893,,,7.07999992370605,1029.53955078125,4577.70097628519,4585.07584694564
2018-07-19T09:01:39Z,1531990899,2C60B,41.1212465,43.9107335,2030.56,-3.4,-2.6,356.3,552652.56,-103990.95,350.6,Weapon+Missile,Blue,Enemies,R-77,,cn,,960.70199806164,862.732788085938,2.88899421373938,2030.56372070312,1040.25476074219,959.745357850979,-42.8623046875,0.297209478381115,NaN,0.230763490637581,2.59771304042626,5000,4.7906928062439,4.7906928062439,4.7906928062439,46147.4164539814,1991.30277116333,48138.7192251447,,,8.07999992370605,990.308959960938,5534.56429438051,5543.20622060259
2018-07-19T09:01:40Z,1531990900,2C60B,41.1205913,43.9185186,1990.64,-2.7,-2.6,356.6,552514.38,-103131.2,350.9,Weapon+Missile,Blue,Enemies,R-77,,cn,,871.69934608292,785.825927734375,2.62011400854178,1990.64001464844,1013.68182373047,870.784616111384,-39.9237060546875,0.043038020412969,NaN,0.569251017317311,1.24932676311655,5000,1.00119638442993,1.00119638442993,1.00119638442993,37992.9874980696,1952.15098996521,39945.1384880348,,,9.07999992370605,976.958190917969,6402.78357029271,6412.61632931314
2018-07-19T09:01:41Z,1531990901,2C60B,41.1200044,43.925635,1954.09,-2.2,-2.6,356.6,552389,-102345.2,350.9,Weapon+Missile,Blue,Enemies,R-77,,cn,,796.767648097258,721.114196777344,2.39385637251435,1954.08764648438,934.592834472656,795.928771584515,-36.5523681640625,0.0500311059790944,NaN,0.461527408161986,0.0171320104161963,5000,0.999245345592499,0.999245345592499,0.999245345592499,31741.9342527218,1916.3053618396,33658.2396145614,,,10.0799999237061,1019.49481201172,7196.37339936577,7207.29265319431
2018-07-19T09:01:42Z,1531990902,2C60B,41.1194591,43.9322495,1920.09,-1.8,-2.6,356.6,552272.44,-101614.63,350.9,Weapon+Missile,Blue,Enemies,R-77,,cn,,740.591591786777,672.754760742188,2.22418702870603,1920.08605957031,945.676452636719,739.810650039993,-34.0015869140625,0.0510634449770292,NaN,0.399975877795947,0.0171320104161963,5000,1.00077784061432,1.00077784061432,1.00077784061432,27423.7952912636,1882.96119560852,29306.7564868721,,,11.0799999237061,974.409606933594,7934.0013818542,7945.92767127297
2018-07-19T09:01:43Z,1531990903,2C60B,41.1189584,43.9383237,1888.85,-1.4,-2.6,356.6,552165.44,-100943.74,350.9,Weapon+Missile,Blue,Enemies,R-77,,cn,,680.087584022504,620.445922851562,2.04172736422324,1888.84680175781,939.066040039062,679.369730495031,-31.2392578125,0.0556180126048324,NaN,0.384646798864322,0.0171320104161963,5000,1.00034201145172,1.00034201145172,1.00034201145172,23125.9560970783,1852.32594884583,24978.2820459241,,,12.0799999237061,949.78076171875,8611.36699851323,8624.21530498807
2018-07-19T09:01:44Z,1531990904,2C60B,41.1184954,43.9439404,1859.94,-1.2,-2.6,356.6,552066.5,-100323.38,350.9,Weapon+Missile,Blue,Enemies,R-77,,cn,,628.863833810359,576.165649414062,1.8873043668951,1859.94458007812,900.21484375,628.199317937102,-28.9022216796875,0.0547805391245165,NaN,0.199987938897973,0.0171320104161963,5000,1.00044691562653,1.00044691562653,1.00044691562653,19773.4860737331,1823.98255162231,21597.4686253554,,,13.0799999237061,959.729736328125,9237.70853488086,9251.40719869494
2018-07-19T09:01:45Z,1531990905,2C60B,41.1180669,43.9491395,1833.18,-1,-2.6,356.6,551974.94,-99749.14,350.9,Weapon+Missile,Blue,Enemies,R-77,,cn,,582.111889480725,535.676208496094,1.7464461948648,1833.17761230469,846.437622070312,581.496157606424,-26.7669677734375,0.0560854612626314,NaN,0.169220498008005,0.0171320104161963,5000,1.00177896022797,1.00177896022797,1.00177896022797,16942.712593741,1797.73312317078,18740.4457169117,,,14.0799999237061,986.739990234375,9817.4956210428,9831.97950786589
2018-07-19T09:01:46Z,1531990906,2C60B,41.1176689,43.9539681,1808.32,-0.8,-2.6,356.6,551889.88,-99215.83,350.9,Weapon+Missile,Blue,Enemies,R-77,,cn,,540.625337107173,499.656646728516,1.62150529254881,1808.31994628906,780.364624023438,540.053563605037,-24.857666015625,0.0598147266854534,NaN,0.16922060472971,0.0171320104161963,5000,1.00071597099304,1.00071597099304,1.00071597099304,14613.7877561122,1773.35608012756,16387.1438362398,,,15.0799999237061,1027.95532226562,10355.9549645517,10371.1658649161
2018-07-19T09:01:47Z,1531990907,2C60B,41.1173018,43.9584234,1785.37,-0.6,-2.6,356.6,551811.38,-98723.73,350.9,Weapon+Missile,Blue,Enemies,R-77,,cn,,498.843659030347,463.154998779297,1.49578606661698,1785.37463378906,699.963134765625,498.31567182767,-22.9453125,0.0513482263799044,NaN,0.200042580411333,0.0171320104161963,5000,1.00031936168671,1.00031936168671,1.00031936168671,12442.2498077393,1750.85441524475,14193.104222984,,,16.0799999237061,1085.41149902344,10852.7867785434,10868.6670596977
2018-07-19T09:01:48Z,1531990908,2C60B,41.1169603,43.962567,1764.03,-0.5,-2.6,356.6,551738.38,-98266.09,350.9,Weapon+Missile,Blue,Enemies,R-77,,cn,,463.917739787566,432.443634033203,1.39071218026894,1764.02685546875,692.256713867188,463.42630660159,-21.3477783203125,0.0560502593559455,NaN,0.199987938897973,0.0171320104161963,5000,1.00142776966095,1.00142776966095,1.00142776966095,10760.9834644802,1729.91939621826,12490.9028606985,,,17.0799999237061,1071.77014160156,11314.8578892418,11331.3594765392
2018-07-19T09:01:49Z,1531990909,2C60B,41.1166456,43.9663855,1744.35,-0.4,-2.6,356.6,551671.12,-97844.34,350.9,Weapon+Missile,Blue,Enemies,R-77,,cn,,427.530882737779,400.021545410156,1.2813376887105,1744.35375976562,689.445556640625,427.078008096882,-19.673095703125,0.0589638578137655,NaN,0.153836991006432,0.0171320104161963,5000,1.00184881687164,1.00184881687164,1.00184881687164,9139.13278472722,1710.62667982056,10849.7594645478,,,18.0799999237061,1054.908203125,11740.6799581727,11757.7527442613
2018-07-19T09:01:50Z,1531990910,2C60B,41.1163548,43.9699263,1726.12,-0.4,-2.5,357.3,551608.81,-97453.26,351.6,Weapon+Missile,Blue,Enemies,R-77,,cn,,396.438589254264,371.851470947266,1.18789820924925,1726.11926269531,669.015747070312,396.019012380093,-18.2344970703125,1.17365075528761,NaN,0.0461510546132472,3.71847920822047,3275.51031916831,4.60177135467529,4.60177135467529,4.60177135467529,7858.17775249556,1692.7447467511,9550.92249924666,,,19.0799999237061,1057.103515625,12135.5279748863,12153.1288889106
2018-07-19T09:01:51Z,1531990911,2C60B,41.1166188,43.9730562,1715.37,-0.9,-0.9,10.3,551595.56,-97103.42,4.6,Weapon+Missile,Blue,Enemies,R-77,,cn,,350.251710816837,328.499267578125,1.04937059205401,1715.37145996094,659.911254882812,350.086768768121,-10.747802734375,0.419317773194564,NaN,0.399975877795947,9.76222801748008,1626.06116177776,7.37867593765259,7.37867593765259,7.37867593765259,6133.81304650605,1682.20475278259,7816.01779928864,,,20.0799999237061,1055.46020507812,12484.5896235774,12502.4500918967
2018-07-19T09:01:52Z,1531990912,2C60B,41.1176312,43.9756513,1713.65,-1,0.2,21.5,551648.31,-96807.03,15.8,Weapon+Missile,Blue,Enemies,R-77,,cn,,301.053028397216,281.227630615234,0.901950847627877,1713.65075683594,652.740966796875,301.048110918987,-1.720703125,0.250871354309006,NaN,0,11.3190432802848,1743.13755573941,5.26059579849243,5.26059579849243,5.26059579849243,4531.64629535675,1680.51731945251,6212.16361480927,,,21.0799999237061,1060.90979003906,12784.6517173933,12802.5977779087
2018-07-19T09:01:53Z,1531990913,2C60B,41.1190827,43.9778373,1716.48,-0.8,0.7,27.6,551740.62,-96552.62,21.8,Weapon+Missile,Blue,Enemies,R-77,,cn,,270.651369160731,252.14826965332,0.810894791309093,1716.48376464844,665.362182617188,270.636541685177,2.8330078125,0.24673670731033,NaN,0.199987938897973,5.31772531369664,5000,1.09975445270538,1.09975445270538,1.09975445270538,3662.60818142891,1683.29555105896,5345.90373248787,,,22.0799999237061,1051.12158203125,13054.3492601214,13072.382716821
2018-07-19T09:01:54Z,1531990914,2C60B,41.1204868,43.9798711,1719.08,-0.6,0.5,25,551830.94,-96315.51,19.3,Weapon+Missile,Blue,Enemies,R-77,,cn,,253.747166308779,236.045593261719,0.760271424666792,1719.07531738281,693.557006835938,253.733932031489,2.591552734375,0.0868651893205138,NaN,0.200042580411333,1.85691648601879,3912.2558168521,1.84948217868805,1.84948217868805,1.84948217868805,3219.38122048676,1685.83699612122,4905.21821660798,,,23.0799999237061,1025.51831054688,13307.1490393927,13325.2638605114
2018-07-19T09:01:55Z,1531990915,2C60B,41.1216432,43.9818564,1720.46,-0.5,0.2,20.5,551901.81,-96085.74,14.8,Weapon+Missile,Blue,Enemies,R-77,,cn,,240.452516040313,223.427368164062,0.720449946113694,1720.45532226562,717.572204589844,240.448555946258,1.3800048828125,0.0998013543804172,NaN,0.123069550116463,4.1228942820901,3292.82605110371,1.98643982410431,1.98643982410431,1.98643982410431,2890.87062350586,1687.19031860962,4578.06094211548,,,24.0799999237061,1002.88311767578,13546.7806765367,13564.9640831179
2018-07-19T09:01:56Z,1531990916,2C60B,41.1225444,43.9837888,1721.24,-0.5,0.5,17.7,551952.88,-95863.88,12,Weapon+Missile,Blue,Enemies,R-77,,cn,,227.661114446317,211.323806762695,0.682130324766449,1721.24389648438,724.408935546875,227.659748707673,0.78857421875,0.402986242647196,NaN,0.199987938897973,1.85438397994059,5000,0.968953013420105,0.968953013420105,0.968953013420105,2591.47915154696,1687.96364574585,4279.4427972928,,,25.0799999237061,996.8349609375,13773.6753394324,13791.9213331723
2018-07-19T09:01:57Z,1531990917,2C60B,41.1234187,43.9856124,1721.49,-0.2,-0.7,21.4,552002.94,-95654.32,15.7,Weapon+Missile,Blue,Enemies,R-77,,cn,,215.459408236812,199.811157226562,0.645572796714306,1721.49145507812,710.355346679688,215.459266016804,0.24755859375,0.202133689854629,NaN,0.246193635024581,3.51547894245511,2005.5050377175,2.18048095703125,2.18048095703125,2.18048095703125,2321.13782988787,1688.20641779419,4009.34424768206,,,26.0799999237061,1011.13610839844,13988.4159224004,14006.7200142006
2018-07-19T09:01:58Z,1531990918,2C60B,41.1244799,43.9872597,1714.94,0,-3.1,28.9,552069.94,-95462.85,23.2,Weapon+Missile,Blue,Enemies,R-77,,cn,,202.95867499072,188.102951049805,0.60807064805307,1714.9384765625,689.84814453125,202.852858561477,-6.552978515625,0.220385129795511,NaN,0,6.96394689896323,1544.4411873978,2.5619204044342,2.5619204044342,2.5619204044342,2059.61118769944,1681.78014111816,3741.3913288176,,,27.0799999237061,1025.09033203125,14190.5420368347,14209.0067477699
2018-07-19T09:01:59Z,1531990919,2C60B,41.1257193,43.9886772,1702.77,-0.3,-4.3,35.9,552153.69,-95295.52,30.2,Weapon+Missile,Blue,Enemies,R-77,,cn,,187.512226968102,173.697998046875,0.561712541598149,1702.77001953125,669.7978515625,187.116979229614,-12.16845703125,0.0912875579430649,NaN,0.400030519309307,7.22873326940393,1910.46342584253,1.93163633346558,1.93163633346558,1.93163633346558,1758.04176312685,1669.84696120361,3427.88872433046,,,28.0799999237061,1032.97216796875,14376.9581329565,14395.8694137794
2018-07-19T09:02:00Z,1531990920,2C60B,41.1270573,43.9899226,1688.27,-0.1,-4.6,36.5,552247.31,-95146.5,30.8,Weapon+Missile,Blue,Enemies,R-77,,cn,,176.589888855011,163.57307434082,0.528903710853663,1688.26611328125,649.000244140625,175.993254272192,-14.50390625,0.0359998963437552,NaN,0.707704287878759,0.483156749633565,2453.34455658977,1.65399277210236,1.65399277210236,1.65399277210236,1559.19944229126,1655.62348798096,3214.82293027222,,,29.0799999237061,1039.26586914062,14552.1871347533,14571.7440664094
2018-07-19T09:02:01Z,1531990921,2C60B,41.1281985,43.9911582,1675.56,0.3,-4.2,32.1,552325.19,-95000.13,26.4,Weapon+Missile,Blue,Enemies,R-77,,cn,,166.281068348512,154.01692199707,0.497953724355057,1675.55688476562,626.895874023438,165.794659750126,-12.709228515625,0.164860756716889,NaN,0.292307710566775,3.69275799646667,5000,1.17446184158325,1.17446184158325,1.17446184158325,1382.46968455613,1643.15999239868,3025.62967695481,,,30.0799999237061,1048.66101074219,14717.3320325531,14737.4207012193
2018-07-19T09:02:02Z,1531990922,2C60B,41.129241,43.9923685,1663.85,0.2,-4.2,31.9,552395.5,-94857.38,26.2,Weapon+Missile,Blue,Enemies,R-77,,cn,,159.557420727867,147.811370849609,0.477753274356666,1663.84533691406,599.800048828125,159.127025222776,-11.7115478515625,0.0330995387180922,NaN,0.153870501622047,0.686865487442756,5000,0.998621106147766,0.998621106147766,0.998621106147766,1272.92852546647,1631.67488732483,2904.6034127913,,,31.0799999237061,1064.04528808594,14875.8267236334,14896.3888790246
2018-07-19T09:02:03Z,1531990923,2C60B,41.1302436,43.9935339,1652.58,0.2,-4.2,31.9,552463.06,-94719.91,26.2,Weapon+Missile,Blue,Enemies,R-77,,cn,,153.594769435509,142.314270019531,0.459839074080321,1652.58227539062,573.749633789062,153.181254215607,-11.2630615234375,0.0196280173212019,NaN,0,0.0139882274201861,5000,0.996534883975983,0.996534883975983,0.996534883975983,1179.56765989736,1620.62959709595,2800.1972569933,,,32.0799999237061,1078.83264160156,15028.40275101,15049.4196171991
2018-07-19T09:02:04Z,1531990924,2C60B,41.1312143,43.9946624,1641.67,0.2,-4.2,31.9,552528.5,-94586.81,26.2,Weapon+Missile,Blue,Enemies,R-77,,cn,,148.711492965378,137.823577880859,0.445162479059515,1641.66918945312,548.656127929688,148.310527931474,-10.9130859375,0.0419535220780446,NaN,0,0.0139882274201861,5000,0.997981548309326,0.997981548309326,0.997981548309326,1105.75540699959,1609.92751567505,2715.68292267464,,,33.0799999237061,1093.01306152344,15176.1347595786,15197.5922042202
2018-07-19T09:02:05Z,1531990925,2C60B,41.1321484,43.9957482,1631.17,0.1,-4.2,31.9,552591.44,-94458.74,26.2,Weapon+Missile,Blue,Enemies,R-77,,cn,,143.084829817235,132.634948730469,0.428266714945675,1631.17468261719,533.248657226562,142.699452872454,-10.4945068359375,0.0363524697895693,NaN,0,0.0139882274201861,5000,0.996571600437164,0.996571600437164,0.996571600437164,1023.66342619136,1599.63592012878,2623.29934632014,,,34.0799999237061,1097.92602539062,15318.2715921786,15340.1523037745
2018-07-19T09:02:06Z,1531990926,2C60B,41.1330539,43.9968008,1620.99,0.1,-4.2,31.9,552652.5,-94334.59,26.2,Weapon+Missile,Blue,Enemies,R-77,,cn,,138.733923189049,128.635513305664,0.415194607074037,1620.99145507812,521.5205078125,138.359688205461,-10.1832275390625,0.0305258091249172,NaN,0,0.0139882274201861,5000,0.997825145721436,0.997825145721436,0.997825145721436,962.355072171241,1589.64958529419,2552.00465746543,,,35.0799999237061,1099.47094726562,15456.0756477783,15478.3671363356
2018-07-19T09:02:07Z,1531990927,2C60B,41.1339234,43.9978114,1611.22,0.1,-4.2,31.9,552711.06,-94215.38,26.2,Weapon+Missile,Blue,Enemies,R-77,,cn,,133.177685566201,123.50715637207,0.398520720232563,1611.21997070312,502.77783203125,132.81872618678,-9.771484375,0.0272102857871018,NaN,0,0.0139882274201861,5000,0.996930241584778,0.996930241584778,0.996930241584778,886.814796638489,1580.06703256958,2466.88182920807,,,36.0799999237061,1108.44213867188,15588.3776045799,15611.0628827154
2018-07-19T09:02:08Z,1531990928,2C60B,41.1347617,43.9987858,1601.79,0.1,-4.2,31.9,552767.56,-94100.44,26.2,Weapon+Missile,Blue,Enemies,R-77,,cn,,128.420189108158,119.121894836426,0.384242071714421,1601.79309082031,482.846557617188,128.073724495893,-9.4268798828125,0.0185299503233312,NaN,0,0.0139882274201861,5000,0.997621655464172,0.997621655464172,0.997621655464172,824.587248528749,1570.8224214093,2395.40966993805,,,37.0799999237061,1118.94653320312,15715.9442996021,15739.0094594524
2018-07-19T09:02:09Z,1531990929,2C60B,41.1355655,43.99972,1592.76,0.1,-4.2,31.9,552821.69,-93990.25,26.2,Weapon+Missile,Blue,Enemies,R-77,,cn,,123.095137079883,114.203544616699,0.368270284178091,1592.75915527344,462.346801757812,122.763189846346,-9.033935546875,0.449686739987168,NaN,0,1.03087500862303,3484.80982467358,0.57009756565094,0.57009756565094,0.57009756565094,757.620638635755,1561.96315700623,2319.58379564198,,,38.0799999237061,1130.41235351562,15838.2493739725,15861.6782667057
2018-07-19T09:02:10Z,1531990930,2C60B,41.1363378,44.0006174,1579.88,1.5,-8.6,31.9,552873.75,-93884.39,26.2,Weapon+Missile,Blue,Enemies,R-77,,cn,,118.670486347896,110.145530700684,0.354979410131795,1579.87609863281,438.938232421875,117.969111133553,-12.883056640625,0.0717057111992472,NaN,1.53846158400958,3.38849846870858,1464.96953036656,0.0239084772765636,0.0239084772765636,0.0239084772765636,704.134216502309,1549.32919426575,2253.46341076806,,,39.0799999237061,1140.93786621094,15955.7383070153,15979.9004712592
2018-07-19T09:02:11Z,1531990931,2C60B,41.1370778,44.0014759,1558.2,2.7,-13.3,32,552923.56,-93783.12,26.2,Weapon+Missile,Blue,Enemies,R-77,,cn,,114.917221884075,106.756134033203,0.34366527860609,1558.19763183594,403.416748046875,112.853940838992,-21.678466796875,0.0706991903369352,NaN,1.16923105571051,4.70797298214845,1413.50291032912,0.0402059368789196,0.0402059368789196,0.0402059368789196,660.298394277692,1528.06988062439,2188.36827490208,,,40.0799999237061,1154.78088378906,16068.1859820957,16094.4459096793
2018-07-19T09:02:12Z,1531990932,2C60B,41.1377829,44.0022917,1528.36,3.7,-17.9,32.1,552971.12,-93686.87,26.3,Weapon+Missile,Blue,Enemies,R-77,,cn,,111.436273364025,103.656852722168,0.333139355624958,1528.35998535156,359.016723632812,107.367396697206,-29.837646484375,0.0679698299057431,NaN,0.769230845365645,4.61640063594609,1375.8012235367,0.041542761027813,0.041542761027813,0.041542761027813,620.902151063085,1498.80914503479,2119.71129609787,,,41.0799999237061,1169.34326171875,16175.1176984659,16205.4873938319
2018-07-19T09:02:13Z,1531990933,2C60B,41.1384664,44.0030786,1490.27,4.5,-22.4,32.2,553017.25,-93593.99,26.5,Weapon+Missile,Blue,Enemies,R-77,,cn,,110.473089204679,102.946258544922,0.330113292848735,1490.26770019531,305.112182617188,103.698029151956,-38.09228515625,0.0232578072714655,NaN,0.630768823624324,4.52530384166469,1399.55841754191,0.0541283898055553,0.0541283898055553,0.0541283898055553,610.215171921253,1461.45337421204,2071.66854613329,,,42.0799999237061,1185.15551757812,16278.403192894,16315.596271844
2018-07-19T09:02:14Z,1531990934,2C60B,41.1391218,44.0038281,1444.77,5.1,-26.9,32.4,553061.56,-93505.5,26.7,Weapon+Missile,Blue,Enemies,R-77,,cn,,108.924303305526,101.720024108887,0.325312829555012,1444.77001953125,242.86669921875,98.9669889649329,-45.4976806640625,0.0449438342165707,NaN,0.492307228769825,4.45754366934311,1430.97443910235,0.0605383552610874,0.0605383552610874,0.0605383552610874,593.225192529708,1416.83539120361,2010.06058373332,,,43.0799999237061,1201.9033203125,16376.9693248356,16424.1770828714
2018-07-19T09:02:15Z,1531990935,2C60B,41.1397579,44.0045489,1391.77,5.5,-31.2,32.7,553104.62,-93420.34,27,Weapon+Missile,Blue,Enemies,R-77,,cn,,109.153502375996,102.195610046387,0.325796449672611,1391.77453613281,172.988037109375,95.425184413301,-52.9954833984375,0.0834714891042595,NaN,0.400000637231688,4.27482074111964,1735.65962648038,0.162894725799561,0.162894725799561,0.162894725799561,595.724354047328,1364.86457547668,1960.58892952401,,,44.0799999237061,1218.78649902344,16472.0084122091,16533.011667547
2018-07-19T09:02:16Z,1531990936,2C60B,41.1403762,44.0052422,1332.81,4.8,-32.6,32.9,553146.56,-93338.39,27.2,Weapon+Missile,Blue,Enemies,R-77,,cn,,109.327213752965,102.64981842041,0.326091465327561,1332.80529785156,98.0556640625,92.0601358000064,-58.96923828125,0.0766246960383971,NaN,1.50766863663193,2.07089756153541,2332.33907188732,0.329524725675583,0.329524725675583,0.329524725675583,597.621983349323,1307.0355074176,1904.65749076693,,,45.0799999237061,1234.74963378906,16563.7067786646,16642.0508980831
