ISOTime,UnixTime,Id,Longitude,Latitude,Altitude,Roll,Pitch,Yaw,U,V,Heading,Type,Color,Coalition,Name,Group,Country,Pilot,TAS,CAS,M,ASL,AGL,GS,VS,AOA,AOS,RRT,TRT,TRD,G,LatG,LonG,Ek,Ep,Em,FFW,FFV,RelativeTime,Elev,GroundDistance,AirDistance
2018-07-19T09:06:03Z,1531991163,45D0F,40.7599248,43.6580694,2760.07,-67.7,21.3,148.4,526277.81,-134870.55,142.9,Weapon+Missile,Blue,Enemies,R-73,,cn,,234.980750634974,208.318740844727,0.712789803243992,2760.06982421875,107.722412109375,NaN,NaN,3.23499154921863,NaN,5.18461901403826,0.17252735937743,NaN,NaN,NaN,NaN,NaN,2706.70387416748,NaN,,,0.519999980926514,2652.34741210938,NaN,NaN
2018-07-19T09:06:04Z,1531991164,45D0F,40.7617498,43.6555452,2877.64,-62.7,21.3,148.4,526451.44,-135137.16,142.9,Weapon+Missile,Blue,Enemies,R-73,,cn,,339.189466987816,303.485229492188,1.03035176839526,2877.64233398438,92.573486328125,318.160650399905,117.572509765625,3.16935499297528,NaN,5.01539424716202,0.00989117029631303,5000,1.6693342924118,1.6693342924118,1.6693342924118,5752.47472577393,2822.00311945679,8574.47784523072,,,1.51999998092651,2785.06884765625,317.11154400706,338.337009484247
2018-07-19T09:06:05Z,1531991165,45D0F,40.7644464,43.6521925,3043.06,-58,21.3,148.4,526704.06,-135489.17,142.9,Weapon+Missile,Blue,Enemies,R-73,,cn,,463.785957618473,411.490753173828,1.41165162150404,3043.06005859375,107.826171875,433.283268623588,165.417724609375,0.105366574197342,NaN,4.73845739707469,0.00989117029631303,5000,1.68700790405273,1.68700790405273,1.68700790405273,10754.8707242042,2984.22249236084,13739.093216565,,,2.51999998092651,2935.23388671875,748.928853980662,800.940885319484
2018-07-19T09:06:06Z,1531991166,45D0F,40.767942,43.6480801,3253.83,-53.8,21.3,148.4,527029.06,-135919.56,142.9,Weapon+Missile,Blue,Enemies,R-73,,cn,,579.03851840601,502.634918212891,1.76696052957488,3253.83129882812,283.3798828125,539.315390182675,210.771240234375,0.0647026641572653,NaN,4.04612210204551,0.00989117029631303,5000,0.940779805183411,0.940779805183411,0.940779805183411,16764.2802898914,3190.91847066528,19955.1987605566,,,3.51999998092651,2970.45141601562,1286.37778030317,1378.48837803154
2018-07-19T09:06:07Z,1531991167,45D0F,40.7720814,43.6432092,3503.46,-49.7,21.3,148.4,527414,-136429.28,142.9,Weapon+Missile,Blue,Enemies,R-73,,cn,,685.788430093598,583.029602050781,2.09908937584281,3503.46240234375,638.1123046875,638.741014032928,249.631103515625,0.06208822028208,NaN,3.81536416093663,0.00989117029631303,5000,0.939826667308807,0.939826667308807,0.939826667308807,23515.2885425121,3435.72295679443,26951.0114993065,,,4.51999998092651,2865.35009765625,1922.92091943312,2062.54410924723
2018-07-19T09:06:08Z,1531991168,45D0F,40.7768106,43.6376434,3788.71,-46.1,21.3,148.4,527853.88,-137011.72,142.9,Weapon+Missile,Blue,Enemies,R-73,,cn,,783.639509116968,653.133361816406,2.40700468120222,3788.71215820312,1022.47485351562,729.879070141931,285.249755859375,0.0646683456118703,NaN,3.64616671481708,0.00989117029631303,5000,0.92821478843689,0.92821478843689,0.92821478843689,30704.5440124542,3715.45740862427,34420.0014210784,,,5.51999998092651,2766.2373046875,2650.27358965294,2844.21818488085
2018-07-19T09:06:09Z,1531991169,45D0F,40.7813977,43.6322437,4065.43,-42.6,21.3,148.4,528280.62,-137576.77,142.9,Weapon+Missile,Blue,Enemies,R-73,,cn,,760.24118865812,626.655090332031,2.34313127422075,4065.4306640625,1466.177734375,708.091472514156,276.718505859375,0.0627315194417921,NaN,3.41538828314069,0.00989117029631303,5000,0.924771964550018,0.924771964550018,0.924771964550018,28898.3332466155,3986.82556217285,32885.1588087884,,,6.51999998092651,2599.2529296875,3355.88552200783,3602.55493514288
2018-07-19T09:06:10Z,1531991170,45D0F,40.7853932,43.6275396,4306.5,-39.5,21.3,148.4,528652.38,-138069.02,142.9,Weapon+Missile,Blue,Enemies,R-73,,cn,,662.287273846322,544.6875,2.04735585861697,4306.50390625,1741.95483398438,616.853406410307,241.0732421875,0.0648797120418773,NaN,3.27693351847536,0.00989117029631303,5000,0.926187813282013,0.926187813282013,0.926187813282013,21931.2216549397,4223.23765322266,26154.4593081623,,,7.51999998092651,2564.54907226562,3970.58712438322,4263.21408076411
2018-07-19T09:06:11Z,1531991171,45D0F,40.788892,43.6234196,4517.64,-36.5,21.3,148.4,528977.94,-138500.12,142.9,Weapon+Missile,Blue,Enemies,R-73,,cn,,580.022751237185,477.376922607422,1.79778798361088,4517.64404296875,2135.70678710938,540.227946906804,211.14013671875,0.0607978864694135,NaN,2.90771398251198,0.00989117029631303,5000,0.924550235271454,0.924550235271454,0.924550235271454,16821.3195976377,4430.29539539795,21251.6149930356,,,8.51999998092651,2381.93725585938,4508.95234220441,4841.8490202003
2018-07-19T09:06:12Z,1531991172,45D0F,40.7919864,43.6197752,4704.4,-33.9,21.3,148.4,529265.94,-138881.47,142.9,Weapon+Missile,Blue,Enemies,R-73,,cn,,513.073702596836,423.064605712891,1.59401489783486,4704.3994140625,2541.65234375,477.877657632225,186.75537109375,0.065631493803934,NaN,2.55384188161362,0.00989117029631303,5000,0.9284947514534,0.9284947514534,0.9284947514534,13162.2312148213,4613.4398513916,17775.6710662129,,,9.51999998092651,2162.7470703125,4985.15336309465,5353.68197993794
2018-07-19T09:06:13Z,1531991173,45D0F,40.7947726,43.6164936,4872.57,-31.4,21.3,148.4,529525.25,-139224.84,142.9,Weapon+Missile,Blue,Enemies,R-73,,cn,,461.984663159667,381.114776611328,1.43834155953508,4872.5673828125,2953.24890136719,430.289859607742,168.16796875,0.0620573939089306,NaN,2.32309077069391,0.00989117029631303,5000,0.927144467830658,0.927144467830658,0.927144467830658,10671.4914497376,4778.35629246582,15449.8477422034,,,10.5199999809265,1919.31848144531,5413.94936531018,5814.57530951029
2018-07-19T09:06:14Z,1531991174,45D0F,40.7972962,43.6135208,5024.91,-29,21.3,148.4,529760.19,-139535.91,142.9,Weapon+Missile,Blue,Enemies,R-73,,cn,,418.524535764791,344.556762695312,1.30555108057729,5024.90673828125,3375.69323730469,389.814709589697,152.33935546875,0.0637808113116466,NaN,2.3076955243047,0.00989117029631303,5000,0.929717719554901,0.929717719554901,0.929717719554901,8758.13935185671,4927.75016649658,13685.8895183533,,,11.5199999809265,1649.21350097656,5802.38264476071,6232.09407080296
2018-07-19T09:06:15Z,1531991175,45D0F,40.799568,43.6108444,5162.05,-26.9,21.3,148.4,529971.62,-139815.95,142.9,Weapon+Missile,Blue,Enemies,R-73,,cn,,376.75105933798,308.044555664062,1.17729435680171,5162.0537109375,3676.94128417969,350.901793388856,137.14697265625,0.0614724614785643,NaN,2.1076666042717,0.00989117029631303,5000,0.926987588405609,0.926987588405609,0.926987588405609,7097.06803561449,5062.24540243652,12159.313438051,,,12.5199999809265,1485.11242675781,6152.08289021654,6607.98627599929
2018-07-19T09:06:16Z,1531991176,45D0F,40.8016445,43.6083978,5287.42,-24.9,21.3,148.4,530165,-140071.94,142.9,Weapon+Missile,Blue,Enemies,R-73,,cn,,344.439512416863,278.569885253906,1.07804880166807,5287.419921875,3876.08422851562,320.814418112934,125.3662109375,0.058401388407907,NaN,1.93845549777381,0.00989117029631303,5000,0.930982649326324,0.930982649326324,0.930982649326324,5931.92888569832,5185.18765768555,11117.1165433839,,,13.5199999809265,1411.33569335938,6471.75904845186,6951.60965536291
2018-07-19T09:06:17Z,1531991177,45D0F,40.8035389,43.6061655,5401.81,-23.1,21.3,148.4,530341.38,-140305.5,142.9,Weapon+Missile,Blue,Enemies,R-73,,cn,,314.235960031833,250.878356933594,0.984957089654152,5401.80810546875,3977.71264648438,292.676582649261,114.38818359375,0.0705696756286251,NaN,1.73846414378125,0.00989117029631303,5000,0.929203569889069,0.929203569889069,0.929203569889069,4937.21192885637,5297.36414574951,10234.5760746059,,,14.5199999809265,1424.09545898438,6763.42816625207,7265.13503276355
2018-07-19T09:06:18Z,1531991178,45D0F,40.8052935,43.6040979,5507.76,-21.3,21.3,148.4,530504.75,-140521.84,142.9,Weapon+Missile,Blue,Enemies,R-73,,cn,,291.069498016916,229.777801513672,0.913584768421553,5507.75830078125,4026.32873535156,271.101473232925,105.9501953125,0.057521984954752,NaN,1.73846414378125,0.00989117029631303,5000,0.930136203765869,0.930136203765869,0.930136203765869,4236.07263379097,5401.26579403564,9637.33842782661,,,15.5199999809265,1481.42956542969,7033.56899890001,7555.52509729346
2018-07-19T09:06:19Z,1531991179,45D0F,40.8069346,43.602164,5606.85,-19.8,21.3,148.4,530657.56,-140724.19,142.9,Weapon+Missile,Blue,Enemies,R-73,,cn,,272.240166895954,212.813842773438,0.855575470674791,5606.8544921875,4014.431640625,253.563903819752,99.09619140625,0.0656808743048262,NaN,1.5384249784645,0.00989117029631303,5000,0.93100643157959,0.93100643157959,0.93100643157959,3705.73542357683,5498.44596058106,9204.18138415789,,,16.5199999809265,1592.4228515625,7286.24897382476,7827.14714009884
2018-07-19T09:06:20Z,1531991180,45D0F,40.8085037,43.6003146,5701.62,-18.2,21.3,148.4,530803.69,-140917.69,142.9,Weapon+Missile,Blue,Enemies,R-73,,cn,,260.337054318886,201.931625366211,0.819168412618554,5701.62060546875,3996.76672363281,242.476319720091,94.76611328125,0.0705896775367519,NaN,1.53846595959952,0.00989117029631303,5000,0.929054498672485,0.929054498672485,0.929054498672485,3388.76909257174,5591.37977106201,8980.14886363375,,,17.5199999809265,1704.85388183594,7527.88037678131,8086.89685667194
2018-07-19T09:06:21Z,1531991181,45D0F,40.8099919,43.5985606,5791.5,-16.9,21.3,148.4,530942.31,-141101.22,142.9,Weapon+Missile,Blue,Enemies,R-73,,cn,,246.937316354265,190.017623901367,0.777909029686762,5791.4951171875,3990.12329101562,230.001326847396,89.87451171875,0.0570469148190441,NaN,1.33846094522862,0.00989117029631303,5000,0.932533144950867,0.932533144950867,0.932533144950867,3048.90191041231,5679.51655909668,8728.41846950899,,,18.5199999809265,1801.37182617188,7757.04625227159,8333.24843925621
2018-07-19T09:06:22Z,1531991182,45D0F,40.8114202,43.5968771,5877.76,-15.7,21.3,148.4,531075.31,-141277.36,142.9,Weapon+Missile,Blue,Enemies,R-73,,cn,,236.971914237305,181.095153808594,0.747351064081957,5877.75732421875,3979.16149902344,220.713660146785,86.26220703125,0.0645944953548313,NaN,1.19999252018496,0.00989117029631303,5000,0.931719958782196,0.931719958782196,0.931719958782196,2807.78440686464,5764.11088635498,8571.89529321962,,,19.5199999809265,1898.59582519531,7976.99703157518,8569.69730426189
2018-07-19T09:06:23Z,1531991183,45D0F,40.8127954,43.5952559,5960.83,-14.5,21.3,148.4,531203.38,-141446.97,142.9,Weapon+Missile,Blue,Enemies,R-73,,cn,,228.184181776451,173.257949829102,0.720413868217086,5960.82763671875,3995.04125976562,212.526101912543,83.0703125,0.0578302308017102,NaN,1.16921568778488,0.00989117029631303,5000,0.928118288516998,0.928118288516998,0.928118288516998,2603.40104064941,5845.57503436279,8448.97607501221,,,20.5199999809265,1965.78637695312,8188.80229406711,8797.3932702483
2018-07-19T09:06:24Z,1531991184,45D0F,40.8141117,43.5937041,6040.34,-13.4,21.3,148.4,531326.06,-141609.33,142.9,Weapon+Missile,Blue,Enemies,R-73,,cn,,218.483897167928,164.815277099609,0.690503037092208,6040.34130859375,4032.32092285156,203.501325073427,79.513671875,0.0742652359637506,NaN,1.03076263066684,0.00989117029631303,5000,0.934109926223755,0.934109926223755,0.934109926223755,2386.76066608429,5923.55130939209,8310.31197547638,,,21.5199999809265,2008.02038574219,8391.54192428871,9015.34546354438
2018-07-19T09:06:25Z,1531991185,45D0F,40.8153764,43.5922132,6116.74,-12.5,21.3,148.4,531443.81,-141765.31,142.9,Weapon+Missile,Blue,Enemies,R-73,,cn,,209.838954327648,157.333160400391,0.663842641821085,6116.736328125,4066.15454101562,195.43845001468,76.39501953125,0.0556863111419623,NaN,0.969239701717952,0.0139882274201861,5000,0.810470342636108,0.810470342636108,0.810470342636108,2201.61933766603,5998.4692312207,8200.08856888674,,,22.5199999809265,2050.58178710938,8586.32703400186,9224.74887924935
2018-07-19T09:06:26Z,1531991186,45D0F,40.8165903,43.590782,6188.82,-10.8,20,148.4,531556.94,-141915.05,142.9,Weapon+Missile,Blue,Enemies,R-73,,cn,,201.032938242245,149.844100952148,0.636583694767164,6188.82373046875,4074.42236328125,187.663658393522,72.08740234375,0.0472656134824147,NaN,2.30770918468304,1.31541812812482,4891.45510056345,0.117532730102539,0.117532730102539,0.117532730102539,2020.71211291552,6069.16282364014,8089.87493655565,,,23.5199999809265,2114.4013671875,8773.30516008433,9425.31033332199
2018-07-19T09:06:27Z,1531991187,45D0F,40.8177713,43.5893896,6250.47,-8.5,17.3,148.4,531666.94,-142060.73,142.9,Weapon+Missile,Blue,Enemies,R-73,,cn,,192.677749862861,142.867568969727,0.610619166252132,6250.466796875,4063.05078125,182.550945372107,61.64306640625,0.0393351623654573,NaN,2.30767503373719,2.73079970329078,3909.63332886452,0.00702549144625664,0.00702549144625664,0.00702549144625664,1856.23576461077,6129.61402135742,7985.84978596819,,,24.5199999809265,2187.416015625,8955.2189074445,9617.55250131371
2018-07-19T09:06:28Z,1531991188,45D0F,40.8189225,43.5880322,6300.94,-6.3,14.4,148.4,531774.19,-142202.73,142.9,Weapon+Missile,Blue,Enemies,R-73,,cn,,184.970273934667,136.54182434082,0.58658137940662,6300.93896484375,4043.33544921875,177.951011517215,50.47216796875,0.0490558465447362,NaN,2.10772039201142,2.9153787354212,3560.23259142829,0.00727661093696952,0.00727661093696952,0.00727661093696952,1710.70011197329,6179.1103099585,7889.81042193178,,,25.5199999809265,2257.603515625,9132.55427960691,9802.0984033457
2018-07-19T09:06:29Z,1531991189,45D0F,40.820047,43.5867063,6340.62,-4.2,11.3,148.4,531878.94,-142341.47,142.9,Weapon+Missile,Blue,Enemies,R-73,,cn,,178.309686801031,131.1484375,0.565753879437952,6340.61962890625,4027.61767578125,173.838399977222,39.6806640625,0.0451030109465284,NaN,2.10772124578506,3.07694899467197,3240.96571160909,0.00353564484976232,0.00353564484976232,0.00353564484976232,1589.71722035408,6218.02374838135,7807.74096873543,,,26.5199999809265,2313.001953125,9305.78178467156,9979.97990577519
2018-07-19T09:06:30Z,1531991190,45D0F,40.8211451,43.5854114,6369.66,-2.2,8.1,148.4,531981.25,-142476.94,142.9,Weapon+Missile,Blue,Enemies,R-73,,cn,,172.228705190272,126.308242797852,0.546668263676291,6369.65576171875,4016.84033203125,169.763452730005,29.0361328125,0.0427688472037328,NaN,1.96922976885295,3.22692500780664,3004.90386384559,0.00179153785575181,0.00179153785575181,0.00179153785575181,1483.13634457588,6246.49846756592,7729.6348121418,,,27.5199999809265,2352.8154296875,9474.9526003569,10151.790619744
2018-07-19T09:06:31Z,1531991191,45D0F,40.8222191,43.5841448,6388.35,-0.2,4.7,148.4,532081.31,-142609.45,142.9,Weapon+Missile,Blue,Enemies,R-73,,cn,,167.099397620577,122.287002563477,0.530517785898883,6388.345703125,4004.35546875,166.050880080145,18.68994140625,0.0415123477376087,NaN,1.93844546593347,3.32695056688054,2803.51656160462,0.00467316107824445,0.00467316107824445,0.00467316107824445,1396.11043425798,6264.82703895508,7660.93747321306,,,28.5199999809265,2383.990234375,9640.42235105978,10318.4769946755
2018-07-19T09:06:32Z,1531991192,45D0F,40.8232597,43.5829176,6396.8,1.7,1.3,148.4,532178.31,-142737.84,142.9,Weapon+Missile,Blue,Enemies,R-73,,cn,,161.135345766811,117.71923828125,0.511639622582362,6396.79833984375,4060.50927734375,160.913494113734,8.45263671875,0.0560062744276826,NaN,1.93846190107616,3.47309591110789,2608.57681914356,0.00522770825773478,0.00522770825773478,0.00522770825773478,1298.22998276949,6273.11624394287,7571.34622671236,,,29.5199999809265,2336.2890625,9800.74508458411,10479.182859141
2018-07-19T09:06:33Z,1531991193,45D0F,40.8242721,43.5817236,6395.34,3.5,-2.4,148.4,532272.62,-142862.77,142.9,Weapon+Missile,Blue,Enemies,R-73,,cn,,156.532542690393,114.25611114502,0.4970152178219,6395.34423828125,4141.03125,156.525788641251,-1.4541015625,0.0667065876531961,NaN,1.73846158246031,3.60773878988612,2477.15424854852,0.00432845950126648,0.00432845950126648,0.00432845950126648,1225.12184605598,6271.69025743408,7496.81210349007,,,30.5199999809265,2254.31298828125,9956.73105196273,10635.3320217274
2018-07-19T09:06:34Z,1531991194,45D0F,40.8252554,43.5805639,6384.31,5.2,-6,148.4,532364.25,-142984.09,142.9,Weapon+Missile,Blue,Enemies,R-73,,cn,,152.438562843837,111.241729736328,0.483945916698118,6384.30517578125,4231.32690429688,152.038332472491,-11.0390625,0.053412536589852,NaN,1.61538413493762,3.64618549783729,2363.60760330625,0.00348429987207055,0.00348429987207055,0.00348429987207055,1161.87577209473,6260.86463520752,7422.74040730225,,,31.5199999809265,2152.97827148438,10108.2379283734,10787.391912337
2018-07-19T09:06:35Z,1531991195,45D0F,40.8262135,43.5794338,6363.88,6.8,-9.7,148.4,532453.56,-143102.31,142.9,Weapon+Missile,Blue,Enemies,R-73,,cn,,149.56426187363,109.202125549316,0.474693405651297,6363.8828125,4313.50903320312,148.163408127015,-20.42236328125,0.0536473586198358,NaN,1.67692328558579,3.69619699671377,2287.78670123695,0.00302349915727973,0.00302349915727973,0.00302349915727973,1118.47342149019,6240.83713832031,7359.3105598105,,,32.5199999809265,2050.37377929688,10255.866091195,10936.5721042723
2018-07-19T09:06:36Z,1531991196,45D0F,40.8271418,43.5783389,6334.44,8.4,-13.4,148.4,532540.06,-143216.86,142.9,Weapon+Missile,Blue,Enemies,R-73,,cn,,146.527836203189,107.092140197754,0.464876355935651,6334.43505859375,4375.07763671875,143.538275634987,-29.44775390625,0.0483916347541443,NaN,1.53846254450494,3.74619910408014,2233.64541988906,0.00190065614879131,0.00190065614879131,0.00190065614879131,1073.52033911943,6211.95875673584,7285.47909585527,,,33.5199999809265,1959.357421875,10398.9068585026,11082.7520857998
2018-07-19T09:06:37Z,1531991197,45D0F,40.8280453,43.5772731,6296.08,9.7,-17.2,148.4,532624.25,-143328.36,142.9,Weapon+Missile,Blue,Enemies,R-73,,cn,,144.883235355026,106.076072692871,0.459427257748433,6296.07666015625,4412.99682617188,139.713224700635,-38.3583984375,0.0402952426345817,NaN,1.33846265277592,3.74618587058863,2232.62995113576,0.00315349921584129,0.00315349921584129,0.00315349921584129,1049.557594347,6174.34201793213,7223.89961227913,,,34.5199999809265,1883.07983398438,10538.1339916,11227.299539953
2018-07-19T09:06:38Z,1531991198,45D0F,40.8289193,43.5762423,6249.36,11,-20.9,148.4,532705.69,-143436.2,142.9,Weapon+Missile,Blue,Enemies,R-73,,cn,,142.985632758225,104.91374206543,0.453132238711909,6249.35888671875,4416.98791503906,135.138228567317,-46.7177734375,0.0503388831626736,NaN,1.29230764945956,3.69619699671377,2235.87805541865,0.00202983873896301,0.00202983873896301,0.00202983873896301,1022.2445587635,6128.52753264404,7150.77209140755,,,35.5199999809265,1832.37097167969,10672.7969397782,11369.9611895881
2018-07-19T09:06:39Z,1531991199,45D0F,40.8297717,43.5752367,6194.12,12.1,-24.6,148.4,532785.12,-143541.41,142.9,Weapon+Missile,Blue,Enemies,R-73,,cn,,142.9306606196,105.184768676758,0.452630483260798,6194.12158203125,4392.73571777344,131.825695203991,-55.2373046875,0.0481021570002485,NaN,0.969231163981489,3.64618549783729,2284.18107286425,0.00373509456403553,0.00373509456403553,0.00373509456403553,1021.45868725777,6074.35824124268,7095.81692850044,,,36.5199999809265,1801.38586425781,10804.1643038737,11512.587375963
2018-07-19T09:06:40Z,1531991200,45D0F,40.8305974,43.5742625,6130.93,13.1,-28.1,148.4,532862.12,-143643.33,142.9,Weapon+Missile,Blue,Enemies,R-73,,cn,,142.511989156916,105.226112365723,0.450931921641545,6130.9345703125,4326.03015136719,127.738281668087,-63.18701171875,0.0456233232340338,NaN,0.938461161770582,3.54620262744571,2361.34472232696,0.00202870671637356,0.00202870671637356,0.00202870671637356,1015.48335267305,6012.39295039551,7027.87630306856,,,37.5199999809265,1804.90441894531,10931.4267982665,11654.7832006525
2018-07-19T09:06:41Z,1531991201,45D0F,40.831404,43.573311,6059.55,14,-31.5,148.4,532937.31,-143742.88,142.9,Weapon+Missile,Blue,Enemies,R-73,,cn,,143.728798657851,106.555511474609,0.454358582420285,6059.5537109375,4220.06469726562,124.750713338705,-71.380859375,0.053556145391101,NaN,0.830769569126991,3.33846946747235,2475.33805535352,0.00284540071152151,0.00284540071152151,0.00284540071152151,1032.89837818146,5942.39223993652,6975.29061811798,,,38.5199999809265,1839.48901367188,11055.7282242614,11798.2252335081
2018-07-19T09:06:42Z,1531991202,45D0F,40.8321882,43.5723859,5980.49,14.7,-34.7,148.4,533010.38,-143839.66,142.9,Weapon+Missile,Blue,Enemies,R-73,,cn,,144.761354631083,107.796211242676,0.457151622748473,5980.48974609375,4087.43286132812,121.263099324619,-79.06396484375,0.0232785498200815,NaN,0.769231272252469,3.21157586519433,2619.38619226713,0.0048127849586308,0.0048127849586308,0.0048127849586308,1047.79248973131,5864.85697685303,6912.64946658434,,,39.5199999809265,1893.05688476562,11176.5826637824,11942.7399059074
2018-07-19T09:06:43Z,1531991203,45D0F,40.832953,43.5714835,5893.68,15.3,-37.8,148.4,533081.69,-143934.05,142.9,Weapon+Missile,Blue,Enemies,R-73,,cn,,146.733465573516,109.811332702637,0.4628568919135,5893.681640625,3920.77978515625,118.300730108231,-86.80810546875,0.0273393864521824,NaN,0.569231380523448,3.10002308123556,2798.12986606228,0.00599826825782657,0.00599826825782657,0.00599826825782657,1076.53549596071,5779.72730610352,6856.26280206423,,,40.5199999809265,1972.90185546875,11294.4623256164,12089.2224760007
2018-07-19T09:06:44Z,1531991204,45D0F,40.833703,43.5705987,5798.83,15.7,-40.7,148.4,533151.56,-144026.62,142.9,Weapon+Missile,Blue,Enemies,R-73,,cn,,149.833695779436,112.761451721191,0.472055252560537,5798.82958984375,3748.69409179688,115.988037544894,-94.85205078125,0.0273621379855123,NaN,0.399999783458042,2.91924206117049,3053.64779057088,0.00771721405908465,0.00771721405908465,0.00771721405908465,1122.50681954622,5686.70921972412,6809.21603927034,,,41.5199999809265,2050.13549804688,11410.0548382866,12238.8321231411
2018-07-19T09:06:45Z,1531991205,45D0F,40.8344321,43.5697385,5696.97,16,-43.4,148.4,533219.56,-144116.61,142.9,Weapon+Missile,Blue,Enemies,R-73,,cn,,151.978665489048,115.039077758789,0.47818254391308,5696.96533203125,3570.64135742188,112.788242934007,-101.8642578125,0.049188723763442,NaN,0.200001599276313,2.75389940306376,3266.75430700325,0.00555361621081829,0.00555361621081829,0.00555361621081829,1154.8757381916,5586.81450733643,6741.69024552803,,,42.5199999809265,2126.32397460938,11522.425384285,12390.5761039897
2018-07-19T09:06:46Z,1531991206,45D0F,40.8351488,43.5688927,5587.06,16.2,-46,148.4,533286.38,-144205.08,142.9,Weapon+Missile,Blue,Enemies,R-73,,cn,,156.110355188177,118.941551208496,0.490486490201954,5587.05712890625,3381.2607421875,110.863113265019,-109.908203125,0.0308560351312225,NaN,0.200001599276313,2.54615727846712,3618.65407007522,0.00334456306882203,0.00334456306882203,0.00334456306882203,1218.52214984894,5479.03137931885,6697.55352916779,,,43.5199999809265,2205.79638671875,11632.9015818462,12546.4812213511
2018-07-19T09:06:47Z,1531991207,45D0F,40.835847,43.5680689,5470.3,16.3,-48.4,148.4,533351.5,-144291.27,142.9,Weapon+Missile,Blue,Enemies,R-73,,cn,,159.063677317641,122.000785827637,0.499015633702864,5470.30224609375,3192.9443359375,108.025695004707,-116.7548828125,0.0480088094917938,NaN,0.199998184181728,2.37695193494134,3936.87379240501,0.00546217011287808,0.00546217011287808,0.00546217011287808,1265.06267209053,5364.53395216553,6629.59662425606,,,44.5199999809265,2277.35791015625,11740.5185261806,12705.3308231696
2018-07-19T09:06:48Z,1531991208,45D0F,40.8365306,43.5672624,5346.36,16.3,-50.6,148.4,533415.19,-144375.64,142.9,Weapon+Missile,Blue,Enemies,R-73,,cn,,162.902779758621,125.842620849609,0.510248107446747,5346.3583984375,3010.849609375,105.712999584961,-123.94384765625,0.0357936170997152,NaN,0,2.2577224452423,4347.55489152326,0.00676100095734,0.00676100095734,0.00676100095734,1326.86578265429,5242.98655880371,6569.852341458,,,45.5199999809265,2335.5087890625,11845.8783675827,12868.0625261812
2018-07-19T09:06:49Z,1531991209,45D0F,40.8372025,43.5664694,5214.77,16.2,-52.8,148.4,533477.88,-144458.59,142.9,Weapon+Missile,Blue,Enemies,R-73,,cn,,167.709023498,130.554763793945,0.524419625729831,5214.7705078125,2827.79052734375,103.975687559716,-131.587890625,0.0478207053816066,NaN,0,2.09234819751066,4736.95385699554,0.0111210383474827,0.0111210383474827,0.0111210383474827,1406.31582813263,5113.94292004395,6520.25874817657,,,46.5199999809265,2386.97998046875,11949.4630900442,13035.5825004731
2018-07-19T09:06:50Z,1531991210,45D0F,40.8378583,43.5656956,5076.66,16,-54.7,148.4,533538.94,-144539.55,142.9,Weapon+Missile,Blue,Enemies,R-73,,cn,,171.337012023326,134.418350219727,0.534822568598601,5076.66064453125,2653.60180664062,101.400381426874,-138.10986328125,0.030160316069708,NaN,0.199987938897973,1.93848409919096,5000,0.0119669353589416,0.0119669353589416,0.0119669353589416,1467.81858445406,4978.50341096924,6446.3219954233,,,47.5199999809265,2423.05883789062,12050.5492224485,13206.7819018752
2018-07-19T09:06:51Z,1531991211,45D0F,40.8385046,43.5649329,4930.79,15.8,-56.4,148.4,533599.25,-144619.34,142.9,Weapon+Missile,Blue,Enemies,R-73,,cn,,176.870256270699,139.936325073242,0.551073283025094,4930.791015625,2482.24731445312,100.025691279869,-145.86962890625,0.0205753521531033,NaN,0.199987938897973,1.80383033479874,5000,0.00545796100050211,0.00545796100050211,0.00545796100050211,1564.15437766314,4835.45417133789,6399.60854900103,,,48.5199999809265,2448.54370117188,12150.1824879669,13383.474623043
2018-07-19T09:06:52Z,1531991212,45D0F,40.8391322,43.5641924,4779.5,15.5,-58.2,148.4,533657.75,-144696.8,142.9,Weapon+Missile,Blue,Enemies,R-73,,cn,,179.747116904024,143.381652832031,0.558966489286956,4779.50390625,2313.42358398438,97.0630546205178,-151.287109375,0.0439072227046181,NaN,0.369212705774209,1.68850814019178,5000,0.00268328585661948,0.00268328585661948,0.00268328585661948,1615.45130176544,4687.09219822266,6302.5434999881,,,49.5199999809265,2466.08032226562,12246.9172901195,13563.084375553
2018-07-19T09:06:53Z,1531991213,45D0F,40.8397491,43.5634643,4621.05,15.2,-59.7,148.4,533715.25,-144772.97,142.9,Weapon+Missile,Blue,Enemies,R-73,,cn,,184.979309061641,148.874328613281,0.574090418802754,4621.0458984375,2126.7861328125,95.4379617396329,-158.4580078125,0.0240704977906374,NaN,0.323095268498283,1.58846796024419,5000,0.00193686271086335,0.00193686271086335,0.00193686271086335,1710.8672390461,4531.69797599121,6242.56521503731,,,50.5199999809265,2494.259765625,12342.0190512718,13747.9265252926
2018-07-19T09:06:54Z,1531991214,45D0F,40.8403518,43.5627529,4456.54,14.9,-61.2,148.4,533771.44,-144847.38,142.9,Weapon+Missile,Blue,Enemies,R-73,,cn,,189.092530039992,153.55012512207,0.585646272386443,4456.53857421875,1933.33520507812,93.2380029564796,-164.50732421875,0.0322875935205231,NaN,0.307686361730734,1.48083709225119,5000,0.00600358843803406,0.00600358843803406,0.00600358843803406,1787.79924584627,4370.37140088623,6158.1706467325,,,51.5199999809265,2523.20336914062,12434.9442790214,13936.8975596189
2018-07-19T09:06:55Z,1531991215,45D0F,40.8409254,43.562076,4290.47,14.5,-62.6,148.4,533824.94,-144918.2,142.9,Weapon+Missile,Blue,Enemies,R-73,,cn,,188.302244949152,154.15510559082,0.581990107173907,4290.4697265625,1737.58959960938,88.7630175862427,-166.06884765625,0.023039874759688,NaN,0.399975877795947,1.39619546706568,5000,0.00495418440550566,0.00495418440550566,0.00495418440550566,1772.88677264452,4207.51349439941,5980.40026704393,,,52.5199999809265,2552.88012695312,12523.3715733292,14125.0702881446
2018-07-19T09:06:56Z,1531991216,45D0F,40.8414281,43.5614828,4135.9,14.2,-64,148.4,533871.81,-144980.27,142.9,Weapon+Missile,Blue,Enemies,R-73,,cn,,173.036426314506,142.410278320312,0.533780186349509,4135.8974609375,1561.97729492188,77.7754429833093,-154.572265625,0.0182209978872589,NaN,0.338449533752472,1.44619394589406,5000,0.00160083186347038,0.00160083186347038,0.00160083186347038,1497.08024158478,4055.92988353027,5553.01012511505,,,53.5199999809265,2573.92016601562,12600.8635863053,14298.002452343
2018-07-19T09:06:57Z,1531991217,45D0F,40.8418437,43.5609921,3999.23,14.1,-65.6,148.4,533910.56,-145031.58,142.9,Weapon+Missile,Blue,Enemies,R-73,,cn,,151.039738155309,124.780097961426,0.465136418075705,3999.22827148438,1410.5400390625,64.3003511362885,-136.669189453125,0.0435910492670247,NaN,0.0769352508110236,1.58083927927152,5000,0.00402920925989747,0.00402920925989747,0.00402920925989747,1140.65012510121,3921.90319285522,5062.55331795643,,,54.5199999809265,2588.68823242188,12664.9517883453,14448.9693539929
2018-07-19T09:06:58Z,1531991218,45D0F,40.8421921,43.560581,3875.69,13.9,-67.3,148.4,533943.06,-145074.61,142.9,Weapon+Missile,Blue,Enemies,R-73,,cn,,134.79285807056,111.834571838379,0.414469954881158,3875.69213867188,1274.64086914062,53.9253046033353,-123.5361328125,0.0497559820785888,NaN,0.199987938897973,1.68464833625878,4515.09620078976,0.00773841328918934,0.00773841328918934,0.00773841328918934,908.455729341507,3800.75563117065,4709.21136051216,,,55.5199999809265,2601.05126953125,12718.6625417093,14583.689746211
2018-07-19T09:06:59Z,1531991219,45D0F,40.8424884,43.5602313,3761.53,13.8,-69,148.4,533970.69,-145111.17,142.9,Weapon+Missile,Blue,Enemies,R-73,,cn,,123.012407390388,102.523651123047,0.377715025751542,3761.53393554688,1150.0146484375,45.8252881196616,-114.158203125,0.0620758996498458,NaN,0.0154089067675488,1.68856609007802,4165.20847102828,0.00145733810495585,0.00145733810495585,0.00145733810495585,756.602618598938,3688.80467690308,4445.40729550201,,,56.5199999809265,2611.51928710938,12764.3429772277,14706.6584288489
2018-07-19T09:07:00Z,1531991220,45D0F,40.8427417,43.5599323,3654.84,13.7,-70.7,148.4,533994.31,-145142.47,142.9,Weapon+Missile,Blue,Enemies,R-73,,cn,,113.673113868753,95.169319152832,0.348581032868879,3654.83837890625,1033.5478515625,39.2126893972554,-106.695556640625,0.0436837443387152,NaN,0,1.69233016464093,3838.95549463415,0.00354105071164668,0.00354105071164668,0.00354105071164668,646.078840830922,3584.1720788501,4230.25091968102,,,57.5199999809265,2621.29052734375,12803.3994276906,14820.2855486646
2018-07-19T09:07:01Z,1531991221,45D0F,40.8429616,43.5596727,3553.08,13.6,-72.3,148.4,534014.81,-145169.61,142.9,Weapon+Missile,Blue,Enemies,R-73,,cn,,107.288722690852,90.2396621704102,0.32859312680199,3553.08374023438,922.560791015625,34.0126965321867,-101.754638671875,0.0145454886029083,NaN,0.0307631720217374,1.6385188394301,3781.13274482018,0.00109342869836837,0.00109342869836837,0.00109342869836837,575.543500831723,3484.38486611694,4059.92836694867,,,58.5199999809265,2630.52294921875,12837.3057202949,14927.5466447754
2018-07-19T09:07:02Z,1531991222,45D0F,40.8431535,43.5594463,3455.15,13.4,-74,148.4,534032.69,-145193.3,142.9,Weapon+Missile,Blue,Enemies,R-73,,cn,,102.333182611391,86.4667816162109,0.313040755641334,3455.14770507812,816.5703125,29.6751290014045,-97.93603515625,0.0292543419898846,NaN,0.199987938897973,1.57308029109609,3778.60517210411,0.00125618022866547,0.00125618022866547,0.00125618022866547,523.604013168812,3388.34242420044,3911.94643736925,,,59.5199999809265,2638.57739257812,12866.8813331969,15029.855712088
2018-07-19T09:07:03Z,1531991223,45D0F,40.8433212,43.5592483,3360.33,13.2,-75.5,148.4,534048.31,-145214.02,142.9,Weapon+Missile,Blue,Enemies,R-73,,cn,,98.3092853438298,83.4427719116211,0.300383904632869,3360.3251953125,714.70751953125,25.9500910704086,-94.822509765625,0.0275849432845946,NaN,0.199987938897973,1.53847652504839,3869.91196839664,0.00226366659626365,0.00226366659626365,0.00226366659626365,483.235779240727,3295.35330766113,3778.58908690186,,,60.5199999809265,2645.61767578125,12892.7418379601,15128.1450242102
2018-07-19T09:07:04Z,1531991224,45D0F,40.8434686,43.5590744,3267.8,13,-76.8,148.4,534062.06,-145232.22,142.9,Weapon+Missile,Blue,Enemies,R-73,,cn,,95.2990362995252,81.2513122558594,0.290858403060711,3267.796875,615.86181640625,22.8126337752927,-92.5283203125,0.0192805964168312,NaN,0.199987938897973,1.40385050829968,3981.13829490199,0.002517094835639,0.002517094835639,0.002517094835639,454.095315980911,3204.61402242187,3658.70933840279,,,61.5199999809265,2651.93505859375,12915.4658360948,15223.4256985861
2018-07-19T09:07:05Z,1531991225,45D0F,40.8435988,43.5589208,3176.86,12.7,-78.2,148.4,534074.19,-145248.28,142.9,Weapon+Missile,Blue,Enemies,R-73,,cn,,93.1408915974258,79.7672729492188,0.283957893583458,3176.85620117188,519.468994140625,20.1250970494554,-90.940673828125,0.0489820019540775,NaN,0.369212705774209,1.30007634931021,4259.83516835557,0.00104409060440958,0.00104409060440958,0.00104409060440958,433.761284378171,3115.43168652222,3549.19297090039,,,62.5199999809265,2657.38720703125,12935.531771478,15316.5560097785
2018-07-19T09:07:06Z,1531991226,45D0F,40.8437126,43.5587863,3088.05,12.4,-79.4,148.4,534084.81,-145262.34,142.9,Weapon+Missile,Blue,Enemies,R-73,,cn,,90.536827055197,77.8735656738281,0.275722086972733,3088.05151367188,426.129150390625,17.6251108152545,-88.8046875,0.0124745536179049,NaN,0.323095268498283,1.21541775537349,4631.75137514009,0.00695982715114951,0.00695982715114951,0.00695982715114951,409.845852661133,3028.34403765503,3438.18989031616,,,63.5199999809265,2661.92236328125,12953.0960014425,15407.0826787557
2018-07-19T09:07:07Z,1531991227,45D0F,40.8438138,43.5586668,2999.96,12.1,-80.5,148.4,534094.31,-145274.84,142.9,Weapon+Missile,Blue,Enemies,R-73,,cn,,89.4751609613208,77.29931640625,0.272198843132328,2999.96459960938,334.199951171875,15.7003184681076,-88.0869140625,0.0238929357475201,NaN,0.399975877795947,1.11930418714672,4725.01387147442,0.0084329517558217,0.0084329517558217,0.0084329517558217,400.290221452713,2941.96028407593,3342.25050552864,,,64.5199999809265,2665.7646484375,12968.695448593,15496.5414933565
2018-07-19T09:07:08Z,1531991228,45D0F,40.8439032,43.5585614,2912.97,11.8,-81.5,148.4,534102.62,-145285.88,142.9,Weapon+Missile,Blue,Enemies,R-73,,cn,,88.0843436221707,76.4269104003906,0.267686647658319,2912.96997070312,243.95458984375,13.8125353506335,-86.99462890625,0.0599593245022116,NaN,0.199987938897973,0.969280042522737,5000,0.00380369671620429,0.00380369671620429,0.00380369671620429,387.942579567432,2856.64769631958,3244.59027588701,,,65.5199999809265,2669.01538085938,12982.4720495478,15584.6212082996
2018-07-19T09:07:09Z,1531991229,45D0F,40.8439819,43.5584684,2826.97,11.4,-82.4,148.4,534110,-145295.61,142.9,Weapon+Missile,Blue,Enemies,R-73,,cn,,86.8666827494835,75.6932144165039,0.263713008022496,2826.96606445312,155.197265625,12.2126443344849,-86.00390625,0.0242931030557622,NaN,0.399975877795947,0.869331643242119,5000,0.00624380307272077,0.00624380307272077,0.00624380307272077,377.291028594971,2772.30667559692,3149.59770419189,,,66.5199999809265,2671.76879882812,12994.6205272785,15671.4796577998
2018-07-19T09:07:10Z,1531991230,45D0F,40.8440521,43.5583856,2741.25,11,-83.2,148.4,534116.5,-145304.25,142.9,Weapon+Missile,Blue,Enemies,R-73,,cn,,86.3984850093353,75.6092758178711,0.262021654574518,2741.24682617188,67.11767578125,10.812511289734,-85.71923828125,0.0581311066683242,NaN,0.369212705774209,0.85771685319766,5000,0.000783432216849178,0.000783432216849178,0.000783432216849178,373.234910595417,2688.24481878784,3061.47972938326,,,67.5199999809265,2674.12915039062,13005.4294621843,15757.8782857089
2018-07-19T09:07:11Z,1531991231,45D0F,40.844114,43.5583126,2656.31,10.6,-83.9,148.4,534122.25,-145311.89,142.9,Weapon+Missile,Blue,Enemies,R-73,,cn,,85.4757911532965,75.1179046630859,0.258959534433211,2656.3076171875,-19.638427734375,9.56251276551436,-84.939208984375,0.0483642064115728,NaN,0.369212705774209,0.773118236859588,5000,0.00354500464163721,0.00354500464163721,0.00354500464163721,365.305543664098,2604.94790940918,2970.25345307328,,,68.5199999809265,2675.94604492188,13014.9687675617,15843.3519342479
