ISOTime,UnixTime,Id,Longitude,Latitude,Altitude,Roll,Pitch,Yaw,U,V,Heading,Type,Color,Coalition,Name,Group,Country,Pilot,TAS,CAS,M,ASL,AGL,GS,VS,AOA,AOS,RRT,TRT,TRD,G,LatG,LonG,Ek,Ep,Em,FFW,FFV,RelativeTime,Elev,GroundDistance,AirDistance
2018-07-19T09:06:04Z,1531991164,46C0F,40.7612318,43.6568631,2812.71,-48.4,20.1,139.5,526395.88,-134994.66,134.1,Weapon+Missile,Blue,Enemies,R-73,,cn,,199.079948616383,175.308059692383,0.604270492344323,2812.7099609375,81.641845703125,NaN,NaN,NaN,NaN,NaN,NaN,NaN,NaN,NaN,NaN,NaN,2758.32621384277,NaN,,,0.129999876022339,2731.06811523438,NaN,NaN
2018-07-19T09:06:05Z,1531991165,46C0F,40.7632818,43.6549843,2910.61,-44.8,20.1,139.5,526580.88,-135187.84,134.1,Weapon+Missile,Blue,Enemies,R-73,,cn,,284.833432041038,252.514144897461,0.865578733927449,2910.60620117188,78.3662109375,267.48160713636,97.896240234375,2.23068459110839,NaN,3.50769145958424,1.61331119490154,5000,0.746163785457611,0.746163785457611,0.746163785457611,4056.50420041382,2854.32963027222,6910.83383068604,,,1.12999987602234,2832.23999023438,266.466897495896,283.992975998804
2018-07-19T09:06:06Z,1531991166,46C0F,40.7663084,43.6522499,3051.61,-41.5,20.1,139.5,526853.62,-135468.67,134.1,Weapon+Missile,Blue,Enemies,R-73,,cn,,416.099288541509,370.725524902344,1.26663590917382,3051.6083984375,60.426025390625,391.480520959876,141.002197265625,0.617611878754005,NaN,3.24617034645362,0,5000,1.68790900707245,1.68790900707245,1.68790900707245,8656.93089623749,2992.60555005371,11649.5364462912,,,2.12999987602234,2991.18237304688,656.437665674756,698.843567199973
2018-07-19T09:06:07Z,1531991167,46C0F,40.7703331,43.6488314,3235.49,-38.4,20.1,139.5,527214.12,-135817.91,134.1,Weapon+Missile,Blue,Enemies,R-73,,cn,,534.544299232281,466.715911865234,1.630821128709,3235.49072265625,308.822021484375,501.921207642834,183.88232421875,0.0257988125828027,NaN,3.07689776825319,0,5000,0.944929480552673,0.944929480552673,0.944929480552673,14286.8803920865,3172.93250953369,17459.8129016202,,,3.12999987602234,2926.66870117188,1156.341715768,1231.72551114743
2018-07-19T09:06:08Z,1531991168,46C0F,40.7751988,43.6446979,3457.82,-35.6,20.1,139.5,527649.94,-136240.17,134.1,Weapon+Missile,Blue,Enemies,R-73,,cn,,646.276322682099,552.428283691406,1.97704631413934,3457.82446289062,542.887451171875,606.828470997275,222.333740234375,0.0254389884820074,NaN,2.72306664848985,0,5000,0.942821800708771,0.942821800708771,0.942821800708771,20883.6542629749,3390.96742690064,24274.6216898755,,,4.12999987602234,2914.93701171875,1760.7809027172,1876.0565780124
2018-07-19T09:06:09Z,1531991169,46C0F,40.7808343,43.6399095,3715.38,-33,20.1,139.5,528154.81,-136729.33,134.1,Weapon+Missile,Blue,Enemies,R-73,,cn,,748.670923322948,627.51806640625,2.29752289492607,3715.38134765625,1059.98950195312,702.974112282282,257.556884765625,0.026176672347374,NaN,2.5076766330135,0,5000,0.93997997045517,0.93997997045517,0.93997997045517,28025.4075714618,3643.54444929932,31668.9520207611,,,5.12999987602234,2655.39184570312,2460.94564686896,2622.45976208814
2018-07-19T09:06:10Z,1531991170,46C0F,40.7868203,43.6348223,3988.99,-30.5,20.1,139.5,528691.19,-137248.98,134.1,Weapon+Missile,Blue,Enemies,R-73,,cn,,795.364099810099,656.350830078125,2.44906380706059,3988.99291992188,1638.2109375,746.820432760823,273.611572265625,0.0254470683221751,NaN,2.50770395377018,0,5000,0.93541431427002,0.93541431427002,0.93541431427002,31630.2025633365,3911.86574181519,35542.0683051517,,,6.12999987602234,2350.78198242188,3204.76635052254,3415.42952598072
2018-07-19T09:06:11Z,1531991171,46C0F,40.7920905,43.6303425,4229.93,-28.2,20.1,139.5,529163.5,-137706.58,134.1,Weapon+Missile,Blue,Enemies,R-73,,cn,,700.371006022744,575.826782226562,2.16302104020673,4229.92529296875,1986.05346679688,657.62537792828,240.932373046875,0.0258659208434572,NaN,2.10772124578506,0,5000,0.937297403812408,0.937297403812408,0.937297403812408,24525.9773038656,4148.1396874292,28674.1169912948,,,7.12999987602234,2243.87182617188,3859.75191513406,4113.7185040123
2018-07-19T09:06:12Z,1531991172,46C0F,40.7966717,43.6264477,4439.39,-26.1,20.1,139.5,529574.06,-138104.39,134.1,Weapon+Missile,Blue,Enemies,R-73,,cn,,608.843527068174,500.896514892578,1.88526968246042,4439.38671875,2357.046875,571.678538658309,209.46142578125,0.0263509233279577,NaN,2.10772124578506,0,5000,0.935289025306702,0.935289025306702,0.935289025306702,18534.5220226407,4353.55117654297,22888.0731991837,,,8.12999987602234,2082.33984375,4429.17044776415,4720.80368333915
2018-07-19T09:06:13Z,1531991173,46C0F,40.8007366,43.6229913,4625.27,-24.2,20.1,139.5,529938.44,-138457.42,134.1,Weapon+Missile,Blue,Enemies,R-73,,cn,,540.325229295159,445.189300537109,1.6770091423914,4625.26611328125,2889.27221679688,507.3462369049,185.87939453125,0.0257013582639244,NaN,1.90767866537373,0,5000,0.937723696231842,0.937723696231842,0.937723696231842,14597.5676706433,4535.83659298096,19133.4042636243,,,9.12999987602234,1735.99389648438,4934.47441496687,5259.5487596242
2018-07-19T09:06:14Z,1531991174,46C0F,40.8043712,43.6199004,4791.49,-22.4,20.1,139.5,530264.25,-138773.11,134.1,Weapon+Missile,Blue,Enemies,R-73,,cn,,483.158053808347,398.738464355469,1.50272234488785,4791.48681640625,3379.91906738281,453.665496607908,166.220703125,0.0253055167412987,NaN,1.73846414378125,0,5000,0.937165498733521,0.937165498733521,0.937165498733521,11672.0852479935,4698.84341881104,16370.9286668045,,,10.1299998760223,1411.56774902344,5386.33376434573,5741.32438584568
2018-07-19T09:06:15Z,1531991175,46C0F,40.8076429,43.6171176,4941.13,-20.8,20.1,139.5,530557.56,-139057.31,134.1,Weapon+Missile,Blue,Enemies,R-73,,cn,,434.966950278071,358.911651611328,1.35540064872516,4941.12841796875,3554.28869628906,408.416012071045,149.6416015625,0.0267012445087276,NaN,1.53843522374826,0,5000,0.934937953948975,0.934937953948975,0.934937953948975,9459.81239171028,4845.59170000732,14305.4040917176,,,11.1299998760223,1386.83972167969,5793.13002424236,6175.06211616916
2018-07-19T09:06:16Z,1531991176,46C0F,40.8106098,43.6145939,5076.84,-19.2,20.1,139.5,530823.69,-139315.06,134.1,Weapon+Missile,Blue,Enemies,R-73,,cn,,394.558607235115,324.182189941406,1.23160395521312,5076.8447265625,3553.07800292969,370.482898559434,135.71630859375,0.0256500795190576,NaN,1.43075387638842,0,5000,0.940243244171143,0.940243244171143,0.940243244171143,7783.8247271657,4978.68393377441,12762.5086609401,,,12.1299998760223,1523.76672363281,6162.05244566172,6568.42775775504
2018-07-19T09:06:17Z,1531991177,46C0F,40.8133054,43.6123008,5200.15,-17.8,20.1,139.6,531065.38,-139549.25,134.1,Weapon+Missile,Blue,Enemies,R-73,,cn,,358.414284295346,291.810455322266,1.12053857789232,5200.14990234375,3500.15881347656,336.536228083248,123.30517578125,0.0270908116550362,NaN,1.33848143579613,0,5000,0.937088668346405,0.937088668346405,0.937088668346405,6423.03995934725,5099.60500398193,11522.6449633292,,,13.1299998760223,1699.99108886719,6497.25578687711,6925.84427285704
2018-07-19T09:06:18Z,1531991178,46C0F,40.8157543,43.6102174,5312.18,-16.5,20.1,139.6,531285,-139762.02,134.1,Weapon+Missile,Blue,Enemies,R-73,,cn,,325.661240214312,261.846923828125,1.01959813904393,5312.1806640625,3424.92370605469,305.784812910387,112.03076171875,0.0254088929774806,NaN,1.33847119051238,0,5000,0.938547253608704,0.938547253608704,0.938547253608704,5302.7621688962,5209.46965092285,10512.2318198191,,,14.1299998760223,1887.25695800781,6801.8004077244,7250.57684787169
2018-07-19T09:06:19Z,1531991179,46C0F,40.8180151,43.6082937,5415.62,-15.2,20.1,139.6,531487.75,-139958.47,134.1,Weapon+Missile,Blue,Enemies,R-73,,cn,,300.666603052468,239.00178527832,0.942591496896255,5415.61669921875,3389.35400390625,282.314351073879,103.43603515625,0.0264196508074578,NaN,1.24615435369049,0,5000,0.939709901809692,0.939709901809692,0.939709901809692,4520.02030955553,5310.90575033936,9830.92605989489,,,15.1299998760223,2026.2626953125,7082.98321982583,7550.40317348595
2018-07-19T09:06:20Z,1531991180,46C0F,40.8201241,43.606499,5512.12,-14.1,20.1,139.6,531676.88,-140141.73,134.1,Weapon+Missile,Blue,Enemies,R-73,,cn,,280.477208719874,220.736145019531,0.880387938253949,5512.1201171875,3414.53125,263.352529761232,96.50341796875,0.0265264581250781,NaN,1.16925496137261,0,5000,0.935726165771484,0.935726165771484,0.935726165771484,3933.37323056459,5405.54327472168,9338.91650528627,,,16.1299998760223,2097.5888671875,7345.30298108561,7830.12180557722
2018-07-19T09:06:21Z,1531991181,46C0F,40.8221097,43.6048094,5602.97,-13,20.1,139.6,531855,-140314.28,134.1,Weapon+Missile,Blue,Enemies,R-73,,cn,,264.110273074305,206.049667358398,0.829983889509103,5602.9677734375,3438.85400390625,247.993829958057,90.84765625,0.0262877541591778,NaN,1.1230640995631,0,5000,0.938805043697357,0.938805043697357,0.938805043697357,3487.71181716919,5494.63439153809,8982.34620870727,,,17.1299998760223,2164.11376953125,7592.27462312223,8093.47447790245
2018-07-19T09:06:22Z,1531991182,46C0F,40.8240087,43.6031932,5689.87,-12.1,20.1,139.6,532025.38,-140479.33,134.1,Weapon+Missile,Blue,Enemies,R-73,,cn,,252.624949580777,195.662704467773,0.794781049502571,5689.86572265625,3443.42163085938,237.209003986496,86.89794921875,0.0249952648952518,NaN,0.938459454223289,0,5000,0.940683960914612,0.940683960914612,0.940683960914612,3190.9682575345,5579.85216890869,8770.8204264432,,,18.1299998760223,2246.44409179688,7828.49576852463,8345.36835336342
2018-07-19T09:06:23Z,1531991183,46C0F,40.8258369,43.6016372,5773.52,-11.2,20.1,139.6,532189.31,-140638.23,134.1,Weapon+Missile,Blue,Enemies,R-73,,cn,,243.15730884166,187.090942382812,0.765822939124325,5773.5244140625,3438.376953125,228.312724558472,83.65869140625,0.0263186055697971,NaN,0.969226041339612,0,5000,0.938421964645386,0.938421964645386,0.938421964645386,2956.27384215593,5661.8933195166,8618.16716167254,,,19.1299998760223,2335.1474609375,8055.92309460361,8587.88632973224
2018-07-19T09:06:24Z,1531991184,46C0F,40.8275794,43.6001541,5853.27,-10.4,20.1,139.6,532345.62,-140789.67,134.1,Weapon+Missile,Blue,Enemies,R-73,,cn,,231.789291500012,177.115753173828,0.730774129638698,5853.27001953125,3446.67065429688,217.63941293456,79.74560546875,0.0271311795017518,NaN,0.769239809988931,0,5000,0.937324941158295,0.937324941158295,0.937324941158295,2686.31378270388,5740.09704370361,8426.41082640749,,,20.1299998760223,2406.59936523438,8272.69022872973,8819.04222111729
2018-07-19T09:06:25Z,1531991185,46C0F,40.8292578,43.5987253,5930.09,-9.6,20.1,139.6,532496.25,-140935.56,134.1,Weapon+Missile,Blue,Enemies,R-73,,cn,,223.323197364023,169.621185302734,0.704785242121593,5930.08984375,3489.80395507812,209.694933386314,76.81982421875,0.0277062850777351,NaN,0.630786752870895,0,5000,0.938518881797791,0.938518881797791,0.938518881797791,2493.66252404451,5815.43155662109,8309.09408066561,,,21.1299998760223,2440.28588867188,8481.5085231178,9041.72352109139
2018-07-19T09:06:26Z,1531991186,46C0F,40.8308628,43.5973591,6003.54,-8.9,20.1,139.6,532640.25,-141075.08,134.1,Weapon+Missile,Blue,Enemies,R-73,,cn,,213.530787836616,161.182876586914,0.674525602593902,6003.5390625,3592.34301757812,200.500896803831,73.44921875,0.0263092140540432,NaN,0.769231272252469,0,5000,0.933799505233765,0.933799505233765,0.933799505233765,2279.7698677063,5887.46063472656,8167.23050243286,,,22.1299998760223,2411.19604492188,8681.18480831833,9254.65552964883
2018-07-19T09:06:27Z,1531991187,46C0F,40.8324078,43.5960438,6074.19,-8,19.8,139.6,532778.88,-141209.38,134.1,Weapon+Missile,Blue,Enemies,R-73,,cn,,205.534169755624,154.280868530273,0.649863116430825,6074.19140625,3718.10668945312,193.009174030059,70.65234375,0.198368581066947,NaN,1.13844739312126,0.815434407058137,5000,0.371551126241684,0.371551126241684,0.371551126241684,2112.21474685669,5956.74691541016,8068.96166226685,,,23.1299998760223,2356.08471679688,8873.41344623769,9459.62774382059
2018-07-19T09:06:28Z,1531991188,46C0F,40.8339126,43.5947627,6137.1,-5.7,17.1,139.6,532913.88,-141340.2,134.1,Weapon+Missile,Blue,Enemies,R-73,,cn,,198.238961988846,148.059814453125,0.627311988961352,6137.1015625,3848.8876953125,187.992016561916,62.91015625,0.023665165086441,NaN,2.30770833090939,2.19231655375026,4098.27789348424,0.00326910591684282,0.00326910591684282,0.00326910591684282,1964.93430252075,6018.44070378906,7983.37500630981,,,24.1299998760223,2288.2138671875,9060.653808133,9657.32396355248
2018-07-19T09:06:29Z,1531991189,46C0F,40.8353731,43.5935192,6188.5,-3.4,14.3,139.6,533044.94,-141467.17,134.1,Weapon+Missile,Blue,Enemies,R-73,,cn,,189.579249798808,140.924499511719,0.600312316556174,6188.50048828125,3992.08129882812,182.478608014234,51.39892578125,0.0285527931044135,NaN,2.2461448477123,2.85769586688974,3732.53606602729,0.00570219522342086,0.00570219522342086,0.00570219522342086,1797.01459771395,6068.84583134033,7865.86042905428,,,25.1299998760223,2196.41918945312,9242.38282015956,9846.35077409152
2018-07-19T09:06:30Z,1531991190,46C0F,40.8367975,43.5923065,6229,-1.3,11.3,139.6,533172.75,-141591,134.1,Weapon+Missile,Blue,Enemies,R-73,,cn,,182.509315232738,135.160614013672,0.578231506562127,6229,4133.3251953125,177.959095573296,40.49951171875,0.0221413093098315,NaN,2.10767471512134,2.97693794975006,3402.62727539119,0.00203770352527499,0.00203770352527499,0.00203770352527499,1665.48250733614,6108.562285,7774.04479233614,,,26.1299998760223,2095.6748046875,9419.61783605341,10028.3223298898
2018-07-19T09:06:31Z,1531991191,46C0F,40.8381906,43.5911202,6258.9,0.8,8.2,139.6,533297.75,-141712.12,134.1,Weapon+Missile,Blue,Enemies,R-73,,cn,,176.607919937589,130.410598754883,0.559753805180625,6258.9013671875,4286.90966796875,174.058224812848,29.9013671875,0.0270247330692035,NaN,2.10767130002676,3.11154347593126,3160.17014026008,0.000416333961766213,0.000416333961766213,0.000416333961766213,1559.51786923409,6137.88550925293,7697.40337848702,,,27.1299998760223,1971.99169921875,9592.97871332621,10204.4102560461
2018-07-19T09:06:32Z,1531991192,46C0F,40.8395503,43.5899624,6278.39,2.8,4.9,139.6,533419.75,-141830.34,134.1,Weapon+Missile,Blue,Enemies,R-73,,cn,,170.996015335666,125.980758666992,0.542105570915913,6278.39404296875,4453.99304199219,169.881349334065,19.49267578125,0.0338337687938079,NaN,1.90769232575207,3.28847312307809,2948.04766911033,0.0064113331027329,0.0064113331027329,0.0064113331027329,1461.98186303377,6157.00129414795,7618.98315718172,,,28.1299998760223,1824.40100097656,9762.19018735982,10374.9059950717
2018-07-19T09:06:33Z,1531991193,46C0F,40.8408667,43.5888413,6287.66,4.8,1.5,139.6,533537.94,-141944.8,134.1,Weapon+Missile,Blue,Enemies,R-73,,cn,,164.783495845208,121.182502746582,0.522473608946826,6287.65673828125,4540.83361816406,164.522955779781,9.2626953125,0.0579079373967043,NaN,1.93846232796298,3.39617346690156,2738.91969658344,0.00757171725854278,0.00757171725854278,0.00757171725854278,1357.68002514839,6166.08489524658,7523.76492039497,,,29.1299998760223,1746.82312011719,9926.01657156543,10539.1551516703
2018-07-19T09:06:34Z,1531991194,46C0F,40.8421533,43.5877456,6287.03,6.7,-2,139.6,533653.38,-142056.69,134.1,Weapon+Missile,Blue,Enemies,R-73,,cn,,160.766059032547,118.132759094238,0.50973143896714,6287.0263671875,4571.67712402344,160.764823170806,-0.63037109375,0.0260983014654732,NaN,1.75384658356577,3.4653782242326,2603.26101904162,0.00365134794265032,0.00365134794265032,0.00365134794265032,1292.28628684282,6165.46671237793,7457.75299922075,,,30.1299998760223,1715.34924316406,10086.1377432692,10699.4354047624
2018-07-19T09:06:35Z,1531991195,46C0F,40.8434047,43.5866798,6276.74,8.5,-5.6,139.6,533765.69,-142165.5,134.1,Weapon+Missile,Blue,Enemies,R-73,,cn,,156.716438996,115.125144958496,0.496824518797129,6276.7412109375,4481.95080566406,156.378572101487,-10.28515625,0.02556045352847,NaN,1.73846243623396,3.58080244479029,2496.30161368846,0.00359337031841278,0.00359337031841278,0.00359337031841278,1228.00211257935,6155.38041962402,7383.38253220337,,,31.1299998760223,1794.79040527344,10241.8875682393,10855.6775239356
2018-07-19T09:06:36Z,1531991196,46C0F,40.8446199,43.5856449,6257.13,10.2,-9.3,139.6,533874.75,-142271.16,134.1,Weapon+Missile,Blue,Enemies,R-73,,cn,,153.109673193882,112.51326751709,0.485265492828721,6257.12744140625,4333.77746582031,151.848187576647,-19.61376953125,0.0820343928582378,NaN,1.73846072868667,3.67695678070867,2401.6870358244,0.000270865712082013,0.000270865712082013,0.000270865712082013,1172.12860127687,6136.14588232666,7308.27448360353,,,32.1299998760223,1923.34997558594,10393.1290074816,11008.3328393162
2018-07-19T09:06:37Z,1531991197,46C0F,40.8458021,43.5846379,6228.37,11.8,-12.9,139.6,533980.88,-142373.97,134.1,Weapon+Missile,Blue,Enemies,R-73,,cn,,150.531714758018,110.733642578125,0.476915187559312,6228.3720703125,4164.71508789062,147.759689297352,-28.75537109375,0.0576591936302343,NaN,1.53846083695764,3.62695211202136,2352.25325999862,0.00175131554715335,0.00175131554715335,0.00175131554715335,1132.98985739946,6107.94649633301,7240.93635373247,,,33.1299998760223,2063.65698242188,10540.2775749066,11158.4060853438
2018-07-19T09:06:38Z,1531991198,46C0F,40.8469517,43.5836588,6190.73,13.2,-16.6,139.6,534084.06,-142473.95,134.1,Weapon+Missile,Blue,Enemies,R-73,,cn,,148.530148525155,109.440162658691,0.470341995946776,6190.7333984375,4007.67553710938,143.682063600126,-37.638671875,0.0648081080094561,NaN,1.33846094522862,3.59616460745071,2334.47481007355,0.000244859635131434,0.000244859635131434,0.000244859635131434,1103.06025104523,6071.03556817871,7174.09581922394,,,34.1299998760223,2183.05786132812,10683.3605343914,11306.4914848023
2018-07-19T09:06:39Z,1531991199,46C0F,40.8480673,43.5827085,6144.56,14.5,-20.1,139.6,534184.19,-142570.97,134.1,Weapon+Missile,Blue,Enemies,R-73,,cn,,146.864272764771,108.447364807129,0.464786020032284,6144.55908203125,3862.0380859375,139.416810747989,-46.17431640625,0.0248026794904573,NaN,1.21538435147958,3.62695211202136,2339.39103308497,0.00120607460848987,0.00120607460848987,0.00120607460848987,1078.45573073626,6025.75403218018,7104.20976291643,,,35.1299998760223,2282.52099609375,10822.2198635768,11452.9540737926
2018-07-19T09:06:40Z,1531991200,46C0F,40.849155,43.5817819,6089.85,15.8,-23.7,139.6,534281.81,-142665.58,134.1,Weapon+Missile,Blue,Enemies,R-73,,cn,,146.542670538903,108.521171569824,0.463436980715098,6089.84912109375,3700.19213867188,135.946954592189,-54.7099609375,0.0395184916651854,NaN,1.1692327632578,3.55771789949953,2378.03427263576,0.00394720863550901,0.00394720863550901,0.00394720863550901,1073.73771443367,5972.1018883374,7045.83960277107,,,36.1299998760223,2389.65698242188,10957.6221180548,11599.1119838101
2018-07-19T09:06:41Z,1531991201,46C0F,40.8502106,43.5808828,6027.06,16.9,-27.1,139.6,534376.56,-142757.38,134.1,Weapon+Missile,Blue,Enemies,R-73,,cn,,146.10571201658,108.553283691406,0.46167693609712,6027.05859375,3543.9326171875,131.925087681478,-62.79052734375,0.0216946772029352,NaN,1.01538275220327,3.47696243850835,2461.50243738865,0.00434761075302958,0.00434761075302958,0.00434761075302958,1067.34395419359,5910.52541583984,6977.86937003344,,,37.1299998760223,2483.1259765625,11089.0129925989,11744.848130249
2018-07-19T09:06:42Z,1531991202,46C0F,40.8512399,43.5800059,5956.16,17.7,-30.5,139.6,534469,-142846.89,134.1,Weapon+Missile,Blue,Enemies,R-73,,cn,,146.915111619347,109.58544921875,0.463806302265836,5956.162109375,3404.7138671875,128.67687642071,-70.896484375,0.0133470879793068,NaN,0.769229564705176,3.37694627094456,2562.24484310834,0.00322690326720476,0.00322690326720476,0.00322690326720476,1079.20250110626,5840.99971499023,6920.2022160965,,,38.1299998760223,2551.4482421875,11217.1491450013,11891.3952123006
2018-07-19T09:06:43Z,1531991203,46C0F,40.8522403,43.5791536,5877.6,18.5,-33.8,139.6,534558.81,-142933.91,134.1,Weapon+Missile,Blue,Enemies,R-73,,cn,,147.68207012257,110.635108947754,0.465751932591013,5877.60009765625,3277.41162109375,125.052005783157,-78.56201171875,0.0757384957760827,NaN,0.769229564705176,3.21925961456718,2680.85829018672,0.00628945603966713,0.00628945603966713,0.00628945603966713,1090.49969178438,5763.95669976807,6854.45639155245,,,39.1299998760223,2600.1884765625,11341.6866883753,12038.7396342718
2018-07-19T09:06:44Z,1531991204,46C0F,40.853219,43.5783198,5791.02,19.1,-36.8,139.6,534646.62,-143019.05,134.1,Weapon+Missile,Blue,Enemies,R-73,,cn,,149.855755751626,112.825393676758,0.472076979516185,5791.01611328125,3154.3544921875,122.31092012425,-86.583984375,0.0241684064078891,NaN,0.569231380523448,3.07694899467197,2889.25377739471,0.00692502083256841,0.00692502083256841,0.00692502083256841,1122.83737659454,5679.04681673096,6801.8841933255,,,40.1299998760223,2636.66162109375,11463.5265819438,12188.3020522044
2018-07-19T09:06:45Z,1531991205,46C0F,40.8541727,43.5775073,5696.99,19.5,-39.7,139.6,534732.25,-143101.98,134.1,Weapon+Missile,Blue,Enemies,R-73,,cn,,151.828725391413,114.922317504883,0.477710902036045,5696.98583984375,3036.51171875,119.206835086122,-94.0302734375,0.0217929513535581,NaN,0.47692478898531,2.88462623557004,3092.33947807346,0.00281374505721033,0.00281374505721033,0.00281374505721033,1152.59809269905,5586.83461863037,6739.43271132942,,,41.1299998760223,2660.47412109375,11582.2472288352,12339.8331786145
2018-07-19T09:06:46Z,1531991206,46C0F,40.8551047,43.5767132,5595.41,19.8,-42.4,139.6,534815.94,-143183.06,134.1,Weapon+Missile,Blue,Enemies,R-73,,cn,,154.579044887235,117.690505981445,0.485727507579466,5595.4111328125,2896.86181640625,116.521500203892,-101.57470703125,0,NaN,0.215386600381767,2.73081763253735,3335.10802599195,0.00354761304333806,0.00354761304333806,0.00354761304333806,1194.73405591249,5487.22385855957,6681.95791447206,,,42.1299998760223,2698.54931640625,11698.2875936381,12494.1271777031
2018-07-19T09:06:47Z,1531991207,46C0F,40.8560203,43.575933,5485.87,20,-45,139.6,534898.19,-143262.7,134.1,Weapon+Missile,Blue,Enemies,R-73,,cn,,158.452326277644,121.419502258301,0.497197112869727,5485.869140625,2761.54345703125,114.48882762257,-109.5419921875,0.0166015645708021,NaN,0.200001599276313,2.56536120909226,3623.55695069264,0.00805709231644869,0.00805709231644869,0.00805709231644869,1255.35698513985,5379.79986079102,6635.15684593086,,,43.1299998760223,2724.32568359375,11812.2762252783,12652.2898804919
2018-07-19T09:06:48Z,1531991208,46C0F,40.856911,43.5751741,5369.61,20.1,-47.4,139.6,534978.12,-143340.19,134.1,Weapon+Missile,Blue,Enemies,R-73,,cn,,160.96317461934,124.150680541992,0.504323000261685,5369.61376953125,2637.826171875,111.327589910995,-116.25537109375,0.0296046636963163,NaN,0.0769250055272686,2.40769995248085,3969.51273677036,0.00198761047795415,0.00198761047795415,0.00198761047795415,1295.45717917681,5265.79228729736,6561.24946647417,,,44.1299998760223,2731.78759765625,11923.1717774842,12813.0196985185
2018-07-19T09:06:49Z,1531991209,46C0F,40.8577869,43.5744277,5245.58,20,-49.6,139.6,535056.75,-143416.39,134.1,Weapon+Missile,Blue,Enemies,R-73,,cn,,165.451299532821,128.540222167969,0.517563285049231,5245.576171875,2511.81909179688,109.493410234432,-124.03759765625,0.0227172936851041,NaN,0.199987938897973,2.28846405947947,4371.46865609436,0.00483628641813993,0.00483628641813993,0.00483628641813993,1368.70662585497,5144.1529565918,6512.85958244677,,,45.1299998760223,2733.75708007812,12032.2301763797,12978.2433744392
2018-07-19T09:06:50Z,1531991210,46C0F,40.8586392,43.5737014,5115.2,19.9,-51.8,139.6,535133.31,-143490.55,134.1,Weapon+Missile,Blue,Enemies,R-73,,cn,,168.399759875764,131.783462524414,0.525911815361415,5115.20166015625,2385.85424804688,106.587831483301,-130.37451171875,0.0297272974865084,NaN,0.199987938897973,2.10768922927333,4725.22948676707,0.00164695759303868,0.00164695759303868,0.00164695759303868,1417.92395631075,5016.29923605713,6434.22319236788,,,46.1299998760223,2729.34741210938,12138.3512541367,13146.402518079
2018-07-19T09:06:51Z,1531991211,46C0F,40.8594773,43.5729872,4977.31,19.7,-53.8,139.6,535208.56,-143563.44,134.1,Weapon+Missile,Blue,Enemies,R-73,,cn,,173.176509595872,136.599182128906,0.539882934373775,4977.30859375,2260.06762695312,104.764525068797,-137.89306640625,0.0344060287058123,NaN,0.199987938897973,1.93848409919096,5000,0.00181329983752221,0.00181329983752221,0.00181329983752221,1499.50517379046,4881.07233208984,6380.5775058803,,,47.1299998760223,2717.24096679688,12242.7009273785,13319.3782070452
2018-07-19T09:06:52Z,1531991212,46C0F,40.8602991,43.5722869,4832.37,19.4,-55.6,139.6,535282.38,-143634.94,134.1,Weapon+Missile,Blue,Enemies,R-73,,cn,,177.67499784121,141.298202514648,0.55289169935753,4832.36767578125,2136.09643554688,102.76446446243,-144.94091796875,0,NaN,0.323095268498283,1.80770668059614,5000,0.00206386880017817,0.00206386880017817,0.00206386880017817,1578.4202428937,4738.93384677002,6317.35408966372,,,48.1299998760223,2696.27124023438,12345.027000694,13496.8454016501
2018-07-19T09:06:53Z,1531991213,46C0F,40.8610996,43.5716048,4681.52,19,-57.3,139.6,535354.25,-143704.56,134.1,Weapon+Missile,Blue,Enemies,R-73,,cn,,181.023225617323,145.148300170898,0.562240064523509,4681.517578125,2016.19921875,100.068257954258,-150.85009765625,0,NaN,0.384621612541758,1.6884791118878,5000,0.00717299105599523,0.00717299105599523,0.00717299105599523,1638.47041064501,4591.00043575195,6229.47084639696,,,49.1299998760223,2665.318359375,12444.6987415312,13677.6907279439
2018-07-19T09:06:54Z,1531991214,46C0F,40.8618867,43.570934,4523.42,18.6,-58.9,139.6,535424.88,-143773.06,134.1,Weapon+Missile,Blue,Enemies,R-73,,cn,,186.216001155209,150.636367797852,0.577220658129327,4523.41552734375,1883.06787109375,98.3877056598028,-158.10205078125,0.0351330311248128,NaN,0.369212705774209,1.6115627508187,5000,0.0111942365765572,0.0111942365765572,0.0111942365765572,1733.81995431185,4435.95528812256,6169.77524243441,,,50.1299998760223,2640.34765625,12542.7084360256,13863.7445559631
2018-07-19T09:06:55Z,1531991215,46C0F,40.8626531,43.5702808,4359.81,18.2,-60.4,139.6,535493.75,-143839.73,134.1,Weapon+Missile,Blue,Enemies,R-73,,cn,,189.620182778962,154.734970092773,0.586570709350565,4359.8095703125,1742.14819335938,95.8587739386209,-163.60595703125,0.0122914079713308,NaN,0.507674300628708,1.53079085468484,5000,0.00685699097812176,0.00685699097812176,0.00685699097812176,1797.79068585634,4275.51265227051,6073.30333812685,,,51.1299998760223,2617.66137695312,12638.150728403,14053.1880350127
2018-07-19T09:06:56Z,1531991216,46C0F,40.8633975,43.5696464,4191.31,17.8,-61.8,139.6,535560.56,-143904.5,134.1,Weapon+Missile,Blue,Enemies,R-73,,cn,,192.485276806689,158.462509155273,0.594184702792208,4191.31005859375,1594.76171875,93.0510415733786,-168.49951171875,0.0253895471981772,NaN,0.399975877795947,1.41156808845327,5000,0.00725807389244437,0.00725807389244437,0.00725807389244437,1852.52908936739,4110.27107861084,5962.80016797823,,,52.1299998760223,2596.54833984375,12730.8381707663,14245.5277582045
2018-07-19T09:06:57Z,1531991217,46C0F,40.8640864,43.5690592,4026.02,17.3,-63.1,139.6,535622.44,-143964.44,134.1,Weapon+Missile,Blue,Enemies,R-73,,cn,,186.393083304187,154.553085327148,0.574199681018114,4026.01831054688,1451.2783203125,86.1453395793992,-165.291748046875,0.0333313762369265,NaN,0.538437472650445,1.39619546706568,5000,0.0131718460470438,0.0131718460470438,0.0131718460470438,1737.11907518208,3948.17524651245,5685.29432169453,,,53.1299998760223,2574.73999023438,12816.6332825892,14431.7847032855
2018-07-19T09:06:58Z,1531991218,46C0F,40.8646747,43.5685578,3875.97,17,-64.7,139.6,535675.31,-144015.64,134.1,Weapon+Missile,Blue,Enemies,R-73,,cn,,167.131631925218,139.226211547852,0.513909087422564,3875.966796875,1324.35424804688,73.6038425271781,-150.051513671875,0.0396177082378449,NaN,0.399975877795947,1.48848455624407,5000,0.0145571026951075,0.0145571026951075,0.0145571026951075,1396.64911949933,3801.02497885742,5197.67409835675,,,54.1299998760223,2551.61254882812,12889.8919293627,14598.7845152591
2018-07-19T09:06:59Z,1531991219,46C0F,40.8651578,43.568146,3743.82,16.8,-66.2,139.6,535718.62,-144057.67,134.1,Weapon+Missile,Blue,Enemies,R-73,,cn,,145.280602382103,121.488555908203,0.445993290772757,3743.81591796875,1218.126953125,60.3539446334082,-132.15087890625,0.03541034152739,NaN,0.199987938897973,1.58846796024419,5000,0.0111703872680664,0.0111703872680664,0.0111703872680664,1055.32267142534,3671.42923719482,4726.75190862017,,,55.1299998760223,2525.68896484375,12950.0524816023,14743.999776165
2018-07-19T09:07:00Z,1531991220,46C0F,40.8655616,43.5678018,3624.34,16.6,-68,139.6,535754.94,-144092.8,134.1,Weapon+Missile,Blue,Enemies,R-73,,cn,,129.719873657359,108.943313598633,0.397639970214527,3624.33837890625,1123.81420898438,50.5209192439132,-119.4775390625,0.0220251585541799,NaN,0.199987938897973,1.68845019030554,4297.82590487834,0.0108562698587775,0.0108562698587775,0.0108562698587775,841.362281084061,3554.2617963501,4395.62407743416,,,56.1299998760223,2500.52416992188,13000.3436322697,14873.6416089317
2018-07-19T09:07:01Z,1531991221,46C0F,40.8659053,43.5675089,3513.59,16.5,-69.7,139.6,535785.75,-144122.7,134.1,Weapon+Missile,Blue,Enemies,R-73,,cn,,118.782812078653,100.210922241211,0.363620324116919,3513.58837890625,1033.1640625,42.9394218092477,-110.75,0.0668000337920148,NaN,0.0769352508110236,1.73846937314483,4051.68316866391,0.0061207003891468,0.0061207003891468,0.0061207003891468,705.467822265625,3445.6531476001,4151.12096986572,,,57.1299998760223,2480.42431640625,13043.1383736462,14992.3808295582
2018-07-19T09:07:02Z,1531991222,46C0F,40.8662009,43.5672569,3409.25,16.4,-71.3,139.6,535812.31,-144148.42,134.1,Weapon+Missile,Blue,Enemies,R-73,,cn,,110.694228141751,93.8143157958984,0.338427867288665,3409.25146484375,952.09130859375,36.9732404288899,-104.3369140625,0.0132981897844022,NaN,0.0307631720217374,1.6884791118878,3795.52122815633,0.00120750931091607,0.00120750931091607,0.00120750931091607,612.660607194901,3343.333587771,3955.9941949659,,,58.1299998760223,2457.16015625,13079.9499533499,15103.0278144005
2018-07-19T09:07:03Z,1531991223,46C0F,40.8664566,43.567039,3309.83,16.2,-73,139.6,535835.31,-144170.67,134.1,Weapon+Missile,Blue,Enemies,R-73,,cn,,104.446924794508,88.9220886230469,0.318941300305444,3309.82763671875,873.1630859375,32.0009765475993,-99.423828125,0.0155442652199026,NaN,0.199987938897973,1.62306244150348,3656.51914307912,0.00650523928925395,0.00650523928925395,0.00650523928925395,545.458004951477,3245.83211936279,3791.29012431427,,,59.1299998760223,2436.66455078125,13111.7891348525,15207.4303971346
2018-07-19T09:07:04Z,1531991224,46C0F,40.8666796,43.5668489,3213.94,16,-74.6,139.6,535855.31,-144190.08,134.1,Weapon+Missile,Blue,Enemies,R-73,,cn,,99.8565650046779,85.3980865478516,0.304568926920584,3213.9384765625,795.208740234375,27.8675894017136,-95.88916015625,0.0606655142782425,NaN,0.199987938897973,1.53847652504839,3809.12238223538,0.00432319054380059,0.00432319054380059,0.00432319054380059,498.566678726673,3151.79697611816,3650.36365484484,,,60.1299998760223,2418.72973632812,13139.5695818493,15307.2666322759
2018-07-19T09:07:05Z,1531991225,46C0F,40.8668749,43.5666824,3120.79,15.8,-76,139.6,535872.88,-144207.08,134.1,Weapon+Missile,Blue,Enemies,R-73,,cn,,96.302223741908,82.7270812988281,0.293396376688597,3120.78979492188,716.760498046875,24.4426145542984,-93.148681640625,0.0243135318746117,NaN,0.24616001768726,1.4538552837087,3845.48599613481,0.00180969014763832,0.00180969014763832,0.00180969014763832,463.705914881825,3060.44932423706,3524.15523911889,,,61.1299998760223,2404.029296875,13163.8865229452,15403.5400863037
2018-07-19T09:07:06Z,1531991226,46C0F,40.8670458,43.5665368,3030.11,15.5,-77.4,139.6,535888.25,-144221.94,134.1,Weapon+Missile,Blue,Enemies,R-73,,cn,,93.1629391498137,80.3814392089844,0.283520950025246,3030.11376953125,638.923095703125,21.3820403701477,-90.676025390625,0.0312428797626079,NaN,0.199987938897973,1.40001076804737,3989.97127810197,0.00416009873151779,0.00416009873151779,0.00416009873151779,433.966661551595,2971.52651979736,3405.49318134896,,,62.1299998760223,2391.19067382812,13185.1706607654,15496.6829501405
2018-07-19T09:07:07Z,1531991227,46C0F,40.8671969,43.566408,2940.69,15.1,-78.7,139.6,535901.81,-144235.09,134.1,Weapon+Missile,Blue,Enemies,R-73,,cn,,91.4006892894593,79.209358215332,0.277857789900883,2940.6875,560.965576171875,18.8951930477701,-89.42626953125,0.0284957348152751,NaN,0.323095268498283,1.28850707607327,4186.63948592208,0.00656490540131927,0.00656490540131927,0.00656490540131927,417.704300129414,2883.8293071875,3301.53360731691,,,63.1299998760223,2379.72192382812,13203.9875526369,15588.0692983664
2018-07-19T09:07:08Z,1531991228,46C0F,40.8673298,43.5662946,2852.8,14.8,-79.9,139.6,535913.69,-144246.66,134.1,Weapon+Missile,Blue,Enemies,R-73,,cn,,89.4337528441448,77.8403244018555,0.271590616503693,2852.80297851562,483.2685546875,16.5742882577201,-87.884521484375,0,NaN,0.369212705774209,1.1692493051222,4760.50160206364,0.0080262366682291,0.0080262366682291,0.0080262366682291,399.919807389379,2797.64403292603,3197.5638403154,,,64.1299998760223,2369.53442382812,13220.5462496826,15677.5015558464
2018-07-19T09:07:09Z,1531991229,46C0F,40.8674472,43.5661946,2765.95,14.4,-80.9,139.6,535924.25,-144256.88,134.1,Weapon+Missile,Blue,Enemies,R-73,,cn,,88.0876700599277,76.9987106323242,0.267223704126248,2765.94995117188,405.47900390625,14.696572995515,-86.85302734375,0.0245329097083598,NaN,0.369212705774209,1.05387535048793,4793.17578152572,0.00144121749326587,0.00144121749326587,0.00144121749326587,387.971880829334,2712.47030886597,3100.4421896953,,,65.1299998760223,2360.47094726562,13235.1621435532,15765.5768698909
