ISOTime,UnixTime,Id,Longitude,Latitude,Altitude,Roll,Pitch,Yaw,U,V,Heading,Type,Color,Coalition,Name,Group,Country,Pilot,TAS,CAS,M,ASL,AGL,GS,VS,AOA,AOS,RRT,TRT,TRD,G,LatG,LonG,Ek,Ep,Em,FFW,FFV,RelativeTime,Elev,GroundDistance,AirDistance
2018-07-19T09:06:11Z,1531991171,48907,40.8769027,43.6702422,5720.77,-114.8,3.3,327.5,535584.81,-132623.55,322,Weapon+Missile,Blue,Enemies,AIM-120B,,us,,336.181676012446,266.134338378906,1.05808051258963,5720.7685546875,4010.36926269531,NaN,NaN,2.47246899142397,NaN,25.6923302988932,3.33515223053385,NaN,NaN,NaN,NaN,NaN,5610.15749468262,NaN,,,0.5,1710.39929199219,NaN,NaN
2018-07-19T09:06:12Z,1531991172,48907,40.8747112,43.6730554,5753.76,-94.4,5.6,326.3,535378.19,-132327.88,320.8,Weapon+Missile,Blue,Enemies,AIM-120B,,us,,362.221292784152,288.028137207031,1.14052273946828,5753.76123046875,3930.82019042969,360.715605832373,32.99267578125,2.68627713185765,NaN,18.3538247904698,2.60411655621655,4402.82490251045,3.14165639877319,3.14165639877319,3.14165639877319,6560.21324731112,5642.51225707764,12202.7255043888,,,1.5,1822.94104003906,359.458264744454,361.291184252668
2018-07-19T09:06:13Z,1531991173,48907,40.8713647,43.6766311,5792.99,-79.8,3.5,322.9,535070.38,-131956.36,317.4,Weapon+Missile,Blue,Enemies,AIM-120B,,us,,484.057490726408,383.196990966797,1.52492142888993,5792.99462890625,3949.60119628906,482.464915590129,39.2333984375,0.0721674866062855,NaN,13.2154051759775,3.91675490407089,4763.68575914546,5.06555986404419,5.06555986404419,5.06555986404419,11715.5827164173,5680.98707775635,17396.5697941737,,,2.5,1843.39343261719,840.118494800615,843.983593490309
2018-07-19T09:06:14Z,1531991174,48907,40.8666831,43.6808303,5806.95,-69.4,-1.5,319.3,534648.31,-131525.83,313.8,Weapon+Missile,Blue,Enemies,AIM-120B,,us,,603.066158594718,467.939544677734,1.90017679612773,5806.95458984375,3998.46240234375,602.904562209321,13.9599609375,0.0920184320267999,NaN,9.44616528250597,6.1514476589792,4933.64181652036,7.31857252120972,7.31857252120972,7.31857252120972,18184.4395821095,5694.67712284912,23879.1167049586,,,3.5,1808.4921875,1440.59235114782,1445.16559519763
2018-07-19T09:06:15Z,1531991175,48907,40.8608386,43.685524,5745.86,-61.1,-7.4,317.2,534127.31,-131049.28,311.7,Weapon+Missile,Blue,Enemies,AIM-120B,,us,,708.710104625805,543.587036132812,2.23128080215857,5745.86376953125,3862.02795410156,706.072180497338,-61.0908203125,0.280487669725083,NaN,8.81535633152028,4.94224676313259,5000,2.76221656799316,2.76221656799316,2.76221656799316,25113.500619936,5634.76749354736,30748.2681134834,,,4.5,1883.83581542969,2143.71855911493,2151.57514214053
2018-07-19T09:06:16Z,1531991176,48907,40.854035,43.6908373,5636.1,-51.5,-7.9,317.1,533522.5,-130511.23,311.6,Weapon+Missile,Blue,Enemies,AIM-120B,,us,,816.914293772369,623.136047363281,2.56830371568762,5636.1005859375,3633.61779785156,809.506644133927,-109.76318359375,0.0389909160912401,NaN,9.36920954112744,1.44412824055695,5000,0.329137831926346,0.329137831926346,0.329137831926346,33367.4481684804,5527.1265811084,38894.5747495888,,,5.5,2002.48278808594,2949.80734025447,2965.81536829249
2018-07-19T09:06:17Z,1531991177,48907,40.8467658,43.6965272,5511.74,-43.4,-8.6,317.3,532876.25,-129934.88,311.8,Weapon+Missile,Blue,Enemies,AIM-120B,,us,,874.801005458216,668.394714355469,2.7458932962481,5511.73974609375,3564.4287109375,865.91638202777,-124.36083984375,0.0480509365544733,NaN,7.69231613761927,0.717929721396503,5000,0.741000771522522,0.741000771522522,0.741000771522522,38263.8399575353,5405.17025810303,43669.0102156383,,,6.5,1947.31103515625,3812.07807062502,3837.75373901909
2018-07-19T09:06:18Z,1531991178,48907,40.8391519,43.702547,5365,-37.4,-10,317.9,532198.88,-129324.44,312.4,Weapon+Missile,Blue,Enemies,AIM-120B,,us,,923.586987382283,708.58203125,2.89357261280604,5365,3781.56103515625,911.85545465179,-146.73974609375,0.11312546533558,NaN,5.47691695956895,1.79586163847145,5000,3.42281746864319,3.42281746864319,3.42281746864319,42650.646163094,5261.267725,47911.913888094,,,7.5,1583.43896484375,4720.13043780126,4758.35049542202
2018-07-19T09:06:19Z,1531991179,48907,40.8313709,43.7089785,5174.14,-33.2,-12.5,319.7,531503.75,-128669.5,314.2,Weapon+Missile,Blue,Enemies,AIM-120B,,us,,973.945649147396,752.294494628906,3.04391265784661,5174.13818359375,4041.59350585938,955.061199364339,-190.86181640625,0.0380429682902031,NaN,4.04612210204551,2.80994003798666,5000,4.65979051589966,4.65979051589966,4.65979051589966,47428.5063746572,5074.09622181396,52502.6025964711,,,8.5,1132.54467773438,5671.26391607131,5729.21535830148
2018-07-19T09:06:20Z,1531991180,48907,40.8238334,43.7156185,4937.29,-30,-15.3,321.7,530826.19,-127989.45,316.2,Weapon+Missile,Blue,Enemies,AIM-120B,,us,,988.761794776953,772.169006347656,3.08093124780019,4937.2939453125,3504.86840820312,959.976402628479,-236.84423828125,0.0379914240069332,NaN,2.86157605466854,3.40810687459863,5000,5.57331514358521,5.57331514358521,5.57331514358521,48882.4943405271,4841.83136687988,53724.3257074069,,,9.5,1432.42553710938,6627.40162112798,6714.98631703526
2018-07-19T09:06:21Z,1531991181,48907,40.8172326,43.7219538,4670.67,-27.4,-18.1,324.2,530227.5,-127336.06,318.7,Weapon+Missile,Blue,Enemies,AIM-120B,,us,,925.436848127339,734.236511230469,2.87392210868442,4670.671875,3081.26623535156,886.197512687855,-266.6220703125,0.0811126906347553,NaN,2.66153688935179,3.39952132681192,5000,4.15687036514282,4.15687036514282,4.15687036514282,42821.6679935932,4580.36443429688,47402.0324278901,,,10.5,1589.40563964844,7510.239482152,7637.84304695634
2018-07-19T09:06:22Z,1531991182,48907,40.8113809,43.728029,4387.17,-24.4,-19.6,325.8,529691.94,-126705.8,320.4,Weapon+Missile,Blue,Enemies,AIM-120B,,us,,874.313487696664,704.96240234375,2.70552424284862,4387.17236328125,2488.72216796875,827.074423267662,-283.49951171875,0.142419641473585,NaN,3.24617034645362,2.04852975922068,5000,1.34192752838135,1.34192752838135,1.34192752838135,38221.2037384152,4302.34638563721,42523.5501240524,,,11.5,1898.4501953125,8334.2354167019,8509.79823297107
2018-07-19T09:06:23Z,1531991183,48907,40.8059485,43.7338619,4106.31,-20.2,-19.6,326,529192.81,-126099.23,320.5,Weapon+Missile,Blue,Enemies,AIM-120B,,us,,834.234854793194,683.099487304688,2.57249018876333,4106.3076171875,1914.98828125,785.533441270017,-280.86474609375,0.0289535383216202,NaN,4.24616468245685,0.264115571159018,5000,1.6328432559967,1.6328432559967,1.6328432559967,34797.3896475911,4026.91215940918,38824.3018070003,,,12.5,2191.3193359375,9116.8974915512,9341.8204195406
2018-07-19T09:06:24Z,1531991184,48907,40.8007581,43.7393653,3846.76,-16.2,-18.7,325.3,528716.75,-125527.39,319.8,Weapon+Missile,Blue,Enemies,AIM-120B,,us,,788.032217704803,654.869201660156,2.42222898117912,3846.76391601562,1601.1103515625,744.064408047283,-259.543701171875,0.0619902427081139,NaN,4.2461066258489,1.05980139336656,5000,2.93800377845764,2.93800377845764,2.93800377845764,31049.7388070375,3772.38673569946,34822.1255427369,,,13.5,2245.65356445312,9858.249714433,10127.7285436814
2018-07-19T09:06:25Z,1531991185,48907,40.7956822,43.744598,3616.35,-12.3,-17,324.7,528252.88,-124984.73,319.2,Weapon+Missile,Blue,Enemies,AIM-120B,,us,,750.16286490193,631.523620605469,2.29930490291433,3616.3544921875,1445.27026367188,713.901828887602,-230.409423828125,0.116756912821762,NaN,3.63075951559682,1.42536827222787,5000,2.54755401611328,2.54755401611328,2.54755401611328,28137.2161938936,3546.43227808105,31683.6484719746,,,14.5,2171.08422851562,10569.5526278844,10875.8144540654
2018-07-19T09:06:26Z,1531991186,48907,40.7908347,43.7495566,3412.99,-10.3,-16.7,324.9,527810.25,-124470.76,319.4,Weapon+Missile,Blue,Enemies,AIM-120B,,us,,708.12804088432,603.379455566406,2.16507400474289,3412.99145507812,947.427978515625,678.298457483368,-203.363037109375,0.0334156756148549,NaN,1.49230583364128,0.605800053257137,5000,1.09755313396454,1.09755313396454,1.09755313396454,25072.2661143333,3347.00126529419,28419.2673796275,,,15.5,2465.5634765625,11245.3107186496,11581.8661048588
2018-07-19T09:06:27Z,1531991187,48907,40.7862636,43.7542931,3220.17,-9.6,-16.5,325.3,527392.31,-123979.33,319.9,Weapon+Missile,Blue,Enemies,AIM-120B,,us,,673.315326519776,580.155395507812,2.05381039291159,3220.173828125,506.8232421875,645.116184623047,-192.817626953125,0.0245021666972616,NaN,0.769239809988931,0.470849922687966,5000,1.41876673698425,1.41876673698425,1.41876673698425,22667.6764463216,3157.9117671582,25825.5882134798,,,16.5,2713.3505859375,11888.0553985693,12253.2297259286
2018-07-19T09:06:28Z,1531991188,48907,40.7819646,43.7588334,3039.83,-9,-16.3,325.9,526998.5,-123507.6,320.5,Weapon+Missile,Blue,Enemies,AIM-120B,,us,,640.421148822073,557.646423339844,1.94920998302902,3039.82690429688,733.3046875,614.50324240342,-180.346923828125,0.0859744939443923,NaN,0.569251871090958,0.730628537167437,5000,1.91942477226257,1.91942477226257,1.91942477226257,20506.9623929292,2981.05185110229,23488.0142440315,,,17.5,2306.52221679688,12500.3710496232,12891.840362896
2018-07-19T09:06:29Z,1531991189,48907,40.7780033,43.7631584,2877.15,-8,-14.3,327.6,526634.06,-123057.23,322.2,Weapon+Missile,Blue,Enemies,AIM-120B,,us,,601.761921298651,529.437438964844,1.82795403315046,2877.14599609375,493.59619140625,579.355100116716,-162.680908203125,0.234809837322485,NaN,1.3999872892721,3.11459785115073,5000,5.94680595397949,5.94680595397949,5.94680595397949,18105.8704962522,2821.51637825928,20927.3868745115,,,18.5,2383.5498046875,13077.6327563054,13491.8448334738
2018-07-19T09:06:30Z,1531991190,48907,40.77463,43.7673816,2762.42,-6.9,-9.9,332.9,526318.12,-122613.68,327.5,Weapon+Missile,Blue,Enemies,AIM-120B,,us,,556.51810961923,494.154418945312,1.68818776387603,2762.419921875,417.989013671875,544.564352697196,-114.72607421875,0.178233797983333,NaN,0.569251871090958,6.48474808387112,4121.51607126262,7.77950525283813,7.77950525283813,7.77950525283813,15485.6203167081,2709.00853268555,18194.6288493936,,,19.5,2344.43090820312,13620.3654688811,14046.8055317539
2018-07-19T09:06:31Z,1531991191,48907,40.7722035,43.7715101,2688.73,-7.3,-7,341.4,526079.44,-122173.44,336,Weapon+Missile,Blue,Enemies,AIM-120B,,us,,506.176958953578,453.232543945312,1.53412188934591,2688.72998046875,250.434814453125,500.784291198351,-73.68994140625,0.198553045636661,NaN,0.60001845820728,8.71434466388496,3013.00588634667,8.5844612121582,8.5844612121582,8.5844612121582,12810.7556887746,2636.74338629639,15447.499075071,,,20.5,2438.29516601562,14119.6243773041,14551.684470852
2018-07-19T09:06:32Z,1531991192,48907,40.7708483,43.7754027,2652.7,-6.5,-1.3,350.5,525929.5,-121751.23,345,Weapon+Missile,Blue,Enemies,AIM-120B,,us,,449.482744214823,405.5048828125,1.36170504394833,2652.7021484375,335.871826171875,448.036530503949,-36.02783203125,0.467613438939003,NaN,1.32307338280223,9.76189589953169,2535.48381576842,8.37629795074463,8.37629795074463,8.37629795074463,10101.7368673444,2601.41215239746,12703.1490197418,,,21.5,2316.83032226562,14566.4387942645,15000.1355338894
2018-07-19T09:06:33Z,1531991193,48907,40.7702151,43.7788422,2674.1,-4,8.3,353.2,525842.44,-121373.91,347.8,Weapon+Missile,Blue,Enemies,AIM-120B,,us,,387.825300104184,351.004852294922,1.17521546129703,2674.10229492188,350.511962890625,387.234421418535,21.400146484375,0.60268393923575,NaN,2.47692968269104,8.37116266281131,3218.73918710607,5.61228466033936,5.61228466033936,5.61228466033936,7520.42317004502,2622.39852704956,10142.8216970946,,,22.5,2323.59033203125,14952.689732514,15387.1398980132
2018-07-19T09:06:34Z,1531991194,48907,40.7697484,43.7818877,2734.1,-3.3,9.9,353.7,525772.94,-121039.09,348.2,Weapon+Missile,Blue,Enemies,AIM-120B,,us,,347.188465142818,312.770660400391,1.05283204766381,2734.09985351562,374.862060546875,341.965090749064,59.99755859375,0.0331451697172932,NaN,0,3.25472750626659,5000,0.83556056022644,0.83556056022644,0.83556056022644,6026.9915164113,2681.2360328479,8708.22754925921,,,23.5,2359.23779296875,15293.7822979017,15733.6114229382
2018-07-19T09:06:35Z,1531991195,48907,40.7693036,43.7847282,2788.56,-3.2,9.4,353.5,525707.31,-120726.88,348.1,Weapon+Missile,Blue,Enemies,AIM-120B,,us,,323.647522518332,290.020690917969,0.982087250179884,2788.55541992188,398.308837890625,319.03339969293,54.45556640625,0.0323652764667494,NaN,0.0923023226699061,0.535959608085611,5000,0.68886935710907,0.68886935710907,0.68886935710907,5237.38594161272,2734.63870087769,7972.02464249041,,,24.5,2390.24658203125,15611.9947109323,16056.5854854119
2018-07-19T09:06:36Z,1531991196,48907,40.7688871,43.7873969,2836.85,-3,8.9,353.7,525645.81,-120433.55,348.3,Weapon+Missile,Blue,Enemies,AIM-120B,,us,,303.572169304916,270.704833984375,0.921704914985314,2836.8505859375,416.158203125,299.705920722323,48.295166015625,0.0262599367526811,NaN,0.230763490637581,0.537782041294388,5000,0.790036261081696,0.790036261081696,0.790036261081696,4607.80309882462,2782.0000798584,7389.80317868302,,,25.5,2420.6923828125,15910.9502400956,16359.5469937471
2018-07-19T09:06:37Z,1531991197,48907,40.7685139,43.7899341,2880.62,-2.5,8.6,354.3,525589.12,-120154.47,348.8,Weapon+Missile,Blue,Enemies,AIM-120B,,us,,288.121677154446,255.881408691406,0.875255171673631,2880.623046875,414.166259765625,284.777233131031,43.7724609375,0.037746367743828,NaN,0.569196375803951,0.584091897805838,5000,0.923746943473816,0.923746943473816,0.923746943473816,4150.70504231453,2824.92620026367,6975.6312425782,,,26.5,2466.45678710938,16194.9826006557,16647.0582879873
2018-07-19T09:06:38Z,1531991198,48907,40.7681919,43.7923623,2921.36,-1.9,8.4,354.9,525537.75,-119887.16,349.5,Weapon+Missile,Blue,Enemies,AIM-120B,,us,,275.235883960707,243.557189941406,0.836521203390033,2921.35913085938,367.16650390625,272.204634937119,40.736083984375,0.0292608477842112,NaN,0.60001845820728,0.673341979690395,5000,0.956564247608185,0.956564247608185,0.956564247608185,3787.7395909816,2864.87465206421,6652.61424304581,,,27.5,2554.19262695312,16466.5169088267,16921.7533823557
2018-07-19T09:06:39Z,1531991199,48907,40.7679204,43.7946921,2959.59,-1.4,8.2,355.6,525491.44,-119630.36,350.1,Weapon+Missile,Blue,Enemies,AIM-120B,,us,,263.725616405467,232.598129272461,0.801907828085744,2959.59155273438,416.040771484375,260.939614980201,38.232421875,0.0418655909693926,NaN,0.52310006942577,0.724577096284512,5000,0.957741618156433,0.957741618156433,0.957741618156433,3477.56003742218,2902.36785006226,6379.92788748444,,,28.5,2543.55078125,16726.7889584169,17184.9372216243
2018-07-19T09:06:40Z,1531991200,48907,40.7676958,43.7969438,2995.67,-1,8.1,356.3,525449.75,-119381.91,350.8,Weapon+Missile,Blue,Enemies,AIM-120B,,us,,254.496051659454,223.804870605469,0.774180621462534,2995.6669921875,520.310791015625,251.92618557529,36.075439453125,0.0511097437492043,NaN,0.384642743439503,0.697888238824393,5000,0.97382640838623,0.97382640838623,0.97382640838623,3238.41201551259,2937.74577089355,6176.15778640614,,,29.5,2475.35620117188,16978.0970271536,17438.9375463263
2018-07-19T09:06:41Z,1531991201,48907,40.7675179,43.799111,3029.66,-0.6,7.9,357.1,525412.75,-119142.48,351.6,Weapon+Missile,Blue,Enemies,AIM-120B,,us,,244.644221502526,214.51496887207,0.744516849621888,3029.65551757812,620.241943359375,242.271697183859,33.988525390625,0.0598628315735778,NaN,0.369242160965005,0.719359312006298,5000,1.00491058826447,1.00491058826447,1.00491058826447,2992.53975572884,2971.07712814575,5963.61688387459,,,30.5,2409.41357421875,17219.769148574,17683.1010608153
2018-07-19T09:06:42Z,1531991202,48907,40.7673847,43.8012062,3062.15,-0.4,7.9,357.8,525380,-118910.7,352.4,Weapon+Missile,Blue,Enemies,AIM-120B,,us,,236.320590452029,206.670471191406,0.719468451788492,3062.15063476562,706.9892578125,234.075818551525,32.4951171875,0.055136120994386,NaN,0.261522713956205,0.813030980883086,5000,1.03295171260834,1.03295171260834,1.03295171260834,2792.37107357979,3002.94395224243,5795.31502582222,,,31.5,2355.16137695312,17453.2495792406,17918.9423685964
2018-07-19T09:06:43Z,1531991203,48907,40.7672952,43.8032231,3093.28,-0.1,7.9,358.6,525351.69,-118687.28,353.2,Weapon+Missile,Blue,Enemies,AIM-120B,,us,,227.34988693344,198.296020507812,0.692418260721983,3093.28002929688,787.008544921875,225.208640786195,31.12939453125,0.0570556245732038,NaN,0.199987938897973,0.813271638329623,5000,1.01824522018433,1.01824522018433,1.01824522018433,2584.39855443239,3033.47145993042,5617.87001436281,,,32.5,2306.271484375,17677.8891394142,18145.8359204195
2018-07-19T09:06:44Z,1531991204,48907,40.7672471,43.8051758,3123.18,0.1,7.7,359.5,525327.31,-118470.7,354,Weapon+Missile,Blue,Enemies,AIM-120B,,us,,219.994475634665,191.423080444336,0.670259186399938,3123.17919921875,862.318359375,217.95322651375,29.899169921875,0.0342726307968912,NaN,0.20000001179094,0.821710016884057,5000,0.976633250713348,0.976633250713348,0.976633250713348,2419.87846548855,3062.79252940186,5482.67099489041,,,33.5,2260.86083984375,17895.2944873776,18365.3925734372
2018-07-19T09:06:45Z,1531991205,48907,40.767238,43.8070584,3151.36,0.2,7.5,0.2,525306.81,-118261.6,354.8,Weapon+Missile,Blue,Enemies,AIM-120B,,us,,211.978047070011,184.006912231445,0.646056041970333,3151.36157226562,916.82373046875,210.096278617834,28.182373046875,0.0358434556706893,NaN,0.0923076854356216,0.836462531800197,5000,0.949207842350006,0.949207842350006,0.949207842350006,2246.73462198079,3090.42999626587,5337.16461824666,,,34.5,2234.53784179688,18104.8701173793,18576.9567717659
2018-07-19T09:06:46Z,1531991206,48907,40.7672659,43.8088785,3177.68,0.3,7.2,1.1,525290,-118059.16,355.7,Weapon+Missile,Blue,Enemies,AIM-120B,,us,,204.832674816942,177.416351318359,0.624478005623816,3177.68310546875,970.8017578125,203.134442088239,26.321533203125,0.0682790935524659,NaN,0.0153845742186306,0.857260404462032,5000,0.940014123916626,0.940014123916626,0.940014123916626,2097.82123363316,3116.24260262451,5214.06383625767,,,35.5,2206.88134765625,18307.4908140021,18781.379664473
2018-07-19T09:06:47Z,1531991207,48907,40.767329,43.8106454,3202.26,0.4,6.9,2,525276.56,-117862.38,356.5,Weapon+Missile,Blue,Enemies,AIM-120B,,us,,198.772547779357,171.831024169922,0.606183084130084,3202.26000976562,1020.18041992188,197.24731056691,24.576904296875,0.0469874517396548,NaN,0,0.895337588506943,5000,0.933012723922729,0.933012723922729,0.933012723922729,1975.52628753483,3140.34431247681,5115.87060001164,,,36.5,2182.07958984375,18504.2517646107,18979.7672432876
2018-07-19T09:06:48Z,1531991208,48907,40.7674229,43.8123432,3224.92,0.5,6.7,2.7,525266.25,-117673.05,357.2,Weapon+Missile,Blue,Enemies,AIM-120B,,us,,190.958174943303,164.732330322266,0.582512349861937,3224.92138671875,1072.08544921875,189.608772403245,22.661376953125,0.0306942509753614,NaN,0,0.820816436041549,5000,0.930832266807556,0.930832266807556,0.930832266807556,1823.25122888386,3162.56753170654,4985.81876059041,,,37.5,2152.8359375,18693.3945197237,19170.357324275
2018-07-19T09:06:49Z,1531991209,48907,40.767544,43.8139912,3245.97,0.5,6.4,3.5,525258.75,-117489.02,358,Weapon+Missile,Blue,Enemies,AIM-120B,,us,,185.374548370675,159.642242431641,0.56562421381413,3245.96533203125,1118.26831054688,184.176207880704,21.0439453125,0.0348377191316212,NaN,0,0.747115599967643,5000,0.918329477310181,0.918329477310181,0.918329477310181,1718.1861591816,3183.20459233643,4901.39075151802,,,38.5,2127.69702148438,18877.1084396285,19355.3651681316
2018-07-19T09:06:50Z,1531991210,48907,40.7676863,43.8155736,3265.22,0.5,6,4.1,525253.56,-117312.12,358.7,Weapon+Missile,Blue,Enemies,AIM-120B,,us,,178.018578934183,153.025985717773,0.543306399081485,3265.21752929688,1160.560546875,176.974482189358,19.252197265625,0.0683112896410924,NaN,0,0.730092687482709,5000,0.910794258117676,0.910794258117676,0.910794258117676,1584.5307222873,3202.08454836792,4786.61527065522,,,39.5,2104.65698242188,19053.6366166347,19533.0296404555
2018-07-19T09:06:51Z,1531991211,48907,40.7678464,43.8171086,3282.91,0.5,5.7,4.7,525250.31,-117140.37,359.2,Weapon+Missile,Blue,Enemies,AIM-120B,,us,,172.697217882539,148.229187011719,0.527179173577728,3282.90991210938,1213.39819335938,171.788557985639,17.6923828125,0.0240022160735683,NaN,0,0.650203273133949,5000,0.908668458461761,0.908668458461761,0.908668458461761,1491.21645321846,3219.43484895874,4710.6513021772,,,40.5,2069.51171875,19224.9961610596,19705.3876060953
2018-07-19T09:06:52Z,1531991212,48907,40.76802,43.8185934,3299.05,0.5,5.4,5.1,525248.75,-116974.09,359.7,Weapon+Missile,Blue,Enemies,AIM-120B,,us,,167.070468357202,143.191360473633,0.510102990780382,3299.05444335938,1258.18737792969,166.288591033217,16.14453125,0.0565935532837067,NaN,0,0.545010836035495,5000,0.908722102642059,0.908722102642059,0.908722102642059,1395.62706985474,3235.26722569702,4630.89429555176,,,41.5,2040.86706542969,19390.86202527,19872.1225118558
2018-07-19T09:06:53Z,1531991213,48907,40.7682005,43.8200191,3313.66,0.4,5.1,5.4,525248.31,-116814.33,0,Weapon+Missile,Blue,Enemies,AIM-120B,,us,,160.424787891546,137.291961669922,0.489899320137231,3313.66137695312,1290.92651367188,159.758411550175,14.60693359375,0.0356676811815528,NaN,0.199987938897973,0.458852855493397,5000,0.916929662227631,0.916929662227631,0.916929662227631,1286.80562850237,3249.59173422974,4536.3973627321,,,42.5,2022.73486328125,19550.2292695324,20032.2400308716
2018-07-19T09:06:54Z,1531991214,48907,40.768384,43.8214006,3327.03,0.4,4.8,5.6,525248.56,-116659.43,0.2,Weapon+Missile,Blue,Enemies,AIM-120B,,us,,155.474402147039,132.89387512207,0.474859268122976,3327.029296875,1319.65881347656,154.898639244964,13.367919921875,0.0657193570046007,NaN,0,0.336447167747747,5000,0.92522519826889,0.92522519826889,0.92522519826889,1208.61448614895,3262.70118541992,4471.31567156888,,,43.5,2007.37048339844,19704.7254678371,20187.393615036
2018-07-19T09:06:55Z,1531991215,48907,40.7685635,43.8227249,3339.15,0.3,4.6,5.7,525249.06,-116510.93,0.2,Weapon+Missile,Blue,Enemies,AIM-120B,,us,,148.995038660587,127.189079284668,0.455136790052347,3339.15454101562,1347.91625976562,148.500841748456,12.125244140625,0.139359334074414,NaN,0.107698422832761,0.749077518445877,5000,0.68296355009079,0.68296355009079,0.68296355009079,1109.97607727349,3274.59198796509,4384.56806523858,,,44.5,1991.23828125,19852.8503500947,20336.0910936682
2018-07-19T09:06:56Z,1531991216,48907,40.7687386,43.8240011,3347.76,0.3,1.6,5.7,525249.75,-116367.8,0.3,Weapon+Missile,Blue,Enemies,AIM-120B,,us,,143.392917408139,122.281646728516,0.438069834142131,3347.76000976562,1377.14221191406,143.134463601224,8.60546875,0.0243743153174816,NaN,0,2.58129347910496,2122.00755822044,0.0338172540068626,0.0338172540068626,0.0338172540068626,1028.07643814087,3283.03106997681,4311.10750811768,,,45.5,1970.61779785156,19995.6108206944,20479.1853942935
2018-07-19T09:06:57Z,1531991217,48907,40.7689075,43.8252285,3346.72,0.2,-2.5,5.7,525250.5,-116230.15,0.3,Weapon+Missile,Blue,Enemies,AIM-120B,,us,,137.654374794847,117.324859619141,0.420533104492412,3346.724609375,1404.04748535156,137.650480733601,-1.035400390625,0.0604696419563779,NaN,0.199987938897973,4.03079216934024,1912.85286795624,0.0108866253867745,0.0108866253867745,0.0108866253867745,947.436345008016,3282.01568905273,4229.45203406075,,,46.5,1942.67712402344,20132.919107156,20616.5696417761
2018-07-19T09:06:58Z,1531991218,48907,40.7690711,43.8264175,3336.1,0.2,-6.7,5.7,525251.12,-116096.81,0.3,Weapon+Missile,Blue,Enemies,AIM-120B,,us,,133.759671587067,114.021789550781,0.408581971848638,3336.1044921875,1415.52612304688,133.337402307094,-10.6201171875,0.04612831408896,NaN,0,4.15384144233261,1811.62144872133,0.00884036906063557,0.00884036906063557,0.00884036906063557,894.582487154007,3271.60091183105,4166.18339898506,,,47.5,1920.57836914062,20265.9302814492,20750.0735794454
2018-07-19T09:06:59Z,1531991219,48907,40.7692291,43.8275659,3316.2,0.2,-10.9,5.7,525251.81,-115968.02,0.3,Weapon+Missile,Blue,Enemies,AIM-120B,,us,,130.319452468964,111.162902832031,0.397977063368351,3316.203125,1415.30590820312,128.790897488444,-19.9013671875,0.0292023169312288,NaN,0,4.26539209185726,1739.92537462976,0.00487764412537217,0.00487764412537217,0.00487764412537217,849.15798459053,3252.08433757813,4101.24232216866,,,48.5,1900.89721679688,20394.3897987567,20880.1317498407
2018-07-19T09:07:00Z,1531991220,48907,40.7693817,43.8286738,3287.34,0.2,-15.3,5.7,525252.44,-115843.77,0.3,Weapon+Missile,Blue,Enemies,AIM-120B,,us,,127.56684676156,108.943946838379,0.389434243376281,3287.34301757812,1402.3759765625,124.259384322815,-28.860107421875,0.0537052751023026,NaN,0,4.27694492995151,1711.70834212355,0.00251535885035992,0.00251535885035992,0.00251535885035992,813.665019634366,3223.78224033325,4037.44725996762,,,49.5,1884.96704101562,20518.3302320402,21007.450424944
2018-07-19T09:07:01Z,1531991221,48907,40.7695295,43.8297462,3249.78,0.1,-19.5,5.7,525253.06,-115723.5,0.3,Weapon+Missile,Blue,Enemies,AIM-120B,,us,,125.997073920084,107.790451049805,0.384466469381027,3249.77905273438,1377.99938964844,120.26724899839,-37.56396484375,0.0162515670131128,NaN,0.199987938897973,4.21539681468006,1717.13320843083,0.00488616246730089,0.00488616246730089,0.00488616246730089,793.763131821156,3186.94457474976,3980.70770657091,,,50.5,1871.77966308594,20638.2993201097,21133.2216007606
2018-07-19T09:07:02Z,1531991222,48907,40.7696723,43.8307818,3203.91,0.1,-23.7,5.8,525253.69,-115607.35,0.3,Weapon+Missile,Blue,Enemies,AIM-120B,,us,,124.879254563628,107.069259643555,0.380843372671738,3203.90991210938,1342.9326171875,116.150119064474,-45.869140625,0.310981217984564,NaN,0,4.19999559187532,1723.4185317053,0.0139704188331962,0.0139704188331962,0.0139704188331962,779.741411018372,3141.96231395874,3921.70372497711,,,51.5,1860.97729492188,20754.152314959,21257.8790466589
