ISOTime,UnixTime,Id,Longitude,Latitude,Altitude,Roll,Pitch,Yaw,U,V,Heading,Type,Color,Coalition,Name,Group,Country,Pilot,TAS,CAS,M,ASL,AGL,GS,VS,AOA,AOS,RRT,TRT,TRD,G,LatG,LonG,Ek,Ep,Em,FFW,FFV,RelativeTime,Elev,GroundDistance,AirDistance
2018-07-19T08:33:57Z,1531989237,9608,41.2616323,43.4944599,8596.12,-143.9,-0.6,2.2,568569,-149117.52,356.4,Weapon+Missile,Blue,Enemies,AIM-120B,,us,,363.939338149163,253.420013427734,1.1905479247874,8596.1201171875,6056.58032226562,NaN,NaN,3.86297908479811,NaN,32.3230779451416,5.66819641732589,NaN,NaN,NaN,NaN,NaN,8429.91413472168,NaN,,,0.839999914169312,2539.53979492188,NaN,NaN
2018-07-19T08:33:58Z,1531989238,9608,41.2619801,43.4988412,8613.41,-116.4,-0.7,357.6,568548.5,-148627.88,351.8,Weapon+Missile,Blue,Enemies,AIM-120B,,us,,490.374417731771,342.618743896484,1.60454003799865,8613.408203125,5970.85693359375,490.069578376776,17.2880859375,2.24620198583953,NaN,25.9076998238021,4.05019076035673,3050.84711626596,8.4332799911499,8.4332799911499,8.4332799911499,12023.3534782887,8446.86795551758,20470.2214338062,,,1.83999991416931,2642.55126953125,488.531991008342,489.496457469062
2018-07-19T08:33:59Z,1531989239,9608,41.2612604,43.5044033,8602.25,-94.3,-2,351.4,568428.5,-148015.67,345.6,Weapon+Missile,Blue,Enemies,AIM-120B,,us,,623.952877668709,425.278533935547,2.04130005053545,8602.2490234375,6013.6416015625,623.85308066865,-11.1591796875,0.428533522325674,NaN,20.8615424046183,4.83401217044999,5000,4.17516469955444,4.17516469955444,4.17516469955444,19465.8596775532,8435.92453856934,27901.7842161225,,,2.83999991416931,2588.607421875,1110.42233705597,1112.32607349201
2018-07-19T08:34:00Z,1531989240,9608,41.2597785,43.5111765,8574.07,-76.5,-2.2,350.9,568233.44,-147275.05,345.1,Weapon+Missile,Blue,Enemies,AIM-120B,,us,,766.399793958935,510.371795654297,2.50633774835026,8574.0732421875,6196.23266601562,765.88169421344,-28.17578125,0.0590958740561816,NaN,17.107697757536,1.73866638141371,5000,0.847078442573547,0.847078442573547,0.847078442573547,29368.4322090149,8408.2935360498,37776.7257450647,,,3.83999991416931,2377.84057617188,1873.83992850578,1877.29067912514
2018-07-19T08:34:01Z,1531989241,9608,41.2580439,43.5190139,8539.67,-62.1,-2.3,350.9,568006.12,-146418.22,345.2,Weapon+Missile,Blue,Enemies,AIM-120B,,us,,887.135237549923,582.903686523438,2.89978391071747,8539.6708984375,6382.43896484375,886.467939886867,-34.40234375,0.0626196579873676,NaN,13.584590560995,0.100384470840548,5000,0.857715010643005,0.857715010643005,0.857715010643005,39350.4464851379,8374.55636161621,47725.0028467542,,,4.83999991416931,2157.23193359375,2757.46875235457,2762.77351818617
2018-07-19T08:34:02Z,1531989242,9608,41.2561807,43.5274509,8501.15,-50.3,-2.4,350.9,567761.81,-145495.8,345.2,Weapon+Missile,Blue,Enemies,AIM-120B,,us,,955.004917364293,624.612365722656,3.1199548173866,8501.15234375,6687.23327636719,954.227809872866,-38.5185546875,0.0540373860429134,NaN,11.1384744229709,0.112776761862158,5000,0.860931396484375,0.860931396484375,0.860931396484375,45601.719609499,8336.78256318359,53938.5021726826,,,5.83999991416931,1813.91906738281,3708.63378312113,3715.98775772954
2018-07-19T08:34:03Z,1531989243,9608,41.254202,43.5364307,8458.7,-41.1,-2.5,351,567502.12,-144514.02,345.2,Weapon+Missile,Blue,Enemies,AIM-120B,,us,,1016.4320142488,662.939208984375,3.3186726725933,8458.7021484375,6910.07653808594,1015.54518388293,-42.4501953125,0.0336272758212724,NaN,8.98461524934236,0.101354391053222,5000,0.865708112716675,0.865708112716675,0.865708112716675,51656.7019794941,8295.15314239746,59951.8551218916,,,6.83999991416931,1548.62561035156,4720.93300037761,4730.52134887744
2018-07-19T08:34:04Z,1531989244,9608,41.2520914,43.5460327,8411.91,-33.3,-2.5,351,567224.94,-143464.14,345.2,Weapon+Missile,Blue,Enemies,AIM-120B,,us,,1086.85794402697,707.226806640625,3.54630709996146,8411.9072265625,6583.30810546875,1085.85009360466,-46.794921875,0.0313242149085112,NaN,7.20001659281226,0.0593470334505648,5000,0.861546456813812,0.861546456813812,0.861546456813812,59063.0095247269,8249.26300033691,67312.2725250638,,,7.83999991416931,1828.59912109375,5803.30386061157,5815.33343455413
2018-07-19T08:34:05Z,1531989245,9608,41.2499467,43.5558157,8362.86,-27.1,-2.6,351,566943,-142394.44,345.2,Weapon+Missile,Blue,Enemies,AIM-120B,,us,,1107.32074002247,721.536254882812,3.61061562640046,8362.859375,6433.35534667969,1106.23393978897,-49.0478515625,0.0523348036704919,NaN,5.78463064205637,0.0713262647800548,5000,0.850180387496948,0.850180387496948,0.850180387496948,61307.9610641956,8201.16348898438,69509.12455318,,,8.83999991416931,1929.50402832031,6906.00648580304,6920.57498345541
2018-07-19T08:34:06Z,1531989246,9608,41.2478675,43.5653239,8313.75,-22,-2.7,351,566669.44,-141354.72,345.3,Weapon+Missile,Blue,Enemies,AIM-120B,,us,,1076.22626035562,704.424377441406,3.50683815564197,8313.7529296875,6414.17407226562,1075.10535321326,-49.1064453125,0.0415155750542985,NaN,4.81541313845322,0.104678365311811,5000,0.85715663433075,0.85715663433075,0.85715663433075,57913.1481739521,8153.00651679199,66066.1546907441,,,9.83999991416931,1899.57885742188,7977.66132065922,7994.75386665565
2018-07-19T08:34:07Z,1531989247,9608,41.2458655,43.5744952,8265.03,-17.8,-2.7,351,566405.88,-140351.84,345.3,Weapon+Missile,Blue,Enemies,AIM-120B,,us,,1038.0739591137,682.899780273438,3.38023930040744,8265.0283203125,6022.80688476562,1036.92982261639,-48.724609375,0.0428716367313579,NaN,3.87689733516928,0.0994050857465913,5000,0.872614979743958,0.872614979743958,0.872614979743958,53879.8772294998,8105.22399773926,61985.1012272391,,,10.8399999141693,2242.22143554688,9011.2950941321,9030.87730226798
2018-07-19T08:34:08Z,1531989248,9608,41.243937,43.58334,8216.8,-14.5,-2.8,351,566151.94,-139384.61,345.3,Weapon+Missile,Blue,Enemies,AIM-120B,,us,,1001.17555184489,662.0322265625,3.25791519765223,8216.80078125,5558.74829101562,1000.01329495557,-48.2275390625,0.0293266075556883,NaN,3.27693693356994,0.141620157139233,5000,0.536065280437469,0.536065280437469,0.536065280437469,50117.6242805958,8057.92893814453,58175.5532187403,,,11.8399999141693,2658.05249023438,10008.0979348337,10030.1325617656
2018-07-19T08:34:09Z,1531989249,9608,41.2420979,43.5918312,8165.91,-11.9,-3.4,351.2,565909.12,-138455.98,345.4,Weapon+Missile,Blue,Enemies,AIM-120B,,us,,961.193348654027,639.274475097656,3.12561212622827,8165.9052734375,5253.23657226562,959.844935800179,-50.8955078125,0.0754417982486278,NaN,2.50769712358101,0.303903504147605,5000,0.544481992721558,0.544481992721558,0.544481992721558,46194.6326748371,8008.01749497559,54202.6501698127,,,12.8399999141693,2912.66870117188,10964.8984319911,10989.5128292813
2018-07-19T08:34:10Z,1531989250,9608,41.2403199,43.6000946,8111.98,-9.6,-3,351.1,565673.88,-137552.16,345.3,Weapon+Missile,Blue,Enemies,AIM-120B,,us,,935.497441633514,625.271728515625,3.03979315400304,8111.98291015625,5203.60327148438,933.942097798903,-53.92236328125,0.117171077999205,NaN,2.30768357147365,0.0221173298063182,5000,1.44217550754547,1.44217550754547,1.44217550754547,43757.7731651425,7955.13772058838,51712.9108857309,,,13.8399999141693,2908.37963867188,11895.8731965421,11923.2338898142
2018-07-19T08:34:11Z,1531989251,9608,41.2385917,43.6080355,8064.21,-7.8,-3.1,351.1,565446.19,-136683.75,345.3,Weapon+Missile,Blue,Enemies,AIM-120B,,us,,899.028913584724,604.377258300781,2.91937195660688,8064.212890625,5155.42333984375,897.758883384237,-47.77001953125,0.0329771157303388,NaN,1.67693096954861,0.111905886062555,5000,0.756822228431702,0.756822228431702,0.756822228431702,40412.6493730664,7908.29133438477,48320.9407074512,,,14.8399999141693,2908.78955078125,12790.7677956272,12820.5357803359
2018-07-19T08:34:12Z,1531989252,9608,41.2369125,43.6157459,8015.48,-6.3,-3.3,351.1,565225.12,-135840.58,345.3,Weapon+Missile,Blue,Enemies,AIM-120B,,us,,873.030438112239,589.859924316406,2.83304937044958,8015.48193359375,5226.05078125,871.669340803762,-48.73095703125,0.0227873418601387,NaN,1.33843533201924,0.183986726663338,5000,0.711154758930206,0.711154758930206,0.711154758930206,38109.1072935224,7860.50259040772,45969.6098839301,,,15.8399999141693,2789.43115234375,13659.6859978517,13691.9129657192
2018-07-19T08:34:13Z,1531989253,9608,41.2352929,43.6231651,7965.82,-5.1,-3.5,351,565012.06,-135029.28,345.3,Weapon+Missile,Blue,Enemies,AIM-120B,,us,,840.276717158745,571.130249023438,2.72490200623455,7965.81591796875,5450.67407226562,838.807634854986,-49.666015625,0.0410682670123731,NaN,1.16926947552459,0.206297166061214,5000,0.735692799091339,0.735692799091339,0.735692799091339,35303.2480699539,7811.79686719482,43115.0449371487,,,16.8399999141693,2515.14184570312,14495.8363249975,14530.5827396757
2018-07-19T08:34:14Z,1531989254,9608,41.2337203,43.6303427,7915.22,-4.2,-3.6,351.1,564805.44,-134244.42,345.3,Weapon+Missile,Blue,Enemies,AIM-120B,,us,,813.17781151836,555.821716308594,2.63519491903762,7915.21923828125,5745.60180664062,811.602198832895,-50.5966796875,0.0785201591544534,NaN,0.969226895113258,0.324154561469443,5000,1.25833916664124,1.25833916664124,1.25833916664124,33062.9076572895,7762.17847430908,40825.0861315986,,,17.8399999141693,2169.61743164062,15304.8334434915,15342.1657411078
2018-07-19T08:34:15Z,1531989255,9608,41.2323194,43.6372844,7864.21,-3.7,-4.3,352.7,564615.38,-133484.42,346.9,Weapon+Missile,Blue,Enemies,AIM-120B,,us,,785.06439150341,539.808532714844,2.54231354914204,7864.2060546875,5853.34985351562,783.405229690388,-51.01318359375,0.0395556681927512,NaN,0.384642956882914,1.65528055054013,5000,3.07072567939758,3.07072567939758,3.07072567939758,30816.304940331,7712.15163062012,38528.4565709511,,,18.8399999141693,2010.85620117188,16085.7722112542,16125.7328638115
2018-07-19T08:34:16Z,1531989256,9608,41.2313042,43.6439776,7793.3,-3.8,-6.9,355,564459.19,-132748.91,349.3,Weapon+Missile,Blue,Enemies,AIM-120B,,us,,755.252334841295,523.145263671875,2.44340176735051,7793.29541015625,5323.21630859375,751.916065645223,-70.91064453125,0.0263394649843082,NaN,0.199987938897973,3.55887561656384,5000,4.95613479614258,4.95613479614258,4.95613479614258,28520.3044641614,7642.61204340088,36162.9165075623,,,19.8399999141693,2470.0791015625,16835.3303378643,16879.5536576611
2018-07-19T08:34:17Z,1531989257,9608,41.2307538,43.6503524,7682.75,-4.3,-11,358.2,564344.06,-132045.03,352.4,Weapon+Missile,Blue,Enemies,AIM-120B,,us,,721.744143540552,504.970336914062,2.33147805353329,7682.74755859375,5130.294921875,713.227720472221,-110.5478515625,0.0398743967369685,NaN,0.661490160737395,5.03271176491577,5000,6.2382435798645,6.2382435798645,6.2382435798645,26045.7304367542,7534.20163454834,33579.9320713026,,,20.8399999141693,2552.45263671875,17546.3605723768,17599.9787244475
2018-07-19T08:34:18Z,1531989258,9608,41.2307423,43.6562801,7527.03,-5.3,-15.6,2.1,564277.38,-131386.48,356.3,Weapon+Missile,Blue,Enemies,AIM-120B,,us,,679.984730852722,482.321838378906,2.19193810877714,7527.02978515625,4999.54248046875,661.914805113555,-155.7177734375,0.0684487908212703,NaN,0.969231163981489,5.85640952693086,5000,6.43617963790894,6.43617963790894,6.43617963790894,23118.9617096424,7381.49466426025,30500.4563739027,,,21.8399999141693,2527.4873046875,18206.227196218,18278.7356392391
2018-07-19T08:34:19Z,1531989259,9608,41.2312725,43.6617233,7331.05,-6.5,-20,6.2,564259.75,-130777.41,0.4,Weapon+Missile,Blue,Enemies,AIM-120B,,us,,640.07522639267,461.164306640625,2.05782808039656,7331.04638671875,4797.1552734375,609.333080489247,-195.9833984375,0.275485498399798,NaN,1.16921910287946,5.36653043041097,5000,4.45818471908569,4.45818471908569,4.45818471908569,20484.8147720814,7189.30060483154,27674.1153769129,,,22.8399999141693,2533.89111328125,18813.6667949497,18917.6819723382
2018-07-19T08:34:20Z,1531989260,9608,41.2321688,43.6667845,7110.35,-6.4,-22,8.3,564275.88,-130207.83,2.5,Weapon+Missile,Blue,Enemies,AIM-120B,,us,,611.053630345052,446.922119140625,1.95870240013142,7110.34912109375,4748.96044921875,569.806332101983,-220.697265625,0.117706396679716,NaN,0.476948694647405,3.10195132901562,5000,1.50912165641785,1.50912165641785,1.50912165641785,18669.3269578934,6972.8705208374,25642.1974787308,,,23.8399999141693,2361.388671875,19381.6830756601,19527.6661685743
2018-07-19T08:34:21Z,1531989261,9608,41.2331758,43.6715936,6882.74,-6,-24.1,9.7,564303.69,-129665.38,3.9,Weapon+Missile,Blue,Enemies,AIM-120B,,us,,588.928084933696,436.849822998047,1.88204510948672,6882.73681640625,4752.62890625,543.165654269962,-227.6123046875,0.906948593470663,NaN,0.0307631720217374,1.09146156132539,5000,0.366364300251007,0.366364300251007,0.366364300251007,17341.8144611835,6749.65910006104,24091.4735612446,,,24.8399999141693,2130.10791015625,19923.1366579008,20115.5631747366
2018-07-19T08:34:22Z,1531989262,9608,41.2341504,43.676147,6661.22,-4.6,-22.5,9.1,564331.75,-129151.59,3.3,Weapon+Missile,Blue,Enemies,AIM-120B,,us,,560.204944179389,421.784118652344,1.78499244346465,6661.21728515625,4754.29724121094,514.547059808734,-221.51953125,0.122821103846242,NaN,0.430797960199275,0.96867407667731,5000,2.99801921844482,2.99801921844482,2.99801921844482,15691.4789741516,6532.42264894775,22223.9016230994,,,25.8399999141693,1906.92004394531,20436.0561073121,20674.7735321888
2018-07-19T08:34:23Z,1531989263,9608,41.2352327,43.6805349,6466.21,-5.4,-20.1,11.7,564370.31,-128655.33,5.9,Weapon+Missile,Blue,Enemies,AIM-120B,,us,,534.59697170249,407.792602539062,1.69901344965928,6466.21142578125,4727.55139160156,497.761626647626,-195.005859375,0.0627114063820962,NaN,0.969231163981489,2.9764440416957,5000,3.97843670845032,3.97843670845032,3.97843670845032,14289.6961076736,6341.18722786377,20630.8833355374,,,26.8399999141693,1738.66003417969,20932.2180822615,21208.3566373219
2018-07-19T08:34:24Z,1531989264,9608,41.2365764,43.6847378,6299.3,-6.1,-18.3,14.6,564431.94,-128177.52,8.9,Weapon+Missile,Blue,Enemies,AIM-120B,,us,,509.863805388463,393.417022705078,1.61685542368631,6299.30224609375,4693.64624023438,481.770096395833,-166.9091796875,0.0975978643591898,NaN,0.569200644672183,3.65533539000417,5000,3.9974102973938,3.9974102973938,3.9974102973938,12998.0550022602,6177.50523716553,19175.5602394257,,,27.8399999141693,1605.65600585938,21412.4257023779,21717.1982593908
2018-07-19T08:34:25Z,1531989265,9608,41.2381721,43.688717,6159.64,-7.1,-15,18.2,564516.44,-127722.51,12.4,Weapon+Missile,Blue,Enemies,AIM-120B,,us,,483.402101210272,376.842254638672,1.53013959819712,6159.64111328125,4498.72705078125,462.787596458716,-139.6611328125,0.067075895728003,NaN,0.969231163981489,4.41703339048894,5000,4.94654607772827,4.94654607772827,4.94654607772827,11683.8795727253,6040.54445235596,17724.4240250813,,,28.8399999141693,1660.9140625,21873.6359865368,22199.5216724734
2018-07-19T08:34:26Z,1531989266,9608,41.240021,43.6924032,6056.53,-7.7,-11.5,21.9,564624.56,-127298.02,16.1,Weapon+Missile,Blue,Enemies,AIM-120B,,us,,450.010939353061,353.920745849609,1.4225282150039,6056.5302734375,4248.50866699219,438.038811344544,-103.11083984375,0.20767586934692,NaN,0.461502221839422,4.56258984434379,5000,3.7299280166626,3.7299280166626,3.7299280166626,10125.4922768712,5939.42726060059,16064.9195374718,,,29.8399999141693,1808.02160644531,22310.1404185263,22648.4460277398
2018-07-19T08:34:27Z,1531989267,9608,41.2419721,43.6958596,5980.79,-6.5,-9.6,21.5,564743.44,-126898.24,15.8,Weapon+Missile,Blue,Enemies,AIM-120B,,us,,423.901640387563,335.13330078125,1.33867277989897,5980.7919921875,4223.73486328125,417.080703793118,-75.73828125,0.248011734774191,NaN,2.06153636039108,1.9339328453262,5000,2.99915242195129,2.99915242195129,2.99915242195129,8984.63003616333,5865.15337901855,14849.7834151819,,,30.8399999141693,1757.05712890625,22725.7196390328,23071.2562382008
2018-07-19T08:34:28Z,1531989268,9608,41.2435194,43.6992087,5912.86,-3.4,-10.2,15,564830.88,-126513.65,9.2,Weapon+Missile,Blue,Enemies,AIM-120B,,us,,400.21615886676,317.345489501953,1.26275858866513,5912.85595703125,4319.896484375,394.407998074725,-67.93603515625,0.220111660092532,NaN,3.27688485337752,5.41410099043282,3407.18657617748,4.5819206237793,4.5819206237793,4.5819206237793,8008.64869090319,5798.53088710205,13807.1795780052,,,31.8399999141693,1592.95947265625,23118.7879978144,23470.5134024985
2018-07-19T08:34:29Z,1531989269,9608,41.2444316,43.7023895,5843.94,-0.7,-11.4,8.4,564869.06,-126152.86,2.6,Weapon+Missile,Blue,Enemies,AIM-120B,,us,,369.291731135353,292.829895019531,1.16414434085939,5843.9404296875,4321.91833496094,362.804400160581,-68.91552734375,0.120349731501098,NaN,2.55384785802914,6.6672439083047,3212.38815878985,4.08205938339233,4.08205938339233,4.08205938339233,6818.8191342473,5730.94784147949,12549.7669757268,,,32.8399999141693,1522.02209472656,23480.4069335948,23838.9679591824
2018-07-19T08:34:30Z,1531989270,9608,41.2448061,43.7053785,5771.7,1.7,-12.9,1.8,564866,-125817.73,356,Weapon+Missile,Blue,Enemies,AIM-120B,,us,,342.835780979414,271.249206542969,1.07973442093798,5771.703125,4208.81091308594,335.138992854084,-72.2373046875,0.117468575421812,NaN,2.30769232265352,6.66855445085169,2919.96433612691,3.87625432014465,3.87625432014465,3.87625432014465,5876.81863598824,5660.10724507812,11536.9258810664,,,33.8399999141693,1562.89221191406,23814.4952132582,24181.0740373168
2018-07-19T08:34:31Z,1531989271,9608,41.2447027,43.7081425,5697.4,3.8,-14.2,355.1,564826.88,-125511.46,349.3,Weapon+Missile,Blue,Enemies,AIM-120B,,us,,317.577003323872,250.372161865234,0.999223354074993,5697.39990234375,3955.66723632812,308.762342495108,-74.30322265625,0.133226580174791,NaN,2.10769221748109,6.57417105491905,2844.17415603728,3.44057703018188,3.44057703018188,3.44057703018188,5042.75765200853,5587.24067523193,10629.9983272405,,,34.8399999141693,1741.73266601562,24122.2973579322,24497.9865964948
2018-07-19T08:34:32Z,1531989272,9608,41.244211,43.7106689,5622.36,5.4,-15.4,348.8,564759.12,-125234.71,343,Weapon+Missile,Blue,Enemies,AIM-120B,,us,,294.638511244731,231.574035644531,0.926152348141328,5622.3583984375,3743.15612792969,284.922138486991,-75.04150390625,0.125009838305222,NaN,1.40000009587679,6.19477154888459,2824.82794553909,2.98058748245239,2.98058748245239,2.98058748245239,4340.59261542559,5513.65009880371,9854.2427142293,,,35.8399999141693,1879.20227050781,24406.3049597389,24791.9844921072
2018-07-19T08:34:33Z,1531989273,9608,41.2434096,43.7129857,5545.29,6.6,-16.9,342.9,564668.81,-124983.76,337.1,Weapon+Missile,Blue,Enemies,AIM-120B,,us,,277.621553443854,217.9765625,0.87179618467863,5545.28759765625,3596.10083007812,266.709239816538,-77.07080078125,0.146025271829493,NaN,1.16923105571051,5.84770573149414,2765.34322937164,2.67871761322021,2.67871761322021,2.67871761322021,3853.68634682894,5438.06946195557,9291.7558087845,,,36.8399999141693,1949.18676757812,24672.1462546489,25068.995858855
2018-07-19T08:34:34Z,1531989274,9608,41.2423527,43.715109,5464.81,7.6,-18.5,337.2,564560,-124756.36,331.5,Weapon+Missile,Blue,Enemies,AIM-120B,,us,,264.626598795249,207.863342285156,0.830129758966505,5464.8076171875,3483.25061035156,252.091668909727,-80.47998046875,0.169683510195668,NaN,0.969230310207843,5.55071843421141,2836.86861075648,2.44584369659424,2.44584369659424,2.44584369659424,3501.36183949709,5359.14556190918,8860.50740140627,,,37.8399999141693,1981.55700683594,24923.3496519975,25332.9828874942
2018-07-19T08:34:35Z,1531989275,9608,41.2410934,43.7170363,5383.67,8.5,-18.5,332.7,564437.06,-124552.38,326.9,Weapon+Missile,Blue,Enemies,AIM-120B,,us,,251.603071721666,197.758361816406,0.788454023702297,5383.66552734375,3413.833984375,238.15975091431,-81.14208984375,0.830313870161325,NaN,0.861548109074361,2.4658662703395,5000,1.51942360401154,1.51942360401154,1.51942360401154,3165.20528498888,5279.57235437256,8444.77763936144,,,38.8399999141693,1969.83154296875,25160.6169277468,25583.9322691921
2018-07-19T08:34:36Z,1531989276,9608,41.2398741,43.7189043,5310.91,6.3,-16,336.4,564318.06,-124354.66,330.6,Weapon+Missile,Blue,Enemies,AIM-120B,,us,,241.964092030475,190.411697387695,0.757542217250622,5310.9130859375,3352.03051757812,230.767640932524,-72.75244140625,0.448072364234879,NaN,1.50766863663193,2.19809361312762,4926.27590671077,2.141685962677,2.141685962677,2.141685962677,2927.33109160662,5208.2265814209,8135.55767302752,,,39.8399999141693,1958.88256835938,25390.5357301922,25825.2707211032
2018-07-19T08:34:37Z,1531989277,9608,41.2387166,43.7207326,5251.74,7.1,-13.8,333.5,564204.44,-124160.86,327.8,Weapon+Missile,Blue,Enemies,AIM-120B,,us,,232.319567988227,182.939636230469,0.726797213484697,5251.73974609375,3281.646484375,224.657289047056,-59.17333984375,0.0789321041428603,NaN,0.907692013333321,2.74086377358938,3327.85822111082,2.20939183235168,2.20939183235168,2.20939183235168,2698.61908351183,5150.19735810303,7848.81644161486,,,40.8399999141693,1970.09326171875,25614.352799898,26056.9570577314
2018-07-19T08:34:38Z,1531989278,9608,41.2374341,43.7224509,5200.92,7.9,-12.3,329.7,564082,-123980.29,323.9,Weapon+Missile,Blue,Enemies,AIM-120B,,us,,224.006774864285,176.504623413086,0.70033677638091,5200.921875,3212.91516113281,218.166402460594,-50.81787109375,0.0707171819485261,NaN,0.769231272252469,4.04345960892968,3243.31300544945,2.1291332244873,2.1291332244873,2.1291332244873,2508.95175925493,5100.36205054688,7609.31380980181,,,41.8399999141693,1988.00671386719,25831.6877107881,26280.3275130995
2018-07-19T08:34:39Z,1531989279,9608,41.2360443,43.7240545,5157.58,8.3,-10.8,326.2,563952.12,-123813.3,320.4,Weapon+Missile,Blue,Enemies,AIM-120B,,us,,215.940147028155,170.2138671875,0.674744255825148,5157.576171875,3173.09643554688,211.545023858139,-43.345703125,0.0785614910788305,NaN,0.307691484372612,3.71635459250177,3593.24067562765,1.92105758190155,1.92105758190155,1.92105758190155,2331.50735492706,5057.8544365918,7389.36179151886,,,42.8399999141693,1984.47973632812,26042.3278005255,26495.5487599715
2018-07-19T08:34:40Z,1531989280,9608,41.2345879,43.7255425,5121,8.2,-9.7,323.3,563818.25,-123659.72,317.5,Weapon+Missile,Blue,Enemies,AIM-120B,,us,,207.000450467804,163.156265258789,0.646509314032787,5120.9970703125,3173.23498535156,203.742866924842,-36.5791015625,0.0867625240132485,NaN,0.24616001768726,2.89933334040037,4992.62206894772,1.50783598423004,1.50783598423004,1.50783598423004,2142.45932469368,5021.98259195801,7164.44191665169,,,43.8399999141693,1947.76208496094,26245.2187881833,26701.8716830694
2018-07-19T08:34:41Z,1531989281,9608,41.2330902,43.7269504,5088.09,7.5,-9.1,321.6,563681.94,-123515.37,315.8,Weapon+Missile,Blue,Enemies,AIM-120B,,us,,201.250127740192,158.698623657227,0.628286603428355,5088.0859375,3204.21350097656,198.540855373501,-32.9111328125,0.102529017747728,NaN,0.569200644672183,1.89289514780206,5000,1.3522846698761,1.3522846698761,1.3522846698761,2025.08069577217,4989.70779589844,7014.78849167061,,,44.8399999141693,1883.87243652344,26442.9033317506,26902.4331400938
2018-07-19T08:34:42Z,1531989282,9608,41.2316008,43.7282858,5059.07,7,-8,320.6,563547.06,-123378.98,314.8,Weapon+Missile,Blue,Enemies,AIM-120B,,us,,193.998757822936,152.982681274414,0.605425042579266,5059.0712890625,3244.78051757812,191.81675686157,-29.0146484375,0.0269523065923684,NaN,0.369212705774209,1.44758068773898,5000,1.41185784339905,1.41185784339905,1.41185784339905,1881.77590184212,4961.25414568848,6843.03004753059,,,45.8399999141693,1814.29077148438,26633.8359251298,27095.7078818343
2018-07-19T08:34:43Z,1531989283,9608,41.2301324,43.7295642,5034.82,6.7,-6.8,320,563414.56,-123248.77,314.2,Weapon+Missile,Blue,Enemies,AIM-120B,,us,,187.343072427729,147.725646972656,0.584474052963513,5034.81591796875,3264.19482421875,185.766261091097,-24.25537109375,0.0521275255311842,NaN,0.369212705774209,1.36854771507912,5000,1.41261541843414,1.41261541843414,1.41261541843414,1754.87133933306,4937.46775219482,6692.33909152788,,,46.8399999141693,1770.62109375,26818.7721728104,27282.3730539773
2018-07-19T08:34:44Z,1531989284,9608,41.2286967,43.7307965,5015.31,6.3,-5.6,319.9,563285.19,-123123.42,314.1,Weapon+Missile,Blue,Enemies,AIM-120B,,us,,181.194324955691,142.854034423828,0.56515115679677,5015.31005859375,3264.49865722656,180.141346853496,-19.505859375,0.0805593063293235,NaN,0.399975877795947,1.14625782115888,5000,1.33495402336121,1.33495402336121,1.33495402336121,1641.56916980743,4918.33903861084,6559.90820841827,,,47.8399999141693,1750.81140136719,26998.0955936594,27462.8946811225
2018-07-19T08:34:45Z,1531989285,9608,41.2273211,43.7319942,4999.69,5.5,-4.7,320.8,563161.06,-123001.43,315,Weapon+Missile,Blue,Enemies,AIM-120B,,us,,174.737093191658,137.710861206055,0.54490280471465,4999.69140625,3260.06726074219,174.037666716246,-15.61865234375,0.045886297321079,NaN,0.769243225083516,1.19130473300411,5000,1.24501025676727,1.24501025676727,1.24501025676727,1526.6525868535,4903.02237291016,6429.67495976366,,,48.8399999141693,1739.62414550781,27171.3568245489,27636.9939393628
2018-07-19T08:34:46Z,1531989286,9608,41.2260277,43.7331751,4986.32,4.6,-4.4,322.5,563043.75,-122880.63,316.8,Weapon+Missile,Blue,Enemies,AIM-120B,,us,,168.917018410198,133.078369140625,0.52666402404914,4986.31787109375,3249.86401367188,168.386779962132,-13.37353515625,0.0408273624123646,NaN,0.938467991959752,1.72393665158175,4737.94952055735,1.20420837402344,1.20420837402344,1.20420837402344,1426.64795542955,4889.90741505615,6316.55537048571,,,49.8399999141693,1736.45385742188,27339.0033616421,27805.3038724415
2018-07-19T08:34:47Z,1531989287,9608,41.224827,43.7343558,4973.74,3.6,-4.4,324.9,562933.88,-122759.11,319.1,Weapon+Missile,Blue,Enemies,AIM-120B,,us,,164.312946610626,129.432540893555,0.512227309346573,4973.73681640625,3244.2265625,163.830587763141,-12.5810546875,0.0286621341162775,NaN,0.984640070749038,2.323609438184,3831.58804750774,1.18046939373016,1.18046939373016,1.18046939373016,1349.93722119331,4877.56961506103,6227.50683625435,,,50.8399999141693,1729.51025390625,27502.1046860807,27969.0166781518
2018-07-19T08:34:48Z,1531989288,9608,41.223735,43.7355314,4961.09,2.2,-5.5,326.9,562832.88,-122637.28,321.1,Weapon+Missile,Blue,Enemies,AIM-120B,,us,,158.754335906672,125.019119262695,0.494819630503765,4961.09375,3257.97546386719,158.250093336515,-12.64306640625,0.0886847498633476,NaN,1.69235695178908,2.13377820402525,3384.61899180615,0.348777651786804,0.348777651786804,0.348777651786804,1260.14695845842,4865.17100234375,6125.31796080217,,,51.8399999141693,1703.11828613281,27659.7164884465,28127.2571169853
2018-07-19T08:34:49Z,1531989289,9608,41.2226975,43.7366811,4941.85,0.2,-9,326.8,562736.5,-122517.9,321.1,Weapon+Missile,Blue,Enemies,AIM-120B,,us,,154.63144522998,121.811683654785,0.481851473875198,4941.845703125,3282.8017578125,153.428799595807,-19.248046875,0.0580477737817612,NaN,1.90769915594124,3.1463511871587,2499.31690662136,0.0256353672593832,0.0256353672593832,0.0256353672593832,1195.54419269562,4846.29511645508,6041.8393091507,,,52.8399999141693,1659.0439453125,27812.500342286,28281.3663329951
2018-07-19T08:34:50Z,1531989290,9608,41.221697,43.7377889,4913.93,-1.5,-12.5,326.8,562643.69,-122402.85,321.1,Weapon+Missile,Blue,Enemies,AIM-120B,,us,,150.430570638556,118.594902038574,0.468595270380493,4913.927734375,3308.99731445312,147.817264226868,-27.91796875,0.0445371462016733,NaN,1.53843180865367,3.49648397292989,2461.70077095819,0.0514437481760979,0.0514437481760979,0.0514437481760979,1131.46782913208,4818.91694163086,5950.38477076294,,,53.8399999141693,1604.93041992188,27959.7549180309,28431.3558090188
2018-07-19T08:34:51Z,1531989291,9608,41.2207209,43.7388678,4877.47,-2.9,-15.9,326.7,562553,-122290.83,321,Weapon+Missile,Blue,Enemies,AIM-120B,,us,,148.669632202487,117.396011352539,0.462896258064882,4877.4697265625,3326.56945800781,144.130056565473,-36.4580078125,0.0286482215070163,NaN,1.16921910287946,3.44713286796879,2464.07880762837,0.0574724115431309,0.0574724115431309,0.0574724115431309,1105.13297696114,4783.16384939941,5888.29682636055,,,54.8399999141693,1550.90026855469,28103.24229589,28579.5092183677
2018-07-19T08:34:52Z,1531989292,9608,41.2197775,43.7399071,4833.27,-4,-19.4,326.6,562465.5,-122182.95,320.9,Weapon+Missile,Blue,Enemies,AIM-120B,,us,,145.769616722419,115.318634033203,0.453613218318588,4833.267578125,3331.71850585938,138.906267795626,-44.2021484375,0.0413353173048922,NaN,1.07692958681425,3.4282473949137,2490.27483479208,0.0849390029907227,0.0849390029907227,0.0849390029907227,1062.43905797005,4739.81634950195,5802.255407472,,,55.8399999141693,1501.54907226562,28241.5956914536,28724.8524202535
2018-07-19T08:34:53Z,1531989293,9608,41.2188609,43.7409123,4781.61,-4.8,-22.7,326.5,562380.5,-122078.63,320.8,Weapon+Missile,Blue,Enemies,AIM-120B,,us,,144.135425035916,114.303527832031,0.448235338234071,4781.60595703125,3319.35327148438,134.558900323427,-51.66162109375,0.0457644686149666,NaN,0.769243225083516,3.34416285703238,2515.29924966134,0.0916995704174042,0.0916995704174042,0.0916995704174042,1038.75103751421,4689.15360585205,5727.90464336626,,,56.8399999141693,1462.25268554688,28375.5929658145,28868.5579174572
2018-07-19T08:34:54Z,1531989294,9608,41.2179619,43.7418918,4722.33,-5.5,-26,326.3,562297.19,-121977.04,320.6,Weapon+Missile,Blue,Enemies,AIM-120B,,us,,144.138047521026,114.656242370605,0.447908563154761,4722.3310546875,3274.93908691406,131.385930355242,-59.27490234375,0.0805304548932898,NaN,0.569255286185543,3.23147924987916,2590.18119300063,0.096384696662426,0.096384696662426,0.096384696662426,1038.78883715868,4631.02478374512,5669.8136209038,,,57.8399999141693,1447.39196777344,28506.4260263736,29012.2809824902
2018-07-19T08:34:55Z,1531989295,9608,41.2170905,43.7428338,4656.5,-6,-29,326.1,562216.56,-121879.38,320.3,Weapon+Missile,Blue,Enemies,AIM-120B,,us,,142.72562629601,113.896110534668,0.443152018297462,4656.501953125,3213.42517089844,126.637805528454,-65.8291015625,0.0406051256788563,NaN,0.369212705774209,3.1345204457426,2780.70594552853,0.136328816413879,0.136328816413879,0.136328816413879,1018.53022007942,4566.46848786133,5584.99870794075,,,58.8399999141693,1443.07678222656,28632.5481628831,29154.6314757298
2018-07-19T08:34:56Z,1531989296,9608,41.2162348,43.7437516,4583.92,-6.1,-31,326.3,562137.44,-121784.29,320.5,Weapon+Missile,Blue,Enemies,AIM-120B,,us,,143.428265323774,114.897087097168,0.444927584153728,4583.92041015625,3115.97229003906,123.707667159568,-72.58154296875,0.11731375690504,NaN,0.0615348817799374,1.52030032444993,5000,0.84524941444397,0.84524941444397,0.84524941444397,1028.58336468935,4495.29030902588,5523.87367371523,,,59.8399999141693,1467.94812011719,28755.7336482216,29297.686488447
2018-07-19T08:34:57Z,1531989297,9608,41.2154001,43.744677,4511.1,-5.5,-30,327.6,562059.94,-121688.18,321.8,Weapon+Missile,Blue,Enemies,AIM-120B,,us,,143.338968447133,115.2548828125,0.444244534544625,4511.10009765625,2991.53308105469,123.463605823298,-72.8203125,0.0347633497769495,NaN,0.569251017317311,1.06206122548648,5000,1.14146196842194,1.14146196842194,1.14146196842194,1027.30299377441,4423.87797726807,5451.18097104248,,,60.8399999141693,1519.56701660156,28878.6886282279,29440.6630263436
2018-07-19T08:34:58Z,1531989298,9608,41.2145826,43.74563,4439.91,-5.1,-29.2,328.8,561983.5,-121588.87,323,Weapon+Missile,Blue,Enemies,AIM-120B,,us,,144.13122792696,116.328453063965,0.446301879720794,4439.9091796875,2875.74438476562,125.322240893227,-71.19091796875,0.012947516388071,NaN,0.369263078419338,1.35228866320331,5000,1.09145760536194,1.09145760536194,1.09145760536194,1038.69054318666,4354.06353569824,5392.75407888491,,,61.8399999141693,1564.16479492188,29003.4988742166,29584.4253767988
2018-07-19T08:34:59Z,1531989299,9608,41.2137914,43.7465975,4370.64,-4.8,-28.5,330,561909.06,-121487.73,324.2,Weapon+Missile,Blue,Enemies,AIM-120B,,us,,143.419110567518,116.153869628906,0.443712394580717,4370.63671875,2761.15026855469,125.580123553215,-69.2724609375,0.0518724286344863,NaN,0.399975877795947,1.22731669195959,5000,1.04782915115356,1.04782915115356,1.04782915115356,1028.4520637989,4286.13045779297,5314.58252159187,,,62.8399999141693,1609.48645019531,29128.5862507258,29727.4888141601
2018-07-19T08:35:00Z,1531989300,9608,41.2130202,43.7475847,4302.31,-4.6,-28.2,331.1,561836,-121384.23,325.3,Weapon+Missile,Blue,Enemies,AIM-120B,,us,,143.937352845866,116.989334106445,0.444936156120363,4302.30517578125,2648.88232421875,126.683707633559,-68.33154296875,0.0534208625317012,NaN,0.199987938897973,1.07897245370632,5000,1.00928568840027,1.00928568840027,1.00928568840027,1035.89807721376,4219.12010520752,5255.01818242128,,,63.8399999141693,1653.4228515625,29254.7696917289,29871.0615095998
2018-07-19T08:35:01Z,1531989301,9608,41.2122761,43.7485801,4235.22,-4.4,-27.8,332.2,561765.06,-121279.62,326.4,Weapon+Missile,Blue,Enemies,AIM-120B,,us,,143.100438192651,116.695152282715,0.441979528039141,4235.216796875,2552.19128417969,126.399702636755,-67.08837890625,0.032119364041887,NaN,0.199987938897973,0.97245490654803,5000,0.987668395042419,0.987668395042419,0.987668395042419,1023.88677054644,4153.32888010742,5177.21565065386,,,64.8399999141693,1683.02551269531,29380.711033021,30013.8316407164
2018-07-19T08:35:02Z,1531989302,9608,41.2115563,43.7495852,4168.97,-4.2,-27.5,333.1,561695.94,-121173.75,327.4,Weapon+Missile,Blue,Enemies,AIM-120B,,us,,142.741234829262,116.7900390625,0.440506963997733,4168.9677734375,2473.13977050781,126.436256723142,-66.2490234375,0.0621516186098419,NaN,0.199987938897973,0.901274196834448,5000,0.964539110660553,0.964539110660553,0.964539110660553,1018.75300602913,4088.36078153809,5107.11378756721,,,65.8399999141693,1695.82800292969,29506.6761860396,30156.2292084312
2018-07-19T08:35:03Z,1531989303,9608,41.2108592,43.7505999,4103.21,-4.1,-27.4,334,561628.56,-121066.59,328.3,Weapon+Missile,Blue,Enemies,AIM-120B,,us,,142.643722365162,117.099906921387,0.439846745616973,4103.212890625,2407.08520507812,126.584070548011,-65.7548828125,0.0253938743905831,NaN,0.199987938897973,0.878679984420898,5000,0.945863842964172,0.945863842964172,0.945863842964172,1017.36157650948,4023.87726938477,5041.23884589424,,,66.8399999141693,1696.12768554688,29632.7803800861,30298.5197690534
2018-07-19T08:35:04Z,1531989304,9608,41.2101863,43.7516204,4038,-4,-27.2,335,561563.06,-120958.62,329.2,Weapon+Missile,Blue,Enemies,AIM-120B,,us,,142.12614109316,117.053916931152,0.437896611116612,4038.0029296875,2345.61022949219,126.283415287054,-65.2099609375,0.037623742252755,NaN,0,0.827701693611745,5000,0.937905013561249,0.937905013561249,0.937905013561249,1009.99199910164,3959.92814304199,4969.92014214363,,,67.8399999141693,1692.39270019531,29758.6105025604,30440.3146035823
2018-07-19T08:35:05Z,1531989305,9608,41.209537,43.752646,3973.23,-3.8,-27.1,335.9,561499.31,-120849.88,330.1,Weapon+Missile,Blue,Enemies,AIM-120B,,us,,141.713661152111,117.092239379883,0.436275828465402,3973.22998046875,2285.24157714844,126.044542946693,-64.77294921875,0.0451545954888475,NaN,0.107715498305686,0.760292422258773,5000,0.926202535629272,0.926202535629272,0.926202535629272,1004.13808785677,3896.40757879639,4900.54566665316,,,68.8399999141693,1687.98840332031,29884.1458039195,30581.645588228
2018-07-19T08:35:06Z,1531989306,9608,41.2089093,43.7536778,3908.69,-3.7,-27,336.7,561437.38,-120740.3,330.9,Weapon+Missile,Blue,Enemies,AIM-120B,,us,,141.45801529247,117.259826660156,0.435141626261388,3908.69287109375,2217.59802246094,125.878241185695,-64.537109375,0.0689547314718753,NaN,0.153837204449843,0.728885504907762,5000,0.920532464981079,0.920532464981079,0.920532464981079,1000.51850452423,3833.11829443115,4833.63679895538,,,69.8399999141693,1691.09484863281,30009.6072255063,30722.8017590296
2018-07-19T08:35:07Z,1531989307,9608,41.208305,43.7547113,3844.56,-3.7,-27.1,337.5,561377.25,-120630.31,331.8,Weapon+Missile,Blue,Enemies,AIM-120B,,us,,140.800622211588,117.084579467773,0.432776815940549,3844.55834960938,2146.83239746094,125.345835068983,-64.134521484375,0.065795131868492,NaN,0,0.746526069264906,5000,0.912291586399078,0.912291586399078,0.912291586399078,991.240760758519,3770.22381391968,4761.4645746782,,,70.8399999141693,1697.72595214844,30134.4996503572,30863.266421615
2018-07-19T08:35:08Z,1531989308,9608,41.2077232,43.7557466,3780.74,-3.5,-26.9,338.3,561318.94,-120519.97,332.6,Weapon+Missile,Blue,Enemies,AIM-120B,,us,,140.172328832366,116.929725646973,0.430507085231388,3780.74462890625,2067.37414550781,124.804209946269,-63.813720703125,0.119674295682671,NaN,0.123069336673052,0.733035164993662,5000,0.917169332504272,0.917169332504272,0.917169332504272,982.414088514447,3707.64393150635,4690.05802002079,,,71.8399999141693,1713.37048339844,30258.8750800617,31003.1232700675
2018-07-19T08:35:09Z,1531989309,9608,41.2071611,43.7567874,3717.02,-3.5,-27.1,339,561262.12,-120408.83,333.3,Weapon+Missile,Blue,Enemies,AIM-120B,,us,,140.14370411142,117.281311035156,0.430081972636148,3717.02368164062,1986.59008789062,124.819464354085,-63.720947265625,0.0245489138828411,NaN,0,0.686865487442756,5000,0.906419634819031,0.906419634819031,0.906419634819031,982.012890103459,3645.1550287561,4627.16791885956,,,72.8399999141693,1730.43359375,30383.2410661702,31142.9282948491
2018-07-19T08:35:10Z,1531989310,9608,41.2066218,43.7578256,3653.79,-3.4,-27,339.8,561207.19,-120297.8,334.1,Weapon+Missile,Blue,Enemies,AIM-120B,,us,,139.084725748411,116.75220489502,0.426500797218904,3653.7900390625,1904.15380859375,123.879245165655,-63.233642578125,0.0760485367961352,NaN,0,0.641110797244781,5000,0.897116482257843,0.897116482257843,0.897116482257843,967.228046825528,3583.14400865723,4550.37205548276,,,73.8399999141693,1749.63623046875,30506.6823632956,31281.6865803489
2018-07-19T08:35:11Z,1531989311,9608,41.2061016,43.7588673,3590.56,-3.3,-27.1,340.5,561153.69,-120186.25,334.8,Weapon+Missile,Blue,Enemies,AIM-120B,,us,,138.935629877125,116.996116638184,0.425713421280326,3590.55908203125,1845.63403320312,123.713197849969,-63.23095703125,0.0234673285549209,NaN,0,0.640958185205513,5000,0.913602769374847,0.913602769374847,0.913602769374847,965.155462467671,3521.13562218018,4486.29108464785,,,74.8399999141693,1744.92504882812,30629.9529038534,31420.2904920359
2018-07-19T08:35:12Z,1531989312,9608,41.2056001,43.7599121,3527.52,-3.2,-27.1,341.2,561101.75,-120074.2,335.5,Weapon+Missile,Blue,Enemies,AIM-120B,,us,,138.663578332637,117.133209228516,0.424552062380407,3527.52075195312,1788.26721191406,123.50610064678,-63.038330078125,0.0687571537262047,NaN,0.0923023226699061,0.641644725938806,5000,0.890542805194855,0.890542805194855,0.890542805194855,961.379397800565,3459.31613821411,4420.69553601468,,,75.8399999141693,1739.25354003906,30753.0504239533,31558.6514192036
2018-07-19T08:35:13Z,1531989313,9608,41.2051179,43.7609565,3464.62,-3.1,-27.1,341.9,561051.31,-119962.02,336.1,Weapon+Missile,Blue,Enemies,AIM-120B,,us,,138.149212716664,117.060989379883,0.422652104474767,3464.6162109375,1745.15014648438,122.996844243451,-62.904541015625,0.0513034842588857,NaN,0.199987938897973,0.597670047071559,5000,0.906809568405151,0.906809568405151,0.906809568405151,954.260248711705,3397.62785649902,4351.88810521073,,,76.8399999141693,1719.46606445312,30875.6093970884,31696.4707007971
2018-07-19T08:35:14Z,1531989314,9608,41.2046554,43.7619992,3402.11,-3,-27,342.6,561002.56,-119849.87,336.8,Weapon+Missile,Blue,Enemies,AIM-120B,,us,,137.334911916145,116.725608825684,0.419840437887521,3402.10986328125,1717.26965332031,122.285872175372,-62.50634765625,0.0509098254202149,NaN,0.199987938897973,0.59652300217782,5000,0.896256864070892,0.896256864070892,0.896256864070892,943.04390155077,3336.33006907471,4279.37397062548,,,77.8399999141693,1684.84020996094,30997.4945038372,31833.5072690975
2018-07-19T08:35:15Z,1531989315,9608,41.2042088,43.7630463,3339.51,-3,-27.2,343.1,560955,-119737.12,337.4,Weapon+Missile,Blue,Enemies,AIM-120B,,us,,137.455057887487,117.19506072998,0.419887284559509,3339.5068359375,1683.15173339844,122.37137698927,-62.60302734375,0.0409369274988189,NaN,0,0.551879124854472,5000,0.887007355690002,0.887007355690002,0.887007355690002,944.694646942616,3274.93747126465,4219.63211820726,,,78.8399999141693,1656.35510253906,31119.4644254304,31970.6623981286
2018-07-19T08:35:16Z,1531989316,9608,41.20378,43.7640918,3277.06,-2.9,-27,343.8,560908.88,-119624.4,338.1,Weapon+Missile,Blue,Enemies,AIM-120B,,us,,136.867986290573,117.051559448242,0.417776379023351,3277.05834960938,1640.37536621094,121.790936553434,-62.448486328125,0.297168046208408,NaN,0,0.745804843977236,5000,0.62353104352951,0.62353104352951,0.62353104352951,936.642283561826,3213.69642641968,4150.3387099815,,,79.8399999141693,1636.68298339844,31240.8430600648,32107.2196164248
2018-07-19T08:35:17Z,1531989317,9608,41.2033676,43.7651215,3212.66,-3.2,-30,343.8,560864.25,-119513.3,338,Weapon+Missile,Blue,Enemies,AIM-120B,,us,,135.940676653347,116.621192932129,0.41462136573937,3212.66381835938,1596.79321289062,119.721392883906,-64.39453125,0.0753623028499436,NaN,0.369212705774209,2.27477102429747,2283.95696619994,0.0508445389568806,0.0508445389568806,0.0508445389568806,923.993378448486,3150.5469634314,4074.54034187988,,,80.8399999141693,1615.87060546875,31360.1640660945,32242.861233955
2018-07-19T08:35:18Z,1531989318,9608,41.2029632,43.7661207,3140.91,-3.4,-33.4,343.6,560820.62,-119405.53,337.8,Weapon+Missile,Blue,Enemies,AIM-120B,,us,,136.629218049695,117.638595581055,0.416358899363946,3140.9052734375,1540.75329589844,116.268028518447,-71.758544921875,0.0700437000018898,NaN,0.200042580411333,3.37999381597486,2365.33122252413,0.0518015511333942,0.0518015511333942,0.0518015511333942,933.377161243558,3080.17586997559,4013.55303121914,,,81.8399999141693,1600.15197753906,31476.0557146144,32379.219385297
2018-07-19T08:35:19Z,1531989319,9608,41.2025689,43.7670819,3062.55,-3.6,-36.7,343.4,560778.25,-119301.91,337.6,Weapon+Missile,Blue,Enemies,AIM-120B,,us,,136.649945832265,118.115226745605,0.416027230656394,3062.55078125,1472.21496582031,111.954371285806,-78.3544921875,0.0964727163151516,NaN,0.199987938897973,3.27784129330473,2471.51349121245,0.0602275915443897,0.0602275915443897,0.0602275915443897,933.66038479805,3003.33636189453,3936.99674669258,,,82.8399999141693,1590.33581542969,31587.6432493993,32515.6133663395
2018-07-19T08:35:20Z,1531989320,9608,41.2021829,43.7680087,2977.64,-3.6,-39.8,343.1,560736.88,-119202.03,337.4,Weapon+Missile,Blue,Enemies,AIM-120B,,us,,137.466862964968,119.330596923828,0.418085145834761,2977.6376953125,1397.21508789062,108.105995439661,-84.9130859375,0.0858109153228705,NaN,0,3.08420393623099,2613.85126781159,0.0554901286959648,0.0554901286959648,0.0554901286959648,944.856920671463,2920.06507047363,3864.9219911451,,,83.8399999141693,1580.42260742188,31695.3812428694,32652.8310854969
2018-07-19T08:35:21Z,1531989321,9608,41.2018048,43.7689013,2886.52,-3.6,-42.6,342.8,560696.56,-119105.89,337.1,Weapon+Missile,Blue,Enemies,AIM-120B,,us,,138.460319743667,120.745132446289,0.420644198554311,2886.51611328125,1315.34411621094,104.250263460773,-91.12158203125,0.055914667497873,NaN,0,2.91495846534383,2798.13648725348,0.0696337297558784,0.0696337297558784,0.0696337297558784,958.563007175922,2830.70532423096,3789.26833140688,,,84.8399999141693,1571.17199707031,31799.2876154679,32791.0685831351
2018-07-19T08:35:22Z,1531989322,9608,41.2014332,43.7697625,2789.27,-3.6,-45.4,342.6,560657.06,-119013.18,336.8,Weapon+Missile,Blue,Enemies,AIM-120B,,us,,140.047395151499,122.731536865234,0.424968290883198,2789.26538085938,1232.5693359375,100.77483779262,-97.250732421875,0.0544260760028398,NaN,0.0615348817799374,2.73612276853174,2983.62472616445,0.0571699850261211,0.0571699850261211,0.0571699850261211,980.663644436002,2735.33493472046,3715.99857915646,,,85.8399999141693,1556.69604492188,31899.7062725798,32930.8919972082
2018-07-19T08:35:23Z,1531989323,9608,41.2010704,43.7705876,2686.81,-3.5,-48,342.2,560618.75,-118924.42,336.5,Weapon+Missile,Blue,Enemies,AIM-120B,,us,,140.864793318232,124.078384399414,0.426923402754015,2686.81005859375,1141.59887695312,96.6736620597107,-102.455322265625,0.0657836784184415,NaN,0,2.61730714560773,3196.53513246884,0.0712611228227615,0.0712611228227615,0.0712611228227615,992.144499829412,2634.86058611084,3627.00508594025,,,86.8399999141693,1545.21118164062,31996.075836401,33071.5766133515
2018-07-19T08:35:24Z,1531989324,9608,41.2007125,43.7713855,2578.36,-3.3,-50.4,341.9,560581.06,-118838.64,336.1,Weapon+Missile,Blue,Enemies,AIM-120B,,us,,143.321535902814,126.938385009766,0.43380557039921,2578.35595703125,1040.81018066406,93.6950932963541,-108.4541015625,0.0199941741354455,NaN,0.200042580411333,2.45934279935191,3466.79598274307,0.0599851831793785,0.0599851831793785,0.0599851831793785,1027.05313267708,2528.50344460205,3555.55657727913,,,87.8399999141693,1537.54577636719,32089.4376807691,33214.7056566988
2018-07-19T08:35:25Z,1531989325,9608,41.2003547,43.7721666,2462.69,-3.1,-52.7,341.5,560543.62,-118754.73,335.8,Weapon+Missile,Blue,Enemies,AIM-120B,,us,,147.720000990252,131.61784362793,0.446501859526716,2462.6923828125,934.26904296875,91.8865403174149,-115.66357421875,0.0461448265099411,NaN,0.199987938897973,2.21838311694396,3902.11555047149,0.0672500133514404,0.0672500133514404,0.0672500133514404,1091.05993462801,2415.07622559082,3506.13616021883,,,88.8399999141693,1528.42333984375,32181.0229163397,33362.2608956479
2018-07-19T08:35:26Z,1531989326,9608,41.1999998,43.7729261,2340.83,-2.9,-54.7,341.2,560506.62,-118673.19,335.4,Weapon+Missile,Blue,Enemies,AIM-120B,,us,,151.223791295791,135.572601318359,0.456429835909099,2340.82763671875,826.078247070312,89.5411565336237,-121.86474609375,0.0241625052372038,NaN,0.200042580411333,2.0731660381135,4322.12725908526,0.0661619156599045,0.0661619156599045,0.0661619156599045,1143.43175269365,2295.56773436279,3438.99948705645,,,89.8399999141693,1514.74938964844,32270.2559309048,33513.3222908494
2018-07-19T08:35:27Z,1531989327,9608,41.1996433,43.7736735,2211.45,-2.7,-56.7,340.8,560469.62,-118593.02,335.1,Weapon+Missile,Blue,Enemies,AIM-120B,,us,,156.634469369576,141.356567382812,0.472035154676783,2211.45288085938,714.645629882812,88.297958872307,-129.374755859375,0.0358592148950388,NaN,0.199987938897973,1.93701881017058,4876.51166058986,0.0605117082595825,0.0605117082595825,0.0605117082595825,1226.71784973443,2168.69443940796,3395.41228914238,,,90.8399999141693,1496.80725097656,32358.2545984337,33669.80590309
2018-07-19T08:35:28Z,1531989328,9608,41.1992862,43.7744074,2074.94,-2.5,-58.4,340.5,560432.75,-118514.32,334.7,Weapon+Missile,Blue,Enemies,AIM-120B,,us,,161.825319343187,147.050811767578,0.48689129977402,2074.94384765625,596.956665039062,86.9063739576831,-136.509033203125,0.00984250416066951,NaN,0.199987938897973,1.798585176403,5000,0.0555632561445236,0.0555632561445236,0.0555632561445236,1309.37169902623,2034.82480836182,3344.19650738804,,,91.8399999141693,1477.98718261719,32444.848383959,33831.4791538257
2018-07-19T08:35:29Z,1531989329,9608,41.1989289,43.7751278,1931.48,-2.3,-60,340.1,560396.06,-118437.16,334.4,Weapon+Missile,Blue,Enemies,AIM-120B,,us,,166.977486236079,152.821746826172,0.501543615042417,1931.48229980469,472.900268554688,85.4415893915481,-143.461547851562,0.0281431774073642,NaN,0.199987938897973,1.6482875040471,5000,0.0653932839632034,0.0653932839632034,0.0653932839632034,1394.074045486,1894.13708953796,3288.21113502397,,,92.8399999141693,1458.58203125,32530.0289019335,33998.336861916
2018-07-19T08:35:30Z,1531989330,9608,41.1985726,43.7758327,1781.62,-2.1,-61.6,339.8,560359.56,-118361.7,334,Weapon+Missile,Blue,Enemies,AIM-120B,,us,,171.715650827454,158.317825317383,0.514867834330365,1781.61682128906,342.64111328125,83.8248357491913,-149.865478515625,0.0453089842894488,NaN,0.199987938897973,1.49743359816067,5000,0.056642472743988,0.056642472743988,0.056642472743988,1474.31323695481,1747.16926004944,3221.48249700425,,,93.8399999141693,1438.97570800781,32613.5628474612,34169.9225389564
2018-07-19T08:35:31Z,1531989331,9608,41.1982175,43.7765229,1625.41,-1.9,-62.9,339.4,560323.31,-118287.86,333.7,Weapon+Missile,Blue,Enemies,AIM-120B,,us,,176.54409565634,164.007766723633,0.528377893891097,1625.40539550781,205.420288085938,82.2545328021739,-156.21142578125,0.024411885405945,NaN,0.199987938897973,1.39644082026728,5000,0.0534580834209919,0.0534580834209919,0.0534580834209919,1558.39088555574,1593.97818218567,3152.36906774141,,,94.8399999141693,1419.98510742188,32695.5200187953,34346.3384565427
2018-07-19T08:35:32Z,1531989332,9608,41.197863,43.7772002,1462.59,-1.7,-64.2,339.1,560287.25,-118215.44,333.4,Weapon+Missile,Blue,Enemies,AIM-120B,,us,,181.811793591875,170.228652954102,0.543110915469094,1462.58618164062,61.72900390625,80.9038434486621,-162.819213867188,0.0247896808229832,NaN,0.199987938897973,1.29608036848064,5000,0.0664794892072678,0.0664794892072678,0.0664794892072678,1652.77641445473,1434.3070778186,3087.08349227333,,,95.8399999141693,1400.85717773438,32776.1266594919,34528.026852034
