ISOTime,UnixTime,Id,Longitude,Latitude,Altitude,Roll,Pitch,Yaw,U,V,Heading,Type,Color,Coalition,Name,Group,Country,Pilot,TAS,CAS,M,ASL,AGL,GS,VS,AOA,AOS,RRT,TRT,TRD,G,LatG,LonG,Ek,Ep,Em,FFW,FFV,RelativeTime,Elev,GroundDistance,AirDistance
2018-07-19T08:34:17Z,1531989257,B40F,40.7921898,43.4741787,5393.02,-40.4,-3.2,319.7,530807.5,-155056.91,314.3,Weapon+Missile,Blue,Enemies,R-77,,cn,,273.854358816083,216.3701171875,0.858286291658077,5393.02294921875,3721.52978515625,NaN,NaN,NaN,NaN,NaN,NaN,NaN,NaN,NaN,NaN,NaN,5288.74885049561,NaN,,,0.410000085830688,1671.4931640625,NaN,NaN
2018-07-19T08:34:18Z,1531989258,B40F,40.789983,43.4762995,5359.8,-33.8,-2.9,321.4,530606.75,-154838.08,316,Weapon+Missile,Blue,Enemies,R-77,,cn,,298.814471074545,238.026275634766,0.936115164383793,5359.7998046875,3639.033203125,296.961800221873,-33.22314453125,4.16092932022148,NaN,5.04611643804874,2.81161947455194,5000,1.97035825252533,1.97035825252533,1.97035825252533,4464.504406178,5256.16807546387,9720.67248164186,,,1.41000008583069,1720.7666015625,295.833407105763,297.940914938444
2018-07-19T08:34:19Z,1531989259,B40F,40.7870556,43.4793538,5310.36,-31.1,-7.6,326.4,530338,-154521,321,Weapon+Missile,Blue,Enemies,R-77,,cn,,418.580113118549,340.532745361328,1.3104831568865,5310.36083984375,3426.57873535156,415.650213344725,-49.43896484375,0.0288113153987866,NaN,2.21540600823949,5.35252982327291,5000,2.43531441688538,2.43531441688538,2.43531441688538,8760.46555491686,5207.68501300537,13968.1505679222,,,2.41000008583069,1883.78210449219,709.984386746646,715.376308069601
2018-07-19T08:34:20Z,1531989260,B40F,40.7834617,43.4834929,5224.16,-27.3,-9.9,328.7,530003.94,-154088.47,323.3,Weapon+Missile,Blue,Enemies,R-77,,cn,,553.27360154397,443.650695800781,1.73027243857143,5224.15966796875,3278.30432128906,546.517187408422,-86.201171875,0.0474361742057134,NaN,4.04612893223468,3.96234470923343,5000,2.07107090950012,2.07107090950012,2.07107090950012,15305.5839082718,5123.15054078857,20428.7344490604,,,3.41000008583069,1945.85534667969,1254.56630728133,1267.18256455271
2018-07-19T08:34:21Z,1531989261,B40F,40.7792429,43.4886984,5097.53,-23.6,-11.3,330.3,529608.25,-153542.17,324.8,Weapon+Missile,Blue,Enemies,R-77,,cn,,686.326183041478,543.5234375,2.14291221122009,5097.53125,3336.11694335938,674.543455450437,-126.62841796875,0.0943174093247541,NaN,3.47692145737333,2.0440555584275,5000,2.12449979782104,2.12449979782104,2.12449979782104,23552.1814764142,4998.97048328125,28551.1519596955,,,4.41000008583069,1761.41430664062,1926.79694839802,1951.77031175023
2018-07-19T08:34:22Z,1531989262,B40F,40.7743998,43.4950701,4932.17,-20.1,-11.5,331.9,529149.94,-152871.06,326.5,Weapon+Missile,Blue,Enemies,R-77,,cn,,829.326247777999,653.446594238281,2.583970529378,4932.17138671875,2993.89306640625,812.673452789705,-165.35986328125,0.0197100204162941,NaN,3.52307646068969,1.60782290208301,5000,2.78602433204651,2.78602433204651,2.78602433204651,34389.1012626767,4836.80785295654,39225.9091156333,,,5.41000008583069,1938.2783203125,2736.77948886726,2779.08384781235
2018-07-19T08:34:23Z,1531989263,B40F,40.7690782,43.5025645,4742.46,-16.9,-11.3,333.4,528641.25,-152078.8,328,Weapon+Missile,Blue,Enemies,R-77,,cn,,960.43560477451,758.141235351562,2.98530831901186,4742.46435546875,2441.21142578125,941.513565071099,-189.70703125,0.0544522223136944,NaN,3.07689435315861,1.47875356438921,5000,2.85950946807861,2.85950946807861,2.85950946807861,46121.827545929,4650.76880715576,50772.5963530847,,,6.41000008583069,2301.2529296875,3675.22237580746,3737.20709790581
2018-07-19T08:34:24Z,1531989264,B40F,40.7634713,43.5109553,4537.47,-14.4,-11.1,335.2,528100.31,-151189.09,329.7,Weapon+Missile,Blue,Enemies,R-77,,cn,,1061.2293943448,843.039367675781,3.29011200345427,4537.4697265625,2063.1162109375,1041.24206097382,-204.99462890625,0.0498999241967282,NaN,2.10767343446087,1.86107692499697,5000,4.31414461135864,4.31414461135864,4.31414461135864,56310.3913710713,4449.73774939941,60760.1291204708,,,7.41000008583069,2474.353515625,4713.20072185463,4795.97524398353
2018-07-19T08:34:25Z,1531989265,B40F,40.7585567,43.5191137,4345.53,-12.3,-10.7,337.4,527617.88,-150319.92,332,Weapon+Missile,Blue,Enemies,R-77,,cn,,1012.44614332343,813.171997070312,3.13134059426247,4345.5283203125,1868.52954101562,994.085353325994,-191.94140625,0.112112193259038,NaN,2.04613001494447,1.91024638961483,5000,2.83433699607849,2.83433699607849,2.83433699607849,51252.3596565247,4261.50753023926,55513.8671867639,,,8.41000008583069,2476.99877929688,5704.27311291399,5806.14079157191
2018-07-19T08:34:26Z,1531989266,B40F,40.7542558,43.5267633,4171.09,-10.3,-10.9,337.8,527190.44,-149502.59,332.4,Weapon+Missile,Blue,Enemies,R-77,,cn,,938.69928698153,762.420593261719,2.89695186275163,4171.09130859375,1698.322265625,922.349218204399,-174.43701171875,0.1002615821235,NaN,2.10769563257568,0.461086327351991,5000,1.45224094390869,1.45224094390869,1.45224094390869,44057.8175689816,4090.44325814209,48148.2608271237,,,9.41000008583069,2472.76904296875,6623.86545663771,6742.73457165075
2018-07-19T08:34:27Z,1531989267,B40F,40.7501496,43.5339219,4010.83,-7.7,-9.4,337.1,526783.81,-148738.33,331.7,Weapon+Missile,Blue,Enemies,R-77,,cn,,880.414967765924,722.413635253906,2.71168278929643,4010.82690429688,1775.90478515625,865.705398031941,-160.264404296875,0.0992793748175126,NaN,2.86152141315518,1.46565614304719,5000,4.94794607162476,4.94794607162476,4.94794607162476,38756.5257733136,3933.2775661023,42689.8033394159,,,10.4100000858307,2234.92211914062,7486.92179248477,7621.08913787479
2018-07-19T08:34:28Z,1531989268,B40F,40.7462973,43.5406281,3898.95,-5.4,-6.4,337.9,526402.62,-148022.42,332.5,Weapon+Missile,Blue,Enemies,R-77,,cn,,818.744634866972,677.512573242188,2.51825253730752,3898.94702148438,1704.23022460938,811.06452822529,-111.8798828125,0.0584468269029676,NaN,1.95384135265291,2.82910768323183,5000,5.07352304458618,5.07352304458618,5.07352304458618,33517.1388561726,3823.56088082397,37340.6997369965,,,11.4100000858307,2194.716796875,8295.58710993888,8437.95383349487
2018-07-19T08:34:29Z,1531989269,B40F,40.7428707,43.5469444,3830.75,-3.7,-3.8,339.2,526059.94,-147346.58,333.8,Weapon+Missile,Blue,Enemies,R-77,,cn,,760.822228912848,633.846130371094,2.33813014840806,3830.7490234375,1849.14868164062,757.759524565883,-68.197998046875,0.0736371820397067,NaN,1.73846670510219,2.97761285781742,5000,4.77979135513306,4.77979135513306,4.77979135513306,28942.5232003957,3756.68149106934,32699.204691465,,,12.4100000858307,1981.60034179688,9051.1273162818,9197.02167300673
2018-07-19T08:34:30Z,1531989270,B40F,40.7398497,43.5528971,3800.02,-2.3,-1,340.3,525753.88,-146708.05,334.9,Weapon+Missile,Blue,Enemies,R-77,,cn,,708.759897842457,593.586608886719,2.17730978678669,3800.021484375,1542.17260742188,708.093504512513,-30.7275390625,0.23674017174797,NaN,1.43078375846604,3.65495972959982,5000,6.11294507980347,6.11294507980347,6.11294507980347,25117.0296394825,3726.54806897461,28843.5777084571,,,13.4100000858307,2257.84887695312,9757.18693312639,9904.17156488451
2018-07-19T08:34:31Z,1531989271,B40F,40.7371231,43.5583993,3820.16,-0,4.7,340.2,525476.31,-146117.34,334.8,Weapon+Missile,Blue,Enemies,R-77,,cn,,652.975372360515,549.102294921875,2.00643753056381,3820.16381835938,1383.36328125,652.664633093456,20.142333984375,0.223738543845832,NaN,2.10766617738488,4.57891613089424,5000,6.52691888809204,6.52691888809204,6.52691888809204,21318.8418454677,3746.3009509314,25065.1427963991,,,14.4100000858307,2436.80053710938,10407.983768622,10555.6686100584
2018-07-19T08:34:32Z,1531989272,B40F,40.7345955,43.56345,3890.35,1.2,8.8,339.7,525219.56,-145575.28,334.3,Weapon+Missile,Blue,Enemies,R-77,,cn,,603.886617750962,508.929290771484,1.85720633453453,3890.3544921875,1425.80688476562,599.79356149116,70.190673828125,0.113179858796595,NaN,1.03076935413431,4.29260996881293,5000,4.77839326858521,4.77839326858521,4.77839326858521,18233.9523549348,3815.13448808105,22049.0868430159,,,15.4100000858307,2464.54760742188,11006.055090105,11158.2037350963
2018-07-19T08:34:33Z,1531989273,B40F,40.7322141,43.5680637,3990.09,1.6,11.1,339.3,524979.12,-145080.69,333.9,Weapon+Missile,Blue,Enemies,R-77,,cn,,558.91036516743,471.638000488281,1.72100521719621,3990.09228515625,1326.60864257812,549.939241139703,99.73779296875,0.0727482863707348,NaN,0.0769260727443264,2.2806618490132,5000,1.89971494674683,1.89971494674683,1.89971494674683,15619.0398145795,3912.94385082275,19531.9836654022,,,16.4100000858307,2663.48364257812,11554.3994610634,11715.8781880542
2018-07-19T08:34:34Z,1531989274,B40F,40.7299662,43.5723796,4092.09,1.3,11.2,339.3,524752.69,-144618.16,333.9,Weapon+Missile,Blue,Enemies,R-77,,cn,,524.987574287745,443.164428710938,1.61859352448287,4092.08666992188,1364.60961914062,514.984561548026,101.994384765625,0.0420226322125583,NaN,0.384621612541758,0.363965252861788,5000,0.989858627319336,0.989858627319336,0.989858627319336,13780.5976578265,4012.96617415894,17793.5638319855,,,17.4100000858307,2727.47705078125,12067.9066776912,12239.7357653722
2018-07-19T08:34:35Z,1531989275,B40F,40.7278649,43.576424,4187.72,1.1,11.1,339.5,524540.94,-144184.67,334.1,Weapon+Missile,Blue,Enemies,R-77,,cn,,491.825057363095,415.47265625,1.51815179793744,4187.716796875,1485.11108398438,482.438354475617,95.630126953125,0.0318652374794325,NaN,0.199987938897973,0.212833110148174,5000,0.759914577007294,0.759914577007294,0.759914577007294,12094.5943525106,4106.74729260742,16201.341645118,,,18.4100000858307,2702.60571289062,12548.9666004923,12730.5150283963
2018-07-19T08:34:36Z,1531989276,B40F,40.7259094,43.580229,4275.24,0.9,10.8,339.7,524343.38,-143776.67,334.3,Weapon+Missile,Blue,Enemies,R-77,,cn,,461.687626500033,390.209930419922,1.42667783410869,4275.2412109375,1495.078125,453.315498749216,87.5244140625,0.0436533192135267,NaN,0.169224766876236,0.465731176152717,5000,0.711885929107666,0.711885929107666,0.711885929107666,10657.7732231617,4192.57942212402,14850.3526452857,,,19.4100000858307,2780.1630859375,13000.9416579066,13191.1809815514
2018-07-19T08:34:37Z,1531989277,B40F,40.7240988,43.5838067,4354.34,0.6,10.3,340,524160,-143392.86,334.6,Weapon+Missile,Blue,Enemies,R-77,,cn,,432.660397418179,365.689361572266,1.33829943939705,4354.33984375,1555.27978515625,425.368576391404,79.0986328125,0.0617882092213429,NaN,0.199987938897973,0.391423547140165,5000,0.853666245937347,0.853666245937347,0.853666245937347,9359.75097470284,4270.14868287109,13629.8996575739,,,20.4100000858307,2799.06005859375,13425.1300165143,13622.963208651
2018-07-19T08:34:38Z,1531989278,B40F,40.7224179,43.5871914,4427.44,0.6,10.2,340.4,523989.06,-143029.48,335,Weapon+Missile,Blue,Enemies,R-77,,cn,,408.17188399067,344.511047363281,1.26370573396905,4427.4375,1822.79248046875,401.573180791808,73.09765625,0.0978752455550526,NaN,0.169224766876236,0.370360551080742,5000,1.10939991474152,1.10939991474152,1.10939991474152,8330.21434402466,4341.8329959375,12672.0473399622,,,21.4100000858307,2604.64501953125,13825.5466870957,14030.2685113363
2018-07-19T08:34:39Z,1531989279,B40F,40.7208854,43.590349,4496.36,0.7,10.6,340.8,523832.5,-142690.2,335.4,Weapon+Missile,Blue,Enemies,R-77,,cn,,379.96588937853,319.619384765625,1.17739506769935,4496.361328125,2007.65747070312,373.662391749307,68.923828125,0.0404176334657445,NaN,0,0.466256086862603,5000,1.14361023902893,1.14361023902893,1.14361023902893,7218.70385456085,4409.4241818457,11628.1280364066,,,22.4100000858307,2488.70385742188,14198.1436571001,14409.4430123785
2018-07-19T08:34:40Z,1531989280,B40F,40.7194777,43.5933313,4562.34,0.8,10.8,341.4,523687.88,-142369.48,336,Weapon+Missile,Blue,Enemies,R-77,,cn,,357.953241062757,299.508514404297,1.11010291835668,4562.34326171875,2171.55810546875,351.819424174622,65.98193359375,0.0604626748721246,NaN,0.153846275794835,0.546445122400345,5000,1.22200810909271,1.22200810909271,1.22200810909271,6406.52613936663,4474.13035475342,10880.65649412,,,23.4100000858307,2390.78515625,14548.991364373,14766.6860931348
2018-07-19T08:34:41Z,1531989281,B40F,40.7182033,43.5961245,4625.73,1,11.2,342.1,523555.94,-142068.77,336.7,Weapon+Missile,Blue,Enemies,R-77,,cn,,334.450421917584,277.807464599609,1.03804089066672,4625.7294921875,2349.30590820312,328.388901316431,63.38623046875,0.0445021431593745,NaN,0.200000105172432,0.733368777045935,5000,1.29979300498962,1.29979300498962,1.29979300498962,5592.8542360425,4536.29101245605,10129.1452484986,,,24.4100000858307,2276.42358398438,14876.4617191368,15100.466236212
2018-07-19T08:34:42Z,1531989282,B40F,40.7170578,43.5987392,4687.33,1.1,11.6,342.7,523436.28,-141786.91,337.3,Weapon+Missile,Blue,Enemies,R-77,,cn,,312.340128838605,257.416687011719,0.97016818331149,4687.3251953125,2384.513671875,306.206344544742,61.595703125,0.0506669774570424,NaN,0.0923076587551951,0.601748790583968,5000,0.694081723690033,0.694081723690033,0.694081723690033,4877.81780414581,4596.69576266113,9474.51356680695,,,25.4100000858307,2302.8115234375,15181.8315292022,15412.2048471457
2018-07-19T08:34:43Z,1531989283,B40F,40.715983,43.6011717,4741.7,-0.9,8.3,340.2,523324.25,-141524.75,334.8,Weapon+Missile,Blue,Enemies,R-77,,cn,,290.230975156358,237.360427856445,0.902112167746795,4741.70458984375,2364.1865234375,285.091038776432,54.37939453125,0.167215127490052,NaN,3.61541037298451,3.89939000187978,2405.96126418887,2.71979331970215,2.71979331970215,2.71979331970215,4211.70094701052,4650.02373159912,8861.72467860964,,,26.4100000858307,2377.51806640625,15466.1411860611,15701.8747291256
2018-07-19T08:34:44Z,1531989284,B40F,40.714742,43.6033854,4766.91,-3,3.2,336.2,523201.09,-141288.14,330.8,Weapon+Missile,Blue,Enemies,R-77,,cn,,267.930594454725,217.739273071289,0.833061647002383,4766.91064453125,2340.291015625,266.742306828057,25.2060546875,0.599750600454538,NaN,1.40002485531253,4.79551807806144,5000,0.5722376704216,0.5722376704216,0.5722376704216,3589.34017224312,4674.74242721924,8264.08259946236,,,27.4100000858307,2426.61962890625,15732.0923532217,15969.2150611139
2018-07-19T08:34:45Z,1531989285,B40F,40.7135142,43.6054658,4783.9,-1.7,4.8,337.7,523080.34,-141066.27,332.3,Weapon+Missile,Blue,Enemies,R-77,,cn,,253.175326975433,204.90202331543,0.787352693307537,4783.90087890625,2274.60498046875,252.60458848762,16.990234375,0.0578164186832796,NaN,1.36921963493872,0.523305348626841,5000,1.92696142196655,1.92696142196655,1.92696142196655,3204.88730945587,4691.4041554126,7896.29146486847,,,28.4100000858307,2509.2958984375,15983.9464033191,16221.8296862411
2018-07-19T08:34:46Z,1531989286,B40F,40.7124292,43.607464,4807.52,-0.6,6.5,339.4,522972,-140852.44,334,Weapon+Missile,Blue,Enemies,R-77,,cn,,240.871093219457,194.198715209961,0.749311055121849,4807.52392578125,2197.919921875,239.709898012323,23.623046875,0.0743584176706416,NaN,1.09232995584534,2.41774801452359,5000,1.8082662820816,1.8082662820816,1.8082662820816,2900.94417743683,4714.57045067627,7615.5146281131,,,29.4100000858307,2609.60400390625,16222.9626982618,16462.189375051
2018-07-19T08:34:47Z,1531989287,B40F,40.7114791,43.6093717,4836.35,0.3,8,341,522875.5,-140647.64,335.6,Weapon+Missile,Blue,Enemies,R-77,,cn,,228.220983802762,183.246887207031,0.710217168606757,4836.34765625,2230.46020507812,226.393484910157,28.82373046875,0.0658188032449997,NaN,0.769219692947391,2.14012494386807,5000,1.64309918880463,1.64309918880463,1.64309918880463,2604.24087239504,4742.83687431641,7347.07774671144,,,30.4100000858307,2605.88745117188,16448.7099539679,16689.9386128704
2018-07-19T08:34:48Z,1531989288,B40F,40.7106438,43.6111966,4868.9,1,9.3,342.4,522789.12,-140451.19,337,Weapon+Missile,Blue,Enemies,R-77,,cn,,217.058457570064,173.602600097656,0.675757787204218,4868.90380859375,2321.7138671875,214.603054375434,32.55615234375,0.0454148509122879,NaN,0.569230846914919,1.86884647862127,5000,1.50842928886414,1.50842928886414,1.50842928886414,2355.71870013475,4774.76355345459,7130.48225358934,,,31.4100000858307,2547.18994140625,16662.7283374786,16906.5800106072
2018-07-19T08:34:49Z,1531989289,B40F,40.709908,43.612941,4903.97,1.4,10.2,343.7,522711.66,-140262.91,338.3,Weapon+Missile,Blue,Enemies,R-77,,cn,,206.592707407312,164.596313476562,0.643460670843907,4903.96533203125,2352.01586914062,203.595766970055,35.0615234375,0.0349034438010975,NaN,0.399999996901453,1.65932647712801,5000,1.38564193248749,1.38564193248749,1.38564193248749,2134.02733769417,4809.14716233643,6943.17450003059,,,32.4100000858307,2551.94946289062,16865.7697653675,17112.7797296284
2018-07-19T08:34:50Z,1531989290,B40F,40.7092612,43.6146004,4940.34,1.7,11.2,344.8,522642.22,-140083.42,339.5,Weapon+Missile,Blue,Enemies,R-77,,cn,,195.855335332403,155.429718017578,0.61029877313705,4940.33984375,2356.10327148438,192.447933933806,36.37451171875,0.0953478897975286,NaN,0.200000105172432,1.45708318842176,5000,1.33136975765228,1.33136975765228,1.33136975765228,1917.96561890841,4844.81837287109,6762.7839917795,,,33.4100000858307,2584.23657226562,17057.7035400086,17308.2754053136
2018-07-19T08:34:51Z,1531989291,B40F,40.7086891,43.6161848,4977.77,2,12,345.9,522579.59,-139911.69,340.5,Weapon+Missile,Blue,Enemies,R-77,,cn,,186.589791939684,147.536529541016,0.581702660769311,4977.77197265625,2386.169921875,182.79657048654,37.43212890625,0.0281270873398527,NaN,0.16923074329176,1.29161748018827,5000,1.25966441631317,1.25966441631317,1.25966441631317,1740.78752280474,4881.52675156494,6622.31427436968,,,34.4100000858307,2591.60205078125,17240.0085872453,17494.5225416877
2018-07-19T08:34:52Z,1531989292,B40F,40.7081816,43.6176967,5015.69,2.1,12.6,346.8,522522.94,-139747.53,341.4,Weapon+Missile,Blue,Enemies,R-77,,cn,,177.748927460559,140.046279907227,0.554407492997286,5015.68603515625,2455.91357421875,173.65829976746,37.9140625,0.0398526145690464,NaN,0.199999891729021,1.15238844954749,5000,1.20630431175232,1.20630431175232,1.20630431175232,1579.73406066895,4918.7077456665,6498.44180633545,,,35.4100000858307,2559.7724609375,17413.2028536296,17671.9506890932
2018-07-19T08:34:53Z,1531989293,B40F,40.7077327,43.6191306,5053.47,2.1,13.3,347.6,522471.81,-139591.61,342.3,Weapon+Missile,Blue,Enemies,R-77,,cn,,168.383612513727,132.189529418945,0.525448724369697,5053.47021484375,2547.8984375,164.089599696372,37.7841796875,0.0707481955759718,NaN,0,1.02287024035919,5000,1.15330815315247,1.15330815315247,1.15330815315247,1417.65204815865,4955.76136823975,6373.41341639839,,,36.4100000858307,2505.57177734375,17576.877381566,17840.0557286768
2018-07-19T08:34:54Z,1531989294,B40F,40.7073357,43.6204859,5090.6,2.1,13.8,348.4,522425.72,-139444.02,343.1,Weapon+Missile,Blue,Enemies,R-77,,cn,,159.018853390092,124.398109436035,0.496459843979266,5090.59765625,2632.6513671875,154.623894751507,37.12744140625,0.0754237365457708,NaN,0,0.879792878368787,5000,1.10712766647339,1.10712766647339,1.10712766647339,1264.34978667498,4992.17095056641,6256.52073724138,,,37.4100000858307,2457.9462890625,17731.0992918324,17998.8029721095
2018-07-19T08:34:55Z,1531989295,B40F,40.7069813,43.6217751,5126.99,2.1,14.1,349.1,522383.72,-139303.47,343.7,Weapon+Missile,Blue,Enemies,R-77,,cn,,151.134125787388,117.853149414062,0.472062109565109,5126.98583984375,2709.447265625,146.68818654638,36.38818359375,0.0601076304570247,NaN,0,0.662723223325994,5000,0.890100657939911,0.890100657939911,0.890100657939911,1142.0761988759,5027.85556863037,6169.93176750627,,,38.4100000858307,2417.53857421875,17877.4250969847,18149.6991452208
2018-07-19T08:34:56Z,1531989296,B40F,40.7066622,43.6229946,5160.4,1.3,11.9,349.3,522345.34,-139170.36,344,Weapon+Missile,Blue,Enemies,R-77,,cn,,142.504181358829,110.777565002441,0.445296264724979,5160.40283203125,2761.29174804688,138.530669304276,33.4169921875,0.0703594330997009,NaN,1.30768069773396,2.05459133866565,2267.07223755735,0.0915196239948273,0.0915196239948273,0.0915196239948273,1015.3720852375,5060.62644327393,6075.99852851143,,,39.4100000858307,2399.11108398438,18015.6021883782,18291.9679457222
2018-07-19T08:34:57Z,1531989297,B40F,40.7063572,43.6241665,5183.77,0.2,7.8,349.3,522308.56,-139042.47,344,Weapon+Missile,Blue,Enemies,R-77,,cn,,135.111278265099,104.783729553223,0.422320741112257,5183.7734375,2774.0361328125,133.074686978603,23.37060546875,0.115206358895903,NaN,0.938467991959752,4.09613872356387,1845.65102140664,0.0037378161214292,0.0037378161214292,0.0037378161214292,912.752875721455,5083.54517808594,5996.29805380739,,,40.4100000858307,2409.7373046875,18148.3461533034,18426.8595132815
2018-07-19T08:34:58Z,1531989298,B40F,40.7060627,43.6252984,5196.76,-0.7,3.6,349.4,522273.03,-138918.91,344,Weapon+Missile,Blue,Enemies,R-77,,cn,,129.223565063805,100.063056945801,0.403984243947962,5196.7568359375,2756.8193359375,128.569674234683,12.9833984375,0.0486934789780238,NaN,0.830769569126991,4.26536903996881,1695.3402121657,0.0151107776910067,0.0151107776910067,0.0151107776910067,834.936488389969,5096.27754251465,5931.21403090462,,,41.4100000858307,2439.9375,18276.5693590858,18555.8421801425
2018-07-19T08:34:59Z,1531989299,B40F,40.7057787,43.6263905,5199.79,-1.4,-0.9,349.4,522238.81,-138799.72,344,Weapon+Missile,Blue,Enemies,R-77,,cn,,124.039335250194,95.9630813598633,0.387792062618024,5199.78564453125,2726.80346679688,124.00235081567,3.02880859375,0.0309212029001999,NaN,0.769243225083516,4.41923441894898,1568.2175194108,0.0134628489613533,0.0134628489613533,0.0134628489613533,769.287834465504,5099.24778909424,5868.53562355974,,,42.4100000858307,2472.98217773438,18400.2692129859,18679.6798958279
2018-07-19T08:35:00Z,1531989300,B40F,40.7055027,43.6274517,5193.19,-2.1,-5.5,349.3,522205.53,-138683.89,344,Weapon+Missile,Blue,Enemies,R-77,,cn,,120.695068011461,93.3655395507812,0.377304927729868,5193.18994140625,2683.27026367188,120.514713386284,-6.595703125,0.0439615219431369,NaN,0.569255286185543,4.5772098642622,1489.94031119673,0.0145875755697489,0.0145875755697489,0.0145875755697489,728.364972114563,5092.77961388916,5821.14458600372,,,43.4100000858307,2509.91967773438,18520.4809408484,18800.1702258685
2018-07-19T08:35:01Z,1531989301,B40F,40.7052353,43.6284772,5177.29,-2.7,-10.2,349.3,522173.28,-138571.97,343.9,Weapon+Missile,Blue,Enemies,R-77,,cn,,117.555972002731,90.9755401611328,0.367417302446882,5177.2890625,2633.09790039062,116.475613771792,-15.90087890625,0.0690888557775553,NaN,0.569255286185543,4.66181413685068,1443.78237562591,0.0146303391084075,0.0146303391084075,0.0146303391084075,690.970327675343,5077.18617847656,5768.1565061519,,,44.4100000858307,2544.19116210938,18636.6554935576,18917.5214854824
2018-07-19T08:35:02Z,1531989302,B40F,40.7049739,43.6294752,5152.28,-3.1,-14.8,349.2,522141.88,-138463.05,343.9,Weapon+Missile,Blue,Enemies,R-77,,cn,,116.084224330667,89.9385604858398,0.362701815747261,5152.28466796875,2577.853515625,113.359284545105,-25.00439453125,0.0456736860970789,NaN,0.400030519309307,4.65411395233514,1441.83440781971,0.0321506857872009,0.0321506857872009,0.0321506857872009,673.777356922626,5052.66524391357,5726.4426008362,,,45.4100000858307,2574.43115234375,18749.7262515401,19033.4133752076
2018-07-19T08:35:03Z,1531989303,B40F,40.7047208,43.6304343,5118.86,-3.4,-19.4,349.1,522111.47,-138358.39,343.8,Weapon+Missile,Blue,Enemies,R-77,,cn,,113.994246659744,88.4520111083984,0.356020178724335,5118.85986328125,2532.6611328125,108.983809362331,-33.4248046875,0.0693587504856688,NaN,0.200042580411333,4.60868892548632,1434.27923018361,0.0254806224256754,0.0254806224256754,0.0254806224256754,649.734413576126,5019.88670782471,5669.62112140083,,,46.4100000858307,2586.19873046875,18858.4274212647,19147.2210970064
2018-07-19T08:35:04Z,1531989304,B40F,40.7044702,43.6313736,5076.58,-3.6,-23.9,349,522081.5,-138255.92,343.6,Weapon+Missile,Blue,Enemies,R-77,,cn,,114.82727555529,89.3074264526367,0.358429023077025,5076.5830078125,2500.578125,106.761279044066,-42.27685546875,0.0681104526272674,NaN,0.199987938897973,4.46694371718834,1498.8311711231,0.0331503339111805,0.0331503339111805,0.0331503339111805,659.265160572529,4978.42727535645,5637.69243592897,,,47.4100000858307,2576.0048828125,18964.9186576091,19261.8764534316
2018-07-19T08:35:05Z,1531989305,B40F,40.7042249,43.63228,5026.33,-3.8,-28.1,348.9,522052.31,-138157.06,343.5,Weapon+Missile,Blue,Enemies,R-77,,cn,,114.675809458771,89.4252166748047,0.357727727394699,5026.3291015625,2472.28979492188,103.078058681955,-50.25390625,0.0162997168944107,NaN,0.199987938897973,4.27553278834061,1567.25800964275,0.0425851345062256,0.0425851345062256,0.0425851345062256,657.527063751221,4929.14502838379,5586.67209213501,,,48.4100000858307,2554.03930664062,19067.7342139107,19376.389530294
2018-07-19T08:35:06Z,1531989306,B40F,40.703983,43.6331591,4968.15,-3.8,-32.2,348.6,522023.66,-138061.22,343.3,Weapon+Missile,Blue,Enemies,R-77,,cn,,115.72145940775,90.5298538208008,0.360723226258455,4968.15478515625,2440.73828125,100.036018903818,-58.17431640625,0.0560513514731014,NaN,0,4.07747437788316,1663.08800373997,0.0414101779460907,0.0414101779460907,0.0414101779460907,669.572808372974,4872.09551238525,5541.66832075823,,,49.4100000858307,2527.41650390625,19167.522283669,19491.9642664208
2018-07-19T08:35:07Z,1531989307,B40F,40.7037441,43.63401,4902.39,-3.8,-36.1,348.4,521995.56,-137968.47,343,Weapon+Missile,Blue,Enemies,R-77,,cn,,117.120706315661,91.9584426879883,0.364780844509753,4902.38671875,2402.46826171875,96.9114094885762,-65.76806640625,0.0281465964486492,NaN,0,3.85890064047994,1790.99963426434,0.0469435192644596,0.0469435192644596,0.0469435192644596,685.862992393971,4807.59907154297,5493.46206393694,,,50.4100000858307,2499.91845703125,19264.1781152992,19608.9354242984
2018-07-19T08:35:08Z,1531989308,B40F,40.703507,43.6348362,4829.06,-3.7,-39.7,348.2,521967.88,-137878.45,342.8,Weapon+Missile,Blue,Enemies,R-77,,cn,,119.356886164483,94.1019058227539,0.371401014602451,4829.06103515625,2344.5927734375,94.1775472200812,-73.32568359375,0,NaN,0.199987938897973,3.63245212185051,1999.6139786194,0.0611066855490208,0.0611066855490208,0.0611066855490208,712.303313744068,4735.6911400415,5447.99445378557,,,51.4100000858307,2484.46826171875,19358.1160590943,19728.1598430806
2018-07-19T08:35:09Z,1531989309,B40F,40.7032726,43.6356339,4749.05,-3.5,-42.2,347.9,521940.69,-137791.59,342.6,Weapon+Missile,Blue,Enemies,R-77,,cn,,121.180554739337,95.9627151489258,0.376695093281381,4749.0546875,2262.70751953125,91.0148953833417,-80.00634765625,0.370469596868768,NaN,0.430743318685915,1.3292585459825,5000,0.863090574741364,0.863090574741364,0.863090574741364,734.236342346668,4657.23171511719,5391.46805746386,,,52.4100000858307,2486.34716796875,19448.9011470974,19849.2190414595
2018-07-19T08:35:10Z,1531989310,B40F,40.7030329,43.6364576,4668.01,-2.6,-39.4,348.3,521912.78,-137701.89,342.9,Weapon+Missile,Blue,Enemies,R-77,,cn,,124.073218974625,98.7056503295898,0.385293506856552,4668.0068359375,2172.435546875,93.9436502581634,-81.0478515625,0.0269607533115796,NaN,0.769238956215285,1.67643514050354,2671.35085663377,1.36079704761505,1.36079704761505,1.36079704761505,769.708183336258,4577.75092376465,5347.45910710091,,,53.4100000858307,2495.5712890625,19542.60592116,19973.1638190348
2018-07-19T08:35:11Z,1531989311,B40F,40.7027889,43.6373227,4590.63,-1.9,-37,348.7,521884.12,-137607.61,343.3,Weapon+Missile,Blue,Enemies,R-77,,cn,,125.288373421581,100.089614868164,0.388688736235077,4590.630859375,2071.40454101562,98.5400160626382,-77.3759765625,0.0208943524113059,NaN,0.569251017317311,2.36399805429358,3175.83927004521,1.30390882492065,1.30390882492065,1.30390882492065,784.858825731278,4501.87101170898,5286.72983744026,,,54.4100000858307,2519.22631835938,19640.8927250804,20098.3091975004
2018-07-19T08:35:12Z,1531989312,B40F,40.7025415,43.638228,4516.09,-1.5,-34.8,349,521854.78,-137508.89,343.6,Weapon+Missile,Blue,Enemies,R-77,,cn,,127.133900514611,101.980941772461,0.394045476362301,4516.08837890625,1959.4189453125,102.987607340034,-74.54248046875,0.155394818934649,NaN,0.369263078419338,2.02750985204996,3863.27075709555,1.24561524391174,1.24561524391174,1.24561524391174,808.151433002949,4428.7698101001,5236.92124310305,,,55.4100000858307,2556.66943359375,19743.6240222872,20225.2949243529
2018-07-19T08:35:13Z,1531989313,B40F,40.702295,43.6391596,4444.59,-1.1,-33.1,349.3,521825.25,-137407.23,344,Weapon+Missile,Blue,Enemies,R-77,,cn,,127.740243670769,102.854698181152,0.395570436565079,4444.59375,1851.2705078125,105.858811114734,-71.49462890625,0.140608829899566,NaN,0.384642529996091,1.75221139358978,4842.79510308968,1.1783641576767,1.1783641576767,1.1783641576767,815.87849265337,4358.65752984375,5174.53602249712,,,56.4100000858307,2593.3232421875,19849.2155636402,20352.8751938713
2018-07-19T08:35:14Z,1531989314,B40F,40.7020507,43.6401122,4375.59,-0.9,-31.8,349.7,521795.62,-137303.23,344.3,Weapon+Missile,Blue,Enemies,R-77,,cn,,128.27932035642,103.664176940918,0.396897204337414,4375.5869140625,1748.5126953125,108.137138047019,-69.0068359375,0.162254971564972,NaN,0.199987938897973,1.38475735480515,5000,1.11685132980347,1.11685132980347,1.11685132980347,822.779201555252,4290.9849410791,5113.76414263435,,,57.4100000858307,2627.07421875,19957.0640879843,20480.974131556
2018-07-19T08:35:15Z,1531989315,B40F,40.7018089,43.6410831,4308.43,-0.8,-31,349.9,521766.06,-137197.19,344.5,Weapon+Missile,Blue,Enemies,R-77,,cn,,128.958782915473,104.583282470703,0.398665143274123,4308.4267578125,1655.89282226562,110.090331562384,-67.16015625,0.0825440701864381,NaN,0.199987938897973,0.972706449608557,5000,1.06571137905121,1.06571137905121,1.06571137905121,831.518384552002,4225.1233264502,5056.6417110022,,,58.4100000858307,2652.53393554688,20066.8840510696,20609.7659677754
2018-07-19T08:35:16Z,1531989316,B40F,40.7015728,43.6420589,4243.35,-0.7,-30.2,350.2,521736.88,-137090.55,344.8,Weapon+Missile,Blue,Enemies,R-77,,cn,,128.293042499321,104.383773803711,0.396285580054036,4243.35009765625,1598.10717773438,110.562801414583,-65.07666015625,0.0908926389617038,NaN,0.199987938897973,0.842349301091101,5000,1.01831614971161,1.01831614971161,1.01831614971161,822.955237686634,4161.30492351807,4984.2601612047,,,59.4100000858307,2645.24291992188,20177.1665201771,20737.8811784584
2018-07-19T08:35:17Z,1531989317,B40F,40.7013397,43.6430486,4179.15,-0.7,-29.6,350.5,521707.81,-136982.34,345.1,Weapon+Missile,Blue,Enemies,R-77,,cn,,129.130357098491,105.422058105469,0.398553498534579,4179.146484375,1549.88256835938,112.03814156802,-64.20361328125,0.0292257913783956,NaN,0,0.674358397216258,5000,0.981232225894928,0.981232225894928,0.981232225894928,833.732456219196,4098.34268709961,4932.07514331881,,,60.4100000858307,2629.26391601562,20288.9250676557,20866.8330131613
2018-07-19T08:35:18Z,1531989318,B40F,40.7011124,43.6440401,4116.11,-0.7,-29.1,350.7,521679.19,-136873.89,345.3,Weapon+Missile,Blue,Enemies,R-77,,cn,,128.665375125329,105.37686920166,0.396807552638331,4116.1123046875,1500.06127929688,112.167156276985,-63.0341796875,0.0807468340744777,NaN,0,0.429558787793021,5000,0.9576336145401,0.9576336145401,0.9576336145401,827.738937807083,4036.52727327637,4864.26621108345,,,61.4100000858307,2616.05102539062,20400.8080548976,20995.3141257947
2018-07-19T08:35:19Z,1531989319,B40F,40.7008894,43.645037,4053.7,-0.7,-28.9,350.9,521650.84,-136764.8,345.6,Weapon+Missile,Blue,Enemies,R-77,,cn,,128.841911754545,105.861129760742,0.39704454884639,4053.69897460938,1426.64819335938,112.715635353419,-62.413330078125,0.0725840646164356,NaN,0,0.366510085297,5000,0.934422969818115,0.934422969818115,0.934422969818115,830.011911228299,3975.3207049353,4805.3326161636,,,62.4100000858307,2627.05078125,20513.2343770893,21123.9659705189
2018-07-19T08:35:20Z,1531989320,B40F,40.7006721,43.6460328,3992.05,-0.7,-28.6,351.2,521623,-136655.8,345.8,Weapon+Missile,Blue,Enemies,R-77,,cn,,128.28395908506,105.72834777832,0.395023471910589,3992.05078125,1353.07373046875,112.500108506892,-61.648193359375,0.045417969386667,NaN,0,0.281682497539174,5000,0.919254302978516,0.919254302978516,0.919254302978516,822.838707926869,3914.86447939453,4737.7031873214,,,63.4100000858307,2638.97705078125,20625.4528777091,21252.0650812158
2018-07-19T08:35:21Z,1531989321,B40F,40.7004603,43.647027,3930.99,-0.7,-28.5,351.3,521595.59,-136546.94,346,Weapon+Missile,Blue,Enemies,R-77,,cn,,127.789959961226,105.644104003906,0.393205325185984,3930.98681640625,1271.03442382812,112.256251783378,-61.06396484375,0.0395242032103726,NaN,0,0.222056787034387,5000,0.906422793865204,0.906422793865204,0.906422793865204,816.513693344593,3854.98118631104,4671.49487965563,,,64.4100000858307,2659.95239257812,20737.4309976264,21379.6718532794
2018-07-19T08:35:22Z,1531989322,B40F,40.7002533,43.6480215,3870.23,-0.7,-28.4,351.6,521568.59,-136438,346.2,Weapon+Missile,Blue,Enemies,R-77,,cn,,127.622509873455,105.830795288086,0.392395663680667,3870.23217773438,1170.35229492188,112.233590810639,-60.754638671875,0.0409431282204656,NaN,0,0.202950279986415,5000,0.895264446735382,0.895264446735382,0.895264446735382,814.375251320005,3795.40123857788,4609.77648989788,,,65.4100000858307,2699.8798828125,20849.3891140376,21507.1123569148
2018-07-19T08:35:23Z,1531989323,B40F,40.7000511,43.6490157,3809.69,-0.7,-28.2,351.8,521541.97,-136329.06,346.4,Weapon+Missile,Blue,Enemies,R-77,,cn,,127.441965392775,106.004791259766,0.391548235994923,3809.69140625,1060.72436523438,112.143967877234,-60.540771484375,0.0897696465549802,NaN,0,0.183454198691701,5000,0.905587196350098,0.905587196350098,0.905587196350098,812.072727158666,3736.03102291016,4548.10375006882,,,66.4100000858307,2748.96704101562,20961.2610404753,21634.3742412186
2018-07-19T08:35:24Z,1531989324,B40F,40.699854,43.6500071,3749.61,-0.7,-28.3,351.9,521515.78,-136220.39,346.6,Weapon+Missile,Blue,Enemies,R-77,,cn,,126.907121206091,105.876441955566,0.389616751798457,3749.60766601562,945.21484375,111.782653270826,-60.083740234375,0.0725810418692545,NaN,0,0.155766506106747,5000,0.875815689563751,0.875815689563751,0.875815689563751,805.270870640874,3677.10900179321,4482.37987243409,,,67.4100000858307,2804.39282226562,21072.7517104965,21761.0824169998
2018-07-19T08:35:25Z,1531989325,B40F,40.6996617,43.6509951,3689.71,-0.7,-28.1,352.1,521490.06,-136112.06,346.7,Weapon+Missile,Blue,Enemies,R-77,,cn,,126.430375334743,105.794273376465,0.387867436050137,3689.7060546875,846.893798828125,111.339286721167,-59.901611328125,0.103876576949667,NaN,0,0.14637611657589,5000,0.904283761978149,0.904283761978149,0.904283761978149,799.231990364194,3618.36558812012,4417.59757848431,,,68.4100000858307,2842.81225585938,21183.8214294283,21887.3324811226
2018-07-19T08:35:26Z,1531989326,B40F,40.6994739,43.6519831,3630.07,-0.7,-28.1,352.3,521464.62,-136003.72,346.9,Weapon+Missile,Blue,Enemies,R-77,,cn,,126.259103871925,105.968643188477,0.387058639919267,3630.07446289062,768.254638671875,111.289867329926,-59.631591796875,0.0873978988613086,NaN,0,0.176938918595023,5000,0.801184177398682,0.801184177398682,0.801184177398682,797.068065527082,3559.88697315063,4356.95503867772,,,69.4100000858307,2861.81982421875,21294.8427022858,22013.4110251744
2018-07-19T08:35:27Z,1531989327,B40F,40.6992909,43.6529634,3570.02,-0.9,-29.8,352.3,521439.72,-135896.17,347,Weapon+Missile,Blue,Enemies,R-77,,cn,,125.673283841665,105.791976928711,0.384979308649531,3570.01513671875,690.505126953125,110.39316831819,-60.059326171875,0.0317765428736092,NaN,0.399975877795947,1.71978635116562,2278.95664935763,0.160953193902969,0.160953193902969,0.160953193902969,789.68871357739,3500.98889405029,4290.67760762768,,,70.4100000858307,2879.51000976562,21404.9617413996,22138.8981488528
2018-07-19T08:35:28Z,1531989328,B40F,40.6991128,43.6539137,3503.9,-1.3,-33.6,352.3,521415.5,-135791.94,346.9,Weapon+Missile,Blue,Enemies,R-77,,cn,,125.785772206774,106.241539001465,0.385012332295058,3503.90380859375,628.855224609375,107.010993749255,-66.111328125,0.0642298521162156,NaN,0.400030519309307,3.60485559628272,1959.82521982904,0.0220703016966581,0.0220703016966581,0.0220703016966581,791.103024482727,3436.15582845459,4227.25885293732,,,71.4100000858307,2875.04858398438,21511.7111162882,22264.5117579485
2018-07-19T08:35:29Z,1531989329,B40F,40.6989406,43.6548211,3431.31,-1.6,-37.2,352.1,521392.19,-135692.42,346.8,Weapon+Missile,Blue,Enemies,R-77,,cn,,125.366344210397,106.271095275879,0.383388412875265,3431.30981445312,573.16064453125,102.209746479436,-72.593994140625,0.0466231029906444,NaN,0.200042580411333,3.59710546600888,2044.32889812174,0.0227401647716761,0.0227401647716761,0.0227401647716761,785.836013033986,3364.96543919067,4150.80145222466,,,72.4100000858307,2858.14916992188,21613.6748761563,22389.7227959949
2018-07-19T08:35:30Z,1531989330,B40F,40.6987713,43.6556983,3351.55,-1.8,-40.6,352,521369.44,-135596.22,346.6,Weapon+Missile,Blue,Enemies,R-77,,cn,,127.018725542838,108.121650695801,0.388064094499864,3351.55297851562,519.98583984375,98.8564806159193,-79.7568359375,0.0630811584725353,NaN,0.199987938897973,3.40525697816744,2196.43072962712,0.0288964156061411,0.0288964156061411,0.0288964156061411,806.687831926346,3286.75070167603,4093.43853360237,,,73.4100000858307,2831.56713867188,21712.2764157822,22516.5839738062
2018-07-19T08:35:31Z,1531989331,B40F,40.6986059,43.6565388,3265.62,-1.9,-43.9,351.8,521347.38,-135504.08,346.5,Weapon+Missile,Blue,Enemies,R-77,,cn,,127.910208424144,109.359405517578,0.390379339257495,3265.62060546875,467.1708984375,94.7451776168087,-85.932373046875,0.0620365790274892,NaN,0.0922895160652123,3.23686015828466,2354.63085897477,0.0299285780638456,0.0299285780638456,0.0299285780638456,818.051070955396,3202.47983106201,4020.53090201741,,,74.4100000858307,2798.44970703125,21806.7827955932,22644.353677374
2018-07-19T08:35:32Z,1531989332,B40F,40.6984439,43.657344,3173.81,-1.9,-46.8,351.6,521325.97,-135415.84,346.3,Weapon+Missile,Blue,Enemies,R-77,,cn,,129.119546358031,110.913635253906,0.393631210934345,3173.81469726562,407.652587890625,90.7939010655624,-91.805908203125,0.0386318404910007,NaN,0,3.00246001880087,2524.65015133598,0.0333982296288013,0.0333982296288013,0.0333982296288013,833.592862585187,3112.44899009399,3946.04185267918,,,75.4100000858307,2766.162109375,21897.356937017,22773.3509040245
2018-07-19T08:35:33Z,1531989333,B40F,40.6982844,43.6581183,3075.95,-1.9,-49.6,351.4,521305.06,-135331.02,346.1,Weapon+Missile,Blue,Enemies,R-77,,cn,,131.189653211055,113.263786315918,0.399468247522796,3075.9482421875,328.638916015625,87.3663669845446,-97.866455078125,0.0356310854666548,NaN,0,2.79994853844799,2664.83539806007,0.034180823713541,0.034180823713541,0.034180823713541,860.536255481839,3016.4747829248,3877.01103840664,,,76.4100000858307,2747.30932617188,21984.5015951223,22904.4214103562
