ISOTime,UnixTime,Id,Longitude,Latitude,Altitude,Roll,Pitch,Yaw,U,V,Heading,Type,Color,Coalition,Name,Group,Country,Pilot,TAS,CAS,M,ASL,AGL,GS,VS,AOA,AOS,RRT,TRT,TRD,G,LatG,LonG,Ek,Ep,Em,FFW,FFV,RelativeTime,Elev,GroundDistance,AirDistance
2018-07-19T08:38:58Z,1531989538,FF0F,40.9439895,43.596684,5585.77,72.7,4.3,27.4,541782.38,-140277.36,21.8,Weapon+Missile,Blue,Enemies,R-77,,cn,,217.28576597788,167.6884765625,0.682683495930105,5585.76806640625,4165.83459472656,NaN,NaN,NaN,NaN,NaN,NaN,NaN,NaN,NaN,NaN,NaN,5477.76724084228,NaN,,,0.339999914169312,1419.93347167969,NaN,NaN
2018-07-19T08:38:59Z,1531989539,FF0F,40.9449265,43.5987346,5583.75,59.3,4.7,27.8,541836.12,-140042.23,22.2,Weapon+Missile,Blue,Enemies,R-77,,cn,,241.198857586422,187.243438720703,0.757795635947429,5583.7529296875,4081.88024902344,241.190439538967,-2.01513671875,8.91070326163717,NaN,12.0461587523414,7.89296863900736,2102.55311038592,2.24283218383789,2.24283218383789,2.24283218383789,2908.84444504976,5475.79106679199,8384.63551184176,,,1.33999991416931,1501.87268066406,240.450803934022,240.66978161516
2018-07-19T08:39:00Z,1531989540,FF0F,40.946796,43.6016546,5579.73,49.5,1,29.3,541955.81,-139703.27,23.8,Weapon+Missile,Blue,Enemies,R-77,,cn,,359.501175593668,287.928161621094,1.12941789603574,5579.72998046875,3903.8173828125,359.478665754746,-4.02294921875,1.06270322439269,NaN,9.83077323466939,2.8067473514365,4361.36192325571,3.3317244052887,3.3317244052887,3.3317244052887,6462.05476266146,5471.84590129639,11933.9006639578,,,2.33999991416931,1675.91259765625,598.736766274321,599.291858153528
2018-07-19T08:39:01Z,1531989541,FF0F,40.9498147,43.6055185,5581.73,40.8,-0.3,29.8,542158.25,-139250.48,24.3,Weapon+Missile,Blue,Enemies,R-77,,cn,,495.97965816443,395.389892578125,1.55822235101476,5581.73486328125,3824.79077148438,495.975606010832,2.0048828125,0.0510045636612886,NaN,8.38457630056757,1.47987830444645,5000,0.397601276636124,0.397601276636124,0.397601276636124,12299.7910656452,5473.81201969971,17773.6030853449,,,3.33999991416931,1756.94409179688,1092.9270094873,1093.91857041723
2018-07-19T08:39:02Z,1531989542,FF0F,40.9537306,43.6104769,5576.39,33.5,-0.6,29.9,542421.31,-138669.09,24.4,Weapon+Missile,Blue,Enemies,R-77,,cn,,638.157886568783,497.662902832031,2.00476660190742,5576.3916015625,3718.81103515625,638.135516754976,-5.34326171875,0.022317671130744,NaN,6.9846060867684,0.539235537566279,5000,0.681843400001526,0.681843400001526,0.681843400001526,20362.2744094968,5468.57206994629,25830.8464794431,,,4.33999991416931,1857.58056640625,1728.76834122601,1730.33851411857
2018-07-19T08:39:03Z,1531989543,FF0F,40.9585369,43.6165461,5566.29,27.3,-0.8,30,542744.31,-137957.34,24.4,Weapon+Missile,Blue,Enemies,R-77,,cn,,781.677116161134,600.047302246094,2.4553114149055,5566.28955078125,3608.73828125,781.611836207718,-10.10205078125,0.0404490268182206,NaN,5.93843967197589,0.201498878128001,5000,0.79908698797226,0.79908698797226,0.79908698797226,30550.9556964993,5458.66534231689,36009.6210388162,,,5.33999991416931,1957.55126953125,2507.56048138995,2509.87639295798
2018-07-19T08:39:04Z,1531989544,FF0F,40.9641942,43.6236838,5552.29,22.4,-0.9,30,543124.44,-137120.23,24.4,Weapon+Missile,Blue,Enemies,R-77,,cn,,919.479795316403,699.179809570312,2.88764043027533,5552.29052734375,3287.58642578125,919.373222003932,-13.9990234375,0.0202403111527102,NaN,4.96926314950776,0.0513960362511687,5000,0.919890701770782,0.919890701770782,0.919890701770782,42272.1546997547,5444.93698999756,47717.0916897523,,,6.33999991416931,2264.7041015625,3423.62522436963,3426.84645820248
2018-07-19T08:39:05Z,1531989545,FF0F,40.9705746,43.6317335,5535.66,18.3,-1,30,543553,-136176.11,24.4,Weapon+Missile,Blue,Enemies,R-77,,cn,,1036.97365867881,784.581237792969,3.25593493731268,5535.6611328125,2941.86889648438,1036.84031173139,-16.62939453125,0.0246827123058993,NaN,3.93845099996943,0.158567724099886,5000,0.537141442298889,0.537141442298889,0.537141442298889,53765.7184396863,5428.62912480957,59194.3475644959,,,7.33999991416931,2593.79223632812,4456.72588695864,4460.97882131362
2018-07-19T08:39:06Z,1531989546,FF0F,40.9767741,43.6395194,5514.74,15,-1.4,30.2,543969.62,-135262.67,24.6,Weapon+Missile,Blue,Enemies,R-77,,cn,,1004.18236528469,761.647277832031,3.15212707314585,5514.73828125,3022.57495117188,1003.96437039929,-20.9228515625,0.0390769528294266,NaN,3.27690619771868,0.335865054203562,5000,0.539381682872772,0.539381682872772,0.539381682872772,50419.1111374378,5408.11081658203,55827.2219540199,,,8.33999991416931,2492.16333007812,5457.06524126629,5462.40333667149
2018-07-19T08:39:07Z,1531989547,FF0F,40.9826393,43.6468431,5490.16,12.3,-1.6,30.3,544364.19,-134403.14,24.7,Weapon+Missile,Blue,Enemies,R-77,,cn,,946.085520655077,720.52197265625,2.96882294330724,5490.15625,2797.798828125,945.766110691651,-24.58203125,0.0548382648437867,NaN,2.7077055530465,0.224248904231991,5000,0.894386887550354,0.894386887550354,0.894386887550354,44753.8906196594,5384.00407890625,50137.8946985657,,,9.33999991416931,2692.357421875,6399.35180298912,6405.8231260115
2018-07-19T08:39:08Z,1531989548,FF0F,40.98817,43.653723,5466.01,10.1,-1.5,30.4,544736.38,-133595.53,24.8,Weapon+Missile,Blue,Enemies,R-77,,cn,,889.572552071857,680.527648925781,2.79061925013323,5466.01318359375,2801.77758789062,889.244869394331,-24.14306640625,0.028324709105603,NaN,2.19997661090443,0.0873564853083433,5000,1.32137668132782,1.32137668132782,1.32137668132782,39566.9662699819,5360.32781868896,44927.2940886708,,,10.3399999141693,2664.23559570312,7285.3575543136,7292.91845225378
2018-07-19T08:39:09Z,1531989549,FF0F,40.993401,43.6602085,5446.29,8.2,-1.2,30.5,545088.56,-132834.03,24.9,Weapon+Missile,Blue,Enemies,R-77,,cn,,839.230232949712,644.849243164062,2.63202705090157,5446.28759765625,2873.50122070312,838.998382093941,-19.7255859375,0.0407037860876185,NaN,1.86152707715196,0.267976869195897,5000,1.2859650850296,1.2859650850296,1.2859650850296,35215.3691948414,5340.98362695557,40556.352821797,,,11.3399999141693,2572.78637695312,8121.25343500763,8129.76190885627
2018-07-19T08:39:10Z,1531989550,FF0F,40.9983585,43.6663234,5430.24,6.6,-1.2,30.6,545422.5,-132115.84,25,Weapon+Missile,Blue,Enemies,R-77,,cn,,792.190038394059,611.45166015625,2.48398615309127,5430.240234375,3086.19067382812,792.027486304926,-16.04736328125,0.0313397978899518,NaN,1.35379813500989,0.170461591404964,5000,0.96262800693512,0.96262800693512,0.96262800693512,31378.252846539,5325.24653944336,36703.4993859824,,,12.3399999141693,2344.04956054688,8910.39470409552,8919.73904002033
2018-07-19T08:39:11Z,1531989551,FF0F,41.003074,43.6721016,5414.47,5.4,-1.2,30.8,545740.5,-131436.92,25.2,Weapon+Missile,Blue,Enemies,R-77,,cn,,749.871798165581,581.452758789062,2.35081764908431,5414.466796875,3096.607421875,749.70588389949,-15.7734375,0.0300417655903144,NaN,1.16921910287946,0.202467631072019,5000,1.04092061519623,1.04092061519623,1.04092061519623,28115.3856842041,5309.77808135742,33425.1637655615,,,13.3399999141693,2317.859375,9657.32809455277,9667.47382214936
2018-07-19T08:39:12Z,1531989552,FF0F,41.0075611,43.6775629,5399.71,4.5,-1.2,30.9,546043.44,-130794.98,25.3,Weapon+Missile,Blue,Enemies,R-77,,cn,,709.980737076286,553.166137695312,2.22533967896222,5399.7099609375,3063.42626953125,709.8273612735,-14.7568359375,0.0345510799159291,NaN,0.876941647916277,0.157949525278933,5000,1.00483953952789,1.00483953952789,1.00483953952789,25203.6323509693,5295.30656884277,30498.9389198121,,,14.3399999141693,2336.28369140625,10364.5245887462,10375.4236605796
2018-07-19T08:39:13Z,1531989553,FF0F,41.0118378,43.6827322,5385.56,3.6,-1.2,31.1,546332.5,-130187.11,25.5,Weapon+Missile,Blue,Enemies,R-77,,cn,,673.252823438259,527.116455078125,2.10983825351544,5385.56005859375,3504.87414550781,673.10411121256,-14.14990234375,0.0515779632707038,NaN,0.769243225083516,0.158567724099886,5000,0.905768156051636,0.905768156051636,0.905768156051636,22663.4682133794,5281.43025486084,27944.8984682402,,,15.3399999141693,1880.68591308594,11035.1048629242,11046.7200477175
2018-07-19T08:39:14Z,1531989554,FF0F,41.0159127,43.6876221,5371,3,-1.4,31.3,546608.19,-129611.86,25.7,Weapon+Missile,Blue,Enemies,R-77,,cn,,638.065871162637,502.141723632812,1.99919654776822,5371.00341796875,3526.50329589844,637.899804166963,-14.556640625,0.0370670339711629,NaN,0.569255286185543,0.217156206346182,5000,0.883009135723114,0.883009135723114,0.883009135723114,20356.4027971268,5267.15506688232,25623.5578640091,,,16.3399999141693,1844.50012207031,11670.6441591402,11682.9617974834
2018-07-19T08:39:15Z,1531989555,FF0F,41.0197974,43.6922503,5355.88,2.5,-1.5,31.5,546871.38,-129067.16,25.9,Weapon+Missile,Blue,Enemies,R-77,,cn,,605.142928967764,478.738800048828,1.89567463990666,5355.876953125,3487.00317382812,604.953844967544,-15.12646484375,0.0218272348050052,NaN,0.492320035374519,0.250229823256809,5000,0.861573159694672,0.861573159694672,0.861573159694672,18309.8982239842,5252.32107223633,23562.2192962206,,,17.3399999141693,1868.87377929688,12273.3180593534,12286.3321319697
2018-07-19T08:39:16Z,1531989556,FF0F,41.023516,43.6966442,5339.9,2.1,-1.6,31.7,547123.62,-128549.77,26,Weapon+Missile,Blue,Enemies,R-77,,cn,,575.828395169895,457.860229492188,1.8034748324846,5339.9013671875,3376.78515625,575.606741914904,-15.9755859375,0.0551509405356002,NaN,0.369212705774209,0.180768040037609,5000,0.951284825801849,0.951284825801849,0.951284825801849,16578.9170341969,5236.65437425293,21815.5714084498,,,18.3399999141693,1963.1162109375,12846.7536834922,12860.4708716309
2018-07-19T08:39:17Z,1531989557,FF0F,41.0270606,43.7008222,5324.21,1.7,-1.6,31.7,547364.19,-128057.71,26.1,Weapon+Missile,Blue,Enemies,R-77,,cn,,547.93640703854,437.880493164062,1.71577352549781,5324.21142578125,3313.76916503906,547.711723351776,-15.68994140625,0.0682800288900376,NaN,0.399975877795947,0.0803562751208075,5000,0.868169546127319,0.868169546127319,0.868169546127319,15011.7153079152,5221.26779786377,20232.983105779,,,19.3399999141693,2010.44226074219,13392.3690612766,13406.7677364966
2018-07-19T08:39:18Z,1531989558,FF0F,41.030416,43.7047547,5308.02,1.5,-2.1,32.1,547592.06,-127594.43,26.5,Weapon+Missile,Blue,Enemies,R-77,,cn,,516.545111298092,415.157684326172,1.61714170854299,5308.01513671875,3149.1181640625,516.291131268553,-16.1962890625,0.0746964131576076,NaN,0.199987938897973,0.461192408727538,5000,0.71921443939209,0.71921443939209,0.71921443939209,13340.9426002979,5205.38466405029,18546.3272643482,,,20.3399999141693,2158.89697265625,13906.7121437224,13921.7942480301
2018-07-19T08:39:19Z,1531989559,FF0F,41.0336679,43.7084926,5288.38,1.3,-2.4,32.5,547813.69,-127153.56,26.8,Weapon+Missile,Blue,Enemies,R-77,,cn,,493.829037585303,398.650604248047,1.5456366242891,5288.37841796875,3011.73046875,493.438463882945,-19.63671875,0.0409665995436376,NaN,0.199987938897973,0.594469196310909,5000,0.851019740104675,0.851019740104675,0.851019740104675,12193.3559181213,5186.12762125732,17379.4835393787,,,21.3399999141693,2276.64794921875,14398.2669675509,14414.1491411126
2018-07-19T08:39:20Z,1531989560,FF0F,41.0367859,43.7120321,5267.9,1.1,-2.6,32.8,548026.56,-126735.77,27.2,Weapon+Missile,Blue,Enemies,R-77,,cn,,469.342961994233,380.575225830078,1.46861319808834,5267.900390625,3084.685546875,468.896008054695,-20.47802734375,0.0442768837528967,NaN,0.199987938897973,0.335427815374976,5000,0.952803492546082,0.952803492546082,0.952803492546082,11014.140798676,5166.04553657227,16180.1863352483,,,22.3399999141693,2183.21484375,14865.383634512,14882.1006482661
2018-07-19T08:39:21Z,1531989561,FF0F,41.039773,43.715382,5247.67,0.9,-2.6,33.1,548231,-126340.09,27.5,Weapon+Missile,Blue,Enemies,R-77,,cn,,445.839164865924,362.88037109375,1.39470740343472,5247.669921875,3096.72998046875,445.379937876079,-20.23046875,0.0218682178156821,NaN,0.199987938897973,0.323247827176698,5000,1.05023121833801,1.05023121833801,1.05023121833801,9938.62804641724,5146.20622393555,15084.8342703528,,,23.3399999141693,2150.93994140625,15309.0315493138,15326.5749206407
2018-07-19T08:39:22Z,1531989562,FF0F,41.0426286,43.718545,5228.72,0.7,-2.5,33.4,548426.81,-125966.18,27.8,Weapon+Missile,Blue,Enemies,R-77,,cn,,422.501710554475,344.830749511719,1.32138162872357,5228.71533203125,3144.845703125,422.07631886344,-18.95458984375,0.0229061999024538,NaN,0.199987938897973,0.363696367524072,5000,1.12587177753448,1.12587177753448,1.12587177753448,8925.38477107286,5127.61812108643,14053.0028921593,,,24.3399999141693,2083.86962890625,15729.4616188857,15747.776983732
2018-07-19T08:39:23Z,1531989563,FF0F,41.0453612,43.7215337,5211.69,0.5,-2.3,33.8,548614.62,-125612.6,28.1,Weapon+Missile,Blue,Enemies,R-77,,cn,,400.725516334959,327.436126708984,1.25300390717348,5211.6884765625,2976.720703125,400.363616772011,-17.02685546875,0.0490243893723127,NaN,0.199987938897973,0.386392098960246,5000,1.20005810260773,1.20005810260773,1.20005810260773,8029.04697209597,5110.92047986816,13139.9674519641,,,25.3399999141693,2234.9677734375,16128.2374117195,16147.2421979761
2018-07-19T08:39:24Z,1531989564,FF0F,41.0479772,43.7243569,5197.24,0.3,-2,34.2,548794.75,-125278.33,28.5,Weapon+Missile,Blue,Enemies,R-77,,cn,,379.99029639083,310.326446533203,1.18794919736242,5197.23583984375,2849.98217773438,379.715349496259,-14.45263671875,0.0293190970932541,NaN,0.199987938897973,0.448937341809243,5000,1.20734739303589,1.20734739303589,1.20734739303589,7219.63126755953,5096.74728488037,12316.3785524399,,,26.3399999141693,2347.25366210938,16506.4764640476,16526.0656819536
2018-07-19T08:39:25Z,1531989565,FF0F,41.0504833,43.7270216,5185.25,0.1,-1.8,34.5,548967.75,-124962.52,28.9,Weapon+Missile,Blue,Enemies,R-77,,cn,,360.291982406033,293.624969482422,1.12619489659127,5185.2451171875,2934.9921875,360.092398081728,-11.99072265625,0.0279517603165196,NaN,0.199987938897973,0.514728071772333,5000,1.16816318035126,1.16816318035126,1.16816318035126,6490.51562930346,5084.98840284668,11575.5040321501,,,27.3399999141693,2250.2529296875,16865.1377194505,16885.219073358
2018-07-19T08:39:26Z,1531989566,FF0F,41.0528698,43.7295171,5175.26,0,-1.6,35,549132.88,-124666.44,29.4,Weapon+Missile,Blue,Enemies,R-77,,cn,,339.158117954358,275.319458007812,1.06000006070116,5175.259765625,3063.77758789062,339.011093813338,-9.9853515625,0.0846259343990065,NaN,0,0.411647390427029,5000,1.19612181186676,1.19612181186676,1.19612181186676,5751.41144871712,5075.19611805664,10826.6075667738,,,28.3399999141693,2111.48217773438,17202.8130536813,17223.316149511
2018-07-19T08:39:27Z,1531989567,FF0F,41.0551474,43.7318774,5167.59,-0.2,-1,35,549290.75,-124386.26,29.4,Weapon+Missile,Blue,Enemies,R-77,,cn,,321.689198929899,260.0615234375,1.00530471535614,5167.59375,3184.77795410156,321.59784345141,-7.666015625,0.0297624339203917,NaN,0.199987938897973,0.661688929914413,5000,1.53124964237213,1.53124964237213,1.53124964237213,5174.19703540802,5067.67832484375,10241.8753602518,,,29.3399999141693,1982.81579589844,17523.1283211992,17543.9827772034
2018-07-19T08:39:28Z,1531989568,FF0F,41.0572961,43.7340995,5165.47,-0.7,0.5,35.4,549439.69,-124122.41,29.8,Weapon+Missile,Blue,Enemies,R-77,,cn,,302.985808723555,243.791015625,0.94682952322241,5165.47314453125,3274.82421875,302.978387546558,-2.12060546875,0.10904906476235,NaN,0.569255286185543,1.72356750120145,5000,2.20820021629333,2.20820021629333,2.20820021629333,4590.02001439333,5065.59872128174,9655.61873567507,,,30.3399999141693,1890.64892578125,17824.8900081552,17845.9963476654
2018-07-19T08:39:29Z,1531989569,FF0F,41.0593828,43.7361391,5173.6,-1.5,3,38.3,549585.62,-123879.36,32.7,Weapon+Missile,Blue,Enemies,R-77,,cn,,283.618458525741,226.988418579102,0.886398463713263,5173.60302734375,3346.90283203125,283.501913612541,8.1298828125,0.0478660397812395,NaN,0.753834318315967,3.58548347224928,3618.82577616241,2.91476821899414,2.91476821899414,2.91476821899414,4021.97150082588,5073.57141281006,9095.54291363594,,,31.3399999141693,1826.7001953125,18107.2371389499,18128.6892500259
2018-07-19T08:39:30Z,1531989570,FF0F,41.0614908,43.7379526,5193.95,-1.9,5.6,41.9,549735.75,-123661.23,36.2,Weapon+Missile,Blue,Enemies,R-77,,cn,,265.580963322935,211.391906738281,0.830240813418728,5193.9453125,3431.23706054688,264.800754368563,20.34228515625,0.0617399463110111,NaN,0.35380379900666,4.38215033373722,3552.20943232201,2.64760565757751,2.64760565757751,2.64760565757751,3526.66240397692,5093.52037988281,8620.18278385973,,,32.3399999141693,1762.70825195312,18370.8652566367,18393.3146637193
2018-07-19T08:39:31Z,1531989571,FF0F,41.0635962,43.7395503,5223.39,-2,8.2,45.9,549887.94,-123467.09,40.3,Weapon+Missile,Blue,Enemies,R-77,,cn,,248.432199194157,196.641815185547,0.776923314176997,5223.38916015625,3481.42553710938,246.681206077076,29.44384765625,0.328990594291835,NaN,0.0769352508110236,3.5393779878044,5000,1.80693852901459,1.80693852901459,1.80693852901459,3085.92787982225,5122.39493074463,8208.32281056688,,,33.3399999141693,1741.96362304688,18616.4452461238,18640.8525688048
2018-07-19T08:39:32Z,1531989572,FF0F,41.0656184,43.7409788,5255.91,-1.4,6.7,43.6,550035.31,-123292.42,38,Weapon+Missile,Blue,Enemies,R-77,,cn,,230.834512800745,181.670913696289,0.722189782381915,5255.91064453125,3431.7333984375,228.532110115852,32.521484375,0.124274405162145,NaN,0.969226681669847,1.54637734637081,2449.9909565933,1.81748795509338,1.81748795509338,1.81748795509338,2664.22861499786,5154.28761221924,7818.5162272171,,,34.3399999141693,1824.17724609375,18843.9044616528,18870.8099165699
2018-07-19T08:39:33Z,1531989573,FF0F,41.0673815,43.7424402,5275.58,-0.4,3.6,38.7,550161.44,-123116.13,33,Weapon+Missile,Blue,Enemies,R-77,,cn,,217.651329774692,170.619674682617,0.681115934655245,5275.57666015625,3351.68408203125,216.761041661386,19.666015625,0.110270456651359,NaN,0.938459560944995,5.94447926674947,2135.33661263056,1.84951817989349,1.84951817989349,1.84951817989349,2368.60506763458,5173.57338543213,7542.17845306671,,,35.3399999141693,1923.892578125,19059.7037802625,19087.680902304
2018-07-19T08:39:34Z,1531989574,FF0F,41.0688732,43.7439132,5282.7,0.6,0.5,34,550265.5,-122940.7,28.4,Weapon+Missile,Blue,Enemies,R-77,,cn,,204.096291228492,159.466812133789,0.638755064903649,5282.6982421875,3326.26098632812,203.972005830696,7.12158203125,0.529872884880524,NaN,0.969230843816372,4.3480629940238,4028.77165038326,0.94557511806488,0.94557511806488,0.94557511806488,2082.76480466127,5180.5572716748,7263.32207633608,,,36.3399999141693,1956.43725585938,19262.8800894632,19291.1500477657
2018-07-19T08:39:35Z,1531989575,FF0F,41.0702261,43.7453733,5283.81,0.5,0.4,34.2,550358.62,-122767.78,28.5,Weapon+Missile,Blue,Enemies,R-77,,cn,,196.406428905882,153.203155517578,0.614697060937834,5283.81396484375,3382.8330078125,196.403259846968,1.11572265625,0.0273957691426368,NaN,0.24616001768726,1.06551079118246,5000,1.11510407924652,1.11510407924652,1.11510407924652,1928.77426577806,5181.6514218335,7110.42568761156,,,37.3399999141693,1900.98095703125,19458.4692561061,19486.9044080514
2018-07-19T08:39:36Z,1531989576,FF0F,41.0715539,43.7467718,5285.81,0.3,0.8,35,550450.25,-122601.91,29.4,Weapon+Missile,Blue,Enemies,R-77,,cn,,189.508992407652,147.600372314453,0.593125184845257,5285.814453125,3463.75903320312,189.498433370833,2.00048828125,0.0448372133217089,NaN,0.184633673643785,0.840605094892662,5000,1.14775192737579,1.14775192737579,1.14775192737579,1795.68291016817,5183.61323067383,6979.296140842,,,38.3399999141693,1822.05541992188,19647.2558525938,19675.8580199281
2018-07-19T08:39:37Z,1531989577,FF0F,41.0728568,43.7481027,5288.81,0.1,1.1,35.9,550540.75,-122443.73,30.2,Weapon+Missile,Blue,Enemies,R-77,,cn,,182.256875367637,141.726699829102,0.570449358628804,5288.810546875,3535.22961425781,182.232247533239,2.99609375,0.0396266666032192,NaN,0.199987938897973,0.944118586115762,5000,1.19799995422363,1.19799995422363,1.19799995422363,1660.87843093872,5186.55139495117,6847.42982588989,,,39.3399999141693,1753.58093261719,19828.7146982001,19857.4920025818
2018-07-19T08:39:38Z,1531989578,FF0F,41.07415,43.7493636,5292.97,-0.1,1.9,38.5,550631.12,-122293.43,32.8,Weapon+Missile,Blue,Enemies,R-77,,cn,,175.432194125696,136.211578369141,0.549117865988264,5292.9716796875,3621.56848144531,175.382837556794,4.1611328125,0.0364817984722207,NaN,0.307686361730734,2.69653435177212,2515.31107406673,1.76693320274353,1.76693320274353,1.76693320274353,1538.8227367878,5190.63207226074,6729.45480904854,,,40.3399999141693,1671.40319824219,20003.3991906761,20032.3709148141
2018-07-19T08:39:39Z,1531989579,FF0F,41.0754938,43.7505053,5300.02,-0.3,2.9,42.7,550726.94,-122155.96,37,Weapon+Missile,Blue,Enemies,R-77,,cn,,167.71216854291,129.983032226562,0.525000832824272,5300.02001953125,3705.67358398438,167.563994887961,7.04833984375,0.0436939235212125,NaN,0.200042580411333,4.34903416154641,2260.7470278608,1.75506699085236,1.75506699085236,1.75506699085236,1406.36857386827,5197.54413245361,6603.91270632189,,,41.3399999141693,1594.34643554688,20170.2230272448,20199.4819913782
2018-07-19T08:39:40Z,1531989580,FF0F,41.076878,43.7515221,5309.35,-0.2,3.8,46.7,550827.38,-122032.05,41,Weapon+Missile,Blue,Enemies,R-77,,cn,,159.779422910716,123.598770141602,0.500228111603647,5309.3515625,3756.9755859375,159.506696697988,9.33154296875,0.0581611779667343,NaN,0.138491050045294,4.0992532898254,2291.4930124132,1.61579620838165,1.61579620838165,1.61579620838165,1276.47319928408,5206.69525003906,6483.16844932314,,,42.3399999141693,1552.3759765625,20328.9742653079,20358.6390570748
2018-07-19T08:39:41Z,1531989581,FF0F,41.0782929,43.7524267,5320.09,-0.1,4.2,50.7,550931.44,-121920.34,45,Weapon+Missile,Blue,Enemies,R-77,,cn,,153.042228484098,118.183006286621,0.479201522500654,5320.0908203125,3792.65307617188,152.664966645972,10.7392578125,0.104610006519694,NaN,0.276906381040336,3.7427925472316,2676.19516608301,1.2579882144928,1.2579882144928,1.2579882144928,1171.09618496895,5217.22686430176,6388.32304927071,,,43.3399999141693,1527.43774414062,20480.9058489914,20511.0760046051
2018-07-19T08:39:42Z,1531989582,FF0F,41.0797109,43.7532342,5329.45,1.3,2.1,52.3,551036.81,-121819.42,46.6,Weapon+Missile,Blue,Enemies,R-77,,cn,,146.207649672178,112.721351623535,0.457856097988875,5329.4482421875,3821.64404296875,145.907900672019,9.357421875,0.139662128476596,NaN,2.1076924309245,2.58040149908804,2489.23057337083,0.179873883724213,0.179873883724213,0.179873883724213,1068.83384113312,5226.4033604248,6295.23720155792,,,44.3399999141693,1507.80419921875,20626.1010356512,20656.69337364
2018-07-19T08:39:43Z,1531989583,FF0F,41.081081,43.7540034,5330.25,3.2,-1.6,52.3,551138.75,-121723.12,46.6,Weapon+Missile,Blue,Enemies,R-77,,cn,,140.231891136168,108.005401611328,0.439147230630217,5330.2490234375,3871.65222167969,140.22960472388,0.80078125,0.0624801341304917,NaN,1.73846158246031,3.71544361602122,2144.32081393652,0.0795304328203201,0.0795304328203201,0.0795304328203201,983.249164581299,5227.18865856934,6210.43782315063,,,45.3399999141693,1458.59680175781,20765.6349818708,20796.3462163856
2018-07-19T08:39:44Z,1531989584,FF0F,41.0824043,43.7547461,5322.15,4.8,-5.4,52.3,551237.25,-121630.13,46.7,Weapon+Missile,Blue,Enemies,R-77,,cn,,135.703063834818,104.488204956055,0.424920835647594,5322.154296875,3913.63220214844,135.461422316596,-8.0947265625,0.0847917546501905,NaN,1.53846169073129,3.79268835977901,2065.09548503245,0.0994088053703308,0.0994088053703308,0.0994088053703308,920.76607670784,5219.25044354492,6140.01652025276,,,46.3399999141693,1408.52209472656,20900.3831956669,20931.4496704862
2018-07-19T08:39:45Z,1531989585,FF0F,41.0836825,43.7554625,5305.67,6.1,-9.2,52.4,551332.38,-121540.43,46.7,Weapon+Missile,Blue,Enemies,R-77,,cn,,131.784181124877,101.498916625977,0.412562825132868,5305.67236328125,3915.6796875,130.749440762726,-16.48193359375,0.103450840416116,NaN,1.30769265056501,3.77730250489991,1993.85960802718,0.107787616550922,0.107787616550922,0.107787616550922,868.35351973772,5203.08718813721,6071.44070787493,,,47.3399999141693,1389.99267578125,21030.4670726899,21062.6810600072
2018-07-19T08:39:46Z,1531989586,FF0F,41.0849269,43.7561581,5281.02,7.2,-12.9,52.5,551425,-121453.3,46.8,Weapon+Missile,Blue,Enemies,R-77,,cn,,129.529232534014,99.8590240478516,0.405375716019049,5281.021484375,3898.96716308594,127.161929247712,-24.65087890625,0.0804606346062739,NaN,1.16923020193686,3.76285836235263,1979.27703502077,0.123301468789577,0.123301468789577,0.123301468789577,838.89110404253,5178.91293397461,6017.80403801714,,,48.3399999141693,1382.05432128906,21156.9824699537,21191.6786966457
2018-07-19T08:39:47Z,1531989587,FF0F,41.0861248,43.7568248,5248.91,8.1,-16.6,52.6,551514.19,-121369.73,46.9,Weapon+Missile,Blue,Enemies,R-77,,cn,,126.36979537136,97.544303894043,0.395325718890996,5248.91357421875,3876.60400390625,122.222777286387,-32.10791015625,0.0568603928607248,NaN,0.769231272252469,3.72975456987969,1970.66977260219,0.141441583633423,0.141441583633423,0.141441583633423,798.466259109974,5147.42583026123,5945.8920893712,,,49.3399999141693,1372.3095703125,21278.5781678948,21317.5391421986
2018-07-19T08:39:48Z,1531989588,FF0F,41.0872925,43.757471,5209.39,8.7,-20.2,52.8,551601.19,-121288.7,47.1,Weapon+Missile,Blue,Enemies,R-77,,cn,,125.288945963406,96.8975372314453,0.391746782606957,5209.38818359375,3851.63598632812,118.890973065925,-39.525390625,0.0313833240631342,NaN,0.646152970956131,3.63372125637567,1993.52854955245,0.145043954253197,0.145043954253197,0.145043954253197,784.865999031067,5108.66466306397,5893.53066209503,,,50.3399999141693,1357.75219726562,21396.8624650658,21442.3445200873
2018-07-19T08:39:49Z,1531989589,FF0F,41.0884336,43.7580975,5162.62,9.2,-23.9,53,551686.25,-121210.07,47.4,Weapon+Missile,Blue,Enemies,R-77,,cn,,124.923246272841,96.8487167358398,0.390370496265347,5162.6220703125,3828.76721191406,115.839320215159,-46.76611328125,0.118282907187726,NaN,0.569229672976155,3.53453879877744,2045.59553172274,0.150129839777946,0.150129839777946,0.150129839777946,780.290872967243,5062.80277258301,5843.09364555025,,,51.3399999141693,1333.85485839844,21512.1002745064,21566.797025676
2018-07-19T08:39:50Z,1531989590,FF0F,41.0895415,43.7586999,5109.23,9.5,-27.1,53.3,551768.88,-121134.38,47.7,Weapon+Missile,Blue,Enemies,R-77,,cn,,124.125652700477,96.4910125732422,0.387614496769083,5109.23193359375,3803.4521484375,112.056552505744,-53.39013671875,0.0191311367935365,NaN,0.399999783458042,3.4335211547266,2117.8390952742,0.15983884036541,0.15983884036541,0.15983884036541,770.358882915974,5010.44493415771,5780.80381707369,,,52.3399999141693,1305.77978515625,21623.5976080996,21690.499051022
2018-07-19T08:39:51Z,1531989591,FF0F,41.0906269,43.7592833,5049.07,9.6,-30.5,53.6,551849.88,-121060.95,48,Weapon+Missile,Blue,Enemies,R-77,,cn,,124.789416261144,97.3236389160156,0.389389278811239,5049.06982421875,3770.33056640625,109.329405954426,-60.162109375,0.0280126540269927,NaN,0.0615382968745224,3.29124489922065,2235.45160831912,0.170916900038719,0.170916900038719,0.170916900038719,778.619920539856,4951.44605916748,5730.06597970734,,,53.3399999141693,1278.7392578125,21732.3845714709,21814.8893198934
2018-07-19T08:39:52Z,1531989592,FF0F,41.091683,43.7598437,4982.87,9.7,-33.6,54,551928.81,-120990.32,48.4,Weapon+Missile,Blue,Enemies,R-77,,cn,,124.90564735941,97.7556533813477,0.389424550280503,4982.8701171875,3727.15551757812,105.919873164813,-66.19970703125,0.048531038335216,NaN,0,3.14457469764427,2329.55306603684,0.166726499795914,0.166726499795914,0.166726499795914,780.071037113667,4886.52632347168,5666.59736058535,,,54.3399999141693,1255.71459960938,21837.7444006077,21939.3905710909
2018-07-19T08:39:53Z,1531989593,FF0F,41.0927223,43.7603871,4910.11,9.6,-36.6,54.5,552006.56,-120921.72,48.8,Weapon+Missile,Blue,Enemies,R-77,,cn,,126.672253791767,99.5405578613281,0.39456838133487,4910.10595703125,3669.09790039062,103.688171347755,-72.76416015625,0.104423621127566,NaN,0.0307631720217374,2.62285987595954,3798.36184158757,0.373625248670578,0.373625248670578,0.373625248670578,802.29299403429,4815.16905835205,5617.46205238634,,,55.3399999141693,1241.00805664062,21940.9016705262,22065.694004918
2018-07-19T08:39:54Z,1531989594,FF0F,41.0937482,43.7609206,4833.2,8.3,-36.2,54,552083.38,-120854.32,48.3,Weapon+Missile,Blue,Enemies,R-77,,cn,,127.89822819689,100.925727844238,0.397999770013593,4833.1953125,3604.65356445312,102.189576443449,-76.91064453125,0.072846829853626,NaN,1.90769915594124,0.33043206560564,3954.97868355263,1.20717585086823,1.20717585086823,1.20717585086823,817.897838795185,4739.74548113281,5557.643319928,,,56.3399999141693,1228.54174804688,22042.5337286968,22193.2091307145
2018-07-19T08:39:55Z,1531989595,FF0F,41.0947929,43.7614821,4758.76,6.7,-34.4,53,552161.38,-120783.65,47.4,Weapon+Missile,Blue,Enemies,R-77,,cn,,128.913083285386,102.136154174805,0.400781068007338,4758.763671875,3543.13073730469,105.254519694005,-74.431640625,0.0584509667211333,NaN,1.3384438697557,2.03500577122064,3905.64804912143,1.23550951480865,1.23550951480865,1.23550951480865,830.929152107239,4666.7529762793,5497.68212838654,,,57.3399999141693,1215.63293457031,22147.2346059768,22321.7347506594
2018-07-19T08:39:56Z,1531989596,FF0F,41.0958554,43.7620726,4686.96,5.4,-32.8,52.1,552240.44,-120709.62,46.5,Weapon+Missile,Blue,Enemies,R-77,,cn,,129.950519608578,103.357437133789,0.403640998125304,4686.9609375,3474.75891113281,108.312071731698,-71.802734375,0.031380483199159,NaN,1.16921910287946,1.63343290981938,4856.30423450939,1.17214477062225,1.17214477062225,1.17214477062225,844.356877326965,4596.33854777344,5440.6954251004,,,58.3399999141693,1212.20202636719,22255.02353649,22451.315995309
2018-07-19T08:39:57Z,1531989597,FF0F,41.0969259,43.7626851,4617.58,4.4,-31.5,51.4,552320,-120633.09,45.8,Weapon+Missile,Blue,Enemies,R-77,,cn,,130.383798100309,104.082145690918,0.404633511577271,4617.57861328125,3404.57080078125,110.390343296261,-69.38232421875,0.082969418174891,NaN,1.09228385206844,1.39885678624276,5000,1.11545717716217,1.11545717716217,1.11545717716217,849.996740353107,4528.29773079346,5378.29447114656,,,59.3399999141693,1213.0078125,22364.8218811172,22581.2666661254
2018-07-19T08:39:58Z,1531989598,FF0F,41.0980007,43.7633149,4550.23,3.6,-30.6,50.8,552399.69,-120554.6,45.2,Weapon+Missile,Blue,Enemies,R-77,,cn,,130.564509104696,104.59317779541,0.404851791679928,4550.22900390625,3342.43139648438,111.853123133801,-67.349609375,0.00968787788615001,NaN,0.707716881040041,1.07969773441881,5000,1.05554819107056,1.05554819107056,1.05554819107056,852.354551887512,4462.25032611572,5314.60487800324,,,60.3399999141693,1207.79760742188,22476.0960355269,22711.403944677
2018-07-19T08:39:59Z,1531989599,FF0F,41.099081,43.7639591,4484.25,2.9,-29.9,50.4,552479.62,-120474.45,44.7,Weapon+Missile,Blue,Enemies,R-77,,cn,,131.024884554916,105.326751708984,0.405943387280099,4484.24609375,3280.60424804688,113.197950246201,-65.98291015625,0.0334710248305095,NaN,0.769243225083516,0.778352829806462,5000,1.00928544998169,1.00928544998169,1.00928544998169,858.376018631458,4397.54319552734,5255.9192141588,,,61.3399999141693,1203.64184570312,22588.7237714994,22842.0053447753
2018-07-19T08:40:00Z,1531989600,FF0F,41.1001579,43.7646088,4419.77,2.3,-29.4,50.2,552559.19,-120393.73,44.5,Weapon+Missile,Blue,Enemies,R-77,,cn,,130.3967519556,105.163444519043,0.403671397231081,4419.7666015625,3214.02770996094,113.338907740513,-64.4794921875,0.0224248514434741,NaN,0.569255286185543,0.638281177937692,5000,0.979760885238647,0.979760885238647,0.979760885238647,850.165646028519,4334.31041432129,5184.47606034981,,,62.3399999141693,1205.73889160156,22701.5409151017,22972.0172178905
2018-07-19T08:40:01Z,1531989601,FF0F,41.1012379,43.7652635,4356.17,1.7,-28.9,50.2,552639,-120312.42,44.5,Weapon+Missile,Blue,Enemies,R-77,,cn,,130.486037630075,105.581687927246,0.403626902254388,4356.16748046875,3152.17639160156,113.937517142072,-63.59912109375,0.104298475663907,NaN,0.72307114629423,0.463836652431685,5000,0.949598729610443,0.949598729610443,0.949598729610443,851.330300819874,4271.94098223389,5123.27128305376,,,63.3399999141693,1203.99108886719,22814.8964670085,23102.0634233282
2018-07-19T08:40:02Z,1531989602,FF0F,41.1023241,43.7659162,4293.27,0.9,-28.6,50.8,552719.31,-120231.31,45.1,Weapon+Missile,Blue,Enemies,R-77,,cn,,130.326202129598,105.792304992676,0.4028162709022,4293.27001953125,3087.45764160156,114.143893262586,-62.8974609375,0.115440645612301,NaN,0.769188583570156,0.584426843879434,5000,0.95290207862854,0.95290207862854,0.95290207862854,849.245948076248,4210.25964370361,5059.50559177986,,,64.3399999141693,1205.81237792969,22928.4897783709,23231.975067761
2018-07-19T08:40:03Z,1531989603,FF0F,41.1034277,43.766554,4230.89,-0.7,-28.5,52.8,552801.19,-120151.68,47.1,Weapon+Missile,Blue,Enemies,R-77,,cn,,130.138731028643,105.976783752441,0.401924398883522,4230.890625,3017.75036621094,114.214274290301,-62.37939453125,0.0973319180537492,NaN,2.30772967525055,1.93956967238217,2765.77306180642,1.06436228752136,1.06436228752136,1.06436228752136,846.804465687275,4149.08635476563,4995.8908204529,,,65.3399999141693,1213.14025878906,23042.1277418208,23361.6748747374
2018-07-19T08:40:04Z,1531989604,FF0F,41.1045714,43.7671454,4168.64,-2.3,-28.3,55.2,552886.81,-120076.9,49.6,Weapon+Missile,Blue,Enemies,R-77,,cn,,129.60884292245,105.876113891602,0.399978104558726,4168.64453125,2952.70617675781,113.683226452113,-62.24609375,0.252111433983042,NaN,0.892295913170466,1.51510874035049,5000,0.979369521141052,0.979369521141052,0.979369521141052,839.922608184815,4088.04378923828,4927.9663974231,,,66.3399999141693,1215.93835449219,23155.2080743301,23490.8204634286
2018-07-19T08:40:05Z,1531989605,FF0F,41.1057218,43.767735,4107.31,-1.4,-28.3,54.3,552973,-120002.27,48.7,Weapon+Missile,Blue,Enemies,R-77,,cn,,129.456916838268,106.082901000977,0.399205078792272,4107.31005859375,2879.46044921875,114.005156818672,-61.33447265625,0.0609758673575488,NaN,0.769239169658696,0.490492372802159,5000,0.911479771137238,0.911479771137238,0.911479771137238,837.954665863514,4027.89521861084,4865.84988447435,,,67.3399999141693,1227.849609375,23268.611969266,23619.8129182832
2018-07-19T08:40:06Z,1531989606,FF0F,41.1068548,43.7683346,4046.39,-0.7,-28.3,53.5,553057.69,-119926.66,47.8,Weapon+Missile,Blue,Enemies,R-77,,cn,,128.842899787174,105.90153503418,0.397011616295082,4046.38598632812,2800.51281738281,113.528631825371,-60.924072265625,0.068275656994443,NaN,0.707687532570951,0.683724400837343,5000,0.900806546211243,0.900806546211243,0.900806546211243,830.024641278386,3968.14911328247,4798.17375456086,,,68.3399999141693,1245.87316894531,23381.5322056017,23748.1835854498
2018-07-19T08:40:07Z,1531989607,FF0F,41.1079774,43.7689441,3985.58,-0.2,-28.2,52.9,553141.38,-119850.03,47.3,Weapon+Missile,Blue,Enemies,R-77,,cn,,128.737239646037,106.142417907715,0.396387529635735,3985.58227539062,2707.85607910156,113.4732814715,-60.8037109375,0.0300527575264301,NaN,0.400030519309307,0.536233349260941,5000,0.856181979179382,0.856181979179382,0.856181979179382,828.663843584061,3908.52104209595,4737.18488568001,,,69.3399999141693,1277.72619628906,23494.4358766336,23876.4816283366
2018-07-19T08:40:08Z,1531989608,FF0F,41.109083,43.7695554,3924.95,0.6,-29.1,52.6,553223.69,-119773.34,46.9,Weapon+Missile,Blue,Enemies,R-77,,cn,,127.79801487837,105.683296203613,0.393200795351956,3924.9521484375,2604.45568847656,112.500312499566,-60.630126953125,0.117489162840431,NaN,1.20000009742607,1.45035022272572,2785.91732202006,0.275330454111099,0.275330454111099,0.275330454111099,816.616630342603,3849.06319864746,4665.67982899006,,,70.3399999141693,1320.49645996094,23606.3696738041,24003.8422638126
2018-07-19T08:40:09Z,1531989609,FF0F,41.110161,43.7701521,3859.14,2.5,-32.7,52.7,553303.94,-119698.48,47.1,Weapon+Missile,Blue,Enemies,R-77,,cn,,127.965029361513,106.178504943848,0.393394974328534,3859.14135742188,2497.07495117188,109.745107068109,-65.810791015625,0,NaN,1.7384613690169,3.11229949249502,2131.48474993647,0.0647606626152992,0.0647606626152992,0.0647606626152992,818.752436974645,3784.52485927612,4603.27729625077,,,71.3399999141693,1362.06640625,23715.5541421415,24131.3838722083
2018-07-19T08:40:10Z,1531989610,FF0F,41.1112033,43.7707258,3786.67,3.8,-36.1,52.9,553381.56,-119626.46,47.2,Weapon+Missile,Blue,Enemies,R-77,,cn,,128.316090128044,106.866638183594,0.394122123196085,3786.67065429688,2393.08752441406,105.891530229364,-72.470703125,0.0710478245346961,NaN,1.26153764724865,3.28493785985238,2302.88242008902,0.0921648070216179,0.0921648070216179,0.0921648070216179,823.250949287415,3713.45537719604,4536.70632648346,,,72.3399999141693,1393.58312988281,23820.9101298703,24259.3104017886
2018-07-19T08:40:11Z,1531989611,FF0F,41.1122068,43.7712736,3708.46,4.8,-39.1,53.2,553456.38,-119557.63,47.5,Weapon+Missile,Blue,Enemies,R-77,,cn,,128.263014262282,107.246391296387,0.393580322218531,3708.45825195312,2285.58764648438,101.657370353879,-78.21240234375,0.0611053622913051,NaN,0.969231163981489,3.08429913199255,2447.56262141698,0.100369095802307,0.100369095802307,0.100369095802307,822.570041382313,3636.75521165161,4459.32525303392,,,73.3399999141693,1422.87060546875,23922.0343750742,24387.1982955572
2018-07-19T08:40:12Z,1531989612,FF0F,41.113187,43.7718032,3623.77,5.5,-42.1,53.5,553529.5,-119491.02,47.8,Weapon+Missile,Blue,Enemies,R-77,,cn,,130.220812923101,109.372978210449,0.399172747546592,3623.7685546875,2171.16552734375,98.9197416869361,-84.689697265625,0.0679113650616144,NaN,0.569231380523448,2.88591692787976,2652.6016339418,0.107845790684223,0.107845790684223,0.107845790684223,847.873005917668,3553.70298968262,4401.57599560029,,,74.3399999141693,1452.60302734375,24020.4383196518,24517.0706027394
2018-07-19T08:40:13Z,1531989613,FF0F,41.1141317,43.7723072,3534.14,5.9,-44.7,53.9,553600,-119427.52,48.2,Weapon+Missile,Blue,Enemies,R-77,,cn,,130.524436826757,110.127983093262,0.399664452808279,3534.13525390625,2084.09594726562,94.8815050470849,-89.63330078125,0.0251267804514547,NaN,0.369230635020781,2.7196359725358,2879.593320118,0.126932293176651,0.126932293176651,0.126932293176651,851.831430447102,3465.80274877197,4317.63417921907,,,75.3399999141693,1450.03930664062,24114.8514634081,24647.2933992971
2018-07-19T08:40:14Z,1531989614,FF0F,41.1150543,43.7727925,3438.76,6.1,-47.3,54.3,553669,-119366.27,48.6,Weapon+Missile,Blue,Enemies,R-77,,cn,,132.70118731278,112.527374267578,0.405856311251119,3438.7568359375,1992.74609375,92.2635491404921,-95.37841796875,0.0874161842873953,NaN,0.200000745502667,2.53864343004987,3110.68812679324,0.123744584619999,0.123744584619999,0.123744584619999,880.480255711079,3372.26847251465,4252.74872822573,,,76.3399999141693,1446.0107421875,24206.605364985,24779.6755257545
2018-07-19T08:40:15Z,1531989615,FF0F,41.1159444,43.7732534,3339.13,6.1,-49.6,54.7,553735.62,-119307.98,49,Weapon+Missile,Blue,Enemies,R-77,,cn,,133.270868968179,113.582061767578,0.407103873005722,3339.1298828125,1887.29528808594,88.518894743227,-99.626953125,0.0353636747152347,NaN,0,2.33745700639597,3315.52476077563,0.121422030031681,0.121422030031681,0.121422030031681,888.056225776672,3274.56780652832,4162.62403230499,,,77.3399999141693,1451.83459472656,24294.6468660383,24912.6607693098
2018-07-19T08:40:16Z,1531989616,FF0F,41.1168151,43.7736966,3234.13,6.1,-51.8,55.2,553800.81,-119251.82,49.5,Weapon+Missile,Blue,Enemies,R-77,,cn,,135.749173011026,116.330520629883,0.414145232242633,3234.13452148438,1777.27746582031,86.0454070404336,-104.995361328125,0.059944988766688,NaN,0,2.20481089073292,3679.93738379178,0.137554436922073,0.137554436922073,0.137554436922073,921.391898658872,3171.60253051147,4092.99442917035,,,78.3399999141693,1456.85705566406,24380.2802761066,25048.1770642338
2018-07-19T08:40:17Z,1531989617,FF0F,41.1176573,43.7741178,3125.19,5.9,-53.8,55.7,553864.06,-119198.34,50,Weapon+Missile,Blue,Enemies,R-77,,cn,,136.854708663117,117.927207946777,0.416966671385749,3125.19384765625,1653.65881347656,82.8320038942716,-108.940673828125,0,NaN,0.199987938897973,2.06583190904879,3897.48272291923,0.121632657945156,0.121632657945156,0.121632657945156,936.460564163327,3064.76822461182,4001.22878877514,,,79.3399999141693,1471.53503417969,24462.6301678123,25184.7652711536
2018-07-19T08:40:18Z,1531989618,FF0F,41.118473,43.7745183,3012.45,5.7,-55.7,56.2,553925.31,-119147.36,50.5,Weapon+Missile,Blue,Enemies,R-77,,cn,,138.062879221012,119.648307800293,0.420074391801784,3012.44995117188,1539.13024902344,79.6879691315848,-112.743896484375,0.0123373874964759,NaN,0.199987938897973,1.95387849180652,4199.45686010096,0.1253871768713,0.1253871768713,0.1253871768713,953.067930939794,2954.20423136597,3907.27216230576,,,80.3399999141693,1473.31970214844,24541.9165442838,25322.6186949095
2018-07-19T08:40:19Z,1531989619,FF0F,41.1192685,43.7749013,2895.27,5.5,-57.5,56.7,553985.12,-119098.48,51,Weapon+Missile,Blue,Enemies,R-77,,cn,,140.347558441718,122.358955383301,0.426422613949382,2895.27001953125,1409.52673339844,77.2418331038952,-117.179931640625,0.0635945626313352,NaN,0.230805752433071,1.85293149752491,4597.14846024534,0.126813098788261,0.126813098788261,0.126813098788261,984.871858027577,2839.28997370361,3824.16183173119,,,81.3399999141693,1485.74328613281,24618.7714403238,25462.7731943797
2018-07-19T08:40:20Z,1531989620,FF0F,41.1200373,43.7752643,2774.88,5.2,-59.2,57.2,554043.06,-119052.04,51.5,Weapon+Missile,Blue,Enemies,R-77,,cn,,141.446520431321,124.060577392578,0.429139722700476,2774.88232421875,1281.15612792969,74.255780646847,-120.3876953125,0.00648699171972314,NaN,0.292332096476546,1.67897330283215,4892.65912699797,0.119971662759781,0.119971662759781,0.119971662759781,1000.3559071064,2721.22997447998,3721.58588158638,,,82.3399999141693,1493.72619628906,24692.604268431,25604.0152948642
2018-07-19T08:40:21Z,1531989621,FF0F,41.1207857,43.7756108,2650.54,4.9,-60.8,57.7,554099.56,-119007.6,52.1,Weapon+Missile,Blue,Enemies,R-77,,cn,,143.62093815069,126.759643554688,0.43508745025421,2650.5439453125,1149.07287597656,71.8814399288857,-124.33837890625,0.0565361218523824,NaN,0.353858440520021,1.60952671411581,5000,0.10012125223875,0.10012125223875,0.10012125223875,1031.34869376421,2599.29567812988,3630.64437189409,,,83.3399999141693,1501.47106933594,24764.0650335796,25747.441297399
2018-07-19T08:40:22Z,1531989622,FF0F,41.1215059,43.7759376,2523.8,4.6,-62.3,58.3,554153.88,-118965.56,52.6,Weapon+Missile,Blue,Enemies,R-77,,cn,,144.159461239735,128.028549194336,0.436057472466166,2523.796875,1015.25817871094,68.6813688865394,-126.7470703125,0.0173662210672001,NaN,0.353858440520021,1.54545921953597,5000,0.118818886578083,0.118818886578083,0.118818886578083,1039.09751324654,2474.99926242188,3514.09677566841,,,84.3399999141693,1508.53869628906,24832.4364912259,25891.466535444
2018-07-19T08:40:23Z,1531989623,FF0F,41.1222001,43.7762464,2394.6,4.4,-63.7,58.7,554206.38,-118925.73,53,Weapon+Missile,Blue,Enemies,R-77,,cn,,145.028277648834,129.619049072266,0.438010382771727,2394.6044921875,894.628295898438,65.8978720522569,-129.1923828125,0.022504473541087,NaN,0.199987938897973,1.40837497501629,5000,0.110790684819221,0.110790684819221,0.110790684819221,1051.66006588936,2348.30481433105,3399.96488022041,,,85.3399999141693,1499.97619628906,24897.9666395361,26036.3395286424
2018-07-19T08:40:24Z,1531989624,FF0F,41.1228735,43.77654,2262.2,4.1,-65,59.3,554257.44,-118887.76,53.6,Weapon+Missile,Blue,Enemies,R-77,,cn,,146.902575660527,132.155334472656,0.442973518508344,2262.20068359375,768.19384765625,63.6364534332831,-132.40380859375,0.0333726026847129,NaN,0.230751110919711,1.35586650838964,5000,0.0873003751039505,0.0873003751039505,0.0873003751039505,1079.01833678484,2218.46103337646,3297.4793701613,,,86.3399999141693,1494.0068359375,24961.2019577164,26183.0787328884
2018-07-19T08:40:25Z,1531989625,FF0F,41.1235269,43.7768193,2126.6,3.8,-66.3,59.8,554306.94,-118851.53,54.1,Weapon+Missile,Blue,Enemies,R-77,,cn,,148.830763683607,134.784225463867,0.448067471180513,2126.59838867188,638.786499023438,61.3401486024154,-135.602294921875,0,NaN,0.399975877795947,1.26964636245392,5000,0.10061689466238,0.10061689466238,0.10061689466238,1107.52981093228,2085.4806088269,3193.01041975918,,,87.3399999141693,1487.81188964844,25022.2325125527,26331.7907849868
2018-07-19T08:40:26Z,1531989626,FF0F,41.1241688,43.7770884,1986.24,3.5,-67.4,60.3,554355.69,-118816.53,54.6,Weapon+Missile,Blue,Enemies,R-77,,cn,,152.652198129849,139.212585449219,0.45881118009417,1986.23767089844,508.417602539062,60.013019420789,-140.360717773438,0.0298892705497539,NaN,0.399975877795947,1.15527217675941,5000,0.0906346961855888,0.0906346961855888,0.0906346961855888,1165.13467969373,1947.83376553162,3112.96844522535,,,88.3399999141693,1477.82006835938,25081.8896208319,26484.3109376703
2018-07-19T08:40:27Z,1531989627,FF0F,41.1248044,43.7773498,1840.13,3.3,-68.5,60.7,554404,-118782.43,55,Weapon+Missile,Blue,Enemies,R-77,,cn,,157.62194744122,144.792175292969,0.472934388320606,1840.12927246094,374.685180664062,59.1355580103156,-146.1083984375,0.0411946757731224,NaN,0.24616001768726,1.08268455479852,5000,0.0872278809547424,0.0872278809547424,0.0872278809547424,1242.23391575813,1804.55037297791,3046.78428873604,,,89.3399999141693,1465.44409179688,25140.6874515407,26641.8130752206
2018-07-19T08:40:28Z,1531989628,FF0F,41.1254305,43.7776025,1689.13,3,-69.5,61.2,554451.62,-118749.38,55.5,Weapon+Missile,Blue,Enemies,R-77,,cn,,161.739341320539,149.673812866211,0.484429817100089,1689.13464355469,235.703002929688,57.9675475784997,-150.99462890625,0.0122873626850785,NaN,0.199987938897973,1.01229209160383,5000,0.078784316778183,0.078784316778183,0.078784316778183,1307.98072654009,1656.47522522156,2964.45595176165,,,90.3399999141693,1453.431640625,25198.3355271051,26803.4438821118
2018-07-19T08:40:29Z,1531989629,FF0F,41.1260308,43.7778403,1537.24,2.8,-70.5,61.6,554497.31,-118718.18,55.9,Weapon+Missile,Blue,Enemies,R-77,,cn,,161.654767295111,150.663635253906,0.483317889776612,1537.24230957031,93.259521484375,55.3261481219832,-151.892333984375,0.00895289257562456,NaN,0.199987938897973,0.981220173687272,5000,0.0797330588102341,0.0797330588102341,0.0797330588102341,1306.61318946183,1507.51972951477,2814.1329189766,,,91.3399999141693,1443.98278808594,25253.3741825631,26965.0052241989
