ISOTime,UnixTime,Id,Longitude,Latitude,Altitude,Roll,Pitch,Yaw,U,V,Heading,Type,Color,Coalition,Name,Group,Country,Pilot,TAS,CAS,M,ASL,AGL,GS,VS,AOA,AOS,RRT,TRT,TRD,G,LatG,LonG,Ek,Ep,Em,FFW,FFV,RelativeTime,Elev,GroundDistance,AirDistance
2011-06-01T05:01:51Z,1306904511,1DE0C,55.7647657,25.9134098,1011.13,-22.7,1.1,188.5,-47959.82,-28255.56,189.1,Weapon+Missile,Red,Allies,AIM-120B,,xu,,NaN,NaN,NaN,1011.13000488281,1011.13000488281,NaN,NaN,NaN,NaN,NaN,NaN,NaN,NaN,NaN,NaN,NaN,991.579806238403,NaN,,,0,0,NaN,NaN
2011-06-01T05:01:52Z,1306904512,1DE0C,55.7641957,25.9100579,1015.93,-18.4,1.2,188.4,-48020.41,-28626.28,188.9,Weapon+Missile,Red,Allies,AIM-120B,,xu,,375.664356029694,361.940063476562,1.11639881183168,1015.9345703125,1015.9345703125,375.633630739097,4.8045654296875,1.1814831902788,NaN,4.10770991779152,8.24361677185581,3989.36045976248,4.37779521942139,4.37779521942139,4.37779521942139,7056.18541956022,996.291475395508,8052.47689495573,,,1,0,377.468052548409,377.558606089109
2011-06-01T05:01:53Z,1306904513,1DE0C,55.7638779,25.9056338,1005.38,-15,-2.3,179.1,-48056.86,-29115.98,179.6,Weapon+Missile,Red,Allies,AIM-120B,,xu,,491.177377829148,470.284393310547,1.45950265311942,1005.37536621094,1005.37536621094,491.063865194599,-10.5592041015625,0.770833243320117,NaN,3.276878876962,5.34100857480357,5000,4.65393447875977,4.65393447875977,4.65393447875977,12062.7608245559,985.936433505249,13048.6972580612,,,2,0,870.991504307113,871.273188826588
2011-06-01T05:01:54Z,1306904514,1DE0C,55.7640334,25.9001737,979.22,-12.2,-2.5,178.2,-48046.98,-29720.88,178.8,Weapon+Missile,Red,Allies,AIM-120B,,xu,,605.538508758981,576.211547851562,1.79877753016423,979.218444824219,979.218444824219,604.973306066986,-26.1569213867188,0.664257334528342,NaN,2.70768506247898,4.4000112784168,5000,2.70235133171082,2.70235133171082,2.70235133171082,18333.8442795025,960.285256193542,19294.1295356961,,,3,0,1478.99807958803,1479.93665464673
2011-06-01T05:01:55Z,1306904515,1DE0C,55.7644637,25.8937664,949.2,-9.8,-2.5,177.1,-48010.57,-30430.95,177.7,Weapon+Missile,Red,Allies,AIM-120B,,xu,,711.64248955022,675.030578613281,2.11323361792451,949.203796386719,949.203796386719,711.009250159524,-30.0146484375,0.460692978826384,NaN,2.30770918468304,0.751164568124139,5000,0.891662538051605,0.891662538051605,0.891662538051605,25321.7516466618,930.850940983581,26252.6025876453,,,4,0,2193.56427656956,2195.24087065045
2011-06-01T05:01:56Z,1306904516,1DE0C,55.7648914,25.8866881,913.93,-7.9,-2.6,176.3,-47975.11,-31215.32,176.9,Weapon+Missile,Red,Allies,AIM-120B,,xu,,785.960234839487,745.124694824219,2.33297453272262,913.927673339844,913.927673339844,785.168189556686,-35.276123046875,0.0225476537685644,NaN,1.81537719647747,0.6139020983558,5000,1.95473730564117,1.95473730564117,1.95473730564117,30886.6745374471,896.256881775818,31782.9314192229,,,5,0,2982.67081987842,2985.25064901199
2011-06-01T05:01:57Z,1306904517,1DE0C,55.7655081,25.8793596,876.12,-6.4,-2.7,174.9,-47920.95,-32027.61,175.5,Weapon+Missile,Red,Allies,AIM-120B,,xu,,814.966206736021,773.427124023438,2.41802240787945,876.119995117188,876.119995117188,814.08875289437,-37.8076782226562,0.0385668561509347,NaN,1.53846169073129,1.44036181811651,5000,2.5929479598999,2.5929479598999,2.5929479598999,33208.495906085,859.180215011597,34067.6761210966,,,6,0,3800.81540991779,3804.38303295928
2011-06-01T05:01:58Z,1306904518,1DE0C,55.7664031,25.8716689,834.24,-5.1,-3,172.8,-47839.29,-32880.25,173.4,Weapon+Missile,Red,Allies,AIM-120B,,xu,,857.569210764451,814.751770019531,2.54320322807649,834.24072265625,834.24072265625,856.546016154011,-41.8792724609375,0.132728429482136,NaN,1.13849349689816,1.96950105542904,5000,3.33048844337463,3.33048844337463,3.33048844337463,36771.2475625582,818.110678283691,37589.3582408419,,,7,0,4661.61528345651,4666.31633040027
2011-06-01T05:01:59Z,1306904519,1DE0C,55.7676407,25.8638427,776.35,-3.9,-4.6,170.9,-47723.41,-33748.23,171.4,Weapon+Missile,Red,Allies,AIM-120B,,xu,,877.592778634102,835.685424804688,2.60085770189793,776.352294921875,776.352294921875,875.681457520465,-57.888427734375,0.162340831661621,NaN,1.16921483401123,2.38708793566963,5000,4.07536315917969,4.07536315917969,4.07536315917969,38508.4542555362,761.341523299561,39269.7957788358,,,8,0,5541.60644763151,5548.32034244634
2011-06-01T05:02:00Z,1306904520,1DE0C,55.7692254,25.8563206,706.13,-3,-5.3,165,-47572.42,-34582.85,165.6,Weapon+Missile,Red,Allies,AIM-120B,,xu,,851.067055091084,813.286560058594,2.52021766576948,706.125366210938,706.125366210938,848.1646719507,-70.2269287109375,1.01019973978925,NaN,1.1692272137291,4.31102117060753,5000,8.24154949188232,8.24154949188232,8.24154949188232,36215.7566130705,692.472432255249,36908.2290453258,,,9,0,6393.87895161472,6403.58000067339
2011-06-01T05:02:01Z,1306904521,1DE0C,55.7713932,25.8496493,630.84,-2.3,-5.7,163.1,-47362.09,-35323.78,163.7,Weapon+Missile,Red,Allies,AIM-120B,,xu,,773.880161745957,743.010375976562,2.28967665683027,630.8369140625,630.8369140625,770.209162316991,-75.2884521484375,0.056563408551026,NaN,0.569251017317311,3.27242260541539,5000,1.10362672805786,1.10362672805786,1.10362672805786,29944.5252371974,618.639682329102,30563.1649195265,,,10,0,7167.62523657171,7181.06129621952
2011-06-01T05:02:02Z,1306904522,1DE0C,55.7734407,25.8435368,560.76,-1.9,-5.7,163.1,-47163.21,-36002.69,163.7,Weapon+Missile,Red,Allies,AIM-120B,,xu,,710.902208868536,685.639709472656,2.10166239693095,560.764587402344,560.764587402344,707.440329363965,-70.0723266601562,0.0568872300318262,NaN,0.44618168064426,0.108802939126746,5000,0.994869232177734,0.994869232177734,0.994869232177734,25269.0975287082,549.922204104919,25819.0197328131,,,11,0,7878.30319290305,7895.25150328894
2011-06-01T05:02:03Z,1306904523,1DE0C,55.7753395,25.8378702,495.84,-1.6,-5.7,163.1,-46978.75,-36632.09,163.7,Weapon+Missile,Red,Allies,AIM-120B,,xu,,659.075305440326,638.388610839844,1.9470037077676,495.837677001953,495.837677001953,655.869464563734,-64.9269104003906,0.0598382551049497,NaN,0.261539469264013,0.00989117029631303,5000,0.992917418479919,0.992917418479919,0.992917418479919,21719.012912063,486.25065551712,22205.2635675801,,,12,0,8537.17689867947,8557.37081447832
2011-06-01T05:02:04Z,1306904524,1DE0C,55.7770988,25.8326199,435.7,-1.3,-5.6,163.1,-46807.83,-37215.23,163.7,Weapon+Missile,Red,Allies,AIM-120B,,xu,,610.644772978454,593.989929199219,1.80269875675362,435.699981689453,435.699981689453,607.676308875382,-60.1376953125,0.0615477024351385,NaN,0.199987938897973,0.0504352774299245,5000,1.00142300128937,1.00142300128937,1.00142300128937,18644.3519382954,427.275722543488,19071.6276608389,,,13,0,9147.63764809545,9170.8309182455
2011-06-01T05:02:05Z,1306904525,1DE0C,55.7787302,25.8277508,379.95,-1,-5.6,163.1,-46649.31,-37756.04,163.7,Weapon+Missile,Red,Allies,AIM-120B,,xu,,566.308273786852,553.14990234375,1.67075297495662,379.94921875,379.94921875,563.557373646298,-55.7507629394531,0.0649696322571761,NaN,0.230763704080993,0.0504352774299245,5000,1.00074982643127,1.00074982643127,1.00074982643127,16035.2530479722,372.602900605469,16407.8559485777,,,14,0,9713.77099455424,9739.73873321373
2011-06-01T05:02:06Z,1306904526,1DE0C,55.7802358,25.8232572,328.51,-0.8,-5.6,163.1,-46503.02,-38255.14,163.7,Weapon+Missile,Red,Allies,AIM-120B,,xu,,522.637158114245,512.622497558594,1.5410121054499,328.513854980469,328.513854980469,520.099992689512,-51.4353637695312,0.0639120283699381,NaN,0.199987938897973,0.00989117029631303,5000,1.00042545795441,1.00042545795441,1.00042545795441,13657.4799520867,322.162039594421,13979.6419916811,,,15,0,10236.2519844084,10264.7742602952
2011-06-01T05:02:07Z,1306904527,1DE0C,55.781629,25.8190986,280.93,-0.7,-5.6,163.1,-46367.62,-38717.03,163.7,Weapon+Missile,Red,Allies,AIM-120B,,xu,,483.672107212142,476.264282226562,1.42535320999184,280.931518554688,280.931518554688,481.325906798396,-47.5823364257812,0.0628775400450197,NaN,0.153836991006432,0.00989117029631303,5000,0.998020172119141,0.998020172119141,0.998020172119141,11696.9353647517,275.499707643433,11972.4350723951,,,16,0,10719.7840639663,10750.6648772674
2011-06-01T05:02:08Z,1306904528,1DE0C,55.7829169,25.8152541,236.94,-0.5,-5.6,163.1,-46242.45,-39144.03,163.7,Weapon+Missile,Red,Allies,AIM-120B,,xu,,447.137692651121,441.894317626953,1.31703203874537,236.941543579102,236.941543579102,444.968536293315,-43.9899749755859,0.0622735946621102,NaN,0.153836884284726,0.00989117029631303,5000,0.999143540859222,0.999143540859222,0.999143540859222,9996.60580946842,232.360278834,10228.9660883024,,,17,0,11166.7819838285,11199.8402126705
2011-06-01T05:02:09Z,1306904529,1DE0C,55.7841103,25.8116916,196.19,-0.5,-5.6,163.1,-46126.46,-39539.7,163.7,Weapon+Missile,Red,Allies,AIM-120B,,xu,,414.334684981706,410.751159667969,1.21984901283421,196.190765380859,196.190765380859,412.32584839557,-40.7507781982422,0.0610716003251109,NaN,0.0923021092264945,0.00989117029631303,5000,0.998624444007874,0.998624444007874,0.998624444007874,8583.66155894446,192.39741693222,8776.05897587669,,,18,0,11581.003059077,11616.0749746127
2011-06-01T05:02:10Z,1306904530,1DE0C,55.7852045,25.8084249,158.83,-0.4,-5.6,163.1,-46020.11,-39902.51,163.7,Weapon+Missile,Red,Allies,AIM-120B,,xu,,379.918548966065,377.585754394531,1.11805159650818,158.83154296875,158.83154296875,378.077230667549,-37.3592224121094,0.0620021043648249,NaN,0,0.00989117029631303,5000,0.997177958488464,0.997177958488464,0.997177958488464,7216.90519242403,155.760535085449,7372.66572750948,,,19,0,11960.8182052301,11997.7335742627
2011-06-01T05:02:11Z,1306904531,1DE0C,55.7862187,25.8053975,124.21,-0.3,-5.6,163.1,-45921.54,-40238.76,163.7,Weapon+Missile,Red,Allies,AIM-120B,,xu,,352.10562317917,350.484802246094,1.03579647096008,124.205383300781,124.205383300781,350.398914012358,-34.6261596679688,0.061944354337659,NaN,0,0.00989117029631303,5000,0.997922956943512,0.997922956943512,0.997922956943512,6198.91849371959,121.803872214661,6320.72236593425,,,20,0,12312.8182762535,12351.4404011326
2011-06-01T05:02:12Z,1306904532,1DE0C,55.7871525,25.8026094,92.32,-0.2,-5.6,163.1,-45830.75,-40548.43,163.7,Weapon+Missile,Red,Allies,AIM-120B,,xu,,324.272685984541,323.155822753906,0.953576466891203,92.3215408325195,92.3215408325195,322.701402948744,-31.8838424682617,0.0605873332502474,NaN,0.200042580411333,0.00989117029631303,5000,0.99725079536438,0.99725079536438,0.99725079536438,5257.63874378144,90.5365038405228,5348.17524762196,,,21,0,12636.9964585923,12677.1882192712
2011-06-01T05:02:13Z,1306904533,1DE0C,55.7880274,25.7999974,62.46,-0.2,-5.6,163.1,-45745.71,-40838.53,163.7,Weapon+Missile,Red,Allies,AIM-120B,,xu,,303.782459705248,303.056518554688,0.893020730955502,62.4569244384766,62.4569244384766,302.310911996585,-29.864616394043,0.0622723074547747,NaN,0,0.00989117029631303,5000,0.996762752532959,0.996762752532959,0.996762752532959,4614.18914122852,61.2493198044586,4675.43846103298,,,22,0,12940.6924710928,12982.3527675291
2011-06-01T05:02:14Z,1306904534,1DE0C,55.7888553,25.7975252,34.19,-0.2,-5.6,163.1,-45665.22,-41113.1,163.7,Weapon+Missile,Red,Allies,AIM-120B,,xu,,287.515824422955,287.133605957031,0.844932918810767,34.1946144104004,34.1946144104004,286.123384443649,-28.2623100280762,0.0605087999272007,NaN,0,0.00989117029631303,5000,0.995781600475311,0.995781600475311,0.995781600475311,4133.26746468057,33.5334615407753,4166.80092622134,,,23,0,13228.1346733967,13271.183219302
2011-06-01T05:02:15Z,1306904535,1DE0C,55.7896441,25.7951701,7.27,-0.1,-5.6,163.1,-45588.54,-41374.67,163.7,Weapon+Missile,Red,Allies,AIM-120B,,xu,,273.902355629032,273.826721191406,0.804682375203627,7.26615381240845,7.26615381240845,272.575417873577,-26.9284605979919,0.0606566317687788,NaN,0,0.00989117029631303,5000,0.996792376041412,0.996792376041412,0.996792376041412,3751.12502095663,7.12566272844553,3758.25068368508,,,24,0,13501.9639049437,13546.3342277688
2011-06-01T05:02:16Z,1306904536,1DE0C,55.7904031,25.7929035,-18.64,-0.1,-5.6,163.1,-45514.73,-41626.42,163.7,Weapon+Missile,Red,Allies,AIM-120B,,xu,,263.621930830757,263.824645996094,0.774254183740504,-18.6438446044922,-18.6438446044922,262.345562945083,-25.9099984169006,0.059614654464046,NaN,0,0.00989117029631303,5000,0.995009899139404,0.995009899139404,0.995009899139404,3474.82612074682,-18.2833658690643,3456.54275487776,,,25,0,13765.5027129689,13811.1434184306
2011-06-01T05:02:17Z,1306904537,1DE0C,55.7911366,25.7907131,-43.69,-0.1,-5.6,163.1,-45443.41,-41869.69,163.7,Weapon+Missile,Red,Allies,AIM-120B,,xu,,254.747756427155,255.206832885742,0.747980005468927,-43.689998626709,-43.689998626709,253.513529369468,-25.0461540222168,0.0622517500273847,NaN,0,0.00989117029631303,5000,0.996599793434143,0.996599793434143,0.996599793434143,3244.82097023344,-42.8452525032616,3201.97571773018,,,26,0,14020.1770548367,14067.0451502891
2011-06-01T05:02:18Z,1306904538,1DE0C,55.7918419,25.7886069,-67.77,-0.1,-5.6,163.1,-45374.84,-42103.61,163.7,Weapon+Missile,Red,Allies,AIM-120B,,xu,,244.944633021727,245.635116577148,0.719001756181418,-67.7661514282227,-67.7661514282227,243.758511876871,-24.0761528015137,0.0599858857024441,NaN,0,0.00989117029631303,5000,0.995913922786713,0.995913922786713,0.995913922786713,2999.89366230743,-66.455892890358,2933.43776941707,,,27,0,14265.0620624558,14313.1087196356
2011-06-01T05:02:19Z,1306904539,1DE0C,55.7925258,25.7865645,-91.11,-0.1,-5.6,163.1,-45308.34,-42330.45,163.7,Weapon+Missile,Red,Allies,AIM-120B,,xu,,237.54034555481,238.44694519043,0.697084509206882,-91.1130752563477,-91.1130752563477,236.390221697224,-23.346923828125,0.0595801698710062,NaN,0,0.00989117029631303,5000,0.996069431304932,0.996069431304932,0.996069431304932,2821.27078831494,-89.3514039462662,2731.91938436867,,,28,0,14502.5375558837,14551.7261625249
2011-06-01T05:02:20Z,1306904540,1DE0C,55.7931883,25.7845861,-113.72,0,-5.6,163.1,-45243.92,-42550.18,163.7,Weapon+Missile,Red,Allies,AIM-120B,,xu,,230.088501323168,231.192962646484,0.675044860573757,-113.724609375,-113.724609375,228.974751808889,-22.6115341186523,0.0615704204828286,NaN,0.153836964326005,0.00989117029631303,5000,0.995088696479797,0.995088696479797,0.995088696479797,2647.03592205707,-111.525744052734,2535.51017800433,,,29,0,14732.5592496544,14782.8528850347
2011-06-01T05:02:21Z,1306904541,1DE0C,55.7938257,25.7826823,-135.49,0,-5.6,163.1,-45181.94,-42761.61,163.7,Weapon+Missile,Red,Allies,AIM-120B,,xu,,221.403421103793,222.680847167969,0.649405407303635,-135.489990234375,-135.489990234375,220.330985275584,-21.765380859375,0.0597532851187053,NaN,0,0.00989117029631303,5000,0.995805084705353,0.995805084705353,0.995805084705353,2450.97374382317,-132.870291273193,2318.10345254998,,,30,0,14953.9095893732,15005.2664419142
2011-06-01T05:02:22Z,1306904542,1DE0C,55.7944475,25.7808251,-156.72,0,-5.6,163.1,-45121.46,-42967.88,163.7,Weapon+Missile,Red,Allies,AIM-120B,,xu,,215.998484570762,217.44775390625,0.633401052170041,-156.722305297852,-156.722305297852,214.952399693307,-21.2323150634766,0.0604604353520844,NaN,0,0.00989117029631303,5000,0.996768593788147,0.996768593788147,0.996768593788147,2332.76726684329,-153.692079524918,2179.07518731838,,,31,0,15169.841653013,15222.2349445821
2011-06-01T05:02:23Z,1306904543,1DE0C,55.7950483,25.7790307,-177.23,0,-5.6,163.1,-45063.03,-43167.18,163.7,Weapon+Missile,Red,Allies,AIM-120B,,xu,,208.695260419767,210.290466308594,0.611844076014233,-177.226913452148,-177.226913452148,207.68551409791,-20.5046081542969,0.0595241777364182,NaN,0,0.00989117029631303,5000,0.994649112224579,0.994649112224579,0.994649112224579,2177.68558608373,-173.800231080551,2003.88535500318,,,32,0,15378.4829789999,15431.8759774683
2011-06-01T05:02:24Z,1306904544,1DE0C,55.7956333,25.7772833,-197.2,0,-5.6,163.1,-45006.14,-43361.25,163.7,Weapon+Missile,Red,Allies,AIM-120B,,xu,,203.229879620086,204.967880249023,0.595687443224819,-197.203842163086,-197.203842163086,202.245658271501,-19.9769287109375,0.06178536303329,NaN,0,0.00989117029631303,5000,0.99593049287796,0.99593049287796,0.99593049287796,2065.11919851974,-193.390905874863,1871.72829264487,,,33,0,15581.6481076309,15636.014959737
2011-06-01T05:02:25Z,1306904545,1DE0C,55.7961996,25.7755918,-216.54,0,-5.6,163.1,-44951.07,-43549.1,163.7,Weapon+Missile,Red,Allies,AIM-120B,,xu,,196.702267078895,198.561080932617,0.576429422432527,-216.536926269531,-216.536926269531,195.749875435235,-19.3330841064453,0.0585251148136123,NaN,0,0.00989117029631303,5000,0.995510935783386,0.995510935783386,0.995510935783386,1934.58909369885,-212.35018480011,1722.23890889874,,,34,0,15778.3084691261,15833.6169768136
2011-06-01T05:02:26Z,1306904546,1DE0C,55.7967515,25.7739433,-235.38,0,-5.6,163.1,-44897.39,-43732.2,163.7,Weapon+Missile,Red,Allies,AIM-120B,,xu,,191.732648362177,193.711517333984,0.561747500339982,-235.382293701172,-235.382293701172,190.804246740844,-18.8453674316406,0.0602767115985268,NaN,0,0.00989117029631303,5000,0.995794773101807,0.995794773101807,0.995794773101807,1838.07042239872,-230.83117705246,1607.23924534626,,,35,0,15969.9851933743,16026.2111391057
2011-06-01T05:02:27Z,1306904547,1DE0C,55.797286,25.7723468,-253.63,0,-5.6,163.1,-44845.41,-43909.51,163.7,Weapon+Missile,Red,Allies,AIM-120B,,xu,,185.672541085952,187.749252319336,0.543881144090692,-253.630767822266,-253.630767822266,184.773606625964,-18.2484741210938,0.059509411880079,NaN,0,0.00989117029631303,5000,0.996103465557098,0.996103465557098,0.996103465557098,1723.71462566573,-248.726816926422,1474.98780873931,,,36,0,16155.6083989201,16212.7221027214
2011-06-01T05:02:28Z,1306904548,1DE0C,55.7978027,25.7708028,-271.27,0,-5.6,163.1,-44795.15,-44080.98,163.7,Weapon+Missile,Red,Allies,AIM-120B,,xu,,179.5560915295,181.716110229492,0.525860666546062,-271.273834228516,-271.273834228516,178.687190959886,-17.64306640625,0.0583536198785057,NaN,0,0.00989117029631303,5000,0.994437396526337,0.994437396526337,0.994437396526337,1612.01950026751,-266.028754643707,1345.9907456238,,,37,0,16335.1194350684,16393.0907196548
2011-06-01T05:02:29Z,1306904549,1DE0C,55.7983082,25.7692923,-288.54,0,-5.6,163.1,-44745.98,-44248.73,163.7,Weapon+Missile,Red,Allies,AIM-120B,,xu,,175.66201109029,177.917724609375,0.514356769959078,-288.544616699219,-288.544616699219,174.810932762041,-17.2707824707031,0.056795815127803,NaN,0,0.00989117029631303,5000,0.996587514877319,0.996587514877319,0.996587514877319,1542.85710701426,-282.965606535339,1259.89150047892,,,38,0,16510.7294649478,16569.5403039749
2011-06-01T05:02:30Z,1306904550,1DE0C,55.7987998,25.7678232,-305.33,0,-5.6,163.1,-44698.16,-44411.9,163.7,Weapon+Missile,Red,Allies,AIM-120B,,xu,,170.855258379987,173.186614990234,0.500188151874272,-305.333068847656,-305.333068847656,170.028430536048,-16.7884521484375,0.0594321316032449,NaN,0,0.00989117029631303,5000,0.994455695152283,0.994455695152283,0.994455695152283,1459.57596580461,-299.429453961487,1160.14651184312,,,39,0,16681.5405806662,16741.1665629822
2011-06-01T05:02:31Z,1306904551,1DE0C,55.7992773,25.7663967,-321.65,0,-5.6,163.1,-44651.72,-44570.34,163.7,Weapon+Missile,Red,Allies,AIM-120B,,xu,,165.906598380444,168.301895141602,0.485612088487546,-321.646148681641,-321.646148681641,165.102643263214,-16.3130798339844,0.0582215209556062,NaN,0,0.00989117029631303,5000,0.996229946613312,0.996229946613312,0.996229946613312,1376.2499693085,-315.427120396881,1060.82284891162,,,40,0,16847.3968669559,16907.8150560424
2011-06-01T05:02:32Z,1306904552,1DE0C,55.7997401,25.7650137,-337.45,0,-5.6,163.1,-44606.7,-44723.92,163.7,Weapon+Missile,Red,Allies,AIM-120B,,xu,,160.827963295213,163.274459838867,0.470663644856801,-337.453857421875,-337.453857421875,160.049211563414,-15.8077087402344,0.0590968615697608,NaN,0,0.00989117029631303,5000,0.995458602905273,0.995458602905273,0.995458602905273,1293.28168888432,-330.929187088623,962.352501795697,,,41,0,17008.185832234,17069.3709395284
2011-06-01T05:02:33Z,1306904553,1DE0C,55.8001887,25.7636731,-352.78,0,-5.6,163.1,-44563.06,-44872.82,163.7,Weapon+Missile,Red,Allies,AIM-120B,,xu,,155.91599828791,158.405654907227,0.456210625667153,-352.779998779297,-352.779998779297,155.160909746005,-15.3261413574219,0.060720699157079,NaN,0,0.00989117029631303,5000,0.99525660276413,0.99525660276413,0.99525660276413,1215.48992610578,-345.958997502899,869.530928602885,,,42,0,17164.0531068499,17225.9815038103
2011-06-01T05:02:34Z,1306904554,1DE0C,55.8006261,25.7623659,-367.73,0,-5.6,163.1,-44520.5,-45017.99,163.7,Weapon+Missile,Red,Allies,AIM-120B,,xu,,152.01690336717,154.554870605469,0.444727612917535,-367.725372314453,-367.725372314453,151.280450552073,-14.9453735351562,0.0567271509227225,NaN,0,0.00989117029631303,5000,0.995995759963989,0.995995759963989,0.995995759963989,1155.45694546718,-360.615402240753,794.841543226428,,,43,0,17316.0293093837,17378.6822611017
2011-06-01T05:02:35Z,1306904555,1DE0C,55.8010524,25.7610917,-382.29,0,-5.6,163.1,-44479.04,-45159.51,163.7,Weapon+Missile,Red,Allies,AIM-120B,,xu,,148.183787446645,150.763687133789,0.433443281927596,-382.289215087891,-382.289215087891,147.466366828857,-14.5638427734375,0.0565897300309238,NaN,0,0.00989117029631303,5000,0.995671510696411,0.995671510696411,0.995671510696411,1097.92174310163,-374.897653114166,723.02408998746,,,44,0,17464.1738820428,17527.5323173401
2011-06-01T05:02:36Z,1306904556,1DE0C,55.8014656,25.7598571,-396.4,0,-5.6,163.1,-44438.84,-45296.62,163.7,Weapon+Missile,Red,Allies,AIM-120B,,xu,,143.577482842267,146.178695678711,0.41990351940435,-396.399230957031,-396.399230957031,142.882472793181,-14.1100158691406,0.0584371521205246,NaN,0,0.00989117029631303,5000,0.995002150535583,0.995002150535583,0.995002150535583,1030.72467896608,-388.734851826477,641.9898271396,,,45,0,17607.7125419095,17671.7541052133
2011-06-01T05:02:37Z,1306904557,1DE0C,55.8018617,25.7586732,-409.94,0,-5.6,163.1,-44400.31,-45428.11,163.7,Weapon+Missile,Red,Allies,AIM-120B,,xu,,137.682052240585,140.273040771484,0.402601049966052,-409.936157226562,-409.936157226562,137.014959534908,-13.5369262695312,0.0611890413948821,NaN,0,0.00989117029631303,5000,0.99545282125473,0.99545282125473,0.99545282125473,947.817375458963,-402.010041626587,545.807333832376,,,46,0,17745.3671747854,17810.0640862699
2011-06-01T05:02:38Z,1306904558,1DE0C,55.8022495,25.7575142,-423.19,0,-5.6,163.1,-44362.58,-45556.82,163.7,Weapon+Missile,Red,Allies,AIM-120B,,xu,,134.787714694561,137.412063598633,0.394079346109321,-423.188446044922,-423.188446044922,134.134652024215,-13.2522888183594,0.0573349650881353,NaN,0,0.00989117029631303,5000,0.996476054191589,0.996476054191589,0.996476054191589,908.386401629122,-415.006097440643,493.380304188479,,,47,0,17880.117494972,17945.4557412547
2011-06-01T05:02:39Z,1306904559,1DE0C,55.8026218,25.7564016,-435.9,0,-5.6,163.1,-44326.36,-45680.39,163.7,Weapon+Missile,Red,Allies,AIM-120B,,xu,,129.394985999348,131.999862670898,0.378258965004251,-435.902313232422,-435.902313232422,128.768862629559,-12.7138671875,0.0610085213612339,NaN,0,0.00989117029631303,5000,0.994731724262238,0.994731724262238,0.994731724262238,837.153120088577,-427.474142006073,409.678978082504,,,48,0,18009.4700372782,18075.422925578
2011-06-01T05:02:40Z,1306904560,1DE0C,55.8029842,25.7553183,-448.29,0,-5.6,163.1,-44291.1,-45800.7,163.7,Weapon+Missile,Red,Allies,AIM-120B,,xu,,125.97130606501,128.585586547852,0.368199711396843,-448.286926269531,-448.286926269531,125.361043835976,-12.3846130371094,0.332865419536527,NaN,0,0.8577738959494,4364.50833958775,0.640238285064697,0.640238285064697,0.640238285064697,793.438497586222,-439.61929855011,353.819199036113,,,49,0,18135.4134250914,18201.9650796896
2011-06-01T05:02:41Z,1306904561,1DE0C,55.8033305,25.7542834,-463.62,0.9,-9.6,163.1,-44257.4,-45915.64,163.6,Weapon+Missile,Red,Allies,AIM-120B,,xu,,120.765976405898,123.367080688477,0.352924793241249,-463.623077392578,-463.623077392578,119.788244523413,-15.3361511230469,0.0307491386145533,NaN,0.969230843816372,3.16579588195208,1525.27647382047,0.0247279983013868,0.0247279983013868,0.0247279983013868,729.221052863496,-454.658925191193,274.562127672303,,,50,0,18255.7450239549,18323.2614978783
2011-06-01T05:02:42Z,1306904562,1DE0C,55.8036639,25.7532891,-487.73,1.6,-14.2,163.1,-44224.97,-46026.07,163.6,Weapon+Missile,Red,Allies,AIM-120B,,xu,,117.583870082235,120.254234313965,0.343533157454462,-487.733062744141,-487.733062744141,115.085512163188,-24.1099853515625,0.111255358531623,NaN,0.769230631922234,4.58489894972034,1487.66754629012,0.0233167093247175,0.0233167093247175,0.0233167093247175,691.298325175792,-478.302743975983,212.995581199809,,,51,0,18371.356001889,18441.3512774682
