ISOTime,UnixTime,Id,Longitude,Latitude,Altitude,Roll,Pitch,Yaw,U,V,Heading,Type,Color,Coalition,Name,Group,Country,Pilot,TAS,CAS,M,ASL,AGL,GS,VS,AOA,AOS,RRT,TRT,TRD,G,LatG,LonG,Ek,Ep,Em,FFW,FFV,RelativeTime,Elev,GroundDistance,AirDistance
2011-06-01T05:01:48Z,1306904508,1DE0A,55.6243166,25.9065314,2149.78,-41.5,0.6,133.7,-62036.2,-28877.33,134.3,Weapon+Missile,Red,Allies,R-27ER,,xu,,296.76430216972,272.157501220703,0.89367879742811,2149.77685546875,2149.77685546875,NaN,NaN,5.00192328014959,NaN,9.46156052889518,0.636967041537759,NaN,NaN,NaN,NaN,NaN,2108.21091996826,NaN,,,0.869999885559082,0,NaN,NaN
2011-06-01T05:01:49Z,1306904509,1DE0A,55.6272595,25.9037562,2122.68,-33.2,-2.1,135.5,-61744.61,-29187.8,136.1,Weapon+Missile,Red,Allies,R-27ER,,xu,,426.791693297802,393.6982421875,1.28483251155989,2122.67602539062,2122.67602539062,425.930386890958,-27.100830078125,2.16358740911949,NaN,8.26153727285896,3.8898524964775,5000,4.00731086730957,4.00731086730957,4.00731086730957,9107.55747340023,2081.6340844397,11189.1915578399,,,1.86999988555908,0,426.949037294114,427.951003580299
2011-06-01T05:01:50Z,1306904510,1DE0A,55.6315321,25.8992523,2072.56,-25.9,-5.7,143.1,-61321.8,-29691.14,143.7,Weapon+Missile,Red,Allies,R-27ER,,xu,,659.262206499859,597.457092285156,1.98349668734956,2072.5576171875,2072.5576171875,657.354396104755,-50.118408203125,0.337204459215325,NaN,6.66155179940514,7.9472179436705,4508.82102911506,11.4955682754517,11.4955682754517,11.4955682754517,21731.3328459531,2032.48471565918,23763.8175616123,,,2.86999988555908,0,1086.05565858365,1089.17651864522
2011-06-01T05:01:51Z,1306904511,1DE0A,55.6363172,25.8924589,1970.21,-21.2,-6.5,149.1,-60850.25,-30448.58,149.7,Weapon+Missile,Red,Allies,R-27ER,,xu,,898.082828319406,809.830749511719,2.69876642579479,1970.21301269531,1970.21301269531,892.23222787205,-102.344604492188,0.28155462406794,NaN,4.06150710315097,4.54730772296271,5000,1.97012603282928,1.97012603282928,1.97012603282928,40327.6383261092,1932.11894409485,42259.7572702041,,,3.86999988555908,0,1981.33166192941,1990.5652594991
2011-06-01T05:01:52Z,1306904512,1DE0A,55.6415814,25.8848831,1865.92,-17.7,-5.6,146.2,-60331.54,-31293.16,146.8,Weapon+Missile,Red,Allies,R-27ER,,xu,,996.617612009835,901.314514160156,2.99119271178483,1865.92150878906,1865.92150878906,991.145774738085,-104.29150390625,0.0516744497822037,NaN,3.35380046739468,2.14572292422313,5000,6.54120302200317,6.54120302200317,6.54120302200317,49662.3332284093,1829.84391641663,51492.1771448259,,,4.86999988555908,0,2975.8879935349,2990.87222446963
2011-06-01T05:01:53Z,1306904513,1DE0A,55.6472901,25.8776876,1774.21,-14.6,-5.3,142.4,-59767.78,-32096.05,143,Weapon+Missile,Red,Allies,R-27ER,,xu,,985.328277290772,895.071838378906,2.95412660740714,1774.21228027344,1774.21228027344,981.051085027619,-91.709228515625,0.30923234926689,NaN,3.07689093806402,3.07873231437558,5000,4.61185932159424,4.61185932159424,4.61185932159424,48543.59070144,1739.90788583435,50283.4985872743,,,5.86999988555908,0,3960.01483133015,3979.54256403551
2011-06-01T05:01:54Z,1306904514,1DE0A,55.65333,25.8707518,1683.69,-12,-5.3,141.3,-59170.46,-32870.48,141.9,Weapon+Missile,Red,Allies,R-27ER,,xu,,982.201342230009,896.030700683594,2.94162996944178,1683.69006347656,1683.69006347656,978.02106569573,-90.522216796875,0.0844930123087086,NaN,2.50765101980411,1.51759386199132,5000,1.55511260032654,1.55511260032654,1.55511260032654,48235.9738339216,1651.13591609924,49887.1097500208,,,6.86999988555908,0,4940.88487117708,4964.84555425716
2011-06-01T05:01:55Z,1306904515,1DE0A,55.6593788,25.8639411,1596.37,-10.1,-4.9,141.2,-58572.06,-33631.05,141.8,Weapon+Missile,Red,Allies,R-27ER,,xu,,971.687657024209,890.169494628906,2.90717221962212,1596.36535644531,1596.36535644531,967.755805126016,-87.32470703125,0.0595811356003483,NaN,1.70769072647576,0.374693985943997,5000,2.15064072608948,2.15064072608948,2.15064072608948,47208.8451406598,1565.49963227844,48774.3447729383,,,7.86999988555908,0,5911.40033700944,5939.53028424175
2011-06-01T05:01:56Z,1306904516,1DE0A,55.6653743,25.8570659,1518.39,-8.9,-4.2,142.8,-57978.99,-34398.66,143.4,Weapon+Missile,Red,Allies,R-27ER,,xu,,973.161957721021,894.717895507812,2.90893481578149,1518.38916015625,1518.38916015625,970.032942104391,-77.9761962890625,0.141472730993605,NaN,1.1384610534996,1.91830195741063,5000,5.62080812454224,5.62080812454224,5.62080812454224,47352.2097977705,1489.03110574463,48841.2409035152,,,8.86999988555908,0,6884.2529282948,6915.73963765496
2011-06-01T05:01:57Z,1306904517,1DE0A,55.6708646,25.8499933,1444.91,-7,-5.1,147.1,-57436.71,-35187.61,147.7,Weapon+Missile,Red,Allies,R-27ER,,xu,,960.163077177362,885.926574707031,2.86762338343043,1444.91076660156,1444.91076660156,957.347408444459,-73.4783935546875,0.0284297232376284,NaN,1.92311660044525,3.8888557157455,5000,7.48882484436035,7.48882484436035,7.48882484436035,46095.656738735,1416.97341692932,47512.6301556643,,,9.86999988555908,0,7844.66116587453,7879.1770507761
2011-06-01T05:01:58Z,1306904518,1DE0A,55.675705,25.8426361,1346.63,-5.2,-6.8,151.4,-56959.81,-36007.39,152,Weapon+Missile,Red,Allies,R-27ER,,xu,,953.475276617625,883.821166992188,2.84439774161041,1346.63452148438,1346.63452148438,948.397006936823,-98.2762451171875,0.0959755144177517,NaN,1.73845816736573,4.61123615915991,5000,7.30333471298218,7.30333471298218,7.30333471298218,45455.7551560529,1320.59734301147,46776.3524990643,,,10.8699998855591,0,8796.45443062918,8836.23774688271
2011-06-01T05:01:59Z,1306904519,1DE0A,55.6796717,25.8354187,1227.51,-3.9,-8.3,156,-56570.26,-36810.78,156.5,Weapon+Missile,Red,Allies,R-27ER,,xu,,900.765167775771,840.188537597656,2.68344363699773,1227.50610351562,1227.50610351562,892.852903624318,-119.12841796875,0.305790294643109,NaN,1.27691752571222,4.16348524255384,5000,5.76354551315308,5.76354551315308,5.76354551315308,40568.8943739057,1203.77227300415,41772.6666469098,,,11.8699998855591,0,9692.81295291634,9740.65716257277
2011-06-01T05:02:00Z,1306904520,1DE0A,55.6828371,25.8285734,1109.84,-3.4,-7.8,158.5,-56260.58,-37572.14,159.1,Weapon+Missile,Red,Allies,R-27ER,,xu,,830.315177648713,779.614868164062,2.47020424442063,1109.83996582031,1109.83996582031,821.935504935565,-117.666137695312,0.12129714135828,NaN,0.399975877795947,2.82250139620055,5000,3.38237118721008,3.38237118721008,3.38237118721008,34471.1647116907,1088.38121008118,35559.5459217719,,,12.8699998855591,0,10518.1968806163,10574.5358266538
2011-06-01T05:02:01Z,1306904521,1DE0A,55.6855166,25.8221601,1009.18,-3,-7.3,160,-55999.1,-38285.17,160.6,Weapon+Missile,Red,Allies,R-27ER,,xu,,766.100281792008,723.630676269531,2.27651864937639,1009.18383789062,1009.18383789062,759.459008552797,-100.656127929688,0.0216703982043522,NaN,0.399975877795947,1.77750582524216,5000,2.60781168937683,2.60781168937683,2.60781168937683,29345.4820880897,989.67126838501,30335.1533564747,,,13.8699998855591,0,11280.9429190747,11344.0203800835
2011-06-01T05:02:02Z,1306904522,1DE0A,55.6878508,25.8161076,922.43,-2.6,-6.8,161.5,-55771.78,-38957.87,162.1,Weapon+Missile,Red,Allies,R-27ER,,xu,,715.353514667696,679.249084472656,2.12359936520884,922.427673339844,922.427673339844,710.073248939758,-86.7561645507812,0.0388174380595776,NaN,0.476894480020868,1.47431212715971,5000,2.16165614128113,2.16165614128113,2.16165614128113,25586.5325473713,904.592534275818,26491.1250816471,,,14.8699998855591,0,11994.1457546431,12062.587687279
2011-06-01T05:02:03Z,1306904523,1DE0A,55.6898736,25.8104084,843.95,-2.1,-6.7,162.9,-55575.3,-39591.13,163.5,Weapon+Missile,Red,Allies,R-27ER,,xu,,667.671791666924,637.150573730469,1.98026495101364,843.947692871094,843.947692871094,663.04337267885,-78.47998046875,0,NaN,0.553812655358967,1.48304964665545,5000,1.2995947599411,1.2995947599411,1.2995947599411,22289.281069386,827.629964229431,23116.9110336154,,,15.8699998855591,0,12660.1759733346,12733.3173038614
2011-06-01T05:02:04Z,1306904524,1DE0A,55.6917061,25.805104,772.86,-1.7,-6.3,160.5,-55397.42,-40180.47,161,Weapon+Missile,Red,Allies,R-27ER,,xu,,619.685943037158,594.286743164062,1.83644460251928,772.863830566406,772.863830566406,615.595445497853,-71.0838623046875,0.641272985899566,NaN,0.553812655358967,1.14108096465483,5000,3.12563538551331,3.12563538551331,3.12563538551331,19200.5333998926,757.920508402405,19958.453908295,,,16.8699998855591,0,13278.5624834019,13355.8538357611
2011-06-01T05:02:05Z,1306904525,1DE0A,55.6936452,25.8002766,710.13,-1.4,-6.3,159.9,-55208.32,-40717.07,160.4,Weapon+Missile,Red,Allies,R-27ER,,xu,,572.395944491325,551.60205078125,1.69508208556881,710.13232421875,710.13232421875,568.948042778486,-62.7315063476562,0.0608001086142946,NaN,0.400030519309307,1.94020061110675,5000,1.02306568622589,1.02306568622589,1.02306568622589,16381.8558635058,696.40191572998,17078.2577792358,,,17.8699998855591,0,13849.9997876337,13930.7901485034
2011-06-01T05:02:06Z,1306904526,1DE0A,55.6954845,25.7957338,651.22,-1.2,-6.3,159.9,-55028.89,-41222.06,160.4,Weapon+Missile,Red,Allies,R-27ER,,xu,,539.145422956617,521.72607421875,1.59553930127908,651.21923828125,651.21923828125,535.917004209039,-58.9130859375,0.0460624512718307,NaN,0.230763704080993,0.0532655904281015,5000,0.994361579418182,0.994361579418182,0.994361579418182,14533.8893547535,638.627914309082,15172.5172690626,,,18.8699998855591,0,14388.2508810453,14472.3128453916
2011-06-01T05:02:07Z,1306904527,1DE0A,55.6972123,25.7914668,595.9,-0.9,-6.3,159.9,-54860.32,-41696.38,160.4,Weapon+Missile,Red,Allies,R-27ER,,xu,,506.415666723904,492.059478759766,1.49773276086144,595.901550292969,595.901550292969,503.385320504132,-55.3176879882812,0.0474484715926522,NaN,0.369208436905978,0.0197823405926261,5000,0.993539214134216,0.993539214134216,0.993539214134216,12822.8413751708,584.379793818054,13407.2211689889,,,19.8699998855591,0,14893.8398325145,14980.9681495541
2011-06-01T05:02:08Z,1306904528,1DE0A,55.6988359,25.7874567,543.93,-0.8,-6.3,159.9,-54701.91,-42142.14,160.4,Weapon+Missile,Red,Allies,R-27ER,,xu,,475.91272325351,464.208038330078,1.40668554063151,543.926940917969,543.926940917969,473.066126598478,-51.974609375,0.0478317031384606,NaN,0.199987938897973,0.0197823405926261,5000,0.99432247877121,0.99432247877121,0.99432247877121,11324.6460077286,533.41011351532,11858.0561212439,,,20.8699998855591,0,15368.9797054509,15458.9844730938
2011-06-01T05:02:09Z,1306904529,1DE0A,55.7003643,25.7836821,495.02,-0.6,-6.3,159.9,-54552.79,-42561.74,160.4,Weapon+Missile,Red,Allies,R-27ER,,xu,,447.98935455902,438.514953613281,1.32341297741995,495.019989013672,495.019989013672,445.31176927366,-48.9069519042969,0.0489738043232914,NaN,0.200042580411333,0.0197823405926261,5000,0.993672072887421,0.993672072887421,0.993672072887421,10034.7230899103,485.448777526093,10520.1718674364,,,21.8699998855591,0,15816.2289154989,15908.9359490648
2011-06-01T05:02:10Z,1306904530,1DE0A,55.7017991,25.7801383,449.12,-0.5,-6.3,159.9,-54412.78,-42955.66,160.4,Weapon+Missile,Red,Allies,R-27ER,,xu,,420.575300610781,413.002807617188,1.24177972082757,449.118438720703,449.118438720703,418.062951198203,-45.9015502929688,0.048493835744864,NaN,0.199987938897973,0.0197823405926261,5000,0.992030322551727,0.992030322551727,0.992030322551727,8844.17917419244,440.434733708038,9284.61390790048,,,22.8699998855591,0,16236.120262981,16331.3596646408
2011-06-01T05:02:11Z,1306904531,1DE0A,55.7031403,25.7768252,406.2,-0.4,-6.3,159.9,-54281.89,-43323.93,160.4,Weapon+Missile,Red,Allies,R-27ER,,xu,,393.18391393454,387.161163330078,1.16033829054282,406.203826904297,406.203826904297,390.83490922579,-42.9146118164062,0.0492170038866931,NaN,0.199987938897973,0.0197823405926261,5000,0.993796110153198,0.993796110153198,0.993796110153198,7729.6795088442,398.349875911102,8128.02938475531,,,23.8699998855591,0,16628.666461247,16726.2708527815
2011-06-01T05:02:12Z,1306904532,1DE0A,55.704403,25.7737061,365.81,-0.3,-6.3,159.9,-54158.67,-43670.64,160.4,Weapon+Missile,Red,Allies,R-27ER,,xu,,370.16949587594,365.225341796875,1.09191855244532,365.813079833984,365.813079833984,367.959295613182,-40.3907470703125,0.0495175976018914,NaN,0.199987938897973,0.0197823405926261,5000,0.993131756782532,0.993131756782532,0.993131756782532,6851.27278385237,358.740083935394,7210.01286778776,,,24.8699998855591,0,16998.2378011945,17098.0650437204
2011-06-01T05:02:13Z,1306904533,1DE0A,55.7055865,25.7707824,327.96,-0.3,-6.3,159.9,-54043.16,-43995.62,160.4,Weapon+Missile,Red,Allies,R-27ER,,xu,,346.969910132522,342.80029296875,1.02304526914771,327.959991455078,327.959991455078,344.898915970388,-37.8530883789062,0.050904258772654,NaN,0,0.0197823405926261,5000,0.991934359073639,0.991934359073639,0.991934359073639,6019.40592686851,321.618885020294,6341.0248118888,,,25.8699998855591,0,17344.6533588949,17446.5613112929
2011-06-01T05:02:14Z,1306904534,1DE0A,55.7066872,25.7680632,292.75,-0.2,-6.3,159.9,-53935.73,-44297.88,160.4,Weapon+Missile,Red,Allies,R-27ER,,xu,,322.710775266342,319.170104980469,0.951137035466862,292.749206542969,292.749206542969,320.784109797971,-35.2107849121094,0.0504193433663822,NaN,0.200042580411333,0.0197823405926261,5000,0.993819415569305,0.993819415569305,0.993819415569305,5207.11222365019,287.08890063446,5494.20112428465,,,26.8699998855591,0,17666.8349454536,17770.676840182
2011-06-01T05:02:15Z,1306904535,1DE0A,55.7077306,25.7654855,259.38,-0.2,-6.3,159.9,-53833.89,-44584.42,160.4,Weapon+Missile,Red,Allies,R-27ER,,xu,,305.923025326554,302.882904052734,0.901317021854569,259.379211425781,259.379211425781,304.097584421235,-33.3699951171875,0.0505729236392451,NaN,0,0.0197823405926261,5000,0.992610394954681,0.992610394954681,0.992610394954681,4679.44487124756,254.364114372864,4933.80898562042,,,27.8699998855591,0,17972.2629674438,18077.9355402453
2011-06-01T05:02:16Z,1306904536,1DE0A,55.708715,25.7630534,227.89,-0.2,-6.3,159.9,-53737.8,-44854.75,160.4,Weapon+Missile,Red,Allies,R-27ER,,xu,,288.621627967263,286.045715332031,0.850040177498728,227.894607543945,227.894607543945,286.899222461262,-31.4846038818359,0.0497968831912229,NaN,0.0153836670841315,0.0197823405926261,5000,0.993151664733887,0.993151664733887,0.993151664733887,4165.12220652365,223.488265307083,4388.61047183074,,,28.8699998855591,0,18260.4209351496,18367.8193763304
2011-06-01T05:02:17Z,1306904537,1DE0A,55.7096545,25.760732,197.84,-0.1,-6.3,159.9,-53646.09,-45112.78,160.4,Weapon+Missile,Red,Allies,R-27ER,,xu,,275.490168484685,273.321136474609,0.811089930475969,197.843078613281,197.843078613281,273.846195045046,-30.0515289306641,0.051877587965319,NaN,0,0.0197823405926261,5000,0.993582189083099,0.993582189083099,0.993582189083099,3794.741646586,194.017782688293,3988.75942927429,,,29.8699998855591,0,18535.4710368797,18644.5154238441
2011-06-01T05:02:18Z,1306904538,1DE0A,55.710544,25.7585345,169.4,-0.1,-6.3,159.9,-53559.27,-45357.05,160.4,Weapon+Missile,Red,Allies,R-27ER,,xu,,260.79192450558,259.002899169922,0.767568897343951,169.400756835938,169.400756835938,259.236305750638,-28.4423217773438,0.0516860139830437,NaN,0,0.0197823405926261,5000,0.992921352386475,0.992921352386475,0.992921352386475,3400.62139436621,166.125393202515,3566.74678756873,,,30.8699998855591,0,18795.8407229512,18906.4414487729
2011-06-01T05:02:19Z,1306904539,1DE0A,55.7113993,25.7564211,142.04,-0.1,-6.3,159.9,-53475.77,-45591.97,160.4,Weapon+Missile,Red,Allies,R-27ER,,xu,,250.815325986545,249.356140136719,0.737977353657965,142.043075561523,142.043075561523,249.318842097874,-27.3576812744141,0.0501328010727334,NaN,0,0.0197823405926261,5000,0.99338436126709,0.99338436126709,0.99338436126709,3145.41638748684,139.296672695541,3284.71306018238,,,31.8699998855591,0,19046.2480392275,19158.3448600805
2011-06-01T05:02:20Z,1306904540,1DE0A,55.7122162,25.7544024,115.91,-0.1,-6.3,159.9,-53396.02,-45816.36,160.4,Weapon+Missile,Red,Allies,R-27ER,,xu,,239.569290794982,238.418014526367,0.704680012371957,115.913841247559,115.913841247559,238.140102053763,-26.1292343139648,0.0524024966768957,NaN,0,0.0197823405926261,5000,0.9937704205513,0.9937704205513,0.9937704205513,2869.67225460054,113.672647127037,2983.34490172758,,,32.8699998855591,0,19285.4267156733,19398.951364208
2011-06-01T05:02:21Z,1306904541,1DE0A,55.7130001,25.7524652,90.84,-0.1,-6.3,159.9,-53319.48,-46031.68,160.4,Weapon+Missile,Red,Allies,R-27ER,,xu,,229.892617479293,229.01806640625,0.676025289652198,90.844612121582,90.844612121582,228.521660510573,-25.0692291259766,0.0515550721006883,NaN,0,0.0197823405926261,5000,0.99343603849411,0.99343603849411,0.99343603849411,2642.53077857402,89.0881315462112,2731.61891012024,,,33.8699998855591,0,19514.9549834797,19629.8483104933
2011-06-01T05:02:22Z,1306904542,1DE0A,55.7137536,25.7506033,66.75,0,-6.3,159.9,-53245.91,-46238.63,160.4,Weapon+Missile,Red,Allies,R-27ER,,xu,,220.957292879357,220.334594726562,0.64957337698818,66.7507705688477,66.7507705688477,219.639732461606,-24.0938415527344,0.0507527905557248,NaN,0,0.0197823405926261,5000,0.992806673049927,0.992806673049927,0.992806673049927,2441.1062638287,65.460144419899,2506.5664082486,,,34.8699998855591,0,19735.552855194,19851.7607630998
2011-06-01T05:02:23Z,1306904543,1DE0A,55.7144806,25.7488067,43.5,0,-6.3,159.9,-53174.93,-46438.33,160.4,Weapon+Missile,Red,Allies,R-27ER,,xu,,213.206993579264,212.813186645508,0.626624619209945,43.496150970459,43.496150970459,211.935001305689,-23.2546195983887,0.0524162625580861,NaN,0,0.0197823405926261,5000,0.99374133348465,0.99374133348465,0.99374133348465,2272.86110555541,42.6551528914452,2315.51625844685,,,35.8699998855591,0,19948.4263408015,20065.902495343
2011-06-01T05:02:24Z,1306904544,1DE0A,55.7151759,25.7470883,21.26,0,-6.3,159.9,-53107.04,-46629.34,160.4,Weapon+Missile,Red,Allies,R-27ER,,xu,,203.93429553019,203.750091552734,0.599221563281122,21.2569236755371,21.2569236755371,202.718064470633,-22.2392272949219,0.0524484535056032,NaN,0,0.0197823405926261,5000,0.993465840816498,0.993465840816498,0.993465840816498,2079.45984466975,20.8459210562706,2100.30576572602,,,36.8699998855591,0,20152.0226893576,20270.7108867902
2011-06-01T05:02:25Z,1306904545,1DE0A,55.7158479,25.7454276,-0.23,0,-6.3,159.9,-53041.44,-46813.92,160.4,Weapon+Missile,Red,Allies,R-27ER,,xu,,197.069675450474,197.074661254883,0.578911052649468,-0.233846247196198,-0.233846247196198,195.894368960119,-21.4907699227333,0.0510413622647501,NaN,0,0.0197823405926261,5000,0.993288099765778,0.993288099765778,0.993288099765778,1941.82284910775,-0.229324830006659,1941.59352427775,,,37.8699998855591,0,20348.7867221378,20468.6453845422
2011-06-01T05:02:26Z,1306904546,1DE0A,55.7164952,25.7438278,-20.94,0,-6.3,159.9,-52978.23,-46991.75,160.4,Weapon+Missile,Red,Allies,R-27ER,,xu,,189.859726079065,190.036499023438,0.55760113579772,-20.939998626709,-20.939998626709,188.727239264644,-20.7061523795128,0.0532995424367341,NaN,0,0.0197823405926261,5000,0.994002938270569,0.994002938270569,0.994002938270569,1802.33577934089,-20.5351237532616,1781.80065558762,,,38.8699998855591,0,20538.3356127971,20659.3215692682
2011-06-01T05:02:27Z,1306904547,1DE0A,55.7171208,25.7422816,-40.95,0,-6.3,159.9,-52917.14,-47163.61,160.4,Weapon+Missile,Red,Allies,R-27ER,,xu,,183.484378928589,183.817764282227,0.538756004175169,-40.9461517333984,-40.9461517333984,182.390436012094,-20.0061531066895,0.0500318781434784,NaN,0,0.0197823405926261,5000,0.993768870830536,0.993768870830536,0.993768870830536,1683.3258655405,-40.1544578896332,1643.17140765086,,,39.8699998855591,0,20721.5299670344,20843.6042107673
2011-06-01T05:02:28Z,1306904548,1DE0A,55.7177268,25.740784,-60.32,0,-6.3,159.9,-52857.96,-47330.07,160.4,Weapon+Missile,Red,Allies,R-27ER,,xu,,177.733179071451,178.210586547852,0.52175531330233,-60.3230743408203,-60.3230743408203,176.673760963846,-19.3769226074219,0.0511936605406314,NaN,0,0.0197823405926261,5000,0.993261575698853,0.993261575698853,0.993261575698853,1579.45414714222,-59.1567276984405,1520.29741944378,,,40.8699998855591,0,20898.9704415547,21022.0981524649
2011-06-01T05:02:29Z,1306904549,1DE0A,55.7183109,25.7393404,-79,0,-6.3,159.9,-52800.92,-47490.54,160.4,Weapon+Missile,Red,Allies,R-27ER,,xu,,171.320037236144,171.925399780273,0.502823213494515,-79.0030746459961,-79.0030746459961,170.298598782234,-18.6800003051758,0.0512298515620494,NaN,0,0.0197823405926261,5000,0.993676245212555,0.993676245212555,0.993676245212555,1467.52775792969,-77.4755501977158,1390.05220773197,,,41.8699998855591,0,21070.0126728458,21194.1555505454
2011-06-01T05:02:30Z,1306904550,1DE0A,55.7188772,25.7379407,-97.11,0,-6.3,159.9,-52745.62,-47646.1,160.4,Weapon+Missile,Red,Allies,R-27ER,,xu,,166.093430482429,166.817489624023,0.487383952447071,-97.1123123168945,-97.1123123168945,165.103249999509,-18.1092376708984,0.0502892882444506,NaN,0,0.0197823405926261,5000,0.894954085350037,0.894954085350037,0.894954085350037,1379.35138247107,-95.2346457582474,1284.11673671283,,,42.8699998855591,0,21235.8498297579,21360.9762558342
2011-06-01T05:02:31Z,1306904551,1DE0A,55.7194194,25.7366008,-115.42,0.4,-7.9,159.9,-52692.67,-47795.05,160.4,Weapon+Missile,Red,Allies,R-27ER,,xu,,159.137592926648,159.966613769531,0.466876720421314,-115.423072814941,-115.423072814941,158.080642497653,-18.3107604980469,0.0694304713227278,NaN,0.892307759279808,1.66159623436657,3107.44747558659,0.171181946992874,0.171181946992874,0.171181946992874,1266.23867412438,-113.191367702065,1153.04730642231,,,43.8699998855591,0,21394.6151166276,21520.7913375106
2011-06-01T05:02:32Z,1306904552,1DE0A,55.7199448,25.7353032,-141.15,1.2,-11.4,159.8,-52641.36,-47939.28,160.4,Weapon+Missile,Red,Allies,R-27ER,,xu,,155.22868761079,156.220397949219,0.455277246157042,-141.153839111328,-141.153839111328,153.081263135529,-25.7307662963867,0.0470918048221257,NaN,0.76923073864394,3.40004042118884,2509.17263657761,0.0141959730535746,0.0141959730535746,0.0141959730535746,1204.79727286841,-138.424629632111,1066.3726432363,,,44.8699998855591,0,21548.370242166,21676.6815551887
2011-06-01T05:02:33Z,1306904553,1DE0A,55.7204542,25.7340474,-175.6,1.9,-14.9,159.8,-52591.61,-48078.86,160.4,Weapon+Missile,Red,Allies,R-27ER,,xu,,152.133619552458,153.345458984375,0.446027158817742,-175.59846496582,-175.59846496582,148.183015045166,-34.4446258544922,0.060319573633188,NaN,0.769230845365645,3.51187793865863,2449.19148654169,0.0205501951277256,0.0205501951277256,0.0205501951277256,1157.2319099066,-172.203268645706,985.02864126089,,,45.8699998855591,0,21697.2083557029,21829.4497329912
2011-06-01T05:02:34Z,1306904554,1DE0A,55.7209436,25.7328442,-218.06,2.4,-18.5,159.7,-52543.8,-48212.59,160.3,Weapon+Missile,Red,Allies,R-27ER,,xu,,148.227587889059,149.698257446289,0.434368603273298,-218.055374145508,-218.055374145508,142.017001356585,-42.4569091796875,0.0720630662473677,NaN,0.461538507219387,3.53495501342999,2435.66176778669,0.0303572975099087,0.0303572975099087,0.0303572975099087,1098.57089057043,-213.839273486404,884.731617084028,,,46.8699998855591,0,21839.8479082364,21978.2696757429
