ISOTime,UnixTime,Id,Longitude,Latitude,Altitude,Roll,Pitch,Yaw,U,V,Heading,Type,Color,Coalition,Name,Group,Country,Pilot,TAS,CAS,M,ASL,AGL,GS,VS,AOA,AOS,RRT,TRT,TRD,G,LatG,LonG,Ek,Ep,Em,FFW,FFV,RelativeTime,Elev,GroundDistance,AirDistance
2011-06-01T04:56:46Z,1306904206,2308,55.8118794,25.9777593,9417.8,-2.5,-5,192,-43176.01,-21171.99,192.6,Weapon+Missile,Red,Allies,R-27ER,,xu,,285.10188093271,184.394943237305,0.9435376312133,9417.7978515625,9417.7978515625,NaN,NaN,3.70968153809966,NaN,0.199987938897973,0.451325565319156,NaN,NaN,NaN,NaN,NaN,9235.70473010254,NaN,,,0.509999990463257,0,NaN,NaN
2011-06-01T04:56:47Z,1306904207,2308,55.8111495,25.9747048,9358.24,-2.2,-5.9,192,-43252.16,-21509.64,192.5,Weapon+Missile,Red,Allies,R-27ER,,xu,,351.217141648809,234.455352783203,1.16135630391524,9358.240234375,9358.240234375,346.130569038487,-59.5576171875,3.09178428067395,NaN,0.399975877795947,1.27010878760507,5000,2.20860838890076,2.20860838890076,2.20860838890076,6167.67402939796,9177.29865944336,15344.9726888413,,,1.50999999046326,0,347.782431736774,353.349760776801
2011-06-01T04:56:48Z,1306904208,2308,55.8100564,25.9694888,9280.27,-1.9,-6.8,189.2,-43366.85,-22086.35,189.7,Weapon+Missile,Red,Allies,R-27ER,,xu,,593.14951320999,394.164215087891,1.95916656818873,9280.2724609375,9280.2724609375,588.002866767201,-77.9677734375,0.165287814854544,NaN,0.261522820677911,2.54713826438666,5000,4.8519811630249,4.8519811630249,4.8519811630249,17591.3172510624,9100.83839290527,26692.1556439677,,,2.50999999046326,0,938.639800084354,950.185033382912
2011-06-01T04:56:49Z,1306904209,2308,55.8090076,25.9618713,9168.51,-1.5,-8.2,184.8,-43479.53,-22929.09,185.3,Weapon+Missile,Red,Allies,R-27ER,,xu,,857.558265613305,547.644836425781,2.82800980909518,9168.509765625,9168.509765625,850.244246589287,-111.7626953125,0.130400771301282,NaN,0.36926329186275,4.50675859740764,5000,7.58487129211426,7.58487129211426,7.58487129211426,36770.308946085,8991.23662930664,45761.5455753916,,,3.50999999046326,0,1793.08974593292,1813.13862974134
2011-06-01T04:56:50Z,1306904210,2308,55.8085153,25.9523351,9003.93,-1.2,-9.2,182.1,-43538.43,-23984.86,182.6,Weapon+Missile,Red,Allies,R-27ER,,xu,,1070.14263190373,675.490661621094,3.5208454237964,9003.9287109375,9003.9287109375,1057.41114475675,-164.5810546875,0.12757107470458,NaN,0.230755379787942,2.38499426924561,5000,0.510694265365601,0.510694265365601,0.510694265365601,57260.2626308918,8829.83774931152,66090.1003802033,,,4.50999999046326,0,2855.80176171374,2890.01549403189
2011-06-01T04:56:51Z,1306904211,2308,55.8080097,25.9424755,8828.81,-1,-9.1,183.3,-43599,-25076.43,183.8,Weapon+Missile,Red,Allies,R-27ER,,xu,,1107.18424815304,703.712707519531,3.63373763524824,8828.8095703125,8828.8095703125,1093.24756846058,-175.119140625,0.03689832512667,NaN,0.199987938897973,0.888590909071704,5000,2.77948689460754,2.77948689460754,2.77948689460754,61292.8479679108,8658.10453727051,69950.9525051813,,,5.50999999046326,0,3954.53129695717,4004.12990145214
2011-06-01T04:56:52Z,1306904212,2308,55.8072299,25.9323918,8647.95,-0.9,-9.4,184.9,-43687.25,-26192.55,185.4,Weapon+Missile,Red,Allies,R-27ER,,xu,,1134.12060129277,726.694091796875,3.71271547633579,8647.9482421875,8647.9482421875,1119.60650152879,-180.861328125,0.0829910202277696,NaN,0,1.64186104309006,5000,3.81129789352417,3.81129789352417,3.81129789352417,64311.4769138336,8480.7401629248,72792.2170767584,,,6.50999999046326,0,5079.74826615784,5145.31161609041
2011-06-01T04:56:53Z,1306904213,2308,55.8060725,25.9221707,8445.67,-0.9,-10.9,186.8,-43813.49,-27323.56,187.3,Weapon+Missile,Red,Allies,R-27ER,,xu,,1155.87133807665,747.837341308594,3.77326131057309,8445.673828125,8445.673828125,1138.03497819829,-202.2744140625,0.0489078606249574,NaN,0,2.22948025335453,5000,4.42517709732056,4.42517709732056,4.42517709732056,66801.9275093555,8282.3767246582,75084.3042340137,,,7.50999999046326,0,6223.44612271361,6308.26805475569
2011-06-01T04:56:54Z,1306904214,2308,55.8045325,25.9118918,8208.93,-1,-12.5,188.6,-43978.12,-28460.63,189.2,Weapon+Missile,Red,Allies,R-27ER,,xu,,1173.06109248175,768.008361816406,3.81683087758437,8208.92578125,8208.92578125,1148.922403383,-236.748046875,0.0800307581981024,NaN,0.199987938897973,2.35324264078493,5000,4.12692451477051,4.12692451477051,4.12692451477051,68803.6163347244,8050.20620126953,76853.822535994,,,8.50999999046326,0,7378.03081950669,7488.35221906268
2011-06-01T04:56:55Z,1306904215,2308,55.8026512,25.9015675,7936.21,-1,-13.9,190.1,-44176.99,-29602.4,190.6,Weapon+Missile,Red,Allies,R-27ER,,xu,,1190.62010184214,790.345947265625,3.85944980549334,7936.2099609375,7936.2099609375,1158.96605138454,-272.7158203125,0.0348330196840368,NaN,0,2.11188979561289,5000,3.27846622467041,3.27846622467041,3.27846622467041,70878.8113455296,7782.76334134277,78661.5746868723,,,9.50999999046326,0,8542.66384383689,8685.92459067634
2011-06-01T04:56:56Z,1306904216,2308,55.8004714,25.8911221,7631.34,-1.1,-15,191.2,-44405.93,-30757.31,191.8,Weapon+Missile,Red,Allies,R-27ER,,xu,,1216.20796195741,819.737487792969,3.92601652519638,7631.34326171875,7631.34326171875,1177.37763798879,-304.86669921875,0.0450190378460754,NaN,0,1.5364074046167,5000,2.32551908493042,2.32551908493042,2.32551908493042,73958.0903364301,7483.79123975342,81441.8815761835,,,10.5099999904633,0,9725.75188547843,9909.05967680577
2011-06-01T04:56:57Z,1306904217,2308,55.7981163,25.8808225,7309.47,-1.1,-16,192.3,-44652.33,-31895.9,192.9,Weapon+Missile,Red,Allies,R-27ER,,xu,,1208.59696848337,828.928894042969,3.88448273645911,7309.4658203125,7309.4658203125,1164.94701379116,-321.87744140625,0.0689771639843981,NaN,0.199987938897973,1.47630248697253,5000,2.9953145980835,2.9953145980835,2.9953145980835,73035.3316113591,7168.13729867676,80203.4689100359,,,11.5099999904633,0,10896.3032565157,11124.3815084909
2011-06-01T04:56:58Z,1306904218,2308,55.7956326,25.8710914,6980.65,-1.1,-17.1,193.6,-44911.06,-32971.41,194.2,Weapon+Missile,Red,Allies,R-27ER,,xu,,1154.02526472302,807.037109375,3.69275529102085,6980.65283203125,6980.65283203125,1106.19000644401,-328.81298828125,0.119682699720933,NaN,0,1.49730286407109,5000,2.18378782272339,2.18378782272339,2.18378782272339,66588.7155809522,6845.68190952393,73434.3974904761,,,12.5099999904633,0,12007.7649269469,12284.6549037647
2011-06-01T04:56:59Z,1306904219,2308,55.7931086,25.8619881,6655.78,-1.1,-17.8,194.5,-45173.23,-33977.35,195,Weapon+Missile,Red,Allies,R-27ER,,xu,,1089.12595045464,776.746215820312,3.4700542241081,6655.77880859375,6655.77880859375,1039.54422938576,-324.8740234375,0.0172209439946181,NaN,0,1.24379196201131,5000,1.60327672958374,1.60327672958374,1.60327672958374,59309.7667976856,6527.08932532959,65836.8561230152,,,13.5099999904633,0,13052.2042487701,13379.5202445266
2011-06-01T04:57:00Z,1306904220,2308,55.7905871,25.8533531,6327.57,-1.2,-19,195.2,-45434.71,-34931.4,195.7,Weapon+Missile,Red,Allies,R-27ER,,xu,,1042.26030793735,757.548522949219,3.30639235198667,6327.57421875,6327.57421875,989.236218861377,-328.20458984375,0.0633644041517094,NaN,0,1.20095909867422,5000,1.38642334938049,1.38642334938049,1.38642334938049,54315.3274750829,6205.23057123047,60520.5580463133,,,14.5099999904633,0,14046.0795340737,14427.1452262141
2011-06-01T04:57:01Z,1306904221,2308,55.788106,25.8452223,5999.61,-1.2,-19.7,195.8,-45691.68,-35829.66,196.3,Weapon+Missile,Red,Allies,R-27ER,,xu,,990.178793566648,733.593994140625,3.12773069127746,5999.6123046875,5999.6123046875,934.288513337055,-327.9619140625,0.0677154688279598,NaN,0,1.20551387435526,5000,1.95230484008789,1.95230484008789,1.95230484008789,49022.7021614552,5883.60980077637,54906.3119622315,,,15.5099999904633,0,14984.7025883444,15422.2712653593
2011-06-01T04:57:02Z,1306904222,2308,55.7855837,25.8375862,5677.05,-1.3,-20.4,197.8,-45952.27,-36673.07,198.3,Weapon+Missile,Red,Allies,R-27ER,,xu,,939.840898181524,709.468994140625,2.9563355531714,5677.0498046875,5677.0498046875,882.753843089003,-322.5625,0.0370377804293776,NaN,0.199987938897973,1.83399842658904,5000,3.5342423915863,3.5342423915863,3.5342423915863,44165.0456947327,5567.28404671387,49732.3297414465,,,16.5099999904633,0,15871.5156104374,16366.6887140166
2011-06-01T04:57:03Z,1306904223,2308,55.7828725,25.8304377,5358.92,-1.5,-21.2,200.2,-46231.34,-37462.3,200.7,Weapon+Missile,Red,Allies,R-27ER,,xu,,895.527136140192,688.388122558594,2.80544333030678,5358.91796875,5358.91796875,837.114679435553,-318.1318359375,0.0340438701906725,NaN,0.138461594854498,2.30347959003951,5000,3.43396329879761,3.43396329879761,3.43396329879761,40098.4425781727,5255.30328982422,45353.7458679969,,,17.5099999904633,0,16712.3656059516,17266.3889234908
2011-06-01T04:57:04Z,1306904224,2308,55.7799909,25.8237502,5046.93,-1.5,-21.6,202.4,-46527.05,-38200.3,202.9,Weapon+Missile,Red,Allies,R-27ER,,xu,,854.068460500068,668.177551269531,2.66493793157716,5046.92724609375,5046.92724609375,795.043850487121,-311.99072265625,0.0491023557366169,NaN,0.0769352508110236,2.05065586904325,5000,2.67214322090149,2.67214322090149,2.67214322090149,36471.6467610478,4949.34490779053,41420.9916688384,,,18.5099999904633,0,17510.8469527107,18124.2649558946
2011-06-01T04:57:05Z,1306904225,2308,55.7770288,25.817504,4744.33,-1.6,-22.1,204,-46830.41,-38889.35,204.5,Weapon+Missile,Red,Allies,R-27ER,,xu,,811.407081643833,645.806701660156,2.52214436202696,4744.32861328125,4744.32861328125,752.871515971861,-302.5986328125,0.0314465946086254,NaN,0,1.55659787069008,5000,1.71477830410004,1.71477830410004,1.71477830410004,32919.0726070881,4652.59701954346,37571.6696266315,,,19.5099999904633,0,18266.8759598814,18939.141374047
2011-06-01T04:57:06Z,1306904226,2308,55.7740667,25.8116202,4451.07,-1.5,-22.5,204.9,-47133.43,-39538.26,205.5,Weapon+Missile,Red,Allies,R-27ER,,xu,,773.888607773072,626.097778320312,2.39667826431648,4451.06982421875,4451.06982421875,716.172367435759,-293.2587890625,0.0702598453860834,NaN,0,0.939130413587537,5000,0.992566108703613,0.992566108703613,0.992566108703613,29945.1788620472,4365.00838916748,34310.1872512147,,,20.5099999904633,0,18985.9817869586,19716.2254760123
2011-06-01T04:57:07Z,1306904227,2308,55.7711864,25.8060662,4169.17,-1.3,-22.6,205.3,-47427.91,-40150.71,205.8,Weapon+Missile,Red,Allies,R-27ER,,xu,,735.725822579197,604.721374511719,2.27049418035814,4169.1650390625,4169.1650390625,679.574998153879,-281.90478515625,0.024458479863598,NaN,0.199987938897973,0.403970177758655,5000,0.830303132534027,0.830303132534027,0.830303132534027,27064.6243004918,4088.55423303223,31153.178533524,,,21.5099999904633,0,19668.3157165966,20454.9266036464
2011-06-01T04:57:08Z,1306904228,2308,55.7684238,25.8007768,3899.16,-1.1,-22.6,205.2,-47710.36,-40733.96,205.8,Weapon+Missile,Red,Allies,R-27ER,,xu,,702.035772755418,585.689453125,2.15929121518271,3899.16381835938,3899.16381835938,648.038245049719,-270.001220703125,0.0268811692135571,NaN,0.200042580411333,0.0463937064216612,5000,1.09742498397827,1.09742498397827,1.09742498397827,24642.7113114148,3823.7734859314,28466.4847973462,,,22.5099999904633,0,20318.9764152625,21159.7639762069
2011-06-01T04:57:09Z,1306904229,2308,55.7657977,25.795683,3641.1,-0.7,-22.4,204.7,-47978.95,-41295.67,205.2,Weapon+Missile,Red,Allies,R-27ER,,xu,,673.985614995412,570.112487792969,2.06644285101691,3641.09594726562,3641.09594726562,622.621540849562,-258.06787109375,0.0405635425725362,NaN,0.369208543627684,0.533397753538328,5000,1.51261031627655,1.51261031627655,1.51261031627655,22712.8304610372,3570.69535712524,26283.5258181624,,,23.5099999904633,0,20944.1219862765,21836.4235368882
2011-06-01T04:57:10Z,1306904230,2308,55.7633483,25.7907672,3397.28,-0.3,-21.9,203.6,-48229.66,-41837.82,204.1,Weapon+Missile,Red,Allies,R-27ER,,xu,,645.15277310943,552.968322753906,1.97215156912291,3397.27758789062,3397.27758789062,597.306209814088,-243.818359375,0.0618544237708148,NaN,0.507661707467426,1.36446528966786,5000,2.68103218078613,2.68103218078613,2.68103218078613,20811.1050325394,3331.59122572876,24142.6962582681,,,24.5099999904633,0,21543.8878358917,22484.1607766046
2011-06-01T04:57:11Z,1306904231,2308,55.7611874,25.7860205,3174.82,0.3,-20.7,201.1,-48451.27,-42361.51,201.6,Weapon+Missile,Red,Allies,R-27ER,,xu,,610.620717779194,530.091125488281,1.86154848711314,3174.81762695312,3174.81762695312,568.655631081645,-222.4599609375,0.066101988661276,NaN,0.769223321485388,2.35251415842126,5000,3.36952471733093,3.36952471733093,3.36952471733093,18642.8830490589,3113.43252813599,21756.3155771949,,,25.5099999904633,0,22114.9627810051,23097.3093374597
2011-06-01T04:57:12Z,1306904232,2308,55.7593325,25.7813874,2975.35,0.8,-19.4,198.7,-48642.11,-42872.9,199.3,Weapon+Missile,Red,Allies,R-27ER,,xu,,581.144621328931,510.228393554688,1.76741658673395,2975.34619140625,2975.34619140625,545.839003095615,-199.471435546875,0.0156398135713302,NaN,0.384615422682823,2.56784227530826,5000,3.08969664573669,3.08969664573669,3.08969664573669,16886.4535449773,2917.81787279541,19804.2714177727,,,26.5099999904633,0,22663.202322383,23680.9576404566
2011-06-01T04:57:13Z,1306904233,2308,55.7577545,25.7769024,2797.83,1.1,-18.1,196.6,-48805.02,-43368.16,197.1,Weapon+Missile,Red,Allies,R-27ER,,xu,,550.752401554105,488.621704101562,1.67140842632937,2797.82983398438,2797.82983398438,521.359905118607,-177.516357421875,0.0575867355293505,NaN,0.246153827828324,2.35074407220917,5000,2.85218811035156,2.85218811035156,2.85218811035156,15166.4103908807,2743.73379414429,17910.144185025,,,27.5099999904633,0,23186.9272723138,24234.1738805583
2011-06-01T04:57:14Z,1306904234,2308,55.7564106,25.7725542,2639.84,1.3,-16.8,194.7,-48944.33,-43848.48,195.2,Weapon+Missile,Red,Allies,R-27ER,,xu,,524.479896594931,469.601470947266,1.58866378324646,2639.84301757812,2639.84301757812,500.119313538327,-157.98681640625,0.062279427028281,NaN,0.199999891729021,2.22719491474693,5000,2.67916893959045,2.67916893959045,2.67916893959045,13753.9580966115,2588.80165283325,16342.7597494448,,,28.5099999904633,0,23689.3694878675,24761.0735715312
2011-06-01T04:57:15Z,1306904235,2308,55.7552383,25.7683441,2501.85,1.4,-15.1,193.8,-49066.31,-44313.67,194.3,Weapon+Missile,Red,Allies,R-27ER,,xu,,500.323335030607,451.601379394531,1.51299526853159,2501.84985351562,2501.84985351562,480.917171920663,-137.9931640625,0.0441942698114672,NaN,0,1.93421138897829,5000,2.6109459400177,2.6109459400177,2.6109459400177,12516.1719788074,2453.4765865979,14969.6485654054,,,29.5099999904633,0,24172.5434452666,25263.7538120524
2011-06-01T04:57:16Z,1306904236,2308,55.7541564,25.7643109,2385.94,1.5,-13.2,193.6,-49179.04,-44759.34,194.2,Weapon+Missile,Red,Allies,R-27ER,,xu,,474.087352059588,431.052307128906,1.43167789668675,2385.94384765625,2385.94384765625,459.700571229359,-115.906005859375,0.0820986174428582,NaN,0,1.79378888950177,5000,2.4121036529541,2.4121036529541,2.4121036529541,11237.9408691436,2339.81162336182,13577.7524925054,,,30.5099999904633,0,24634.4280168731,25740.1308465612
2011-06-01T04:57:17Z,1306904237,2308,55.7531195,25.7604754,2289.73,1.5,-11.6,193.9,-49287.04,-45183.16,194.5,Weapon+Missile,Red,Allies,R-27ER,,xu,,447.830111465755,409.751190185547,1.35083891709851,2289.73217773438,2289.73217773438,437.372979625256,-96.211669921875,0.0386788192330145,NaN,0,1.62721861161343,5000,2.127117395401,2.127117395401,2.127117395401,10027.5904367715,2245.46020607788,12273.0506428494,,,31.5099999904633,0,25073.8764070841,26190.1454767929
2011-06-01T04:57:18Z,1306904238,2308,55.752078,25.7567895,2207.8,1.4,-10.4,194.9,-49395.37,-45590.42,195.4,Weapon+Missile,Red,Allies,R-27ER,,xu,,429.308392561577,394.666687011719,1.2937119503979,2207.80151367188,2207.80151367188,421.417918710255,-81.9306640625,0.0143186259715845,NaN,0.199987938897973,1.5610247937676,5000,2.0880446434021,2.0880446434021,2.0880446434021,9215.28479619026,2165.11367140503,11380.3984675953,,,32.5099999904633,0,25497.2656909147,26621.5357241356
2011-06-01T04:57:19Z,1306904239,2308,55.751013,25.7533318,2139.25,1.3,-9.2,196.4,-49505.8,-45972.36,197,Weapon+Missile,Red,Allies,R-27ER,,xu,,403.454323212419,372.492279052734,1.21481475949604,2139.2470703125,2139.2470703125,397.587322753729,-68.554443359375,0.0290822103163494,NaN,0.153815860108687,1.88192394300432,5000,2.16755628585815,2.16755628585815,2.16755628585815,8138.76954593957,2097.88472820801,10236.6542741476,,,33.5099999904633,0,25896.7096405187,27026.9539586391
2011-06-01T04:57:20Z,1306904240,2308,55.7498944,25.7500854,2082.2,1.3,-8.1,198.3,-49621.42,-46330.86,198.9,Weapon+Missile,Red,Allies,R-27ER,,xu,,380.972334409947,352.712219238281,1.14634733239711,2082.20288085938,2082.20288085938,376.677421722354,-57.044189453125,0.0687992226680864,NaN,0,2.15823689799966,5000,2.08636426925659,2.08636426925659,2.08636426925659,7256.99597928822,2041.94348815796,9298.93946744618,,,34.5099999904633,0,26275.0983390238,27409.7421853954
2011-06-01T04:57:21Z,1306904241,2308,55.7487047,25.747008,2033.79,1.2,-7.2,200.3,-49743.98,-46670.57,200.9,Weapon+Missile,Red,Allies,R-27ER,,xu,,364.371534259158,337.860412597656,1.09576881019687,2033.7861328125,2033.7861328125,361.140462267714,-48.416748046875,0.0438554910323736,NaN,0,2.21573279010259,5000,1.99600160121918,1.99600160121918,1.99600160121918,6638.33074891865,1994.46287793457,8632.79362685322,,,35.5099999904633,0,26637.8455578786,27775.8223074778
2011-06-01T04:57:22Z,1306904242,2308,55.7474718,25.744165,1993.1,1.1,-6.5,202.6,-49870.64,-46984.28,203.1,Weapon+Missile,Red,Allies,R-27ER,,xu,,340.752254346233,315.907287597656,1.02424718366064,1993.09533691406,1993.09533691406,338.313993164917,-40.6907958984375,0.0469050301332552,NaN,0.199987938897973,2.27386666456268,5000,1.755939245224,1.755939245224,1.755939245224,5805.60494210199,1954.55883857483,7760.16378067681,,,36.5099999904633,0,26977.6146372204,28118.1257772447
2011-06-01T04:57:23Z,1306904243,2308,55.7462033,25.7415087,1957.74,1,-6.2,202.7,-50000.68,-47277.27,203.3,Weapon+Missile,Red,Allies,R-27ER,,xu,,322.500561506708,298.891723632812,0.968981662515423,1957.73999023438,1957.73999023438,320.556721397791,-35.3553466796875,0.170009651775249,NaN,0.199987938897973,0.757843265832795,5000,2.00539684295654,2.00539684295654,2.00539684295654,5200.33060860708,1919.88708752319,7120.21769613028,,,37.5099999904633,0,27299.5091596378,28442.0552099477
2011-06-01T04:57:24Z,1306904244,2308,55.7451758,25.7389603,1923.47,0.8,-6.7,197.2,-50106.44,-47558.54,197.8,Weapon+Missile,Red,Allies,R-27ER,,xu,,302.438051731326,280.135803222656,0.908335418148847,1923.46850585938,1923.46850585938,300.490000655221,-34.271484375,0.120280066326838,NaN,0.199987938897973,4.54360106467751,3257.73610666155,2.88254547119141,2.88254547119141,2.88254547119141,4573.43875675201,1886.27824229858,6459.7169990506,,,38.5099999904633,0,27601.3282569903,28745.9050797323
2011-06-01T04:57:25Z,1306904245,2308,55.7444586,25.7364885,1889.09,0.7,-7.1,192.3,-50180.97,-47831.62,192.9,Weapon+Missile,Red,Allies,R-27ER,,xu,,285.150869280307,264.066802978516,0.856069168896709,1889.09216308594,1889.09216308594,283.071166509127,-34.3763427734375,0.506727446512209,NaN,0.199987938897973,3.78843016371833,5000,1.50909864902496,1.50909864902496,1.50909864902496,4065.55091256574,1852.56656611267,5918.11747867841,,,39.5099999904633,0,27885.7250994,29032.4563865967
2011-06-01T04:57:26Z,1306904246,2308,55.7438822,25.7341161,1856.09,0.6,-6.9,193,-50241.3,-48093.84,193.5,Weapon+Missile,Red,Allies,R-27ER,,xu,,271.085605091376,251.068252563477,0.813527241155209,1856.08837890625,1856.08837890625,269.069053437176,-33.0037841796875,0.0265654413719298,NaN,0.0615263440434749,0.463625663619355,5000,1.240562915802,1.240562915802,1.240562915802,3674.37026438788,1820.2009101001,5494.57117448797,,,40.5099999904633,0,28156.078599355,29304.8957180944
2011-06-01T04:57:27Z,1306904247,2308,55.743275,25.7318446,1825.43,0.5,-6.6,194.2,-50304.61,-48344.84,194.8,Weapon+Missile,Red,Allies,R-27ER,,xu,,260.678245862645,241.523986816406,0.78201309872903,1825.43298339844,1825.43298339844,258.86945473015,-30.6553955078125,0.0742043899611636,NaN,0,1.23637352279903,5000,1.21606647968292,1.21606647968292,1.21606647968292,3397.65739330128,1790.13823666443,5187.79562996571,,,41.5099999904633,0,28416.1690675116,29566.8610918664
2011-06-01T04:57:28Z,1306904248,2308,55.7426482,25.7296861,1797.23,0.4,-6.4,195.2,-50369.76,-48583.31,195.8,Weapon+Missile,Red,Allies,R-27ER,,xu,,248.808019040533,230.573669433594,0.746156277847069,1797.22607421875,1797.22607421875,247.203965610189,-28.2069091796875,0.0589429316116887,NaN,0.199987938897973,1.01999611810079,5000,1.15537643432617,1.15537643432617,1.15537643432617,3095.27151694372,1762.47670807373,4857.74822501745,,,42.5099999904633,0,28664.538649943,29816.8973321629
2011-06-01T04:57:29Z,1306904249,2308,55.742007,25.7276014,1770.88,0.4,-6.1,195.9,-50436.29,-48813.59,196.5,Weapon+Missile,Red,Allies,R-27ER,,xu,,241.139505807295,223.583023071289,0.72293548422976,1770.87841796875,1770.87841796875,239.695770240357,-26.34765625,0.0414602326648418,NaN,0,0.727138310501561,5000,1.11878442764282,1.11878442764282,1.11878442764282,2907.41306304932,1736.63848375732,4644.05154680664,,,43.5099999904633,0,28905.3469709371,30059.2097161303
2011-06-01T04:57:30Z,1306904250,2308,55.7413691,25.7256039,1746.51,0.4,-5.9,196.3,-50502.41,-49034.21,196.9,Weapon+Missile,Red,Allies,R-27ER,,xu,,231.603013358234,214.807739257812,0.694146781504533,1746.51452636719,1746.51452636719,230.317946722876,-24.3638916015625,0.0142377168720413,NaN,0,0.590671557771529,5000,1.13388395309448,1.13388395309448,1.13388395309448,2681.99778983071,1712.74566799988,4394.74345783059,,,44.5099999904633,0,29136.7267038082,30291.9321006066
2011-06-01T04:57:31Z,1306904251,2308,55.7407343,25.72368,1724.16,0.3,-5.6,197,-50568.12,-49246.68,197.5,Weapon+Missile,Red,Allies,R-27ER,,xu,,223.519885456004,207.387100219727,0.669745034157015,1724.15991210938,1724.15991210938,222.399214062571,-22.3546142578125,0.0446808694449282,NaN,0,0.674213309057248,5000,1.15944445133209,1.15944445133209,1.15944445133209,2498.05695971325,1690.82328020874,4188.88023992199,,,45.5099999904633,0,29360.1545556162,30516.5359774556
2011-06-01T04:57:32Z,1306904252,2308,55.7400947,25.7218291,1703.81,0.3,-5.3,197.9,-50634.24,-49451.07,198.4,Weapon+Missile,Red,Allies,R-27ER,,xu,,215.781401784016,200.273681640625,0.64640369756481,1703.81079101562,1703.81079101562,214.819753809064,-20.34912109375,0.0411617758183548,NaN,0,0.908088377748593,5000,1.14843344688416,1.14843344688416,1.14843344688416,2328.08066779375,1670.86760937134,3998.94827716509,,,46.5099999904633,0,29575.9456269067,30733.3421204073
2011-06-01T04:57:33Z,1306904253,2308,55.7394459,25.7200606,1685.12,0.3,-5.1,199,-50701.21,-49646.32,199.5,Weapon+Missile,Red,Allies,R-27ER,,xu,,207.262044857003,192.41015625,0.620746941873913,1685.12451171875,1685.12451171875,206.417969674023,-18.686279296875,0.0270623149043846,NaN,0,1.13251558727052,5000,1.12890756130219,1.12890756130219,1.12890756130219,2147.87776191533,1652.54262928467,3800.42039119999,,,47.5099999904633,0,29783.288153967,30941.5798360866
2011-06-01T04:57:34Z,1306904254,2308,55.7387779,25.7183568,1667.49,0.2,-5,200.2,-50770.03,-49834.39,200.7,Weapon+Missile,Red,Allies,R-27ER,,xu,,201.035859895233,186.697982788086,0.601975328422505,1667.4853515625,1667.4853515625,200.260522801669,-17.63916015625,0.0314550189283009,NaN,0.199987938897973,1.21999878459416,5000,1.13327074050903,1.13327074050903,1.13327074050903,2020.77084819078,1635.24452229004,3656.01537048082,,,48.5099999904633,0,29984.441828856,31143.558083904
2011-06-01T04:57:35Z,1306904255,2308,55.7380951,25.7167283,1650.98,0.2,-4.8,201.5,-50840.26,-50014.11,202,Weapon+Missile,Red,Allies,R-27ER,,xu,,193.656846185149,179.890563964844,0.579767904738758,1650.98156738281,1650.98156738281,192.952323598678,-16.5037841796875,0.00100290097754396,NaN,0,1.2587308663866,5000,1.15658283233643,1.15658283233643,1.15658283233643,1875.14870371893,1619.05983877747,3494.2085424964,,,49.5099999904633,0,30178.2328120693,31338.1007835578
2011-06-01T04:57:36Z,1306904256,2308,55.7373965,25.7151646,1635.79,0.2,-4.5,202.6,-50912.01,-50186.62,203.2,Weapon+Missile,Red,Allies,R-27ER,,xu,,187.454115522623,174.179351806641,0.561098567290767,1635.79309082031,1635.79309082031,186.837778851278,-15.1884765625,0,NaN,0,1.21400785491841,5000,1.16036283969879,1.16036283969879,1.16036283969879,1756.95227131844,1604.1650314093,3361.11730272774,,,50.5099999904633,0,30365.8721974917,31526.4020707167
2011-06-01T04:57:37Z,1306904257,2308,55.7366918,25.7136769,1622.15,0.3,-4.2,203.8,-50984.29,-50350.71,204.3,Weapon+Missile,Red,Allies,R-27ER,,xu,,179.826345274703,167.116180419922,0.53818083340828,1622.1484375,1622.1484375,179.307941515776,-13.6446533203125,0.0236847532021037,NaN,0,1.1667776304163,5000,1.10023617744446,1.10023617744446,1.10023617744446,1616.87572274283,1590.78419746094,3207.65992020376,,,51.5099999904633,0,30545.9314758978,31707.0234514732
2011-06-01T04:57:38Z,1306904258,2308,55.735977,25.7122444,1609.35,-0.1,-4.9,204.6,-51057.52,-50508.69,205.2,Weapon+Missile,Red,Allies,R-27ER,,xu,,174.599326140102,162.302871704102,0.52245935841907,1609.34912109375,1609.34912109375,174.129555756943,-12.79931640625,0.0876571262165667,NaN,0.738425411548419,1.31571566824054,4270.53843235624,0.303533464670181,0.303533464670181,0.303533464670181,1524.24623442888,1578.2323558374,3102.47859026629,,,52.5099999904633,0,30720.7757404325,31882.3797456989
2011-06-01T04:57:39Z,1306904259,2308,55.7352778,25.7108621,1590.08,-1.1,-8.2,204.6,-51129.15,-50661.11,205.2,Weapon+Missile,Red,Allies,R-27ER,,xu,,169.508814312855,157.664474487305,0.50711268814459,1590.07995605469,1590.07995605469,168.410027636264,-19.2691650390625,0.0267381331204973,NaN,0.969231163981489,2.8808356940241,2979.872424866,0.0219172202050686,0.0219172202050686,0.0219172202050686,1436.66190648749,1559.33576010437,2995.99766659186,,,53.5099999904633,0,30889.8728082621,32052.6133035695
2011-06-01T04:57:40Z,1306904260,2308,55.7346039,25.7095315,1562.11,-1.9,-11.4,204.7,-51198.17,-50807.84,205.2,Weapon+Missile,Red,Allies,R-27ER,,xu,,164.547271152085,153.205856323242,0.492108715215082,1562.11071777344,1562.11071777344,162.152786450201,-27.96923828125,0.0186921034828648,NaN,0.769243225083516,3.27695870479792,2869.24755580671,0.0321230664849281,0.0321230664849281,0.0321230664849281,1353.79022217989,1531.90730704529,2885.69752922518,,,54.5099999904633,0,31052.6878555718,32217.8528891342
2011-06-01T04:57:41Z,1306904261,2308,55.7339514,25.7082455,1525.71,-2.6,-14.8,204.7,-51265.03,-50949.64,205.3,Weapon+Missile,Red,Allies,R-27ER,,xu,,160.945022930312,150.07746887207,0.481131162179052,1525.70910644531,1525.70910644531,156.774433817363,-36.401611328125,0.0645927315262754,NaN,0.569255286185543,3.27731771661617,2798.05601237861,0.0368832163512707,0.0368832163512707,0.0368832163512707,1295.16502030194,1496.20952087219,2791.37454117413,,,55.5099999904633,0,31210.0960361989,32379.452423265
2011-06-01T04:57:42Z,1306904262,2308,55.7333196,25.7070046,1481.26,-3.2,-18,204.8,-51329.72,-51086.47,205.4,Weapon+Missile,Red,Allies,R-27ER,,xu,,157.744358131884,147.374572753906,0.47131880052401,1481.25842285156,1481.25842285156,151.351971412626,-44.45068359375,0.0477009441535436,NaN,0.60001845820728,3.27836465654989,2774.6402180446,0.0513724163174629,0.0513724163174629,0.0513724163174629,1244.164126122,1452.61829124573,2696.78241736773,,,56.5099999904633,0,31362.0740569529,32537.8319439098
2011-06-01T04:57:43Z,1306904263,2308,55.7327073,25.7058071,1429.14,-3.7,-21.3,204.9,-51392.43,-51218.51,205.5,Weapon+Missile,Red,Allies,R-27ER,,xu,,155.183615583324,145.317749023438,0.463386402957913,1429.14306640625,1429.14306640625,146.170941599522,-52.1153564453125,0.0847346014803375,NaN,0.507674300628708,3.22832242182214,2762.60546402295,0.0575139559805393,0.0575139559805393,0.0575139559805393,1204.09772727564,1401.51058521729,2605.60831249292,,,57.5099999904633,0,31508.851633569,32693.618654065
2011-06-01T04:57:44Z,1306904264,2308,55.7321104,25.7046467,1369.42,-4.1,-24.5,205.1,-51453.56,-51346.46,205.6,Weapon+Missile,Red,Allies,R-27ER,,xu,,153.867221379234,144.479598999023,0.459136636661163,1369.419921875,1369.419921875,141.803624150674,-59.72314453125,0.0617173001496056,NaN,0.399975877795947,3.1799471801387,2775.09541435043,0.0605790540575981,0.0605790540575981,0.0605790540575981,1183.75609074831,1342.94218768555,2526.69827843386,,,58.5099999904633,0,31651.224449105,32848.0394024632
2011-06-01T04:57:45Z,1306904265,2308,55.7315293,25.7035254,1302.47,-4.4,-27.6,205.2,-51513.06,-51470.09,205.8,Weapon+Missile,Red,Allies,R-27ER,,xu,,152.663339496759,143.790969848633,0.455190303211292,1302.46691894531,1302.46691894531,137.198362326232,-66.9530029296875,0.0231199052633086,NaN,0.230805752433071,3.13207993377479,2835.90050880638,0.0696661546826363,0.0696661546826363,0.0696661546826363,1165.30476131514,1277.2837210675,2442.58848238264,,,59.5099999904633,0,31788.9803800674,33001.229975086
2011-06-01T04:57:46Z,1306904266,2308,55.7309602,25.702437,1228.24,-4.7,-30.7,205.4,-51571.34,-51590.09,206,Weapon+Missile,Red,Allies,R-27ER,,xu,,152.661881815398,144.289566040039,0.454794500684844,1228.24157714844,1228.24157714844,133.402581663758,-74.225341796875,0.0662892378411403,NaN,0.292277454963186,3.03257133464369,2928.93885005663,0.0755402445793152,0.0755402445793152,0.0755402445793152,1165.28250797093,1204.49352625427,2369.7760342252,,,60.5099999904633,0,31922.9161086483,33154.3812048727
2011-06-01T04:57:47Z,1306904267,2308,55.7304077,25.7013914,1147.79,-4.9,-33.5,205.7,-51627.89,-51705.36,206.3,Weapon+Missile,Red,Allies,R-27ER,,xu,,151.517798182672,143.740325927734,0.450966177724976,1147.78918457031,1147.78918457031,128.39414197922,-80.452392578125,0.0196108305399765,NaN,0.199987938897973,2.9844351495812,3005.49370061593,0.0820896029472351,0.0820896029472351,0.0820896029472351,1147.88215830624,1125.59668068665,2273.47883899289,,,61.5099999904633,0,32051.8332854028,33306.3628411992
2011-06-01T04:57:48Z,1306904268,2308,55.7298629,25.700373,1060.17,-5.1,-36.3,206,-51683.64,-51817.64,206.6,Weapon+Missile,Red,Allies,R-27ER,,xu,,152.94669322205,145.696517944336,0.454758663457356,1060.17004394531,1060.17004394531,125.361785100948,-87.619140625,0.0155929235933117,NaN,0.199987938897973,2.83680402576596,3160.23610525965,0.0863195955753326,0.0863195955753326,0.0863195955753326,1169.63454837799,1039.67165614563,2209.30620452362,,,62.5099999904633,0,32177.6898765168,33459.7332398902
2011-06-01T04:57:49Z,1306904269,2308,55.7293323,25.6993944,966.79,-5.2,-39,206.3,-51737.93,-51925.52,206.9,Weapon+Missile,Red,Allies,R-27ER,,xu,,152.66022163495,146.054000854492,0.4534186885252,966.786926269531,966.786926269531,120.767282832658,-93.3831176757812,0,NaN,0.0923441575785724,2.67319708948206,3308.07569170657,0.093761034309864,0.093761034309864,0.093761034309864,1165.2571634816,948.09410105011,2113.35126453171,,,63.5099999904633,0,32298.9342417222,33612.7864163313
2011-06-01T04:57:50Z,1306904270,2308,55.7288099,25.6984454,867.03,-5.4,-41.6,206.7,-51791.35,-52030.11,207.2,Weapon+Missile,Red,Allies,R-27ER,,xu,,154.093748509243,148.114349365234,0.45715176738029,867.031555175781,867.031555175781,117.446793347363,-99.75537109375,0.0458031455863839,NaN,0.199987938897973,2.59068883119513,3499.70006683649,0.0980288311839104,0.0980288311839104,0.0980288311839104,1187.24416648149,850.267500056458,2037.51166653795,,,64.5099999904633,0,32416.8584017144,33767.2572553002
2011-06-01T04:57:51Z,1306904271,2308,55.7282983,25.6975312,761.71,-5.5,-44.1,207.1,-51843.67,-52130.87,207.7,Weapon+Missile,Red,Allies,R-27ER,,xu,,154.862308053839,149.581085205078,0.458877139696895,761.713012695312,761.713012695312,113.535629057806,-105.318542480469,0.0183776603682913,NaN,0.199987938897973,2.42722981119545,3707.43765593953,0.104844182729721,0.104844182729721,0.104844182729721,1199.1167227881,746.985291594849,1946.10201438295,,,65.5099999904633,0,32530.8305686409,33922.4505783551
2011-06-01T04:57:52Z,1306904272,2308,55.727797,25.6966515,651.2,-5.6,-46.4,207.6,-51894.91,-52227.81,208.1,Weapon+Missile,Red,Allies,R-27ER,,xu,,155.682160627493,151.141616821289,0.460723471739189,651.199951171875,651.199951171875,109.653081900881,-110.513061523438,0.0512536074117101,NaN,0.199987938897973,2.33122616632563,3950.2358091754,0.109884813427925,0.109884813427925,0.109884813427925,1211.84675688222,638.609000115967,1850.45575699819,,,66.5099999904633,0,32640.9112916122,34078.4428437592
2011-06-01T04:57:53Z,1306904273,2308,55.7273043,25.6958035,535.53,-5.6,-48.6,208,-51945.26,-52321.26,208.5,Weapon+Missile,Red,Allies,R-27ER,,xu,,156.994068902081,153.22883605957,0.46399292582647,535.525329589844,535.525329589844,106.143862716057,-115.674621582031,0.0337418874534991,NaN,0.0461720787892862,2.23035857299311,4207.970305245,0.11456610262394,0.11456610262394,0.11456610262394,1232.35688352156,525.170947342224,1757.52783086379,,,67.5099999904633,0,32747.4647553477,34235.720850118
2011-06-01T04:57:54Z,1306904274,2308,55.7268195,25.6949862,414.88,-5.7,-50.6,208.5,-51994.78,-52411.31,209.1,Weapon+Missile,Red,Allies,R-27ER,,xu,,158.483360719329,155.539169311523,0.467751723876717,414.883056640625,414.883056640625,102.773623087537,-120.642272949219,0.014895227990415,NaN,0,2.04316934138269,4475.88479442426,0.116328671574593,0.116328671574593,0.116328671574593,1255.84878124464,406.861292740479,1662.71007398512,,,68.5099999904633,0,32850.632256452,34394.4649125608
2011-06-01T04:57:55Z,1306904275,2308,55.7263409,25.6941969,289.14,-5.8,-52.5,209.1,-52043.65,-52498.28,209.6,Weapon+Missile,Red,Allies,R-27ER,,xu,,160.506662148831,158.430282592773,0.473047689642407,289.140777587891,289.140777587891,99.7560416856202,-125.742279052734,0,NaN,0,1.96414938877093,4814.86093764408,0.121536746621132,0.121536746621132,0.121536746621132,1288.11942970795,283.550240653229,1571.66967036118,,,69.5099999904633,0,32950.7593421611,34555.2058864256
2011-06-01T04:57:56Z,1306904276,2308,55.7258701,25.6934385,159.14,-5.9,-54.4,209.6,-52091.7,-52581.81,210.2,Weapon+Missile,Red,Allies,R-27ER,,xu,,161.817178191829,160.666030883789,0.476208896506224,159.143844604492,159.143844604492,96.3618003820807,-129.996932983398,0.019314910119805,NaN,0.199987938897973,1.87376442826709,5000,0.125568732619286,0.125568732619286,0.125568732619286,1309.23995789831,156.066798369064,1465.30675626737,,,70.5099999904633,0,33047.4875390096,34717.24354954
2011-06-01T04:57:57Z,1306904277,2308,55.7254059,25.6927089,24.85,-5.9,-56.1,210.3,-52139.06,-52662.18,210.8,Weapon+Missile,Red,Allies,R-27ER,,xu,,163.51645090796,163.337020874023,0.480480979010883,24.8500003814697,24.8500003814697,93.2887620313288,-134.293844223022,0.0437010297515832,NaN,0,1.7277937874721,5000,0.12939041852951,0.12939041852951,0.12939041852951,1336.88148587677,24.369525624094,1361.25101150086,,,71.5099999904633,0,33141.11225605,34880.9526730003
2011-06-01T04:57:58Z,1306904278,2308,55.7249508,25.6920117,-112.64,-6,-57.7,211,-52185.49,-52738.95,211.5,Weapon+Missile,Red,Allies,R-27ER,,xu,,164.171072905778,165.002380371094,0.481658976352051,-112.637687683105,-112.637687683105,89.7177619520928,-137.487688064575,0.0481777883721815,NaN,0,1.63004342844376,5000,0.132736191153526,0.132736191153526,0.132736191153526,1347.60705895172,-110.459837991753,1237.14722095996,,,72.5099999904633,0,33231.1586016097,35045.3032042292
2011-06-01T04:57:59Z,1306904279,2308,55.7244999,25.6913397,-254.37,-6.1,-59.2,211.6,-52231.45,-52812.95,212.2,Weapon+Missile,Red,Allies,R-27ER,,xu,,166.360448623408,168.258407592773,0.487307187470887,-254.368453979492,-254.368453979492,87.1102103729563,-141.730766296387,0.0243782481598573,NaN,0.199987938897973,1.57127477327768,5000,0.137054696679115,0.137054696679115,0.137054696679115,1383.78994330908,-249.450239921799,1134.33970338729,,,73.5099999904633,0,33318.5748892898,35211.8228059716
2011-06-01T04:58:00Z,1306904280,2308,55.7240564,25.6906972,-399.02,-6.1,-60.6,212.4,-52276.64,-52883.68,212.9,Weapon+Missile,Red,Allies,R-27ER,,xu,,167.240928501709,170.234130859375,0.489094801073532,-399.019989013672,-399.019989013672,83.9372478603459,-144.65153503418,0.0452748903393683,NaN,0.0154089067675488,1.48930631337859,5000,0.140329375863075,0.140329375863075,0.140329375863075,1398.47640830568,-391.304937526093,1007.17147077959,,,74.5099999904633,0,33402.8027687118,35379.2076186631
2011-06-01T04:58:01Z,1306904281,2308,55.7236167,25.6900786,-547.51,-6.2,-61.9,213.2,-52321.43,-52951.75,213.8,Weapon+Missile,Red,Allies,R-27ER,,xu,,169.381424230752,173.537780761719,0.494535771315419,-547.511535644531,-547.511535644531,81.4882043832927,-148.491546630859,0.0139240048708967,NaN,0,1.35319312965981,5000,0.145338982343674,0.145338982343674,0.145338982343674,1434.5033437219,-536.925400102844,897.577943619054,,,75.5099999904633,0,33484.580782361,35548.7257312963
2011-06-01T04:58:02Z,1306904282,2308,55.7231839,25.6894885,-698.32,-6.3,-63.1,214,-52365.49,-53016.7,214.5,Weapon+Missile,Red,Allies,R-27ER,,xu,,170.006474266653,175.330490112305,0.495530114034403,-698.321533203125,-698.321533203125,78.4764036443763,-150.809997558594,0.0298970748391589,NaN,0,1.28012483313607,5000,0.148908868432045,0.148908868432045,0.148908868432045,1445.11006462891,-684.819486358643,760.290578270264,,,76.5099999904633,0,33563.3200781255,35718.8501595996
2011-06-01T04:58:03Z,1306904283,2308,55.7227529,25.6889194,-852.98,-6.4,-64.3,214.9,-52409.36,-53079.32,215.5,Weapon+Missile,Red,Allies,R-27ER,,xu,,172.525264330244,179.118041992188,0.502011787869919,-852.97998046875,-852.97998046875,76.4573836957978,-154.658447265625,0.0614791412499781,NaN,0,1.20189590180757,5000,0.152651578187943,0.152651578187943,0.152651578187943,1488.24834161103,-836.487612546387,651.760729064641,,,77.5099999904633,0,33640.0266972497,35891.4818766182
