ISOTime,UnixTime,Id,Longitude,Latitude,Altitude,Roll,Pitch,Yaw,U,V,Heading,Type,Color,Coalition,Name,Group,Country,Pilot,TAS,CAS,M,ASL,AGL,GS,VS,AOA,AOS,RRT,TRT,TRD,G,LatG,LonG,Ek,Ep,Em,FFW,FFV,RelativeTime,Elev,GroundDistance,AirDistance
2011-06-01T05:02:10Z,1306904530,2B10C,55.7654725,25.8599268,619.27,-26.2,-1.3,132.2,-47944.75,-34179.89,132.7,Weapon+Missile,Red,Allies,AIM-120B,,xu,,313.616484182171,306.250183105469,0.927773475596622,619.270751953125,619.270751953125,NaN,NaN,9.51982575703984,NaN,5.96924382513264,6.02011661326204,NaN,NaN,NaN,NaN,NaN,607.297151964111,NaN,,,0.899999856948853,0,NaN,NaN
2011-06-01T05:02:11Z,1306904531,2B10C,55.7678964,25.8573503,550.99,-21.4,-2.3,141,-47704.54,-34467.56,141.5,Weapon+Missile,Red,Allies,AIM-120B,,xu,,380.941416979254,373.274932861328,1.12606345066095,550.987670898438,550.987670898438,374.771642486249,-68.2830810546875,4.54770055303789,NaN,4.29231285558404,5.43699407698341,2690.31662227299,6.45269441604614,6.45269441604614,6.45269441604614,7255.81815850809,540.334324281616,7796.15248278971,,,1.89999985694885,0,375.79666657789,381.983804011637
2011-06-01T05:02:12Z,1306904532,2B10C,55.7708479,25.8538132,525.91,-17.8,-2.2,143.1,-47412.42,-34862.08,143.7,Weapon+Missile,Red,Allies,AIM-120B,,xu,,491.538369379778,479.317687988281,1.45257296372726,525.912292480469,525.912292480469,490.898354009999,-25.0753784179688,0.0689246660918996,NaN,3.58460963492234,3.69788191900465,5000,1.67863976955414,1.67863976955414,1.67863976955414,12080.4984286265,515.743778305359,12596.2422069319,,,2.89999985694885,0,868.190081623694,875.056808306343
2011-06-01T05:02:13Z,1306904533,2B10C,55.7745054,25.8493971,502.79,-14.7,-2.1,143.1,-47050.44,-35354.62,143.7,Weapon+Missile,Red,Allies,AIM-120B,,xu,,611.683252438192,593.347961425781,1.80714381669893,502.789978027344,502.789978027344,611.246071470153,-23.122314453125,0.0647618300324343,NaN,2.87690641426064,0.0778831796822009,5000,0.969969749450684,0.969969749450684,0.969969749450684,18707.8200656682,493.068533802185,19200.8885994704,,,3.89999985694885,0,1481.31755434988,1488.66953067783
2011-06-01T05:02:14Z,1306904534,2B10C,55.7788472,25.8441671,475.19,-12.1,-2.2,143,-46620.7,-35937.93,143.5,Weapon+Missile,Red,Allies,AIM-120B,,xu,,725.044328291871,701.587463378906,2.14138216383974,475.185363769531,475.185363769531,724.518642451585,-27.6046142578125,0.0475590606996702,NaN,2.50765784999328,0.186626554756908,5000,0.911566197872162,0.911566197872162,0.911566197872162,26284.4638994105,465.997654761047,26750.4615541716,,,4.89999985694885,0,2208.06240690979,2215.99413656013
2011-06-01T05:02:15Z,1306904535,2B10C,55.7836423,25.8384483,443.18,-9.9,-2.3,142.5,-46145.98,-36575.78,143.1,Weapon+Missile,Red,Allies,AIM-120B,,xu,,795.760974089446,769.983764648438,2.34938451816613,443.180755615234,443.180755615234,795.117119008687,-32.0046081542969,0.016271421948159,NaN,2.03078087233216,0.474781603689807,5000,1.30145144462585,1.30145144462585,1.30145144462585,31661.7763941892,434.611855705414,32096.3882498946,,,5.89999985694885,0,3005.60160126855,3014.23260352246
2011-06-01T05:02:16Z,1306904536,2B10C,55.7886866,25.8325835,408.12,-8.1,-2.6,141.5,-45646.38,-37230.02,142,Weapon+Missile,Red,Allies,AIM-120B,,xu,,823.931959401364,798.123413085938,2.43158628602497,408.119201660156,408.119201660156,823.185617681229,-35.0615539550781,0.0415769379211655,NaN,1.73845731359208,1.13743033526517,5000,2.40841913223267,2.40841913223267,2.40841913223267,33943.1936861486,400.228216896057,34343.4219030446,,,6.89999985694885,0,3831.2405823684,3840.67076065902
2011-06-01T05:02:17Z,1306904537,2B10C,55.7941072,25.8266253,366.69,-6.4,-3,139.2,-45109.11,-37894.92,139.7,Weapon+Missile,Red,Allies,AIM-120B,,xu,,855.844643893823,830.215148925781,2.52457849750446,366.690002441406,366.690002441406,854.841316229999,-41.42919921875,0.0266379268723429,NaN,1.55385266825227,2.33699596862699,5000,4.61530542373657,4.61530542373657,4.61530542373657,36623.5027240872,359.600051244202,36983.1027753314,,,7.89999985694885,0,4688.50842850233,4698.99110710215
2011-06-01T05:02:18Z,1306904538,2B10C,55.7999755,25.820822,315.89,-5,-3.6,135.7,-44526.74,-38543.05,136.2,Weapon+Missile,Red,Allies,AIM-120B,,xu,,872.813889621263,848.430908203125,2.57315063866539,315.886932373047,315.886932373047,871.334111571116,-50.8030700683594,0.0359160236467873,NaN,1.33845667636039,3.47934532075504,5000,5.65648365020752,5.65648365020752,5.65648365020752,38090.2042957899,309.779258535614,38399.9835543255,,,8.89999985694885,0,5562.07221281265,5574.07756365105
2011-06-01T05:02:19Z,1306904539,2B10C,55.8060103,25.8155806,257.96,-3.8,-4.2,131.8,-43927.07,-39129.08,132.4,Weapon+Missile,Red,Allies,AIM-120B,,xu,,840.467024970534,819.368225097656,2.47616241866119,257.964630126953,257.964630126953,838.468739408532,-57.9223022460938,0.0482948908330404,NaN,1.13848581293534,3.86607788863715,5000,5.56550312042236,5.56550312042236,5.56550312042236,35319.241003141,252.976884003448,35572.2178871444,,,9.89999985694885,0,6402.39233941245,6416.42929664652
2011-06-01T05:02:20Z,1306904540,2B10C,55.8118629,25.8111453,200.83,-3,-4.3,127.8,-43344.81,-39625.62,128.3,Weapon+Missile,Red,Allies,AIM-120B,,xu,,767.362133412866,750.716125488281,2.25932090330588,200.825378417969,200.825378417969,765.231827428841,-57.1392517089844,0.0730760907447538,NaN,0.59996381669392,4.20548578330754,5000,6.13261556625366,6.13261556625366,6.13261556625366,29442.2321897973,196.942419726257,29639.1746095235,,,10.8999998569489,0,7169.0400365759,7185.23087321916
2011-06-01T05:02:21Z,1306904541,2B10C,55.817556,25.8074919,151.99,-2.8,-3.6,122.6,-42777.71,-40035.41,123.1,Weapon+Missile,Red,Allies,AIM-120B,,xu,,701.36076068055,688.437683105469,2.06385534883998,151.993835449219,151.993835449219,699.658771855032,-48.83154296875,0.0508186502170417,NaN,0,5.04047342113384,5000,6.72348070144653,6.72348070144653,6.72348070144653,24595.34583112,149.055034640808,24744.4008657608,,,11.8999998569489,0,7869.69294053745,7887.60268906141
2011-06-01T05:02:22Z,1306904542,2B10C,55.8230785,25.8046208,113.6,-2.7,-3.3,117.1,-42226.9,-40358.36,117.6,Weapon+Missile,Red,Allies,AIM-120B,,xu,,639.66323731621,629.864135742188,1.88148538311513,113.599227905273,113.599227905273,638.509914790209,-38.3946075439453,0.166542302960339,NaN,0.199987938897973,5.28862273141687,5000,5.6144757270813,5.6144757270813,5.6144757270813,20458.4528586927,111.402786833725,20569.8556455264,,,12.8999998569489,0,8508.79972340269,8527.87500191967
2011-06-01T05:02:23Z,1306904543,2B10C,55.8283679,25.8023907,84.66,-3.7,-1.7,112.6,-41698.82,-40610.08,113.2,Weapon+Missile,Red,Allies,AIM-120B,,xu,,585.72390705819,578.4423828125,1.72226729654566,84.6584625244141,84.6584625244141,585.008484894605,-28.9407653808594,1.57691335122593,NaN,1.75382865431919,8.38833034329014,3394.11289558007,9.2978687286377,9.2978687286377,9.2978687286377,17153.6247649756,83.0215911515045,17236.6463561271,,,13.8999998569489,0,9094.15619374505,9113.95555613245
2011-06-01T05:02:24Z,1306904544,2B10C,55.8330987,25.8012225,76.25,-4.7,-0,98.8,-41225.66,-40743.68,99.3,Weapon+Missile,Red,Allies,AIM-120B,,xu,,491.732270820395,487.756195068359,1.44575637037722,76.2492294311523,76.2492294311523,491.660361392868,-8.40923309326172,0.0923567581595579,NaN,1.56919498067541,12.0069483438636,2017.61654084322,11.1703643798828,11.1703643798828,11.1703643798828,12090.0313083091,74.774950580101,12164.8062588892,,,14.8999998569489,0,9585.8016650158,9605.67913971928
2011-06-01T05:02:25Z,1306904545,2B10C,55.8371043,25.8011344,80.77,-5.6,1.3,84,-40824.14,-40756.98,84.5,Weapon+Missile,Red,Allies,AIM-120B,,xu,,401.765388972158,400.15478515625,1.1813024249609,80.7746124267578,80.7746124267578,401.739901783097,4.52538299560547,0.374793473197505,NaN,0.876941647916277,12.9035131252653,1703.03624198516,9.07348155975342,9.07348155975342,9.07348155975342,8070.77138879747,79.2128352954865,8149.98422409295,,,15.8999998569489,0,9987.36678586252,10007.2747016145
2011-06-01T05:02:26Z,1306904546,2B10C,55.840394,25.8017723,90.34,-5.8,2,71.6,-40493.7,-40689.24,72.1,Weapon+Missile,Red,Allies,AIM-120B,,xu,,337.446249340545,336.329406738281,0.992293280319413,90.3399963378906,90.3399963378906,337.310650031442,9.56538391113281,0.269923401329757,NaN,0.199987938897973,12.496748893208,1660.72107877016,6.69771766662598,6.69771766662598,6.69771766662598,5693.49855970006,88.5932725086975,5782.09183220876,,,16.8999998569489,0,10324.6271041846,10344.6751617168
2011-06-01T05:02:27Z,1306904547,2B10C,55.8430697,25.8028364,102.34,-6,2.8,60.9,-40224.41,-40573.75,61.4,Weapon+Missile,Red,Allies,AIM-120B,,xu,,293.250717288335,292.084228515625,0.862448817087371,102.337692260742,102.337692260742,293.005185078125,11.9976959228516,0.209290296885758,NaN,0.199987938897973,10.7863499967264,1666.54623809388,5.19166088104248,5.19166088104248,5.19166088104248,4299.79915950616,100.358992980881,4400.15815248704,,,17.8999998569489,0,10617.7819395794,10638.0798283529
2011-06-01T05:02:28Z,1306904548,2B10C,55.8452514,25.8041572,117.15,-6.5,3.8,51.7,-40004.4,-40429.4,52.2,Weapon+Missile,Red,Allies,AIM-120B,,xu,,263.559581726941,262.314239501953,0.775256965712912,117.149993896484,117.149993896484,263.143019744648,14.8123016357422,0.723232909231635,NaN,0.59996381669392,7.88281779753374,2658.46661783012,2.92836380004883,2.92836380004883,2.92836380004883,3473.18265600401,114.884898764496,3588.06755476851,,,18.8999998569489,0,10881.2686660833,10901.9871007822
2011-06-01T05:02:29Z,1306904549,2B10C,55.8471318,25.8055559,134.14,-5.7,4.1,50.2,-39814.52,-40276.13,50.7,Weapon+Missile,Red,Allies,AIM-120B,,xu,,244.610851460232,243.257598876953,0.719657588395269,134.139236450195,134.139236450195,244.020151400557,16.9892425537109,0.0836058726835945,NaN,0.969218357376796,2.92862716797691,5000,1.05368828773499,1.05368828773499,1.05368828773499,2991.72343260498,131.545654313431,3123.26908691841,,,19.8999998569489,0,11125.7223558665,11147.0352495127
2011-06-01T05:02:30Z,1306904550,2B10C,55.8489298,25.8069108,150.88,-4.8,4.1,50.2,-39632.94,-40127.64,50.7,Weapon+Missile,Red,Allies,AIM-120B,,xu,,235.158474732266,233.679351806641,0.691979101087469,150.883834838867,150.883834838867,234.561562629532,16.7445983886719,0.0347732147326312,NaN,0.784572730901963,0.102792112522977,5000,1.01230680942535,1.01230680942535,1.01230680942535,2764.9754119203,147.966495892258,2912.94190781255,,,20.8999998569489,0,11360.7141859593,11382.628138856
2011-06-01T05:02:31Z,1306904551,2B10C,55.85064,25.8082,166.96,-4.1,4.1,50.2,-39460.24,-39986.35,50.7,Weapon+Missile,Red,Allies,AIM-120B,,xu,,223.712456597433,222.136169433594,0.658417539289749,166.955383300781,166.955383300781,223.134418158415,16.0715484619141,0.0507877763147476,NaN,0.769238956215285,0.0559529163508511,5000,1.0110559463501,1.0110559463501,1.0110559463501,2502.36316184291,163.727300964661,2666.09046280757,,,21.8999998569489,0,11584.2535770008,11606.7500792739
2011-06-01T05:02:32Z,1306904552,2B10C,55.8522937,25.8094467,182.63,-3.5,4.2,50.2,-39293.24,-39849.73,50.7,Weapon+Missile,Red,Allies,AIM-120B,,xu,,216.330266271058,214.649749755859,0.636803557465384,182.632293701172,182.632293701172,215.761485407394,15.6769104003906,0.040386205765353,NaN,0.569196375803951,0.0559529163508511,5000,1.0149621963501,1.0149621963501,1.0149621963501,2339.93920524535,179.10109830246,2519.04030354781,,,22.8999998569489,0,11800.4197316754,11823.4898613794
2011-06-01T05:02:33Z,1306904553,2B10C,55.8538927,25.8106521,197.96,-2.9,4.2,50.2,-39131.79,-39717.61,50.7,Weapon+Missile,Red,Allies,AIM-120B,,xu,,209.184643914409,207.410583496094,0.615875988023139,197.958450317383,197.958450317383,208.622444077749,15.3261566162109,0.0480333074427888,NaN,0.569242479580849,0.0559529163508511,5000,1.03766775131226,1.03766775131226,1.03766775131226,2187.91076247991,194.130923680496,2382.04168616041,,,23.8999998569489,0,12009.425780187,12033.0632997636
2011-06-01T05:02:34Z,1306904554,2B10C,55.8554214,25.811805,213.01,-2.5,4.4,50.2,-38977.41,-39591.27,50.7,Weapon+Missile,Red,Allies,AIM-120B,,xu,,200.046843731244,198.204956054688,0.589073014230399,213.009994506836,213.009994506836,199.479800241392,15.0515441894531,0.0427073188198739,NaN,0.307673555126041,0.0845102307553653,5000,1.00850081443787,1.00850081443787,1.00850081443787,2000.93698434164,208.891446263046,2209.82843060468,,,24.8999998569489,0,12209.271679811,12233.4816272878
2011-06-01T05:02:35Z,1306904555,2B10C,55.8568923,25.8129142,227.59,-2.1,4.3,50.2,-38828.91,-39469.7,50.7,Weapon+Missile,Red,Allies,AIM-120B,,xu,,192.471802346362,190.564605712891,0.566860516820158,227.592300415039,227.592300415039,191.918605280615,14.5823059082031,0.0361591691861405,NaN,0.44613941884877,0.0559529163508511,5000,0.957565903663635,0.957565903663635,0.957565903663635,1852.26973492284,223.191803286514,2075.46153820936,,,25.8999998569489,0,12401.5569394225,12426.3256546639
2011-06-01T05:02:36Z,1306904556,2B10C,55.8583113,25.8139842,241.28,-1.7,4.2,50.2,-38685.62,-39352.43,50.7,Weapon+Missile,Red,Allies,AIM-120B,,xu,,185.6671391773,183.704711914062,0.546904404963816,241.276916503906,241.276916503906,185.16213936111,13.6846160888672,0.0417447290267362,NaN,0.384592157350962,0.132334955189637,5000,0.966061592102051,0.966061592102051,0.966061592102051,1723.61432851414,236.611827323303,1960.22615583745,,,26.8999998569489,0,12587.0485285548,12612.3281485652
2011-06-01T05:02:37Z,1306904557,2B10C,55.8596783,25.8150146,254.15,-1.3,4.1,50.2,-38547.59,-39239.5,50.7,Weapon+Missile,Red,Allies,AIM-120B,,xu,,178.802296921492,176.799438476562,0.526760005851035,254.153076171875,254.153076171875,178.338066313971,12.8761596679688,0.0350733830417842,NaN,0.323057489014437,0.0766166998594792,5000,0.97303694486618,0.97303694486618,0.97303694486618,1598.51306922007,249.239026444092,1847.75209566417,,,27.8999998569489,0,12765.7160143382,12791.4659324076
2011-06-01T05:02:38Z,1306904558,2B10C,55.8609947,25.8160068,266.32,-1.1,4,50.2,-38414.68,-39130.75,50.7,Weapon+Missile,Red,Allies,AIM-120B,,xu,,172.167620579913,170.135360717773,0.50728382221796,266.316162109375,266.316162109375,171.737441801798,12.1630859375,0.0427774230434501,NaN,0.200042580411333,0.0550717152262136,5000,0.978067636489868,0.978067636489868,0.978067636489868,1482.08447880745,261.16693911499,1743.25141792244,,,28.8999998569489,0,12937.7700449618,12963.956354737
2011-06-01T05:02:39Z,1306904559,2B10C,55.8622589,25.8169594,277.81,-0.9,4,50.2,-38287.03,-39026.34,50.7,Weapon+Missile,Red,Allies,AIM-120B,,xu,,165.30794094512,163.261154174805,0.48713553268465,277.809997558594,277.809997558594,164.907874542672,11.4938354492188,0.0546749319621773,NaN,0.199987938897973,0.0803562751208075,5000,0.983610391616821,0.983610391616821,0.983610391616821,1366.33576697577,272.438541255798,1638.77430823157,,,29.8999998569489,0,13102.9812771852,13129.5739507292
2011-06-01T05:02:40Z,1306904560,2B10C,55.8634716,25.817873,288.7,-0.7,3.9,50.2,-38164.6,-38926.2,50.7,Weapon+Missile,Red,Allies,AIM-120B,,xu,,158.542311598164,156.491455078125,0.467255966709677,288.695373535156,288.695373535156,158.168179975425,10.8853759765625,0.0396684016442161,NaN,0.199987938897973,0.0559529163508511,5000,0.986258983612061,0.986258983612061,0.986258983612061,1256.78322834447,283.113448487854,1539.89667683232,,,30.8999998569489,0,13261.4447792214,13288.4179095852
2011-06-01T05:02:41Z,1306904561,2B10C,55.86465,25.8187608,299.16,-0.6,3.9,50.2,-38045.62,-38828.9,50.7,Weapon+Missile,Red,Allies,AIM-120B,,xu,,154.056427817251,151.984130859375,0.454089051656069,299.163848876953,299.163848876953,153.700338242406,10.4684753417969,0.0454198547224787,NaN,0,0.0221173298063182,5000,0.988661646842957,0.988661646842957,0.988661646842957,1186.66914759059,293.379515858917,1480.04866344951,,,31.8999998569489,0,13415.4287561035,13442.7644014814
2011-06-01T05:02:42Z,1306904562,2B10C,55.8657747,25.8196081,309.07,-0.5,3.8,50.2,-37932.06,-38736.03,50.7,Weapon+Missile,Red,Allies,AIM-120B,,xu,,147.030352431023,144.976303100586,0.433428003503732,309.066162109375,309.066162109375,146.696519142881,9.90231323242188,0.0647694573187842,NaN,0,0.0541761800424684,5000,0.990657925605774,0.990657925605774,0.990657925605774,1080.89622679953,303.09036786499,1383.98659466452,,,32.8999998569489,0,13562.3926472886,13590.0685114975
2011-06-01T05:02:43Z,1306904563,2B10C,55.8668562,25.8204227,318.52,-0.4,3.8,50.2,-37822.88,-38646.74,50.7,Weapon+Missile,Red,Allies,AIM-120B,,xu,,141.364351834583,139.320861816406,0.416770003843266,318.523071289062,318.523071289062,141.047675763831,9.4569091796875,0.0502957456223607,NaN,0,0.0541761800424684,5000,0.99184513092041,0.99184513092041,0.99184513092041,999.193998480588,312.364427705689,1311.55842618628,,,33.8999998569489,0,13703.6979533204,13731.6968540097
2011-06-01T05:02:44Z,1306904564,2B10C,55.8678874,25.8211994,327.49,-0.3,3.8,50.2,-37718.77,-38561.61,50.7,Weapon+Missile,Red,Allies,AIM-120B,,xu,,134.780812442024,132.768630981445,0.397400829573205,327.485382080078,327.485382080078,134.482505880198,8.96231079101562,0.0419563453617317,NaN,0,0.0171320104161963,5000,0.993655622005463,0.993655622005463,0.993655622005463,908.293370126607,321.15345221756,1229.44682234417,,,34.8999998569489,0,13838.4309137793,13866.7343758907
2011-06-01T05:02:45Z,1306904565,2B10C,55.8688753,25.8219435,336.03,-0.2,3.8,50.2,-37619.02,-38480.05,50.7,Weapon+Missile,Red,Allies,AIM-120B,,xu,,129.136928785473,127.151626586914,0.380796782792549,336.033081054688,336.033081054688,128.853727995677,8.54769897460938,0.199791494924875,NaN,0.200042580411333,0.650278511936525,5000,0.697702050209045,0.697702050209045,0.697702050209045,833.817318807216,329.535881432495,1163.35320023971,,,35.8999998569489,0,13967.5111242278,13996.1039907591
2011-06-01T05:02:46Z,1306904566,2B10C,55.8698158,25.8226518,341.22,2,0.3,50.2,-37524.08,-38402.41,50.7,Weapon+Missile,Red,Allies,AIM-120B,,xu,,122.747181150251,120.823127746582,0.361976101706053,341.218444824219,341.218444824219,122.637606315967,5.18536376953125,0.0811471896496183,NaN,2.70769231955498,2.85776438222485,1645.25317197372,0.0845156013965607,0.0845156013965607,0.0845156013965607,753.343524016626,334.620986193542,1087.96451021017,,,36.8999998569489,0,14090.3845968929,14119.0933458609
2011-06-01T05:02:47Z,1306904567,2B10C,55.8707199,25.8233327,337.4,4.3,-4.1,50.2,-37432.81,-38327.78,50.7,Weapon+Missile,Red,Allies,AIM-120B,,xu,,117.960760739358,116.127136230469,0.347846095545794,337.403076171875,337.403076171875,117.899041710503,-3.81536865234375,0.0981132189748768,NaN,2.30769210921011,4.39623717201354,1541.67998324227,0.0952494889497757,0.0952494889497757,0.0952494889497757,695.737053710409,330.879387694092,1026.6164414045,,,37.8999998569489,0,14208.5036711383,14237.2803047706
2011-06-01T05:02:48Z,1306904568,2B10C,55.8715832,25.8239823,325.1,6.1,-8.5,50.3,-37345.65,-38256.57,50.8,Weapon+Missile,Red,Allies,AIM-120B,,xu,,113.216440647378,111.515632629395,0.333809318244959,325.102294921875,325.102294921875,112.546227006955,-12.30078125,0.0731389073357323,NaN,1.73846158246031,4.41187104813688,1475.63953780574,0.112681604921818,0.112681604921818,0.112681604921818,640.898121643066,318.816442049561,959.714563692627,,,38.8999998569489,0,14321.2584708202,14350.709907114
2011-06-01T05:02:49Z,1306904569,2B10C,55.8724211,25.8246112,304.62,7.8,-12.9,50.4,-37261.07,-38187.64,50.9,Weapon+Missile,Red,Allies,AIM-120B,,xu,,111.015086417268,109.450576782227,0.327242775408106,304.618438720703,304.618438720703,109.108941188902,-20.4838562011719,0.115100828062131,NaN,1.538459983184,4.3853434471742,1458.41379643014,0.123064778745174,0.123064778745174,0.123064778745174,616.217470611678,298.728641208038,914.946111819717,,,39.8999998569489,0,14430.5724885142,14461.9318593149
2011-06-01T05:02:50Z,1306904570,2B10C,55.8732309,25.8252164,276.42,9.1,-17.2,50.5,-37179.32,-38121.31,51,Weapon+Missile,Red,Allies,AIM-120B,,xu,,108.991445347865,107.595611572266,0.32117496038404,276.423095703125,276.423095703125,105.281326887239,-28.1953430175781,0.0481495977920885,NaN,1.21538435147958,4.27169550268753,1467.41371982661,0.139577805995941,0.139577805995941,0.139577805995941,593.956757950829,271.078455147705,865.035213098534,,,40.8999998569489,0,14536.0402137037,14571.1080095555
2011-06-01T05:02:51Z,1306904571,2B10C,55.8740149,25.8257985,240.94,10,-21.4,50.7,-37100.19,-38057.51,51.2,Weapon+Missile,Red,Allies,AIM-120B,,xu,,107.665526458962,106.462524414062,0.317140252996866,240.936141967773,240.936141967773,101.649110681159,-35.4869537353516,0.0715001248130875,NaN,0.87692286489606,4.17208402383207,1502.6966349281,0.155276924371719,0.155276924371719,0.155276924371719,579.593279384275,236.277641662827,815.870921047101,,,41.8999998569489,0,14637.8729495033,14678.9508170682
2011-06-01T05:02:52Z,1306904572,2B10C,55.8747738,25.8263572,198.61,10.7,-25.4,51,-37023.57,-37996.28,51.5,Weapon+Missile,Red,Allies,AIM-120B,,xu,,106.819415923253,105.835037231445,0.31449726396193,198.610000610352,198.610000610352,98.0759163912148,-42.3261413574219,0.0708443219951318,NaN,0.569231380523448,4.03200922367297,1547.23948866906,0.162134692072868,0.162134692072868,0.162134692072868,570.519380909251,194.76987624855,765.289257157801,,,42.8999998569489,0,14736.1128217225,14785.9238970752
2011-06-01T05:02:53Z,1306904573,2B10C,55.8755121,25.8268946,149.62,11.2,-29.2,51.4,-36949.07,-37937.4,51.9,Weapon+Missile,Red,Allies,AIM-120B,,xu,,106.849638469689,106.107940673828,0.314412067470076,149.621536254883,149.621536254883,94.9577569301018,-48.9884643554688,0,NaN,0.399999783458042,3.82259476994674,1642.59846524382,0.17581395804882,0.17581395804882,0.17581395804882,570.842262055166,146.728603851395,717.570865906561,,,43.8999998569489,0,14831.251803922,14892.9369325776
2011-06-01T05:02:54Z,1306904574,2B10C,55.8762329,25.8274124,94.19,11.4,-32.9,51.7,-36876.33,-37880.67,52.2,Weapon+Missile,Red,Allies,AIM-120B,,xu,,107.622477788899,107.152709960938,0.316488032009814,94.1884613037109,94.1884613037109,92.2484250644957,-55.4330749511719,0.0695460968281086,NaN,0.0923082990854298,3.65136107368087,1745.69789001029,0.177470698952675,0.177470698952675,0.177470698952675,579.129886271106,92.3673274044037,671.49721367551,,,44.8999998569489,0,14923.6584229296,15000.6965513976
2011-06-01T05:02:55Z,1306904575,2B10C,55.8769375,25.8279108,32.54,11.5,-36.2,52.2,-36805.23,-37826.07,52.7,Weapon+Missile,Red,Allies,AIM-120B,,xu,,108.803477260093,108.640365600586,0.319738649636769,32.5361518859863,32.5361518859863,89.6503731578884,-61.6523094177246,0.102769072451617,NaN,0.0154089067675488,3.06619422149355,2550.23188438652,0.345170825719833,0.345170825719833,0.345170825719833,591.909833194374,31.9070653892708,623.816898583645,,,45.8999998569489,0,15013.4493954053,15109.6166422164
2011-06-01T05:02:56Z,1306904576,2B10C,55.8776298,25.8283927,-33.28,9.8,-36.8,52.6,-36735.38,-37773.29,53.1,Weapon+Missile,Red,Allies,AIM-120B,,xu,,109.526016752637,109.697189331055,0.321623519166904,-33.2761535644531,-33.2761535644531,87.5482084168321,-65.8123054504395,0,NaN,2.32308394050474,1.0212904389485,5000,0.876651883125305,0.876651883125305,0.876651883125305,599.797417284951,-32.6327591352844,567.164658149666,,,46.8999998569489,0,15101.1450014853,15219.2605110924
2011-06-01T05:02:57Z,1306904577,2B10C,55.8783435,25.8288836,-99.89,7.7,-36.3,52.9,-36663.38,-37719.54,53.4,Weapon+Missile,Red,Allies,AIM-120B,,xu,,111.849791724378,112.37085723877,0.32820135776914,-99.8946075439453,-99.8946075439453,89.8462993014679,-66.6184539794922,0.0264069410616131,NaN,2.01534293726064,0.572502400805649,5000,0.899858474731445,0.899858474731445,0.899858474731445,625.518795439333,-97.9631453070831,527.55565013225,,,47.8999998569489,0,15191.1359137973,15331.2257450805
2011-06-01T05:02:58Z,1306904578,2B10C,55.8790726,25.8293804,-166.59,6.2,-35.9,53.1,-36589.82,-37665.13,53.6,Weapon+Missile,Red,Allies,AIM-120B,,xu,,113.226627887047,114.10530090332,0.331992710143216,-166.593841552734,-166.593841552734,91.4958001512228,-66.6992340087891,0.0179511889017085,NaN,1.4769054646102,0.455428476119988,5000,0.88577926158905,0.88577926158905,0.88577926158905,641.013463133585,-163.372749626312,477.640713507273,,,48.8999998569489,0,15282.7740641626,15444.5658860749
