ISOTime,UnixTime,Id,Longitude,Latitude,Altitude,Roll,Pitch,Yaw,U,V,Heading,Type,Color,Coalition,Name,Group,Country,Pilot,TAS,CAS,M,ASL,AGL,GS,VS,AOA,AOS,RRT,TRT,TRD,G,LatG,LonG,Ek,Ep,Em,FFW,FFV,RelativeTime,Elev,GroundDistance,AirDistance
2011-06-01T05:05:46Z,1306904746,3230E,55.9903266,26.1966145,9171.71,-0.2,15.2,15.1,-25124.18,2917.37,15.5,Weapon+Missile,Red,Allies,R-73,,xu,,368.970120719829,249.952774047852,1.21682523830283,9171.7119140625,9171.7119140625,NaN,NaN,NaN,NaN,NaN,NaN,NaN,NaN,NaN,NaN,NaN,8994.3768642041,NaN,,,0.309999942779541,0,NaN,NaN
2011-06-01T05:05:47Z,1306904747,3230E,55.9914925,26.2005108,9289.88,-0.2,15.2,15.1,-25004.32,3348.01,15.5,Weapon+Missile,Red,Allies,R-73,,xu,,462.360806661686,313.741394042969,1.52738183982865,9289.8828125,9289.8828125,447.004646843094,118.1708984375,0.532873240649631,NaN,0,0.474251151350061,5000,0.953436374664307,0.953436374664307,0.953436374664307,10688.8757768422,9110.26292832031,19799.1387051625,,,1.30999994277954,0,449.095001061571,465.010631206074
2011-06-01T05:05:48Z,1306904748,3230E,55.9930014,26.2055541,9443.68,-0.2,15.2,15.1,-24849.23,3905.4,15.5,Weapon+Missile,Red,Allies,R-73,,xu,,598.665124367775,394.332763671875,1.98200079721006,9443.681640625,9443.681640625,578.572252706315,153.798828125,0.0768765548058626,NaN,0,0,5000,1.34055113792419,1.34055113792419,1.34055113792419,17919.9965567142,9261.08805610352,27181.0846128177,,,2.30999994277954,0,1030.38181738381,1067.12492144497
2011-06-01T05:05:49Z,1306904749,3230E,55.9948463,26.21172,9636.29,-0.2,15.2,15.1,-24659.6,4586.9,15.5,Weapon+Missile,Red,Allies,R-73,,xu,,733.139692541778,465.993530273438,2.43392032013487,9636.2939453125,9636.2939453125,707.385544708982,192.6123046875,0.0607937176575276,NaN,0,0,5000,0.972134947776794,0.972134947776794,0.972134947776794,26874.6904390126,9449.97620187988,36324.6666408925,,,3.30999994277954,0,1741.06732816359,1804.47520186169
2011-06-01T05:05:50Z,1306904750,3230E,55.9970177,26.218976,9862.96,-0.2,15.2,15.1,-24436.45,5388.88,15.5,Weapon+Missile,Red,Allies,R-73,,xu,,862.752545280455,531.415771484375,2.87359966806772,9862.9560546875,9862.9560546875,832.445939723162,226.662109375,0.0613493098011057,NaN,0,0,5000,0.972205221652985,0.972205221652985,0.972205221652985,37217.0977193952,9672.25579937012,46889.3535187653,,,4.30999994277954,0,2577.41117589389,2672.22332287804
2011-06-01T05:05:51Z,1306904751,3230E,55.9995136,26.2273158,10123.47,-0.1,15.2,15.1,-24179.98,6310.65,15.5,Weapon+Missile,Red,Allies,R-73,,xu,,991.618069224323,593.524536132812,3.31534363984608,10123.47265625,10123.47265625,956.784978729547,260.5166015625,0.06110137335757,NaN,0.199987938897973,0,5000,0.968852996826172,0.968852996826172,0.968852996826172,49165.3197606087,9927.73531244141,59093.0550730501,,,5.30999994277954,0,3538.66357611763,3669.60629625972
2011-06-01T05:05:52Z,1306904752,3230E,56.0021307,26.2360591,10396.61,-0.1,15.2,15.1,-23911.09,7277.02,15.5,Weapon+Missile,Red,Allies,R-73,,xu,,1039.60986290732,610.311828613281,3.48972916786269,10396.6083984375,10396.6083984375,1003.08799882855,273.1357421875,0.0609375409400157,NaN,0,0,5000,0.959666132926941,0.959666132926941,0.959666132926941,54039.4333527088,10195.5899750537,64235.0233277625,,,6.30999994277954,0,4546.4463083411,4715.3114758831
2011-06-01T05:05:53Z,1306904753,3230E,56.0045416,26.2441125,10648.18,-0.1,15.2,15.1,-23663.42,8167.15,15.5,Weapon+Missile,Red,Allies,R-73,,xu,,957.575061827991,559.370849609375,3.22631404490945,10648.1845703125,10648.1845703125,923.936918181973,251.576171875,0.0612199156872423,NaN,0,0,5000,0.960643351078033,0.960643351078033,0.960643351078033,45847.4999517441,10442.3019216455,56289.8018733896,,,7.30999994277954,0,5474.70160654866,5678.53204851576
2011-06-01T05:05:54Z,1306904754,3230E,56.0067788,26.2515844,10881.59,-0.1,15.2,15.1,-23433.62,8992.99,15.5,Weapon+Missile,Red,Allies,R-73,,xu,,888.425273848575,517.181701660156,3.00373425145481,10881.5888671875,10881.5888671875,857.217534476052,233.404296875,0.0608115966734271,NaN,0,0,5000,0.96164608001709,0.96164608001709,0.96164608001709,39464.9733606458,10671.1933464404,50136.1667070862,,,8.30999994277954,0,6335.93377355919,6572.23459740005
2011-06-01T05:05:55Z,1306904755,3230E,56.0088447,26.2584834,11097.11,-0.1,15.2,15.1,-23221.45,9755.54,15.5,Weapon+Missile,Red,Allies,R-73,,xu,,820.330962799692,476.59130859375,2.77892852211191,11097.107421875,11097.107421875,791.514144607209,215.5185546875,0.0611468495052151,NaN,0,0,5000,0.962033689022064,0.962033689022064,0.962033689022064,33647.1444263935,10882.544849873,44529.6892762666,,,9.30999994277954,0,7131.14335231911,7397.45424644335
2011-06-01T05:05:56Z,1306904756,3230E,56.0107779,26.2649387,11298.76,-0.1,15.2,15.1,-23022.93,10469.03,15.5,Weapon+Missile,Red,Allies,R-73,,xu,,767.563986835293,444.392761230469,2.60017669975888,11298.7626953125,11298.7626953125,740.600853754124,201.6552734375,0.0612779596365803,NaN,0,0,5000,0.962272942066193,0.962272942066193,0.962272942066193,29457.7236943245,11080.3011185986,40538.0248129231,,,10.3099999427795,0,7875.2069453716,8169.62079388505
2011-06-01T05:05:57Z,1306904757,3230E,56.0125945,26.2710038,11488.23,-0.1,15.2,15.1,-22836.4,11139.41,15.5,Weapon+Missile,Red,Allies,R-73,,xu,,721.175981063485,416.385894775391,2.44303408516925,11488.2294921875,11488.2294921875,695.842746994468,189.466796875,0.0610390424817645,NaN,0,0,5000,0.963236033916473,0.963236033916473,0.963236033916473,26004.739783144,11266.1045749561,37270.8443581001,,,11.3099999427795,0,8574.299764517,8895.13858906366
2011-06-01T05:05:58Z,1306904758,3230E,56.0143108,26.2767337,11667.23,-0.1,15.2,15.1,-22660.18,11772.73,15.5,Weapon+Missile,Red,Allies,R-73,,xu,,681.315990372919,392.280456542969,2.30800557832966,11667.228515625,11667.228515625,657.381798003453,178.9990234375,0.0609906875951414,NaN,0,0,5000,0.962505698204041,0.962505698204041,0.962505698204041,23209.5739368916,11441.6426522754,34651.2165891669,,,12.3099999427795,0,9234.7550735438,9580.57779580673
2011-06-01T05:05:59Z,1306904759,3230E,56.0159306,26.2821408,11836.14,-0.1,15.2,15.1,-22493.88,12370.38,15.5,Weapon+Missile,Red,Allies,R-73,,xu,,642.942404212763,369.340911865234,2.17801237081712,11836.142578125,11836.142578125,620.35713474146,168.9140625,0.0608599239086285,NaN,0,0,5000,0.9635910987854,0.9635910987854,0.9635910987854,20668.7467567444,11607.290761377,32276.0375181213,,,13.3099999427795,0,9858.01299483119,10227.4279728741
2011-06-01T05:06:00Z,1306904760,3230E,56.0174689,26.2872753,11996.54,-0.1,15.2,15.1,-22335.97,12937.91,15.5,Weapon+Missile,Red,Allies,R-73,,xu,,610.530007318487,349.542541503906,2.06821310895321,11996.544921875,11996.544921875,589.082318488527,160.40234375,0.0607595171080436,NaN,0,0,5000,0.963055074214935,0.963055074214935,0.963055074214935,18637.3444918156,11764.5917258105,30401.9362176261,,,14.3099999427795,0,10449.8424917272,10841.6763632962
2011-06-01T05:06:01Z,1306904761,3230E,56.0189323,26.2921596,12149.13,-0.1,15.2,15.1,-22185.76,13477.77,15.5,Weapon+Missile,Red,Allies,R-73,,xu,,580.774040857646,331.091064453125,1.96741269101114,12149.126953125,12149.126953125,560.37238535972,152.58203125,0.061053812999515,NaN,0,0,5000,0.963161289691925,0.963161289691925,0.963161289691925,16864.9243267059,11914.2235834863,28779.1479101923,,,15.3099999427795,0,11012.8334067754,11426.005971501
2011-06-01T05:06:02Z,1306904762,3230E,56.0203208,26.2967935,12293.88,-0.1,15.2,15.1,-22043.24,13989.96,15.5,Weapon+Missile,Red,Allies,R-73,,xu,,550.999200346102,312.544036865234,1.86654833590198,12293.884765625,12293.884765625,531.643954637178,144.7578125,0.0611614236658904,NaN,0,0,5000,0.963880896568298,0.963880896568298,0.963880896568298,15180.0059391022,12056.1825036816,27236.1884427838,,,16.3099999427795,0,11546.9624283684,11980.3912331945
2011-06-01T05:06:03Z,1306904763,3230E,56.021651,26.3012322,12432.55,-0.1,15.2,15.1,-21906.73,14480.58,15.5,Weapon+Missile,Red,Allies,R-73,,xu,,527.798513614958,297.400482177734,1.78795438661386,12432.548828125,12432.548828125,509.257841122899,138.6640625,0.0615793634848543,NaN,0,0,5000,0.964029908180237,0.964029908180237,0.964029908180237,13928.563548708,12192.1654965332,26120.7290452412,,,17.3099999427795,0,12058.6035584309,12511.4469684847
2011-06-01T05:06:04Z,1306904764,3230E,56.0229204,26.3054681,12564.88,-0.1,15.2,15.1,-21776.46,14948.77,15.5,Weapon+Missile,Red,Allies,R-73,,xu,,503.676160156236,281.758148193359,1.70623822681156,12564.87890625,12564.87890625,485.981918113382,132.330078125,0.0611562033931361,NaN,0,0,5000,0.962825179100037,0.962825179100037,0.962825179100037,12684.4837154865,12321.9369725977,25006.4206880842,,,18.3099999427795,0,12546.8587489469,13018.2404324778
2011-06-01T05:06:05Z,1306904765,3230E,56.0241294,26.309502,12690.89,-0.1,15.2,15.1,-21652.4,15394.66,15.5,Weapon+Missile,Red,Allies,R-73,,xu,,479.668031983601,266.158935546875,1.62490901315643,12690.8935546875,12690.8935546875,462.819326828725,126.0146484375,0.0607123800262953,NaN,0,0,5000,0.965185642242432,0.965185642242432,0.965185642242432,11504.071045351,12445.5151278076,23949.5861731586,,,19.3099999427795,0,13011.8327620475,13500.8763939513
2011-06-01T05:06:06Z,1306904766,3230E,56.0252906,26.3133761,12811.93,0,15.2,15.1,-21533.25,15822.87,15.5,Weapon+Missile,Red,Allies,R-73,,xu,,460.662559160192,253.339645385742,1.56052664445376,12811.9267578125,12811.9267578125,444.478297730407,121.033203125,0.061001221875799,NaN,0,0,5000,0.963110566139221,0.963110566139221,0.963110566139221,10610.4996706009,12564.2081539502,23174.7078245511,,,20.3099999427795,0,13458.3917029783,13964.4085680544
2011-06-01T05:06:07Z,1306904767,3230E,56.0264088,26.3171064,12928.46,0,15.2,15.1,-21418.52,16235.19,15.5,Weapon+Missile,Red,Allies,R-73,,xu,,443.571951905331,241.639266967773,1.50263101681749,12928.4609375,12928.4609375,427.990492279521,116.5341796875,0.06097842298021,NaN,0,0,5000,0.963723838329315,0.963723838329315,0.963723838329315,9837.80382585526,12678.4891452734,22516.2929711287,,,21.3099999427795,0,13888.3800466072,14410.7460054759
2011-06-01T05:06:08Z,1306904768,3230E,56.0274796,26.3206786,13040.05,0,15.2,15.1,-21308.66,16630.03,15.5,Weapon+Missile,Red,Allies,R-73,,xu,,424.75704416852,229.004211425781,1.4388942006765,13040.0498046875,13040.0498046875,409.837127760027,111.5888671875,0.0617223025099069,NaN,0,0,5000,0.920959413051605,0.920959413051605,0.920959413051605,9020.9273285389,12787.9204417139,21808.8477702528,,,22.3099999427795,0,14300.1299626699,14838.158035284
2011-06-01T05:06:09Z,1306904769,3230E,56.0285092,26.3241131,13146.9,0,14.8,15.1,-21203.03,17009.66,15.5,Weapon+Missile,Red,Allies,R-73,,xu,,408.27902027898,217.763198852539,1.38307374204307,13146.9013671875,13146.9013671875,394.048857365774,106.8515625,0.0557618510727661,NaN,0.0615384702972943,0.515298019042059,5000,0.245079204440117,0.245079204440117,0.245079204440117,8334.58791999817,12892.7060292529,21227.2939492511,,,23.3099999427795,0,14696.018197472,15248.9972899444
2011-06-01T05:06:10Z,1306904770,3230E,56.0295084,26.3274459,13243.34,0.4,13.4,15.1,-21100.53,17378.04,15.5,Weapon+Missile,Red,Allies,R-73,,xu,,394.348941060527,208.161819458008,1.33588462422247,13243.33984375,13243.33984375,382.375087517301,96.4384765625,0.0709749700270377,NaN,0.369230848464192,1.23463086406532,5000,0.00553406681865454,0.00553406681865454,0.00553406681865454,7775.55436577797,12987.2798678711,20762.8342336491,,,24.3099999427795,0,15080.1909497346,15645.860464668
2011-06-01T05:06:11Z,1306904771,3230E,56.0304707,26.3306555,13326.56,0.7,12,15.1,-21001.81,17732.83,15.5,Weapon+Missile,Red,Allies,R-73,,xu,,377.550205046313,197.071685791016,1.27897773083153,13326.5556640625,13326.5556640625,368.26523672515,83.2158203125,0.065379588877774,NaN,0.230769253609694,1.43842385866123,5000,0.00219690450467169,0.00219690450467169,0.00219690450467169,7127.20786652565,13068.8867102979,20196.0945768235,,,25.3099999427795,0,15450.1598140381,16025.8244445447
2011-06-01T05:06:12Z,1306904772,3230E,56.0314087,26.3337839,13398.01,1,10.5,15.1,-20905.59,18078.62,15.5,Weapon+Missile,Red,Allies,R-73,,xu,,365.968602079229,189.222091674805,1.23974424059832,13398.0068359375,13398.0068359375,358.925824851757,71.451171875,0.0615611147202384,NaN,0.292307763927628,1.48848455624407,5000,0.00292709493078291,0.00292709493078291,0.00292709493078291,6696.65088539124,13138.9563737646,19835.6072591559,,,26.3099999427795,0,15810.7662717692,16394.1825808685
2011-06-01T05:06:13Z,1306904773,3230E,56.0323167,26.3368123,13457.51,1.3,8.9,15.1,-20812.46,18413.35,15.5,Weapon+Missile,Red,Allies,R-73,,xu,,352.503998387433,180.430938720703,1.19413195368626,13457.505859375,13457.505859375,347.446305332365,59.4990234375,0.0629242556351479,NaN,0.215384465947651,1.58849880281716,5000,0.00338367721997201,0.00338367721997201,0.00338367721997201,6212.95344395638,13197.304983584,19410.2584275404,,,27.3099999427795,0,16159.8383492855,16749.0135985791
2011-06-01T05:06:14Z,1306904774,3230E,56.0331957,26.3397434,13505.43,1.6,7.2,15.1,-20722.31,18737.34,15.5,Weapon+Missile,Red,Allies,R-73,,xu,,339.701609357616,172.194198608398,1.15076296526638,13505.4267578125,13505.4267578125,336.304580541355,47.9208984375,0.0685276050701348,NaN,0.215384679391063,1.63848906407419,5000,0.00278523005545139,0.00278523005545139,0.00278523005545139,5769.85917000771,13244.2993314502,19014.1585014579,,,28.3099999427795,0,16497.7076854641,17090.9714798185
2011-06-01T05:06:15Z,1306904775,3230E,56.0340496,26.3425909,13542.35,1.9,5.6,15.1,-20634.73,19052.08,15.5,Weapon+Missile,Red,Allies,R-73,,xu,,328.771965675313,165.229141235352,1.11373803271767,13542.345703125,13542.345703125,326.692511225803,36.9189453125,0.0536661837264273,NaN,0.276922976265585,1.68850814019178,5000,0.00234725745394826,0.00234725745394826,0.00234725745394826,5404.55027070046,13280.5044489551,18685.0547196555,,,29.3099999427795,0,16825.9374104117,17421.9625916405
2011-06-01T05:06:16Z,1306904776,3230E,56.0348789,26.3453559,13568.55,2.2,3.9,15.1,-20549.69,19357.73,15.5,Weapon+Missile,Red,Allies,R-73,,xu,,318.340963796135,158.717987060547,1.07840228415916,13568.546875,13568.546875,317.260882907157,26.201171875,0.0552238013142137,NaN,0.338461486583519,1.78854181011531,5000,0.000703370897099376,0.000703370897099376,0.000703370897099376,5067.04846153259,13306.1990211719,18373.2474827045,,,30.3099999427795,0,17144.663711451,17742.4391404834
2011-06-01T05:06:17Z,1306904777,3230E,56.0356831,26.3480377,13584.29,2.5,2,15.1,-20467.21,19654.14,15.5,Weapon+Missile,Red,Allies,R-73,,xu,,308.077194504219,152.465896606445,1.04363304768863,13584.291015625,13584.291015625,307.674633029066,15.744140625,0.0538957223581321,NaN,0.369231061907604,1.8231029942024,5000,0.00125211570411921,0.00125211570411921,0.00125211570411921,4745.5778886795,13321.6387488379,18067.2166375174,,,31.3099999427795,0,17453.7875689415,18052.6208216543
2011-06-01T05:06:18Z,1306904778,3230E,56.0364652,26.3506456,13589.92,2.7,0.1,15.1,-20387,19942.41,15.5,Weapon+Missile,Red,Allies,R-73,,xu,,299.269486121918,147.233306884766,1.01379631940705,13589.9189453125,13589.9189453125,299.216563263315,5.6279296875,0.0630717584855966,NaN,0.200000318615844,1.88849351776881,5000,0.00604032352566719,0.00604032352566719,0.00604032352566719,4478.11126618385,13327.1578625049,17805.2691286887,,,32.3099999427795,0,17754.3980345095,18353.9242319174
2011-06-01T05:06:19Z,1306904779,3230E,56.0372184,26.3531563,13585.78,3,-1.8,15.1,-20309.79,20219.94,15.5,Weapon+Missile,Red,Allies,R-73,,xu,,288.09944547913,140.822341918945,0.975957025337919,13585.7802734375,13585.7802734375,288.069717048657,-4.138671875,0.0596046378227437,NaN,0.323076912364889,1.95385351892737,5000,0.00670611066743731,0.00670611066743731,0.00670611066743731,4150.0645242691,13323.0992118506,17473.1637361197,,,33.3099999427795,0,18043.8142162112,18643.9865070367
2011-06-01T05:06:20Z,1306904780,3230E,56.0379564,26.3556168,13572.08,3.2,-3.8,15.1,-20234.11,20491.9,15.5,Weapon+Missile,Red,Allies,R-73,,xu,,282.627076287722,137.831848144531,0.957418991886606,13572.0791015625,13572.0791015625,282.294778804351,-13.701171875,0.0531706465890234,NaN,0.199999891729021,1.9769688000694,5000,0.00438527530059218,0.00438527530059218,0.00438527530059218,3993.9032125473,13309.6629521338,17303.5661646811,,,34.3099999427795,0,18327.427688256,18928.5338390246
2011-06-01T05:06:21Z,1306904781,3230E,56.0386741,26.3580096,13549.04,3.5,-5.8,15.1,-20160.51,20756.39,15.5,Weapon+Missile,Red,Allies,R-73,,xu,,275.51014411964,134.024703979492,0.933309886307656,13549.041015625,13549.041015625,274.545235087337,-23.0380859375,0.0514294721052595,NaN,0.246153614384913,2.01158270467914,5000,0.00197483855299652,0.00197483855299652,0.00197483855299652,3795.29197564125,13287.0703075879,17082.3622832291,,,35.3099999427795,0,18603.2519551079,19205.9029555364
2011-06-01T05:06:22Z,1306904782,3230E,56.0393719,26.3603357,13516.99,3.7,-7.9,15.1,-20088.97,21013.52,15.5,Weapon+Missile,Red,Allies,R-73,,xu,,268.809663368696,130.569808959961,0.910611539036804,13516.990234375,13516.990234375,266.892080327717,-32.05078125,0.0520643226684338,NaN,0.199999891729021,2.05773450634433,5000,0.0012300485977903,0.0012300485977903,0.0012300485977903,3612.93175601959,13255.6392281934,16868.570984213,,,36.3099999427795,0,18871.3881092812,19476.5127722919
2011-06-01T05:06:23Z,1306904783,3230E,56.0400567,26.3626186,13475.81,3.9,-10,15.1,-20018.76,21265.86,15.5,Weapon+Missile,Red,Allies,R-73,,xu,,265.143017220955,128.919845581055,0.898190518713892,13475.8095703125,13475.8095703125,261.925509426637,-41.1806640625,0.0497161787301826,NaN,0.16923074329176,2.10778229060077,5000,0.00601745257154107,0.00601745257154107,0.00601745257154107,3515.04097905159,13215.2547922705,16730.2957713221,,,37.3099999427795,0,19134.5332346301,19743.4108168371
2011-06-01T05:06:24Z,1306904784,3230E,56.0407215,26.3648345,13426.12,4.2,-12.1,15.1,-19950.6,21510.79,15.5,Weapon+Missile,Red,Allies,R-73,,xu,,259.052689014741,125.999389648438,0.877559105871068,13426.1171875,13426.1171875,254.241937485113,-49.6923828125,0.0504681689697976,NaN,0.16923074329176,2.10773575993705,5000,0.00495482934638858,0.00495482934638858,0.00495482934638858,3355.41478428841,13166.5232116797,16521.9379959681,,,38.3099999427795,0,19389.9669178678,20004.1620162719
2011-06-01T05:06:25Z,1306904785,3230E,56.0413715,26.3670011,13367.88,4.4,-14.2,15.1,-19883.96,21750.29,15.5,Weapon+Missile,Red,Allies,R-73,,xu,,255.320695522819,124.47688293457,0.864916716848417,13367.87890625,13367.87890625,248.589943801638,-58.23828125,0.0614925432461284,NaN,0.292307337040804,2.14622494312713,5000,0.00198426353745162,0.00198426353745162,0.00198426353745162,3259.43287811279,13109.4109675977,16368.8438457105,,,39.3099999427795,0,19639.7104133008,20261.116885129
2011-06-01T05:06:26Z,1306904786,3230E,56.0420108,26.3691318,13300.9,4.6,-16.4,15.1,-19818.43,21985.8,15.5,Weapon+Missile,Red,Allies,R-73,,xu,,253.472299708269,124.081993103027,0.858655146723508,13300.8994140625,13300.8994140625,244.46258271094,-66.9794921875,0.0559203068791068,NaN,0.199999891729021,2.15771502885838,5000,0.0069384197704494,0.0069384197704494,0.0069384197704494,3212.41033596993,13043.7265238916,16256.1368598615,,,40.3099999427795,0,19885.3210639826,20516.1920540302
2011-06-01T05:06:27Z,1306904787,3230E,56.0426359,26.3712155,13225.63,4.7,-18.5,15.1,-19754.35,22216.12,15.5,Weapon+Missile,Red,Allies,R-73,,xu,,250.635125278651,123.208366394043,0.849044019870801,13225.6328125,13225.6328125,239.066736943216,-75.2666015625,0.0493162612758114,NaN,0.200000745502667,2.11927258977544,5000,0.0066565154120326,0.0066565154120326,0.0066565154120326,3140.89830117226,12969.9152020703,16110.8135032426,,,41.3099999427795,0,20125.5047035649,20768.369403078
2011-06-01T05:06:28Z,1306904788,3230E,56.0432429,26.3732384,13142.96,4.9,-20.6,15.1,-19692.12,22439.73,15.5,Weapon+Missile,Red,Allies,R-73,,xu,,246.390098987787,121.609786987305,0.834663696352916,13142.9609375,13142.9609375,232.106531496199,-82.671875,0.0542451758435076,NaN,0.199999891729021,2.10768922927333,5000,0.00959505047649145,0.00959505047649145,0.00959505047649145,3035.40404396057,12888.8417877734,15924.245831734,,,42.3099999427795,0,20358.6931933227,21016.2333753129
2011-06-01T05:06:29Z,1306904789,3230E,56.0438418,26.3752343,13051.75,5,-22.7,15.1,-19630.74,22660.35,15.5,Weapon+Missile,Red,Allies,R-73,,xu,,246.498103182847,122.52074432373,0.835029568119035,13051.751953125,13051.751953125,229.002698765806,-91.208984375,0.0548919999949066,NaN,0,2.10773575993705,5000,0.00736577762290835,0.00736577762290835,0.00736577762290835,3038.06574363709,12799.3963291113,15837.4620727484,,,43.3099999427795,0,20588.7625510488,21264.1619946598
2011-06-01T05:06:30Z,1306904790,3230E,56.0444346,26.3772096,12951.65,5.2,-24.9,15.1,-19569.98,22878.69,15.5,Weapon+Missile,Red,Allies,R-73,,xu,,247.753003060841,124.172088623047,0.839280629241305,12951.65234375,12951.65234375,226.631018902174,-100.099609375,0.0432610293660263,NaN,0.16923074329176,2.10771249460519,5000,0.00678312964737415,0.00678312964737415,0.00678312964737415,3069.07752628326,12701.2321456836,15770.3096719669,,,44.3099999427795,0,20816.4570241296,21513.3131321748
2011-06-01T05:06:31Z,1306904791,3230E,56.0450097,26.3791264,12844.78,5.3,-27,15.1,-19511.03,23090.57,15.5,Weapon+Missile,Red,Allies,R-73,,xu,,244.519961482291,123.344139099121,0.828328474729003,12844.7802734375,12844.7802734375,219.928106776785,-106.8720703125,0.0506441263155355,NaN,0.199999891729021,2.05768690846355,5000,0.00691719027236104,0.00691719027236104,0.00691719027236104,2989.50057816505,12596.4264468506,15585.9270250156,,,45.3099999427795,0,21037.4061378603,21759.154131236
2011-06-01T05:06:32Z,1306904792,3230E,56.0455723,26.3810012,12730.63,5.4,-29,15.1,-19453.37,23297.8,15.5,Weapon+Missile,Red,Allies,R-73,,xu,,243.520736659289,123.850105285645,0.824943530741071,12730.62890625,12730.62890625,215.108843500929,-114.1513671875,0.0405339144972534,NaN,0.200000745502667,2.00770934708951,5000,0.00426156679168344,0.00426156679168344,0.00426156679168344,2965.11745915413,12484.4821963477,15449.5996555018,,,46.3099999427795,0,21253.521352581,22003.9474968928
2011-06-01T05:06:33Z,1306904793,3230E,56.0461278,26.3828523,12608.22,5.4,-31,15.1,-19396.43,23502.42,15.5,Weapon+Missile,Red,Allies,R-73,,xu,,245.137811089639,125.94815826416,0.830421483495092,12608.2236328125,12608.2236328125,212.389960827979,-122.4052734375,0.0492823640424173,NaN,0,2.00770934708951,5000,0.00531520694494247,0.00531520694494247,0.00531520694494247,3004.62732129097,12364.4436288721,15369.070950163,,,47.3099999427795,0,21466.8979997945,22250.3084163851
2011-06-01T05:06:34Z,1306904794,3230E,56.0466729,26.3846689,12478.33,5.5,-32.9,15.1,-19340.55,23703.22,15.5,Weapon+Missile,Red,Allies,R-73,,xu,,245.58874230134,127.465003967285,0.831949044519279,12478.3310546875,12478.3310546875,208.426842065015,-129.892578125,0.0446419664013345,NaN,0,1.95768333406104,5000,0.00212767324410379,0.00212767324410379,0.00212767324410379,3015.69151725769,12237.0625237451,15252.7540410028,,,48.3099999427795,0,21676.3024083794,22497.0773971382
2011-06-01T05:06:35Z,1306904795,3230E,56.0472058,26.3864441,12341.72,5.5,-34.8,15.1,-19285.95,23899.46,15.5,Weapon+Missile,Red,Allies,R-73,,xu,,245.264066638845,128.606262207031,0.830849183000141,12341.716796875,12341.716796875,203.693414097176,-136.6142578125,0.038913953658059,NaN,0.0615382968745224,1.90001946199321,5000,0.0047272969968617,0.0047272969968617,0.0047272969968617,3007.7231192112,12103.0897026074,15110.8128218186,,,49.3099999427795,0,21880.9394632968,22743.4569758939
2011-06-01T05:06:36Z,1306904796,3230E,56.0477289,26.3881871,12197.93,5.6,-36.6,15.1,-19232.34,24092.12,15.5,Weapon+Missile,Red,Allies,R-73,,xu,,246.309456385151,130.645660400391,0.834390513895194,12197.9296875,12197.9296875,199.984038068868,-143.787109375,0.0534164767418688,NaN,0,1.86535945360657,5000,0.00422462495043874,0.00422462495043874,0.00422462495043874,3033.41741523743,11962.0827169922,14995.5001322296,,,50.3099999427795,0,22081.8600631049,22990.8418748124
2011-06-01T05:06:37Z,1306904797,3230E,56.0482445,26.3899053,12046.4,5.6,-38.4,15.1,-19179.49,24282.04,15.5,Weapon+Missile,Red,Allies,R-73,,xu,,248.649919307288,133.574859619141,0.842318995769237,12046.396484375,12046.396484375,197.14073836272,-151.533203125,0.0349735006283075,NaN,0,1.78845974112357,5000,0.00113911018706858,0.00113911018706858,0.00113911018706858,3091.33911857605,11813.4794083496,14904.8185269257,,,51.3099999427795,0,22279.920230265,23240.5204571116
2011-06-01T05:06:38Z,1306904798,3230E,56.0487488,26.3915853,11888.52,5.6,-40.2,15.1,-19127.82,24467.75,15.5,Weapon+Missile,Red,Allies,R-73,,xu,,249.157859072674,135.496231079102,0.844039677257021,11888.5224609375,11888.5224609375,192.757442038782,-157.8740234375,0.0371617382278263,NaN,0,1.73846937314483,5000,0.00211793160997331,0.00211793160997331,0.00211793160997331,3103.98193688393,11658.6578791553,14762.6398160392,,,52.3099999427795,0,22473.5801290043,23490.6588901397
2011-06-01T05:06:39Z,1306904799,3230E,56.0492416,26.3932272,11724.56,5.6,-41.8,15.1,-19077.33,24649.24,15.5,Weapon+Missile,Red,Allies,R-73,,xu,,249.743613880292,137.554397583008,0.846023962643858,11724.560546875,11724.560546875,188.383553982161,-163.9619140625,0.0638547256318647,NaN,0,1.68845019030554,5000,0.00242151878774166,0.00242151878774166,0.00242151878774166,3118.59363369942,11497.8661687012,14616.4598024006,,,53.3099999427795,0,22662.8414530377,23741.3301742977
2011-06-01T05:06:40Z,1306904800,3230E,56.0497242,26.3948348,11554.34,5.6,-43.5,15.1,-19027.88,24826.94,15.5,Weapon+Missile,Red,Allies,R-73,,xu,,250.999862207322,140.128570556641,0.850279591731567,11554.3359375,11554.3359375,184.457347891655,-170.224609375,0.0413767320331086,NaN,0,1.63076390667949,5000,0.00288705760613084,0.00288705760613084,0.00288705760613084,3150.04654140472,11330.9328521484,14480.9793935532,,,54.3099999427795,0,22848.1635483871,23993.2153874993
2011-06-01T05:06:41Z,1306904801,3230E,56.0501986,26.3964156,11377.27,5.5,-45.1,15.1,-18979.26,25001.68,15.5,Weapon+Missile,Red,Allies,R-73,,xu,,253.475509688868,143.595947265625,0.85866602075734,11377.2705078125,11377.2705078125,181.377141949069,-177.0654296875,0.0401842904707276,NaN,0.0922895160652123,1.58077738068216,5000,0.00344579620286822,0.00344579620286822,0.00344579620286822,3212.49170060158,11157.2909825439,14369.7826831455,,,55.3099999427795,0,23030.3806511361,24247.5276418983
2011-06-01T05:06:42Z,1306904802,3230E,56.0506646,26.3979683,11193.59,5.5,-46.6,15.1,-18931.51,25173.31,15.5,Weapon+Missile,Red,Allies,R-73,,xu,,255.885108366059,147.161331176758,0.866828704837965,11193.587890625,11193.587890625,178.151297572204,-183.6826171875,0.0355433976185019,NaN,0,1.53847652504839,5000,0.00132613605819643,0.00132613605819643,0.00132613605819643,3273.85943417549,10977.1598687598,14251.0193029353,,,56.3099999427795,0,23209.3625816193,24504.2128555661
2011-06-01T05:06:43Z,1306904803,3230E,56.0511156,26.3994705,11006.21,5.4,-48.2,15.1,-18885.3,25339.36,15.5,Weapon+Missile,Red,Allies,R-73,,xu,,254.589954749209,148.401611328125,0.862364171727028,11006.212890625,11006.212890625,172.356184786633,-187.375,0.0419731922634145,NaN,0.199987938897973,1.48845168595869,5000,0.00517463870346546,0.00517463870346546,0.00517463870346546,3240.80225296021,10793.4077643848,14034.210017345,,,57.3099999427795,0,23382.5286350502,24759.5564176865
2011-06-01T05:06:44Z,1306904804,3230E,56.0515578,26.4009435,10812.84,5.4,-49.6,15.1,-18839.99,25502.19,15.5,Weapon+Missile,Red,Allies,R-73,,xu,,256.822529208659,151.580078125,0.867418770547306,10812.8408203125,10812.8408203125,169.011993456648,-193.3720703125,0.0437831580774581,NaN,0,1.43849194710952,5000,0.00119638477917761,0.00119638477917761,0.00119638477917761,3297.89057545662,10603.7745430518,13901.6651185084,,,58.3099999427795,0,23552.3260670927,25017.0882385839
2011-06-01T05:06:45Z,1306904805,3230E,56.0519903,26.4023842,10614.03,5.3,-50.9,15.1,-18795.68,25661.45,15.5,Weapon+Missile,Red,Allies,R-73,,xu,,258.558082540987,154.495468139648,0.870707557460991,10614.0302734375,10614.0302734375,165.307738773885,-198.810546875,0.0344751484109743,NaN,0,1.38846305259499,5000,0.000207750854315236,0.000207750854315236,0.000207750854315236,3342.61410236359,10408.8079981006,13751.4221004642,,,59.3099999427795,0,23718.4062471675,25276.3197940207
2011-06-01T05:06:46Z,1306904806,3230E,56.0524129,26.4037918,10410.1,5.2,-52.3,15.1,-18752.38,25817.04,15.5,Weapon+Missile,Red,Allies,R-73,,xu,,260.139072996247,157.384704589844,0.873399765056914,10410.0966796875,10410.0966796875,161.503642805842,-203.93359375,0.030161040414998,NaN,0.199987938897973,1.33850342046752,5000,0.00361131294630468,0.00361131294630468,0.00361131294630468,3383.61686496735,10208.8174603857,13592.4343253531,,,60.3099999427795,0,23880.6595543067,25537.0915259306
2011-06-01T05:06:47Z,1306904807,3230E,56.052825,26.4051649,10201.42,5.2,-53.6,15.1,-18710.16,25968.82,15.5,Weapon+Missile,Red,Allies,R-73,,xu,,261.466640481683,160.173599243164,0.875174737594063,10201.4228515625,10201.4228515625,157.54376388939,-208.673828125,0.0324807906376815,NaN,0,1.31924420799879,5000,0.00145918491762131,0.00145918491762131,0.00145918491762131,3418.24020423889,10004.1783407275,13422.4185449664,,,61.3099999427795,0,24038.9369590491,25799.1554985018
2011-06-01T05:06:48Z,1306904808,3230E,56.0532247,26.4064964,9989.44,5.1,-54.8,15.1,-18669.21,26116,15.5,Weapon+Missile,Red,Allies,R-73,,xu,,261.300206705195,161.982955932617,0.871919579694644,9989.4375,9989.4375,152.774372023258,-211.9853515625,0.0266977060599498,NaN,0,1.28470372792263,5000,0.00167359411716461,0.00167359411716461,0.00167359411716461,3413.88990120888,9796.2917259375,13210.1816271464,,,62.3099999427795,0,24192.4257431311,26061.0165947721
2011-06-01T05:06:49Z,1306904809,3230E,56.0536148,26.4077956,9772.94,5,-56.1,15.1,-18629.24,26259.61,15.5,Weapon+Missile,Red,Allies,R-73,,xu,,262.858323072959,165.050476074219,0.874372553609643,9772.935546875,9772.935546875,149.068448377879,-216.501953125,0.0352540344250642,NaN,0,1.2076632495097,5000,0.00299216946586967,0.00299216946586967,0.00299216946586967,3454.7249004364,9583.97583807617,13038.7007385126,,,63.3099999427795,0,24342.1864480586,26324.4001767612
2011-06-01T05:06:50Z,1306904810,3230E,56.0539954,26.4090635,9551.92,4.9,-57.2,15.1,-18590.24,26399.77,15.5,Weapon+Missile,Red,Allies,R-73,,xu,,264.601850836848,168.324645996094,0.877376705528854,9551.9150390625,9551.9150390625,145.478777120893,-221.0205078125,0.0258757387604083,NaN,0.0461720787892862,1.14232384564036,5000,0.000514796527568251,0.000514796527568251,0.000514796527568251,3500.70697331429,9367.22876178223,12867.9357350965,,,64.3099999427795,0,24488.3456723098,26589.49894728
2011-06-01T05:06:51Z,1306904811,3230E,56.0543647,26.4102935,9327.85,4.8,-58.3,15.1,-18552.41,26535.73,15.5,Weapon+Missile,Red,Allies,R-73,,xu,,264.803574118811,170.555953979492,0.875236451679952,9327.8515625,9327.8515625,141.125799685325,-224.0634765625,0.0332533558699581,NaN,0.199987938897973,1.13078605530662,5000,0.0016304834280163,0.0016304834280163,0.0016304834280163,3506.04664330483,9147.49755253906,12653.5441958439,,,65.3099999427795,0,24630.1336788109,26854.7683070399
2011-06-01T05:06:52Z,1306904812,3230E,56.0547229,26.4114865,9100.89,4.7,-59.5,15.1,-18515.72,26667.6,15.5,Weapon+Missile,Red,Allies,R-73,,xu,,265.044279733806,172.855712890625,0.873211314001991,9100.8896484375,9100.8896484375,136.882284407802,-226.9619140625,0.0564290708524019,NaN,0.199987938897973,1.09615849031854,5000,0.00241882586851716,0.00241882586851716,0.00241882586851716,3512.42351098061,8924.92394708496,12437.3474580656,,,66.3099999427795,0,24767.6546569493,27120.2460141684
2011-06-01T05:06:53Z,1306904813,3230E,56.0550718,26.4126483,8870.14,4.6,-60.5,15.1,-18479.99,26796.03,15.5,Weapon+Missile,Red,Allies,R-73,,xu,,266.491360187938,176.089416503906,0.875123275875988,8870.138671875,8870.138671875,133.310284187942,-230.7509765625,0.0416138100754059,NaN,0.199987938897973,1.04618679863832,5000,0.00179949519224465,0.00179949519224465,0.00179949519224465,3550.88225274086,8698.6345406543,12249.5167933952,,,67.3099999427795,0,24901.5821674795,27387.141433627
2011-06-01T05:06:54Z,1306904814,3230E,56.055406,26.4137615,8639.5,4.5,-61.5,15.1,-18445.75,26919.08,15.5,Weapon+Missile,Red,Allies,R-73,,xu,,263.645626776916,176.175643920898,0.862981907816064,8639.4990234375,8639.4990234375,127.727714640243,-230.6396484375,0.0224822680027275,NaN,0.199987938897973,1.03078013302659,5000,0.00474597048014402,0.00474597048014402,0.00474597048014402,3475.45082592964,8472.45430981934,11947.905135749,,,68.3099999427795,0,25029.9085518175,27651.1633027274
2011-06-01T05:06:55Z,1306904815,3230E,56.0557181,26.4148009,8414.77,4.4,-62.6,15.1,-18413.78,27033.98,15.5,Weapon+Missile,Red,Allies,R-73,,xu,,254.408294725747,171.439361572266,0.830141498468398,8414.7744140625,8414.7744140625,119.257831468278,-224.724609375,0.046562880436942,NaN,0.199987938897973,1.04234471050848,5000,0.00349538307636976,0.00349538307636976,0.00349538307636976,3236.17902126312,8252.0747507666,11488.2537720297,,,69.3099999427795,0,25149.7205401031,27905.9072356062
2011-06-01T05:06:56Z,1306904816,3230E,56.0559903,26.4157074,8209.74,4.4,-63.7,15.1,-18385.9,27134.18,15.5,Weapon+Missile,Red,Allies,R-73,,xu,,229.909800483528,155.252655029297,0.748074126417711,8209.736328125,8209.736328125,104.009132644503,-205.0380859375,0.0167043053303285,NaN,0,1.10779179657895,5000,2.21282195863164e-16,2.21282195863164e-16,2.21282195863164e-16,2642.92581791878,8051.0010762207,10693.9268941395,,,70.3099999427795,0,25254.2121861483,28136.0975877595
2011-06-01T05:06:57Z,1306904817,3230E,56.0562213,26.4164769,8026.65,4.3,-64.9,15.1,-18362.22,27219.23,15.5,Weapon+Missile,Red,Allies,R-73,,xu,,203.259007361663,137.417068481445,0.659692025690051,8026.65283203125,8026.65283203125,88.2873577118394,-183.08349609375,0.0304520063763315,NaN,0.0769352508110236,1.21931672617251,5000,0.00275391479954123,0.00275391479954123,0.00275391479954123,2065.71120368242,7871.45749952393,9937.16870320635,,,71.3099999427795,0,25342.9179965076,28339.5879584058
2011-06-01T05:06:58Z,1306904818,3230E,56.0564191,26.4171354,7860.89,4.3,-66.1,15.1,-18341.97,27292.02,15.5,Weapon+Missile,Red,Allies,R-73,,xu,,182.168656468394,123.514709472656,0.589899169512846,7860.890625,7860.890625,75.5533594198756,-165.76220703125,0.0234273616769944,NaN,0,1.26926088365264,5000,0.00131489685736597,0.00131489685736597,0.00131489685736597,1659.27096997499,7708.90030476562,9368.17127474062,,,72.3099999427795,0,25418.8239324656,28521.9425070065
2011-06-01T05:06:59Z,1306904819,3230E,56.0565908,26.4177072,7707.76,4.3,-67.5,15.1,-18324.38,27355.23,15.5,Weapon+Missile,Red,Allies,R-73,,xu,,166.590707694264,113.440986633301,0.538327823592389,7707.763671875,7707.763671875,65.6094514283555,-153.126953125,0.0178167265131219,NaN,0,1.31924420799879,5000,0.00204591173678637,0.00204591173678637,0.00204591173678637,1387.62319450378,7558.7340612793,8946.35725578308,,,73.3099999427795,0,25484.7377165408,28688.6851294881
2011-06-01T05:07:00Z,1306904820,3230E,56.0567408,26.4182068,7564.74,4.3,-68.8,15.1,-18309.02,27410.47,15.5,Weapon+Missile,Red,Allies,R-73,,xu,,154.088991388367,105.442024230957,0.496961700482702,7564.73974609375,7564.73974609375,57.3373693258037,-143.02392578125,0.0330731929101896,NaN,0,1.36926275050785,5000,0.00265051727183163,0.00265051727183163,0.00265051727183163,1187.17086335421,7418.47550310303,8605.64636645723,,,74.3099999427795,0,25542.3376404743,28842.89778695
2011-06-01T05:07:01Z,1306904821,3230E,56.0568724,26.418645,7430.18,4.3,-70.1,15.1,-18295.54,27458.91,15.5,Weapon+Missile,Red,Allies,R-73,,xu,,143.642241995134,98.79931640625,0.462425467906227,7430.1845703125,7430.1845703125,50.2792040098635,-134.55517578125,0.0491448918173047,NaN,0,1.36922699873642,5000,0.00286118197254837,0.00286118197254837,0.00286118197254837,1031.65468426943,7286.52195164551,8318.17663591494,,,75.3099999427795,0,25592.8515598067,28986.6432349294
2011-06-01T05:07:02Z,1306904822,3230E,56.0569895,26.4190353,7301.17,4.3,-71.5,15.1,-18283.54,27502.04,15.5,Weapon+Missile,Red,Allies,R-73,,xu,,136.5624652653,94.4664840698242,0.438868563999088,7301.16845703125,7301.16845703125,44.7677275851253,-129.01611328125,0.0487082217992357,NaN,0,1.31924420799879,5000,0.000939871475566179,0.000939871475566179,0.000939871475566179,932.465345966816,7160.00036491455,8092.46571088137,,,76.3099999427795,0,25637.8339327048,29123.2933262659
2011-06-01T05:07:03Z,1306904823,3230E,56.0570942,26.4193837,7176.67,4.3,-72.9,15.1,-18272.82,27540.55,15.5,Weapon+Missile,Red,Allies,R-73,,xu,,130.762205589932,90.9781951904297,0.419525034197784,7176.66748046875,7176.66748046875,39.9782596635664,-124.5009765625,0.0235946497381895,NaN,0,1.29233710465035,5000,0.000897229940164834,0.000897229940164834,0.000897229940164834,854.937720537186,7037.90661473389,7892.84433527107,,,77.3099999427795,0,25677.9969096301,29254.1261259749
2011-06-01T05:07:04Z,1306904824,3230E,56.0571872,26.4196935,7056.69,4.3,-74.1,15.1,-18263.29,27574.8,15.5,Weapon+Missile,Red,Allies,R-73,,xu,,125.133506722009,87.5523910522461,0.40082104286888,7056.69091796875,7056.69091796875,35.5530442470221,-119.9765625,0.0159623965679399,NaN,0,1.27694815484178,5000,0.00124121503904462,0.00124121503904462,0.00124121503904462,782.919725227356,6920.24979906982,7703.16952429718,,,78.3099999427795,0,25713.7139541978,29379.3177042068
2011-06-01T05:07:05Z,1306904825,3230E,56.0572706,26.4199711,6939.95,4.3,-75.4,15.1,-18254.75,27605.49,15.5,Weapon+Missile,Red,Allies,R-73,,xu,,121.00824498625,85.154052734375,0.38700280165986,6939.94970703125,6939.94970703125,31.8509815154657,-116.7412109375,0.0527351081965076,NaN,0,1.23850891741001,5000,0.00209701014682651,0.00209701014682651,0.00209701014682651,732.14976773262,6805.7657794458,7537.91554717842,,,79.3099999427795,0,25745.712566893,29500.3741774826
2011-06-01T05:07:06Z,1306904826,3230E,56.0573456,26.4202211,6825.5,4.2,-76.5,15.1,-18247.07,27633.12,15.5,Weapon+Missile,Red,Allies,R-73,,xu,,117.983903756891,83.510986328125,0.376755440966517,6825.50439453125,6825.50439453125,28.6787725067283,-114.4453125,0.0322784683518919,NaN,0.199987938897973,1.16160792426654,5000,0.00254668528214097,0.00254668528214097,0.00254668528214097,696.010077285767,6693.53326706299,7389.54334434876,,,80.3099999427795,0,25774.5283200295,29618.3990487006
2011-06-01T05:07:07Z,1306904827,3230E,56.057413,26.4204455,6713.4,4.2,-77.6,15.1,-18240.16,27657.93,15.5,Weapon+Missile,Red,Allies,R-73,,xu,,115.028173826788,81.8859558105469,0.366770243628926,6713.39501953125,6713.39501953125,25.7481807325325,-112.109375,0.0397170061306213,NaN,0,1.07692980025766,5000,0.000989214866422117,0.000989214866422117,0.000989214866422117,661.574038696289,6583.59152682861,7245.1655655249,,,81.3099999427795,0,25800.4000040232,29733.461108343
2011-06-01T05:07:08Z,1306904828,3230E,56.0574735,26.4206468,6603.54,4.1,-78.6,15.1,-18233.97,27680.18,15.5,Weapon+Missile,Red,Allies,R-73,,xu,,112.257234014231,80.3642654418945,0.357414506781804,6603.5400390625,6603.5400390625,23.0991310385549,-109.85498046875,0.018474204552035,NaN,0.153870501622047,1.019276386917,5000,0.000373562565073371,0.000373562565073371,0.000373562565073371,630.084329426289,6475.86059240723,7105.94492183351,,,82.3099999427795,0,25823.6026690644,29845.7447003624
2011-06-01T05:07:09Z,1306904829,3230E,56.0575279,26.4208281,6495.35,4,-79.6,15.1,-18228.4,27700.21,15.5,Weapon+Missile,Red,Allies,R-73,,xu,,110.169327213712,79.3160400390625,0.350265917781423,6495.3505859375,6495.3505859375,20.792375795838,-108.189453125,0.021583383331934,NaN,0.153815860108687,0.969229563155903,5000,0.000266048213234171,0.000266048213234171,0.000266048213234171,606.864032936096,6369.7629823584,6976.62701529449,,,83.3099999427795,0,25844.4954887025,29955.937098504
2011-06-01T05:07:10Z,1306904830,3230E,56.0575769,26.4209912,6388.65,4,-80.4,15.1,-18223.38,27718.24,15.5,Weapon+Missile,Red,Allies,R-73,,xu,,108.330726697936,78.4299850463867,0.343936646755058,6388.64892578125,6388.64892578125,18.7163582676486,-106.70166015625,0.0463138808732852,NaN,0,0.919333110278255,5000,0.0019640710670501,0.0019640710670501,0.0019640710670501,586.777317345142,6265.12439880127,6851.90171614641,,,84.3099999427795,0,25863.2983844546,30064.2861072989
2011-06-01T05:07:11Z,1306904831,3230E,56.057621,26.4211382,6283.21,3.9,-81.3,15.1,-18218.85,27734.5,15.5,Weapon+Missile,Red,Allies,R-73,,xu,,106.776496521286,77.7360687255859,0.33853299403949,6283.2138671875,6283.2138671875,16.8721257905644,-105.43505859375,0.0155874398307517,NaN,0,0.81920552525363,5000,0.00122927478514612,0.00122927478514612,0.00122927478514612,570.061010468006,6161.72792706543,6731.78893753344,,,85.3099999427795,0,25880.2522729904,30171.0782290386
2011-06-01T05:07:12Z,1306904832,3230E,56.0576609,26.421271,6178.64,3.8,-82.1,15.1,-18214.78,27749.18,15.5,Weapon+Missile,Red,Allies,R-73,,xu,,105.676100854394,77.3644714355469,0.334585580587089,6178.64208984375,6178.64208984375,15.2375088172993,-104.57177734375,0,NaN,0,0.769439219496184,5000,0.000638195313513279,0.000638195313513279,0.000638195313513279,558.371914589405,6059.17804503662,6617.54995962603,,,86.3099999427795,0,25895.5582731949,30276.766394014
2011-06-01T05:07:13Z,1306904833,3230E,56.0576969,26.421391,6074.78,3.6,-82.8,15.1,-18211.08,27762.45,15.5,Weapon+Missile,Red,Allies,R-73,,xu,,104.771338849919,77.129020690918,0.33127120167605,6074.77978515625,6074.77978515625,13.7715325728663,-103.8623046875,0.019666285896399,NaN,0.107698422832761,0.71922329519228,5000,0.00050597230438143,0.00050597230438143,0.00050597230438143,548.85167222023,5957.32391801025,6506.17559023048,,,87.3099999427795,0,25909.3941916559,30381.5479712297
2011-06-01T05:07:14Z,1306904834,3230E,56.0577293,26.4214988,5972.2,3.5,-83.4,15.1,-18207.77,27774.36,15.5,Weapon+Missile,Red,Allies,R-73,,xu,,103.32051078561,76.4725036621094,0.326247608712426,5972.2021484375,5972.2021484375,12.3675540910706,-102.57763671875,0.0349315552929415,NaN,0.199987938897973,0.665448895691652,5000,0.000922586710657924,0.000922586710657924,0.000922586710657924,533.75639744997,5856.72961989746,6390.48601734743,,,88.3099999427795,0,25921.8140881814,30484.8761710375
2011-06-01T05:07:15Z,1306904835,3230E,56.0577584,26.4215956,5870.68,3.4,-84.1,15.1,-18204.79,27785.06,15.5,Weapon+Missile,Red,Allies,R-73,,xu,,102.132646030479,75.9998931884766,0.322071613059356,5870.67529296875,5870.67529296875,11.1074301174798,-101.52685546875,0.0406575205302473,NaN,0.199987938897973,0.580900438555297,5000,0.000891958945430815,0.000891958945430815,0.000891958945430815,521.553869259357,5757.1657861792,6278.71965543856,,,89.3099999427795,0,25932.9771956737,30587.0160204687
2011-06-01T05:07:16Z,1306904836,3230E,56.0577846,26.421683,5769.89,3.3,-84.6,15.1,-18202.1,27794.72,15.5,Weapon+Missile,Red,Allies,R-73,,xu,,101.285746842095,75.774772644043,0.318984021598382,5769.88671875,5769.88671875,10.0232639550448,-100.78857421875,0.0138283186836912,NaN,0.199987938897973,0.519364222754037,5000,0.000311900395900011,0.000311900395900011,0.000311900395900011,512.940125668049,5658.32595904297,6171.26608471102,,,90.3099999427795,0,25943.0458544927,30688.3071834111
2011-06-01T05:07:17Z,1306904837,3230E,56.0578083,26.4217618,5669.58,3.2,-85.1,15.1,-18199.67,27803.43,15.5,Weapon+Missile,Red,Allies,R-73,,xu,,100.716375927193,75.7533721923828,0.316779873058138,5669.57763671875,5669.57763671875,9.04856021450741,-100.30908203125,0.0133272969313772,NaN,0,0.503971110798944,5000,0.000606373243499547,0.000606373243499547,0.000606373243499547,507.18941899538,5559.95635311279,6067.14577210817,,,91.3099999427795,0,25952.1348422418,30789.0279353275
2011-06-01T05:07:18Z,1306904838,3230E,56.0578296,26.4218327,5569.97,3,-85.6,15.1,-18197.49,27811.28,15.5,Weapon+Missile,Red,Allies,R-73,,xu,,99.9352568004273,75.5640716552734,0.313919666024454,5569.974609375,5569.974609375,8.14202037135373,-99.60302734375,0.0437653404034121,NaN,0.184579032130425,0.469288904297501,5000,0.00156242900993675,0.00156242900993675,0.00156242900993675,499.352777588367,5462.27915030273,5961.6319278911,,,92.3099999427795,0,25960.3121544249,30888.9666634476
2011-06-01T05:07:19Z,1306904839,3230E,56.0578488,26.4218966,5471,2.9,-86,15.1,-18195.53,27818.33,15.5,Weapon+Missile,Red,Allies,R-73,,xu,,99.2451251007434,75.4369888305664,0.311355261277597,5471,5471,7.32267405586027,-98.974609375,0.0245926611981398,NaN,0.199987938897973,0.419300724113734,5000,0.00085569906514138,0.00085569906514138,0.00085569906514138,492.47974281311,5365.218215,5857.69795781311,,,93.3099999427795,0,25967.6739898336,30988.2151585487
2011-06-01T05:07:20Z,1306904840,3230E,56.057866,26.421954,5372.77,2.8,-86.3,15.1,-18193.76,27824.68,15.5,Weapon+Missile,Red,Allies,R-73,,xu,,98.4470323385603,75.2193756103516,0.3084625568983,5372.7734375,5372.7734375,6.58487628609111,-98.2265625,0.0313085963606434,NaN,0.107698422832761,0.369302352007066,5000,0.000970292137935758,0.000970292137935758,0.000970292137935758,484.590908813477,5268.89086308594,5753.48177189941,,,94.3099999427795,0,25974.2903948409,31086.6646829478
2011-06-01T05:07:21Z,1306904841,3230E,56.0578815,26.4220056,5275.2,2.7,-86.7,15.1,-18192.18,27830.38,15.5,Weapon+Missile,Red,Allies,R-73,,xu,,97.7531770167937,75.0747146606445,0.305906358884444,5275.19970703125,5275.19970703125,5.92036648260309,-97.57373046875,0.0113001086232306,NaN,0,0.36943479364394,5000,0.00145209929905832,0.00145209929905832,0.00145209929905832,477.78418084383,5173.2037206958,5650.98790153963,,,95.3099999427795,0,25980.2376335474,31184.4197932915
2011-06-01T05:07:22Z,1306904842,3230E,56.0578954,26.4220521,5177.75,2.5,-87,15.1,-18190.74,27835.52,15.5,Weapon+Missile,Red,Allies,R-73,,xu,,97.5923463816362,75.3413162231445,0.305023456360191,5177.75341796875,5177.75341796875,5.33730458386509,-97.4462890625,0.0218701668823768,NaN,0.138461594854498,0.319442051107252,5000,0.00121471239253879,0.00121471239253879,0.00121471239253879,476.213303613663,5077.64155563232,5553.85485924599,,,96.3099999427795,0,25985.5957949683,31282.0135237092
2011-06-01T05:07:23Z,1306904843,3230E,56.0579079,26.4220936,5081.54,2.4,-87.3,15.1,-18189.47,27840.11,15.5,Weapon+Missile,Red,Allies,R-73,,xu,,96.3297241028706,74.7388458251953,0.300708570580213,5081.54150390625,5081.54150390625,4.76270282143272,-96.2119140625,0.0108735115155256,NaN,0.199987938897973,0.269614780575378,5000,0.000892966229002923,0.000892966229002923,0.000892966229002923,463.970787286758,4983.28989892822,5447.26068621498,,,97.3099999427795,0,25990.387085484,31378.3448572049
2011-06-01T05:07:24Z,1306904844,3230E,56.0579192,26.4221312,4985.35,2.3,-87.6,15.1,-18188.32,27844.26,15.5,Weapon+Missile,Red,Allies,R-73,,xu,,96.2838360848644,75.0866622924805,0.300198363815345,4985.35400390625,4985.35400390625,4.30603471502971,-96.1875,0.0383838937702822,NaN,0.199987938897973,0.2733984385713,5000,0.00110259826760739,0.00110259826760739,0.00110259826760739,463.528854560852,4888.96218424072,5352.49103880157,,,98.3099999427795,0,25994.710921892,31474.6296443589
2011-06-01T05:07:25Z,1306904845,3230E,56.0579293,26.4221648,4889.69,2.2,-87.8,15.1,-18187.28,27847.98,15.5,Weapon+Missile,Red,Allies,R-73,,xu,,95.7410533350704,75.0388488769531,0.298144470125362,4889.69091796875,4889.69091796875,3.86306647927408,-95.6630859375,0.0277322860466422,NaN,0.199987938897973,0.238826875798325,5000,0.000811961479485035,0.000811961479485035,0.000811961479485035,458.31746468544,4795.14874406982,5253.46620875527,,,99.3099999427795,0,25998.5924807085,31570.3715674941
2011-06-01T05:07:26Z,1306904846,3230E,56.0579383,26.4221948,4795.24,2.1,-88,15.1,-18186.36,27851.29,15.5,Weapon+Missile,Red,Allies,R-73,,xu,,94.5181090460003,74.4427261352539,0.293984948840344,4795.2353515625,4795.2353515625,3.43786452701434,-94.45556640625,0.0150161677294126,NaN,0,0.200525442769142,5000,0.00133391679264605,0.00133391679264605,0.00133391679264605,446.68364688158,4702.51947604004,5149.20312292162,,,100.30999994278,0,26002.0424204491,31664.8902121585
2011-06-01T05:07:27Z,1306904847,3230E,56.0579464,26.4222217,4701.04,2,-88.2,15.1,-18185.52,27854.28,15.5,Weapon+Missile,Red,Allies,R-73,,xu,,94.2476869408072,74.5983352661133,0.292795863875834,4701.03857421875,4701.03857421875,3.09735883364921,-94.19677734375,0.0277525726054374,NaN,0,0.200281343547593,5000,0.00157679885160178,0.00157679885160178,0.00157679885160178,444.13132468462,4610.14399338623,5054.27531807085,,,101.30999994278,0,26005.148276381,31759.1382549521
2011-06-01T05:07:28Z,1306904848,3230E,56.0579537,26.422246,4606.66,1.9,-88.4,15.1,-18184.78,27856.97,15.5,Weapon+Missile,Red,Allies,R-73,,xu,,94.4245682060362,75.1123962402344,0.292997297321083,4606.6552734375,4606.6552734375,2.79134636555027,-94.38330078125,0.0194226758083856,NaN,0,0.200036950841353,5000,0.00154744286555797,0.00154744286555797,0.00154744286555797,445.799954044819,4517.58559372559,4963.38554777041,,,102.30999994278,0,26007.9552324209,31853.5633468015
2011-06-01T05:07:29Z,1306904849,3230E,56.0579602,26.4222677,4513.84,1.8,-88.6,15.1,-18184.12,27859.34,15.5,Weapon+Missile,Red,Allies,R-73,,xu,,92.8442948414298,74.2059173583984,0.28775837790595,4513.84375,4513.84375,2.46661748407493,-92.8115234375,0.00958800886068884,NaN,0,0.150657991515041,5000,0.00120197958312929,0.00120197958312929,0.00120197958312929,431.003154230118,4426.56858109375,4857.57173532387,,,103.30999994278,0,26010.4455824836,31946.4083229593
2011-06-01T05:07:30Z,1306904850,3230E,56.057966,26.4222871,4420.89,1.7,-88.7,15.1,-18183.52,27861.49,15.5,Weapon+Missile,Red,Allies,R-73,,xu,,92.9803918258758,74.6787872314453,0.287844992307206,4420.89013671875,4420.89013671875,2.23137671701187,-92.95361328125,0.0171342375361725,NaN,0,0.1496807408552,5000,0.000396270945202559,0.000396270945202559,0.000396270945202559,432.26766320467,4335.41222592529,4767.67988912996,,,104.30999994278,0,26012.681245086,32039.388855403
2011-06-01T05:07:31Z,1306904851,3230E,56.0579713,26.4223045,4328.18,1.6,-88.8,15.1,-18182.98,27863.42,15.5,Weapon+Missile,Red,Allies,R-73,,xu,,92.7306204237433,74.8389739990234,0.286739499561246,4328.18115234375,4328.18115234375,2.00304276748379,-92.708984375,0.0263162072053707,NaN,0,0.150657991515041,5000,6.85037234347425e-17,6.85037234347425e-17,6.85037234347425e-17,429.948398208618,4244.49576976318,4674.4441679718,,,105.30999994278,0,26014.6964352083,32132.1197690582
2011-06-01T05:07:32Z,1306904852,3230E,56.0579759,26.42232,4236.63,1.5,-89,15.1,-18182.51,27865.13,15.5,Weapon+Missile,Red,Allies,R-73,,xu,,91.5640187629013,74.2440414428711,0.282809308047489,4236.63427734375,4236.63427734375,1.77178151794019,-91.546875,0.028056764740342,NaN,0,0.0998959722426529,5000,0.000445048848632723,0.000445048848632723,0.000445048848632723,419.198476600647,4154.71895359131,4573.91743019196,,,106.30999994278,0,26016.4755626949,32223.6839534814
2011-06-01T05:07:33Z,1306904853,3230E,56.0579801,26.4223339,4144.91,1.4,-89.1,15.1,-18182.08,27866.67,15.5,Weapon+Missile,Red,Allies,R-73,,xu,,91.7385268560756,74.7434616088867,0.283025313998149,4144.90966796875,4144.90966796875,1.59791887358605,-91.724609375,0.0488764742423674,NaN,0.107698422832761,0.100870594880489,5000,0.000929837115108967,0.000929837115108967,0.000929837115108967,420.797865486145,4064.76783953857,4485.56570502472,,,107.30999994278,0,26018.0839404223,32315.4226816425
2011-06-01T05:07:34Z,1306904854,3230E,56.0579838,26.4223463,4053.96,1.3,-89.2,15.1,-18181.7,27868.04,15.5,Weapon+Missile,Red,Allies,R-73,,xu,,90.9608386120369,74.4561767578125,0.280309578174103,4053.9599609375,4053.9599609375,1.42300805859083,-90.94970703125,0.0536684730078355,NaN,0.199987938897973,0.101354391053222,5000,0.000774043786805123,0.000774043786805123,0.000774043786805123,413.693708050251,3975.57664509277,4389.27035314302,,,108.30999994278,0,26019.5114498999,32406.383605189
2011-06-01T05:07:35Z,1306904855,3230E,56.0579871,26.4223573,3963.74,1.2,-89.2,15.1,-18181.36,27869.26,15.5,Weapon+Missile,Red,Allies,R-73,,xu,,90.2328200304548,74.2026672363281,0.277755697923813,3963.73608398438,3963.73608398438,1.27036931472733,-90.223876953125,0.0441110153844693,NaN,0.138461594854498,0.100384470840548,5000,0.000799438275862485,0.000799438275862485,0.000799438275862485,407.098090532422,3887.09724680054,4294.19533733296,,,109.30999994278,0,26020.7795856951,32496.6164050087
2011-06-01T05:07:36Z,1306904856,3230E,56.0579901,26.4223673,3873.79,1.2,-89.3,15.1,-18181.05,27870.35,15.5,Weapon+Missile,Red,Allies,R-73,,xu,,89.9509728634606,74.3151321411133,0.276580690658233,3873.79223632812,3873.79223632812,1.13216070957901,-89.94384765625,0.0266967308309124,NaN,0,0.101354391053222,5000,0.000966539955697954,0.000966539955697954,0.000966539955697954,404.558875954151,3798.89246343872,4203.45133939287,,,110.30999994278,0,26021.9267348948,32586.5675767633
2011-06-01T05:07:37Z,1306904857,3230E,56.0579927,26.4223761,3783.56,1.1,-89.4,15.1,-18180.79,27871.34,15.5,Weapon+Missile,Red,Allies,R-73,,xu,,90.2372171801526,74.9011993408203,0.277152476267352,3783.56079101562,3783.56079101562,1.02060826733452,-90.2314453125,0.0258049108667239,NaN,0,0.0523391626455858,5000,0.00127454660832882,0.00127454660832882,0.00127454660832882,407.137768220902,3710.40564312134,4117.54341134224,,,111.30999994278,0,26022.9443234348,32676.8047667302
2011-06-01T05:07:38Z,1306904858,3230E,56.0579951,26.4223839,3694.89,1,-89.5,15.1,-18180.54,27872.2,15.5,Weapon+Missile,Red,Allies,R-73,,xu,,88.6724936523366,73.9314804077148,0.27204984372885,3694.89282226562,3694.89282226562,0.895794771532564,-88.66796875,0.025817550002753,NaN,0.199987938897973,0.0513960362511687,5000,0.00119002140127122,0.00119002140127122,0.00119002140127122,393.140556526184,3623.45206954712,4016.5926260733,,,112.30999994278,0,26023.8479292752,32765.477345036
2011-06-01T05:07:39Z,1306904859,3230E,56.0579972,26.4223909,3606.18,1,-89.5,15.1,-18180.33,27872.97,15.5,Weapon+Missile,Red,Allies,R-73,,xu,,88.7194595281668,74.3090896606445,0.271897811051344,3606.17700195312,3606.17700195312,0.803570314436852,-88.7158203125,0.00941554429565551,NaN,0,0.0513960362511687,5000,0.00123021542094648,0.00123021542094648,0.00123021542094648,393.557124948502,3536.45156962036,3930.00869456886,,,113.30999994278,0,26024.6541176499,32854.1968325085
2011-06-01T05:07:40Z,1306904860,3230E,56.0579991,26.4223972,3517.79,0.9,-89.6,15.1,-18180.13,27873.67,15.5,Weapon+Missile,Red,Allies,R-73,,xu,,88.393797735746,74.3712997436523,0.270606755846521,3517.7861328125,3517.7861328125,0.719535067172285,-88.390869140625,0.0468226084243611,NaN,0,0.0513960362511687,5000,0.00188028707634658,0.00188028707634658,0.00188028707634658,390.673173907399,3449.76973793457,3840.44291184197,,,114.30999994278,0,26025.3755999368,32942.5906494072
2011-06-01T05:07:41Z,1306904861,3230E,56.0580008,26.4224027,3429.55,0.9,-89.6,15.1,-18179.96,27874.28,15.5,Weapon+Missile,Red,Allies,R-73,,xu,,88.2371743381152,74.5752029418945,0.269836250282592,3429.55126953125,3429.55126953125,0.638621103677681,-88.23486328125,0.0245404432967851,NaN,0,0.0513960362511687,5000,0.00111992110032588,0.00111992110032588,0.00111992110032588,389.289946758747,3363.24089573486,3752.53084249361,,,115.30999994278,0,26026.0175482201,33030.8278504323
2011-06-01T05:07:42Z,1306904862,3230E,56.0580022,26.4224077,3342.23,0.8,-89.6,15.1,-18179.81,27874.83,15.5,Weapon+Missile,Red,Allies,R-73,,xu,,87.3238580428805,74.1291427612305,0.266759141060536,3342.22924804688,3342.22924804688,0.566345632532186,-87.322021484375,0.0204398125350418,NaN,0,0.0513960362511687,5000,0.000475091743282974,0.000475091743282974,0.000475091743282974,381.272809174657,3277.60724553589,3658.88005471055,,,116.30999994278,0,26026.5870691726,33118.1517310996
2011-06-01T05:07:43Z,1306904863,3230E,56.0580035,26.4224121,3255.38,0.8,-89.7,15.1,-18179.68,27875.31,15.5,Weapon+Missile,Red,Allies,R-73,,xu,,86.8515420446829,74.0532150268555,0.265036138949244,3255.37915039062,3255.37915039062,0.500891843774838,-86.85009765625,0.017530617798851,NaN,0.0307631720217374,0.0513960362511687,5000,0.000785593176260591,0.000785593176260591,0.000785593176260591,377.159517776966,3192.43639451782,3569.59591229479,,,117.30999994278,0,26027.0949970822,33205.0033155431
2011-06-01T05:07:44Z,1306904864,3230E,56.0580048,26.422416,3168.76,0.7,-89.7,15.1,-18179.55,27875.75,15.5,Weapon+Missile,Red,Allies,R-73,,xu,,86.6210724327637,74.1821899414062,0.264055042644088,3168.75927734375,3168.75927734375,0.45583192665864,-86.619873046875,0.0214910450290116,NaN,0,0,5000,0.000787254655733705,0.000787254655733705,0.000787254655733705,375.160509470105,3107.49131671631,3482.65182618641,,,118.30999994278,0,26027.5496527404,33291.6243829963
2011-06-01T05:07:45Z,1306904865,3230E,56.0580058,26.4224195,3082.45,0.7,-89.8,15.1,-18179.45,27876.13,15.5,Weapon+Missile,Red,Allies,R-73,,xu,,86.3119398881996,74.2412567138672,0.262837734500162,3082.4482421875,3082.4482421875,0.395193017083998,-86.31103515625,0.00894170033143532,NaN,0,0.0494558589854351,5000,0.000388920452678576,0.000388920452678576,0.000388920452678576,372.487548363209,3022.8491054248,3395.33665378801,,,119.30999994278,0,26027.9456353922,33377.9363273954
2011-06-01T05:07:46Z,1306904866,3230E,56.0580067,26.4224226,2996.61,0.6,-89.8,15.1,-18179.36,27876.47,15.5,Weapon+Missile,Red,Allies,R-73,,xu,,85.8359367920572,74.1519470214844,0.2611171278558,2996.61303710938,2996.61303710938,0.354420888577078,-85.835205078125,0.0250806280657904,NaN,0,0.0494558589854351,5000,0.000406292732805014,0.000406292732805014,0.000406292732805014,368.390402248502,2938.67352403687,3307.06392628537,,,120.30999994278,0,26028.3064720272,33463.7722916416
2011-06-01T05:07:47Z,1306904867,3230E,56.0580075,26.4224253,2911.44,0.6,-89.8,15.1,-18179.27,27876.78,15.5,Weapon+Missile,Red,Allies,R-73,,xu,,85.1714798157614,73.8927230834961,0.258829744148731,2911.44213867188,2911.44213867188,0.31469565569434,-85.1708984375,0,NaN,0,0,5000,0.000547706265933812,0.000547706265933812,0.000547706265933812,362.709048700333,2855.14940492065,3217.85845362099,,,121.30999994278,0,26028.6150039852,33548.9437494235
2011-06-01T05:07:48Z,1306904868,3230E,56.0580083,26.4224277,2826.42,0.5,-89.8,15.1,-18179.19,27877.04,15.5,Weapon+Missile,Red,Allies,R-73,,xu,,85.0219273501876,74.0797729492188,0.258110940002166,2826.42065429688,2826.42065429688,0.274454025671024,-85.021484375,0.0221466429369253,NaN,0.199987938897973,0,5000,0.000978320487774909,0.000978320487774909,0.000978320487774909,361.436406517029,2771.77181094605,3133.20821746307,,,122.30999994278,0,26028.8937816682,33633.9656912519
2011-06-01T05:07:49Z,1306904869,3230E,56.0580089,26.4224299,2741.44,0.5,-89.8,15.1,-18179.13,27877.28,15.5,Weapon+Missile,Red,Allies,R-73,,xu,,84.9764397464114,74.3578414916992,0.257709613607423,2741.44458007812,2741.44458007812,0.249243545494569,-84.97607421875,0.0373877805361897,NaN,0,0.0504352774299245,5000,0.000773511477746069,0.000773511477746069,0.000773511477746069,361.049765598774,2688.43874912231,3049.48851472109,,,123.30999994278,0,26029.1484355913,33718.9421473719
2011-06-01T05:07:50Z,1306904870,3230E,56.0580095,26.4224318,2657.68,0.5,-89.9,15.1,-18179.07,27877.49,15.5,Weapon+Missile,Red,Allies,R-73,,xu,,83.7649331799846,73.6030502319336,0.253780448907066,2657.67993164062,2657.67993164062,0.218409682263952,-83.7646484375,0.0385466397622474,NaN,0,0.0504352774299245,5000,0.000668136461172253,0.000668136461172253,0.000668136461172253,350.828201532364,2606.29369016235,2957.12189169472,,,124.30999994278,0,26029.3682500942,33802.7070844706
2011-06-01T05:07:51Z,1306904871,3230E,56.05801,26.4224335,2573.32,0.4,-89.9,15.1,-18179.02,27877.68,15.5,Weapon+Missile,Red,Allies,R-73,,xu,,84.3610678593198,74.4436569213867,0.255328673657096,2573.31909179688,2573.31909179688,0.196140821666037,-84.36083984375,0.0302357291476421,NaN,0.199987938897973,0.00989117029631303,5000,0.000516889907885343,0.000516889907885343,0.000516889907885343,355.839488518238,2523.56396715698,2879.40345567522,,,125.30999994278,0,26029.5640203082,33887.0681516566
