ISOTime,UnixTime,Id,Longitude,Latitude,Altitude,Roll,Pitch,Yaw,U,V,Heading,Type,Color,Coalition,Name,Group,Country,Pilot,TAS,CAS,M,ASL,AGL,GS,VS,AOA,AOS,RRT,TRT,TRD,G,LatG,LonG,Ek,Ep,Em,FFW,FFV,RelativeTime,Elev,GroundDistance,AirDistance
2011-06-01T05:05:54Z,1306904754,3240E,55.9976026,26.2203963,9808.32,135.4,11,18.6,-24376.8,5545.74,19.1,Weapon+Missile,Red,Allies,R-73,,xu,,358.723554653375,234.521560668945,1.19386901513968,9808.3203125,9808.3203125,NaN,NaN,NaN,NaN,NaN,NaN,NaN,NaN,NaN,NaN,NaN,9618.67643925781,NaN,,,0.0999999046325684,0,NaN,NaN
2011-06-01T05:05:55Z,1306904755,3240E,55.9987685,26.2240776,9889.89,125.3,11,18.6,-24257.18,5952.57,19.1,Weapon+Missile,Red,Allies,R-73,,xu,,431.819837006796,284.554840087891,1.4388383917541,9889.8916015625,9889.8916015625,424.045394307329,81.5712890625,2.92875600000883,NaN,9.93847165750215,2.00262900859769,5000,1.81768786907196,1.81768786907196,1.81768786907196,9323.4185816288,9698.67054744629,19022.0891290751,,,1.09999990463257,0,426.016274883873,434.401527369616
2011-06-01T05:05:56Z,1306904756,3240E,56.0003462,26.2289063,10005.7,115.9,11,18.6,-24095.45,6486.17,19.1,Weapon+Missile,Red,Allies,R-73,,xu,,569.475010235903,367.455108642578,1.90070177797891,10005.6982421875,10005.6982421875,557.575653405288,115.806640625,0.936382401079214,NaN,9.23075477646211,0.0139882274201861,5000,2.18631625175476,2.18631625175476,2.18631625175476,16215.0893641591,9812.2380666748,26027.3274308339,,,2.09999990463257,0,986.158213658009,1007.2450089285
2011-06-01T05:05:57Z,1306904757,3240E,56.0025578,26.2348261,10140.19,107.5,11,18.6,-23869.47,7140.14,19.1,Weapon+Missile,Red,Allies,R-73,,xu,,704.855677034727,439.370941162109,2.3571663845858,10140.1884765625,10140.1884765625,691.90599239047,134.490234375,0.0442951816214334,NaN,8.24616934722643,0.0139882274201861,5000,0.980896234512329,0.980896234512329,0.980896234512329,24841.0762724042,9944.12793236816,34785.2042047724,,,3.09999990463257,0,1681.17206566417,1716.22936602756
2011-06-01T05:05:58Z,1306904758,3240E,56.0052025,26.241904,10300.98,99.5,11,18.6,-23599.29,7922.03,19.1,Weapon+Missile,Red,Allies,R-73,,xu,,842.734174801184,508.963562011719,2.82489383798207,10300.9794921875,10300.9794921875,827.252765889673,160.791015625,0.044704760655876,NaN,7.8000213906412,0.0139882274201861,5000,0.981859266757965,0.981859266757965,0.981859266757965,35510.0444688916,10101.8100537061,45611.8545225977,,,4.09999990463257,0,2512.14667869121,2563.92468959172
2011-06-01T05:05:59Z,1306904759,3240E,56.0082736,26.2501222,10487.68,92.1,11,18.6,-23285.57,8829.91,19.1,Weapon+Missile,Red,Allies,R-73,,xu,,978.53677162428,575.18017578125,3.2891286006961,10487.6845703125,10487.6845703125,960.559955038313,186.705078125,0.0444343562590944,NaN,7.32305562052087,0.0139882274201861,5000,0.981871724128723,0.981871724128723,0.981871724128723,47876.7106710434,10284.9051891455,58161.6158601889,,,5.09999990463257,0,3477.01685456283,3548.23668208517
2011-06-01T05:06:00Z,1306904760,3240E,56.0116048,26.2590353,10690.18,85.2,11,18.6,-22945.34,9814.55,19.1,Weapon+Missile,Red,Allies,R-73,,xu,,1061.26380533825,611.893371582031,3.57789411235823,10690.1767578125,10690.1767578125,1041.76666222456,202.4921875,0.0447075127860066,NaN,6.92307974272492,0.0139882274201861,5000,0.981668651103973,0.981668651103973,0.981668651103973,56314.0432260513,10483.4821902002,66797.5254162515,,,6.09999990463257,0,4523.46475407499,4615.80181219297
2011-06-01T05:06:01Z,1306904761,3240E,56.0147078,26.2673363,10878.77,78.9,11,18.6,-22628.47,10731.59,19.1,Weapon+Missile,Red,Allies,R-73,,xu,,988.397469415324,568.258056640625,3.34159596741704,10878.765625,10878.765625,970.239041020073,188.5888671875,0.0446863248587681,NaN,6.26153494047417,0.0139882274201861,5000,0.98090648651123,0.98090648651123,0.98090648651123,48846.4778773308,10668.4246916406,59514.9025689714,,,7.09999990463257,0,5498.0662440904,5610.09987677238
2011-06-01T05:06:02Z,1306904762,3240E,56.0175776,26.2750125,11053.16,73.1,11,18.6,-22335.44,11579.62,19.1,Weapon+Missile,Red,Allies,R-73,,xu,,914.01891849323,525.043273925781,3.09630302589338,11053.1552734375,11053.1552734375,897.228417896679,174.3896484375,0.0444096297968448,NaN,5.83074124914313,0.0139882274201861,5000,0.982805609703064,0.982805609703064,0.982805609703064,41771.5291681767,10839.4425162256,52610.9716844022,,,8.09999990463257,0,6399.32070945805,6529.59256577935
2011-06-01T05:06:03Z,1306904763,3240E,56.0202527,26.282167,11215.7,67.7,11,18.6,-22062.32,12370.01,19.1,Weapon+Missile,Red,Allies,R-73,,xu,,851.904201425204,488.624786376953,2.8858850766377,11215.7041015625,11215.7041015625,836.252741030547,162.548828125,0.0449929850200967,NaN,5.19995961891411,0.0139882274201861,5000,0.981367230415344,0.981367230415344,0.981367230415344,36287.0384202957,10998.8484627588,47285.8868830545,,,9.09999990463257,0,7239.32295388913,7386.61742718252
2011-06-01T05:06:04Z,1306904764,3240E,56.0227565,26.2888626,11367.82,62.6,11,18.6,-21806.73,13109.7,19.1,Weapon+Missile,Red,Allies,R-73,,xu,,797.252108969759,457.040374755859,2.70074729029936,11367.822265625,11367.822265625,782.605257725108,152.1181640625,0.0444224331632046,NaN,5.01538058678368,0.0139882274201861,5000,0.98090136051178,0.98090136051178,0.98090136051178,31780.5462628365,11148.0254221191,42928.5716849556,,,10.0999999046326,0,8025.45235438714,8188.69566644546
2011-06-01T05:06:05Z,1306904765,3240E,56.0251163,26.2951723,11511.17,58,11,18.6,-21565.85,13806.78,19.1,Weapon+Missile,Red,Allies,R-73,,xu,,751.319214271936,430.534637451172,2.54514639630981,11511.1689453125,11511.1689453125,737.517654810221,143.3466796875,0.0445246301357367,NaN,4.61540470898774,0.0139882274201861,5000,0.98196005821228,0.98196005821228,0.98196005821228,28224.02808671,11288.6004937549,39512.6285804649,,,11.0999999046326,0,8766.27526209981,8944.56422751333
2011-06-01T05:06:06Z,1306904766,3240E,56.0273239,26.3010745,11645.26,53.7,11,18.6,-21340.54,14458.83,19.1,Weapon+Missile,Red,Allies,R-73,,xu,,702.794222575151,403.349029541016,2.3807645924081,11645.259765625,11645.259765625,689.883592494366,134.0908203125,0.044421314708913,NaN,4.24613736170017,0.0139882274201861,5000,0.98211395740509,0.98211395740509,0.98211395740509,24695.9859642506,11420.0986680566,36116.0846323072,,,12.0999999046326,0,9459.2627575113,9651.64069139141
2011-06-01T05:06:07Z,1306904767,3240E,56.0294121,26.3066567,11772.09,49.8,11,18.6,-21127.44,15075.55,19.1,Weapon+Missile,Red,Allies,R-73,,xu,,664.707147500325,381.585144042969,2.25174196123979,11772.087890625,11772.087890625,652.495378257197,126.828125,0.0447296726797419,NaN,3.87692465592596,0.0139882274201861,5000,0.982001602649689,0.982001602649689,0.982001602649689,22091.7795969009,11544.4745712598,33636.2541681607,,,13.0999999046326,0,10114.6786734148,10320.3962605199
2011-06-01T05:06:08Z,1306904768,3240E,56.0313999,26.3119705,11892.82,46.1,11,18.6,-20924.58,15662.6,19.1,Weapon+Missile,Red,Allies,R-73,,xu,,632.736781974347,362.974639892578,2.14344011155795,11892.8193359375,11892.8193359375,621.111707646867,120.7314453125,0.0445161666554403,NaN,3.44618560610827,0.0139882274201861,5000,0.980376482009888,0.980376482009888,0.980376482009888,20017.7917631626,11662.8716740771,31680.6634372398,,,14.0999999046326,0,10738.5800263938,10957.0080505673
2011-06-01T05:06:09Z,1306904769,3240E,56.0332759,26.3169845,12006.73,42.7,11,18.6,-20733.17,16216.54,19.1,Weapon+Missile,Red,Allies,R-73,,xu,,597.050691778352,342.494201660156,2.02255098462575,12006.7294921875,12006.7294921875,586.08361592533,113.91015625,0.0448992200949262,NaN,3.29231510448623,0.0139882274201861,5000,0.982722818851471,0.982722818851471,0.982722818851471,17823.4764276505,11774.5793774561,29598.0558051065,,,15.0999999046326,0,11327.2948386699,11557.7247569332
2011-06-01T05:06:10Z,1306904770,3240E,56.0350765,26.3217966,12116.06,39.5,11,18.6,-20549.47,16748.18,19.1,Weapon+Missile,Red,Allies,R-73,,xu,,573.007354114101,327.775329589844,1.94110249635472,12116.0625,12116.0625,562.479974107092,109.3330078125,0.0444144562420592,NaN,3.0769182588207,0.0139882274201861,5000,0.981420457363129,0.981420457363129,0.981420457363129,16416.8713934422,11881.7984315625,28298.6698250047,,,16.0999999046326,0,11892.2977882379,12134.2579621034
2011-06-01T05:06:11Z,1306904771,3240E,56.0367791,26.3263467,12219.44,36.6,11,18.6,-20375.76,17250.88,19.1,Weapon+Missile,Red,Allies,R-73,,xu,,541.818632795428,309.190673828125,1.83544852110446,12219.4423828125,12219.4423828125,531.864673271294,103.3798828125,0.044521744513335,NaN,2.90769349194447,0.0139882274201861,5000,0.981410264968872,0.981410264968872,0.981410264968872,14678.3715422153,11983.1794643408,26661.5510065562,,,17.0999999046326,0,12426.5484000847,12679.4195684092
2011-06-01T05:06:12Z,1306904772,3240E,56.0384109,26.330707,12318.51,33.9,11,18.6,-20209.31,17732.6,19.1,Weapon+Missile,Red,Allies,R-73,,xu,,519.20798602821,295.009094238281,1.75885337346993,12318.505859375,12318.505859375,509.669854284929,99.0634765625,0.0451315954320246,NaN,2.64617920900302,0.0139882274201861,5000,0.982311487197876,0.982311487197876,0.982311487197876,13478.8466377735,12080.327548584,25559.1741863575,,,18.0999999046326,0,12938.5098346574,13201.8441278846
2011-06-01T05:06:13Z,1306904773,3240E,56.0399761,26.3348893,12413.53,31.3,11,18.6,-20049.64,18194.65,19.1,Weapon+Missile,Red,Allies,R-73,,xu,,498.010585607297,281.523956298828,1.68704569669608,12413.53125,12413.53125,488.8606330167,95.025390625,0.0441126697754806,NaN,2.50766297263516,0.0139882274201861,5000,0.980801939964294,0.980801939964294,0.980801939964294,12400.7271688461,12173.5156232813,24574.2427921274,,,19.0999999046326,0,13429.5654261709,13702.9442767151
2011-06-01T05:06:14Z,1306904774,3240E,56.0414729,26.3388884,12504.39,29,11,18.6,-19896.97,18636.48,19.1,Weapon+Missile,Red,Allies,R-73,,xu,,476.213706040832,267.639007568359,1.61320724238056,12504.3896484375,12504.3896484375,467.465769072471,90.8583984375,0.0448259765486581,NaN,2.30767503373719,0.0139882274201861,5000,0.982181131839752,0.982181131839752,0.982181131839752,11338.9746910572,12262.617274585,23601.5919656422,,,20.0999999046326,0,13899.1235605229,14182.1126345933
2011-06-01T05:06:15Z,1306904775,3240E,56.0429098,26.342727,12591.61,26.9,11,18.6,-19750.43,19060.58,19.1,Weapon+Missile,Red,Allies,R-73,,xu,,457.095655264535,255.202392578125,1.54844350798717,12591.60546875,12591.60546875,448.697937090123,87.2158203125,0.0443527826417296,NaN,2.06151501604993,0.0139882274201861,5000,0.98150622844696,0.98150622844696,0.98150622844696,10446.8219030857,12348.1467770117,22794.9686800974,,,21.0999999046326,0,14349.8368028658,14642.0573214387
2011-06-01T05:06:16Z,1306904776,3240E,56.0442926,26.3464213,12675.54,24.8,11,18.6,-19609.39,19468.73,19.1,Weapon+Missile,Red,Allies,R-73,,xu,,439.915485528751,243.844375610352,1.49024448118151,12675.5419921875,12675.5419921875,431.833642090589,83.9365234375,0.0447985309756057,NaN,2.10774173635257,0.0139882274201861,5000,0.975163757801056,0.975163757801056,0.975163757801056,9676.28172039986,12430.4603877686,22106.7421081684,,,22.0999999046326,0,14783.6047033729,15084.7152579381
2011-06-01T05:06:17Z,1306904777,3240E,56.0456135,26.3499498,12755.65,23.1,10.9,18.6,-19474.69,19858.57,19.1,Weapon+Missile,Red,Allies,R-73,,xu,,420.158533817438,230.965637207031,1.42331642517692,12755.646484375,12755.646484375,412.451771569722,80.1044921875,0.135177780647907,NaN,1.73847438906501,0.388664310798039,5000,0.413605362176895,0.413605362176895,0.413605362176895,8826.65967698097,12509.0160595996,21335.6757365806,,,23.0999999046326,0,15197.9068095477,15507.5013060482
2011-06-01T05:06:18Z,1306904778,3240E,56.0468887,26.3533557,12827.32,21.8,9.6,18.6,-19344.66,20234.86,19.1,Weapon+Missile,Red,Allies,R-73,,xu,,404.527309264449,220.570510864258,1.37036455853326,12827.318359375,12827.318359375,398.127474905613,71.671875,0.0594387969489013,NaN,1.3384438697557,1.10389805514352,5000,0.00387415545992553,0.00387415545992553,0.00387415545992553,8182.11719703674,12579.3021588965,20761.4193559332,,,24.0999999046326,0,15597.8213341067,15914.5769993604
2011-06-01T05:06:19Z,1306904779,3240E,56.0481235,26.3566538,12887.1,20.6,8.1,18.6,-19218.75,20599.23,19.1,Weapon+Missile,Red,Allies,R-73,,xu,,390.117528016987,211.040924072266,1.3215504165322,12887.0966796875,12887.0966796875,385.510360543916,59.7783203125,0.0554833782856097,NaN,1.15381019611191,1.4385599288361,5000,0.00255191815085709,0.00255191815085709,0.00255191815085709,7609.58428330422,12637.9246653857,20247.50894869,,,25.0999999046326,0,15985.0703209122,16307.1842179811
2011-06-01T05:06:20Z,1306904780,3240E,56.049318,26.359844,12935.25,19.5,6.6,18.6,-19096.96,20951.71,19.1,Weapon+Missile,Red,Allies,R-73,,xu,,376.018682979511,201.830749511719,1.27378959269378,12935.2490234375,12935.2490234375,372.922782544896,48.15234375,0.0485683337413787,NaN,1.09228385206844,1.49235930121588,5000,0.00198959815315902,0.00198959815315902,0.00198959815315902,7069.5024974823,12685.1459835693,19754.6484810516,,,26.0999999046326,0,16359.6607932648,16685.6090226111
2011-06-01T05:06:21Z,1306904781,3240E,56.050476,26.3629365,12972.26,18.5,5,18.6,-18978.9,21293.38,19.1,Weapon+Missile,Red,Allies,R-73,,xu,,363.384594729278,193.631866455078,1.23099073493809,12972.26171875,12972.26171875,361.494708221663,37.0126953125,0.0539412282074396,NaN,0.969231163981489,1.53854013118504,5000,0.00409979652613401,0.00409979652613401,0.00409979652613401,6602.41818432808,12721.443038418,19323.861222746,,,27.0999999046326,0,16722.7770215731,17051.3404230625
2011-06-01T05:06:22Z,1306904782,3240E,56.0515888,26.3659081,12998.26,17.6,3.5,18.6,-18865.45,21621.69,19.1,Weapon+Missile,Red,Allies,R-73,,xu,,348.332773842127,184.076690673828,1.1800016387442,12998.259765625,12998.259765625,347.361228249837,25.998046875,0.0531765294088472,NaN,0.769243225083516,1.58852964539013,5000,0.00146911828778684,0.00146911828778684,0.00146911828778684,6066.7860666275,12746.9384130566,18813.7244796841,,,28.0999999046326,0,17071.694364494,17401.933392341
2011-06-01T05:06:23Z,1306904783,3240E,56.0526723,26.3688014,13013.91,16.7,1.8,18.6,-18754.99,21941.36,19.1,Weapon+Missile,Red,Allies,R-73,,xu,,338.572691964183,177.877746582031,1.14693867862357,13013.9052734375,13013.9052734375,338.211007847413,15.6455078125,0.0498427851280731,NaN,0.800006397105253,1.66539179183269,5000,0.00287903542630374,0.00287903542630374,0.00287903542630374,5731.57338719368,12762.2814149756,18493.8548021693,,,29.0999999046326,0,17411.4251171188,17742.7162484057
2011-06-01T05:06:24Z,1306904784,3240E,56.0537261,26.3716154,13019.43,16.1,0.1,18.6,-18647.56,22252.25,19.1,Weapon+Missile,Red,Allies,R-73,,xu,,328.983790872309,171.908355712891,1.11445560539057,13019.4296875,13019.4296875,328.937403628687,5.5244140625,0.0480336368486805,NaN,0.569255286185543,1.70009246118924,5000,0.000884250097442418,0.000884250097442418,0.000884250097442418,5411.51673283577,12767.6990144922,18179.215747328,,,30.0999999046326,0,17741.8366781944,18073.8482082395
2011-06-01T05:06:25Z,1306904785,3240E,56.0547395,26.3743212,13015.13,15.4,-1.7,18.6,-18544.25,22551.21,19.1,Weapon+Missile,Red,Allies,R-73,,xu,,316.33592535658,164.178955078125,1.07161007618423,13015.126953125,13015.126953125,316.306661561374,-4.302734375,0.0661229553757136,NaN,0.569255286185543,1.76160034237761,5000,0.0030597229488194,0.0030597229488194,0.0030597229488194,5003.42088356018,12763.4794734863,17766.9003570465,,,31.0999999046326,0,18059.5532604328,18392.2422997611
2011-06-01T05:06:26Z,1306904786,3240E,56.055728,26.3769604,13001.22,14.7,-3.5,18.6,-18443.5,22842.8,19.1,Weapon+Missile,Red,Allies,R-73,,xu,,308.814377534089,159.727813720703,1.04613030677139,13001.2216796875,13001.2216796875,308.501155820193,-13.9052734375,0.0610263606120604,NaN,0.569255286185543,1.82699214660449,5000,0.00123489671386778,0.00123489671386778,0.00123489671386778,4768.31598858833,12749.8430585107,17518.1590470991,,,32.0999999046326,0,18369.4414600011,18703.0737016934
2011-06-01T05:06:27Z,1306904787,3240E,56.0566799,26.3795018,12978.2,14.2,-5.4,18.6,-18346.47,23123.58,19.1,Weapon+Missile,Red,Allies,R-73,,xu,,297.96721844092,153.369995117188,1.00938479653853,12978.203125,12978.203125,297.076773588104,-23.0185546875,0.0526702829116891,NaN,0.47691112860697,1.88857142461403,5000,0.00672250334173441,0.00672250334173441,0.00672250334173441,4439.22316327095,12727.2695675781,17166.4927308491,,,33.0999999046326,0,18667.8521653157,19002.9768300492
2011-06-01T05:06:28Z,1306904788,3240E,56.0576011,26.3819611,12946.35,13.7,-7.3,18.6,-18252.58,23395.3,19.1,Weapon+Missile,Red,Allies,R-73,,xu,,289.241781673544,148.471817016602,0.979826769107755,12946.349609375,12946.349609375,287.48245478292,-31.853515625,0.0638956872684148,NaN,0.538492114163805,1.93858505792463,5000,0.00161154521629214,0.00161154521629214,0.00161154521629214,4183.0404132843,12696.0319396777,16879.072352962,,,34.0999999046326,0,18956.6252439387,19294.084762036
2011-06-01T05:06:29Z,1306904789,3240E,56.0585023,26.3843669,12905.48,13.2,-9.3,18.6,-18160.73,23661.11,19.1,Weapon+Missile,Red,Allies,R-73,,xu,,284.186004393119,145.888488769531,0.962699969897267,12905.478515625,12905.478515625,281.231646136427,-40.87109375,0.0412020655262688,NaN,0.569200644672183,1.93853447183609,5000,0.00126281275879592,0.00126281275879592,0.00126281275879592,4038.0842546463,12655.9510885254,16694.0353431717,,,35.0999999046326,0,19239.1137849427,19580.0812547392
2011-06-01T05:06:30Z,1306904790,3240E,56.0593681,26.3866781,12856.6,12.8,-11.3,18.6,-18072.5,23916.46,19.1,Weapon+Missile,Red,Allies,R-73,,xu,,274.542701068118,140.668853759766,0.930032605293881,12856.6015625,12856.6015625,270.156876949291,-48.876953125,0.0427358375171934,NaN,0.369212705774209,1.98857371835607,5000,0.00928672216832638,0.00928672216832638,0.00928672216832638,3768.68473548889,12608.0191712891,16376.703906778,,,36.0999999046326,0,19510.4951219304,19856.3683511446
2011-06-01T05:06:31Z,1306904791,3240E,56.0602142,26.3889367,12799.23,12.5,-13.3,18.6,-17986.27,24166.01,19.1,Weapon+Missile,Red,Allies,R-73,,xu,,270.192598371122,138.698226928711,0.915296328099687,12799.23046875,12799.23046875,264.031433387139,-57.37109375,0.0437934964706198,NaN,0.323095268498283,2.03851520779356,5000,0.00089759606635198,0.00089759606635198,0.00089759606635198,3650.20201072693,12551.7573476367,16201.9593583636,,,37.0999999046326,0,19775.703799432,20128.232825069
2011-06-01T05:06:32Z,1306904792,3240E,56.0610418,26.3911459,12733.41,12.2,-15.3,18.6,-17901.92,24410.09,19.1,Weapon+Missile,Red,Allies,R-73,,xu,,266.495641892818,137.198913574219,0.902772629411657,12733.4130859375,12733.4130859375,258.240196847002,-65.8173828125,0.0663922974437642,NaN,0.199987938897973,2.03853932689906,5000,0.00528198154643178,0.00528198154643178,0.00528198154643178,3550.99635739327,12487.2125439209,16038.2089013142,,,38.0999999046326,0,20035.1043853027,20396.356356429
2011-06-01T05:06:33Z,1306904793,3240E,56.0618484,26.3932985,12659.54,11.9,-17.4,18.6,-17819.74,24647.92,19.1,Weapon+Missile,Red,Allies,R-73,,xu,,262.256043501786,135.455963134766,0.888410693284156,12659.5400390625,12659.5400390625,251.63665332899,-73.873046875,0.039012972248734,NaN,0.199987938897973,2.06163283681311,5000,0.00138712709303945,0.00138712709303945,0.00138712709303945,3438.91161766052,12414.7678324072,15853.6794500677,,,39.0999999046326,0,20287.8739448067,20660.1826292159
2011-06-01T05:06:34Z,1306904794,3240E,56.0626341,26.3953959,12577.89,11.6,-19.5,18.6,-17739.66,24879.65,19.1,Weapon+Missile,Red,Allies,R-73,,xu,,258.411995596332,134.018249511719,0.875388712096986,12577.8935546875,12577.8935546875,245.174654190195,-81.646484375,0.0409817968870253,NaN,0.199987938897973,2.08850706987617,5000,0.00484492536634207,0.00484492536634207,0.00484492536634207,3338.83797340393,12334.6999828076,15673.5379562115,,,40.0999999046326,0,20534.1443015245,20920.0969510938
2011-06-01T05:06:35Z,1306904795,3240E,56.0634014,26.3974436,12488.54,11.3,-21.5,18.6,-17661.48,25105.9,19.1,Weapon+Missile,Red,Allies,R-73,,xu,,255.508509447564,133.205917358398,0.865552949656873,12488.5400390625,12488.5400390625,239.375327980076,-89.353515625,0.0403507231358419,NaN,0.369212705774209,2.05780579644379,5000,0.00371592631563544,0.00371592631563544,0.00371592631563544,3264.2299200058,12247.0741174072,15511.304037413,,,41.0999999046326,0,20774.5932545823,21177.0545194608
2011-06-01T05:06:36Z,1306904796,3240E,56.0641543,26.3994529,12391.11,11.1,-23.5,18.6,-17584.77,25327.91,19.1,Weapon+Missile,Red,Allies,R-73,,xu,,254.296319628225,133.472244262695,0.861446571846045,12391.107421875,12391.107421875,234.890406965577,-97.4326171875,0.0419375928209855,NaN,0.199987938897973,2.01542447264386,5000,0.00122809666208923,0.00122809666208923,0.00122809666208923,3233.33090882301,12151.525359873,15384.8562686961,,,42.0999999046326,0,21010.5298920799,21432.7429318187
2011-06-01T05:06:37Z,1306904797,3240E,56.0648892,26.4014142,12286.33,10.9,-25.6,18.6,-17509.89,25544.6,19.1,Weapon+Missile,Red,Allies,R-73,,xu,,252.067972108223,133.202545166016,0.853897888739684,12286.3330078125,12286.3330078125,229.260953327451,-104.7744140625,0.0363804252724539,NaN,0.276923189708997,2.00780689072859,5000,0.0031553665176034,0.0031553665176034,0.0031553665176034,3176.91312813759,12048.7767591064,15225.689887244,,,43.0999999046326,0,21240.8251892569,21686.1576112969
2011-06-01T05:06:38Z,1306904798,3240E,56.0656093,26.4033357,12174.01,10.6,-27.5,18.6,-17436.53,25756.9,19.1,Weapon+Missile,Red,Allies,R-73,,xu,,251.14040769151,133.784225463867,0.850755699391006,12174.0068359375,12174.0068359375,224.620425356568,-112.326171875,0.0598821114396858,NaN,0.199987938897973,2.00775801218734,5000,0.0030051174107939,0.0030051174107939,0.0030051174107939,3153.57521877289,11938.6224137646,15092.1976325375,,,44.0999999046326,0,21466.4610128471,21938.5939956312
2011-06-01T05:06:39Z,1306904799,3240E,56.0663151,26.4052193,12054.15,10.4,-29.6,18.6,-17364.61,25965.02,19.1,Weapon+Missile,Red,Allies,R-73,,xu,,250.702532442842,134.740951538086,0.849272366354915,12054.1474609375,12054.1474609375,220.194209728285,-119.859375,0.0385903520915462,NaN,0.199987938897973,1.97701831894088,5000,0.000537688378244638,0.000537688378244638,0.000537688378244638,3142.58798866272,11821.0805197803,14963.668508443,,,45.0999999046326,0,21687.6325891726,22190.5247981675
2011-06-01T05:06:40Z,1306904800,3240E,56.0670054,26.4070613,11927.23,10.2,-31.5,18.6,-17294.29,26168.55,19.1,Weapon+Missile,Red,Allies,R-73,,xu,,249.952109283579,135.584838867188,0.846730255407631,11927.232421875,11927.232421875,215.333763713623,-126.9150390625,0.0399471823502433,NaN,0.199987938897973,1.94236919616823,5000,0.0020096639636904,0.0020096639636904,0.0020096639636904,3123.80284676552,11696.619382998,14820.4222297636,,,46.0999999046326,0,21903.9320762244,22441.6601618693
2011-06-01T05:06:41Z,1306904801,3240E,56.0676829,26.4088692,11792.94,10,-33.4,18.6,-17225.26,26368.29,19.1,Weapon+Missile,Red,Allies,R-73,,xu,,250.388643971907,137.242172241211,0.848209047201792,11792.94140625,11792.94140625,211.330064478522,-134.291015625,0.0700112054992235,NaN,0.199987938897973,1.88854538451782,5000,0.00138740264810622,0.00138740264810622,0.00138740264810622,3134.72365150452,11564.9248841602,14699.6485356647,,,47.0999999046326,0,22116.2184759305,22693.1901720405
2011-06-01T05:06:42Z,1306904802,3240E,56.0683425,26.410629,11652.56,9.8,-35.3,18.6,-17158.07,26562.73,19.1,Weapon+Missile,Red,Allies,R-73,,xu,,249.064461014708,137.883407592773,0.843723284802072,11652.5556640625,11652.5556640625,205.730282484159,-140.3857421875,0.0362887953655166,NaN,0.199987938897973,1.83850379012031,5000,0.000654316216241568,0.000654316216241568,0.000654316216241568,3101.65528702736,11427.2535002979,14528.9087873252,,,48.0999999046326,0,22322.8605121477,22943.3225310596
2011-06-01T05:06:43Z,1306904803,3240E,56.0689918,26.4123617,11504.61,9.6,-37.1,18.6,-17091.92,26754.17,19.1,Weapon+Missile,Red,Allies,R-73,,xu,,250.819324384406,140.542694091797,0.849668007227052,11504.6142578125,11504.6142578125,202.543017162829,-147.94140625,0.0353225065879031,NaN,0.199987938897973,1.8077337879094,5000,0.00179373996797949,0.00179373996797949,0.00179373996797949,3145.51667423248,11282.1725411377,14427.6892153702,,,49.0999999046326,0,22526.3194869762,23195.180915505
2011-06-01T05:06:44Z,1306904804,3240E,56.0696257,26.4140529,11350.53,9.4,-38.8,18.6,-17027.34,26941.03,19.1,Weapon+Missile,Red,Allies,R-73,,xu,,250.657863267901,142.086380004883,0.849121046400004,11350.5302734375,11350.5302734375,197.70556435557,-154.083984375,0.0520808684812098,NaN,0.199987938897973,1.78845974112357,5000,0.00137960375286639,0.00137960375286639,0.00137960375286639,3141.46822090149,11131.0677706006,14272.5359915021,,,50.0999999046326,0,22724.9106003919,23446.8190548167
2011-06-01T05:06:45Z,1306904805,3240E,56.070246,26.4157079,11190.07,9.2,-40.5,18.6,-16964.16,27123.89,19.1,Weapon+Missile,Red,Allies,R-73,,xu,,251.345207941479,144.262069702148,0.851449474564422,11190.0712890625,11190.0712890625,193.461437729819,-160.458984375,0.055825752047014,NaN,0.199987938897973,1.71933096964705,5000,0.00151048158295453,0.00151048158295453,0.00151048158295453,3158.72067775726,10973.7112606885,14132.4319384457,,,51.0999999046326,0,22919.2422982231,23699.0996025486
2011-06-01T05:06:46Z,1306904806,3240E,56.070853,26.4173272,11023.37,9,-42.2,18.6,-16902.33,27302.81,19.1,Weapon+Missile,Red,Allies,R-73,,xu,,252.246989979852,146.676727294922,0.854504324302887,11023.365234375,11023.365234375,189.308307489196,-166.7060546875,0.0336940437708046,NaN,0.199987938897973,1.63845918199657,5000,0.00214252015575767,0.00214252015575767,0.00214252015575767,3181.42719769478,10810.2284675684,13991.6556652631,,,52.0999999046326,0,23109.3884640999,23952.225072181
2011-06-01T05:06:47Z,1306904807,3240E,56.0714492,26.418918,10849.87,8.8,-43.9,18.6,-16841.6,27478.57,19.1,Weapon+Missile,Red,Allies,R-73,,xu,,254.319270889699,149.597457885742,0.859437889333889,10849.87109375,10849.87109375,185.951807505764,-173.494140625,0.0549562403742293,NaN,0.199987938897973,1.6385188394301,5000,0.00152130448259413,0.00152130448259413,0.00152130448259413,3233.9145772934,10640.0888361523,13874.0034134457,,,53.0999999046326,0,23296.181211784,24207.394637974
2011-06-01T05:06:48Z,1306904808,3240E,56.0720277,26.4204613,10671.9,8.6,-45.4,18.6,-16782.67,27649.09,19.1,Weapon+Missile,Red,Allies,R-73,,xu,,253.424946430084,150.552261352539,0.854153244183304,10671.8994140625,10671.8994140625,180.416974540371,-177.9716796875,0.0305837837734997,NaN,0.199987938897973,1.58846796024419,5000,0.00176661997102201,0.00176661997102201,0.00176661997102201,3211.21017365456,10465.5582388916,13676.7684125462,,,54.0999999046326,0,23477.4039173728,24461.6120626911
2011-06-01T05:06:49Z,1306904809,3240E,56.0725953,26.4219755,10487.56,8.4,-46.9,18.6,-16724.86,27816.39,19.1,Weapon+Missile,Red,Allies,R-73,,xu,,255.55952347953,153.596420288086,0.859003591125678,10487.560546875,10487.560546875,177.002407003728,-184.3388671875,0.0360322794570873,NaN,0.199987938897973,1.53850832811672,5000,0.00155307387467474,0.00155307387467474,0.00155307387467474,3265.53350205421,10284.7835637012,13550.3170657554,,,55.0999999046326,0,23655.2022794216,24717.9283440567
2011-06-01T05:06:50Z,1306904810,3240E,56.073149,26.4234527,10298.05,8.2,-48.4,18.6,-16668.46,27979.61,19.1,Weapon+Missile,Red,Allies,R-73,,xu,,256.388271077579,155.833312988281,0.859391465650479,10298.0517578125,10298.0517578125,172.688634293676,-189.5087890625,0.0279744638121012,NaN,0.199987938897973,1.48845168595869,5000,0.000929927569814026,0.000929927569814026,0.000929927569814026,3286.74727730751,10098.9389270752,13385.6862043827,,,56.0999999046326,0,23828.6618058867,24975.0273956464
2011-06-01T05:06:51Z,1306904811,3240E,56.0736907,26.4248976,10102.98,8,-49.8,18.6,-16613.29,28139.25,19.1,Weapon+Missile,Red,Allies,R-73,,xu,,258.041683082656,158.705368041992,0.862470380013992,10102.9775390625,10102.9775390625,168.912875137471,-195.07421875,0.028020101568785,NaN,0.199987938897973,1.39240492551974,5000,0.0022325892932713,0.0022325892932713,0.0022325892932713,3329.27551040649,9907.63646834473,13236.9119787512,,,57.0999999046326,0,23998.3391869355,25233.7483394253
2011-06-01T05:06:52Z,1306904812,3240E,56.0742175,26.4263028,9903.56,7.8,-51.2,18.6,-16559.64,28294.52,19.1,Weapon+Missile,Red,Allies,R-73,,xu,,258.365030355648,160.722518920898,0.861051595615543,9903.5595703125,9903.5595703125,164.271003680805,-199.41796875,0.0324434528236268,NaN,0.169224766876236,1.35770596371049,5000,0.00497059384360909,0.00497059384360909,0.00497059384360909,3337.62444553375,9712.07424602051,13049.6986915543,,,58.0999999046326,0,24163.3400773754,25492.7430993124
2011-06-01T05:06:53Z,1306904813,3240E,56.0747283,26.4276655,9700.58,7.7,-52.5,18.6,-16507.61,28445.09,19.1,Weapon+Missile,Red,Allies,R-73,,xu,,258.026290803395,162.320083618164,0.857404011661406,9700.5830078125,9700.5830078125,159.304996222471,-202.9765625,0.0485048123891772,NaN,0.169224766876236,1.33469580344865,5000,0.00482812616974115,0.00482812616974115,0.00482812616974115,3328.8783372879,9513.02223535644,12841.9005726443,,,59.0999999046326,0,24323.3585428687,25751.3628167035
2011-06-01T05:06:54Z,1306904814,3240E,56.0752291,26.4290014,9491.98,7.5,-53.8,18.6,-16456.62,28592.68,19.1,Weapon+Missile,Red,Allies,R-73,,xu,,260.577681545926,166.020141601562,0.86329116175832,9491.978515625,9491.978515625,156.15663277314,-208.6044921875,0.0231508411480449,NaN,0.169224766876236,1.31924420799879,5000,0.00412761187180877,0.00412761187180877,0.00412761187180877,3395.03640599251,9308.45111102539,12703.4875170179,,,60.0999999046326,0,24480.2257922511,26012.5088872019
2011-06-01T05:06:55Z,1306904815,3240E,56.0757196,26.4303096,9277.91,7.3,-55.1,18.6,-16406.66,28737.23,19.1,Weapon+Missile,Red,Allies,R-73,,xu,,263.083166427688,169.785705566406,0.868931729904368,9277.9130859375,9277.9130859375,152.933790479164,-214.0654296875,0.0268793200057521,NaN,0.199987938897973,1.25382294858112,5000,0.00272066635079682,0.00272066635079682,0.00272066635079682,3460.63762288094,9098.5246364209,12559.1622593018,,,61.0999999046326,0,24633.8412524799,26276.1207484308
2011-06-01T05:06:56Z,1306904816,3240E,56.0761926,26.4315715,9061.75,7.1,-56.3,18.6,-16358.48,28876.65,19.1,Weapon+Missile,Red,Allies,R-73,,xu,,261.700857526287,170.798004150391,0.861718547859705,9061.7509765625,9061.7509765625,147.517054270158,-216.162109375,0.0326646652553233,NaN,0.199987938897973,1.18850841086922,5000,0.00231037684716284,0.00231037684716284,0.00231037684716284,3424.36694149971,8886.54202143066,12310.9089629304,,,62.0999999046326,0,24782.0146018853,26538.3126145518
2011-06-01T05:06:57Z,1306904817,3240E,56.0766536,26.432801,8841.49,6.9,-57.4,18.6,-16311.54,29012.51,19.1,Weapon+Missile,Red,Allies,R-73,,xu,,263.011246321095,173.808624267578,0.863347060047663,8841.4912109375,8841.4912109375,143.73778674446,-220.259765625,0.0232275521580008,NaN,0.199987938897973,1.17309299407762,5000,0.00384035939350724,0.00384035939350724,0.00384035939350724,3458.74578456879,8670.54097837402,12129.2867629428,,,63.0999999046326,0,24926.3956587895,26801.7871081908
2011-06-01T05:06:58Z,1306904818,3240E,56.0770997,26.4339908,8618.78,6.7,-58.6,18.6,-16266.12,29143.97,19.1,Weapon+Missile,Red,Allies,R-73,,xu,,262.570768244752,175.576568603516,0.859214777308539,8618.7822265625,8618.7822265625,139.083128435103,-222.708984375,0.025151883068913,NaN,0.199987938897973,1.13846222743837,5000,0.000995802576653659,0.000995802576653659,0.000995802576653659,3447.17041683197,8452.13807221191,11899.3084890439,,,64.0999999046326,0,25066.1017896554,27064.7900770849
2011-06-01T05:06:59Z,1306904819,3240E,56.0775359,26.4351542,8391.28,6.5,-59.7,18.6,-16221.7,29272.52,19.1,Weapon+Missile,Red,Allies,R-73,,xu,,265.060026634458,179.581237792969,0.864616213598552,8391.2802734375,8391.2802734375,136.01352522367,-227.501953125,0.020216974007505,NaN,0.12305268808695,1.08840889365322,5000,0.00247765565291047,0.00247765565291047,0.00247765565291047,3512.84088597298,8229.03486935059,11741.8757553236,,,65.0999999046326,0,25202.7215529397,27330.2555357982
2011-06-01T05:07:00Z,1306904820,3240E,56.0779592,26.4362833,8160.83,6.4,-60.7,18.6,-16178.59,29397.26,19.1,Weapon+Missile,Red,Allies,R-73,,xu,,265.56805266386,182.165878295898,0.863514687551248,8160.82763671875,8160.82763671875,131.977167817204,-230.45263671875,0.0188064517082858,NaN,0.169224766876236,1.03844136411952,5000,0.00318043469451368,0.00318043469451368,0.00318043469451368,3526.31952978373,8003.03803436279,11529.3575641465,,,66.0999999046326,0,25335.2983375659,27596.2079089571
2011-06-01T05:07:01Z,1306904821,3240E,56.0783627,26.4373594,7931.64,6.2,-61.8,18.6,-16137.5,29516.17,19.1,Weapon+Missile,Red,Allies,R-73,,xu,,261.447413941651,181.230972290039,0.847440709188488,7931.6396484375,7931.6396484375,125.807854621126,-229.18798828125,0.0541803591092386,NaN,0.199987938897973,1.04609320370235,5000,0.00162932591047138,0.00162932591047138,0.00162932591047138,3417.73751283884,7778.28139583496,11196.0189086738,,,67.0999999046326,0,25461.6647501354,27858.0015664947
2011-06-01T05:07:02Z,1306904822,3240E,56.0787359,26.4383547,7710.33,6,-62.8,18.6,-16099.5,29626.13,19.1,Weapon+Missile,Red,Allies,R-73,,xu,,250.029802867686,174.624984741211,0.807984456167524,7710.32763671875,7710.32763671875,116.343868729958,-221.31201171875,0.0307146909444239,NaN,0.199987938897973,1.06150819360713,5000,0.0085140997543931,0.0085140997543931,0.0085140997543931,3125.7451161027,7561.24845186279,10686.9935679655,,,68.0999999046326,0,25578.5360864209,28108.3441994986
2011-06-01T05:07:03Z,1306904823,3240E,56.0790606,26.4392207,7508.74,5.9,-63.9,18.6,-16066.44,29721.82,19.1,Weapon+Missile,Red,Allies,R-73,,xu,,225.579656299948,157.945724487305,0.726978201327432,7508.74169921875,7508.74169921875,101.238782779373,-201.5859375,0.0371590851873062,NaN,0.199987938897973,1.13078605530662,5000,0.00380680896341801,0.00380680896341801,0.00380680896341801,2544.30906682014,7363.56017846436,9907.8692452845,,,69.0999999046326,0,25680.2296505605,28334.1829965819
2011-06-01T05:07:04Z,1306904824,3240E,56.0793322,26.4399451,7331.11,5.8,-65.1,18.6,-16038.78,29801.87,19.1,Weapon+Missile,Red,Allies,R-73,,xu,,196.791466483938,137.915710449219,0.632680838740248,7331.10595703125,7331.10595703125,84.6901669522211,-177.6357421875,0.0270355377022148,NaN,0.199987938897973,1.21541775537349,5000,0.0013113219756633,0.0013113219756633,0.0013113219756633,1936.34406404495,7189.35902335205,9125.703087397,,,70.0999999046326,0,25765.2921837691,28531.1777584775
2011-06-01T05:07:05Z,1306904825,3240E,56.0795627,26.4405596,7171.38,5.8,-66.5,18.6,-16015.32,29869.77,19.1,Weapon+Missile,Red,Allies,R-73,,xu,,175.139669279087,123.100479125977,0.56186154973796,7171.37744140625,7171.37744140625,71.8380473803549,-159.728515625,0.0100410366965516,NaN,0,1.28854506900052,5000,0.00153835699893534,0.00153835699893534,0.00153835699893534,1533.6951877594,7032.71885857666,8566.41404633606,,,71.0999999046326,0,25837.4551732726,28706.4847554667
2011-06-01T05:07:06Z,1306904826,3240E,56.0797616,26.44109,7024.39,5.8,-67.8,18.6,-15995.06,29928.37,19.1,Weapon+Missile,Red,Allies,R-73,,xu,,159.531318018167,112.612915039062,0.510781444417154,7024.3896484375,7024.3896484375,62.0066943707657,-146.98779296875,0.0346579718168879,NaN,0,1.37308146658413,5000,0.000835710787214339,0.000835710787214339,0.000835710787214339,1272.51207143068,6888.57307458496,8161.08514601564,,,72.0999999046326,0,25899.7379138688,28866.1506241768
2011-06-01T05:07:07Z,1306904827,3240E,56.079935,26.4415526,6887.07,5.7,-69.2,18.6,-15977.4,29979.48,19.1,Weapon+Missile,Red,Allies,R-73,,xu,,147.582103705099,104.691131591797,0.471657286103043,6887.0712890625,6887.0712890625,54.0753688159487,-137.318359375,0.0272772764522969,NaN,0,1.38846305259499,5000,0.00361149525269866,0.00361149525269866,0.00361149525269866,1089.02386670113,6753.90976568848,7842.9336323896,,,73.0999999046326,0,25954.0566098783,29013.8438586065
2011-06-01T05:07:08Z,1306904828,3240E,56.0800878,26.4419601,6756.82,5.7,-70.7,18.6,-15961.84,30024.51,19.1,Weapon+Missile,Red,Allies,R-73,,xu,,138.686021461702,98.9082260131836,0.442458890035492,6756.82373046875,6756.82373046875,47.6380733158203,-130.24755859375,0.0634187749445256,NaN,0,1.36926275050785,5000,0.00371071603149176,0.00371071603149176,0.00371071603149176,961.690627443791,6626.18054364014,7587.87117108393,,,74.0999999046326,0,26001.9069529316,29152.6205944882
2011-06-01T05:07:09Z,1306904829,3240E,56.080222,26.4423179,6633.24,5.7,-72,18.6,-15948.19,30064.04,19.1,Weapon+Missile,Red,Allies,R-73,,xu,,130.464630467599,93.533576965332,0.415548137292334,6633.24365234375,6633.24365234375,41.8208571608244,-123.580078125,0.0309850847715725,NaN,0,1.38846305259499,5000,0.000973140471614897,0.000973140471614897,0.000973140471614897,851.050990152359,6504.98988632568,7356.04087647804,,,75.0999999046326,0,26043.9216099118,29283.1616797024
2011-06-01T05:07:10Z,1306904830,3240E,56.0803408,26.4426347,6514.59,5.7,-73.3,18.6,-15936.08,30099.04,19.1,Weapon+Missile,Red,Allies,R-73,,xu,,124.297200600649,89.5963973999023,0.39528359862779,6514.59375,6514.59375,37.0404474996802,-118.64990234375,0.0196946522803548,NaN,0,1.37308146658413,5000,0.00141476443968713,0.00141476443968713,0.00141476443968713,772.489703857899,6388.63407984375,7161.12378370165,,,76.0999999046326,0,26081.1235503597,29407.5185777934
2011-06-01T05:07:11Z,1306904831,3240E,56.0804467,26.4429172,6399.57,5.6,-74.6,18.6,-15925.3,30130.27,19.1,Weapon+Missile,Red,Allies,R-73,,xu,,119.670053834029,86.7397537231445,0.379992215076638,6399.57373046875,6399.57373046875,33.0350857675627,-115.02001953125,0.0297654851350466,NaN,0,1.28846918986771,5000,0.000688138126861304,0.000688138126861304,0.000688138126861304,716.046089231968,6275.83797239014,6991.88406162211,,,77.0999999046326,0,26114.3018278185,29527.2375527451
2011-06-01T05:07:12Z,1306904832,3240E,56.0805414,26.4431697,6287.52,5.6,-75.9,18.6,-15915.67,30158.16,19.1,Weapon+Missile,Red,Allies,R-73,,xu,,115.878329204522,84.4569549560547,0.367410925891495,6287.515625,6287.515625,29.5087813707402,-112.05810546875,0.0150644374936908,NaN,0,1.21541775537349,5000,0.0017369989072904,0.0017369989072904,0.0017369989072904,671.389358961582,6165.94651039063,6837.33586935221,,,78.0999999046326,0,26143.9447435423,29643.1576553858
2011-06-01T05:07:13Z,1306904833,3240E,56.0806261,26.4433956,6177.94,5.5,-77,18.6,-15907.04,30183.11,19.1,Weapon+Missile,Red,Allies,R-73,,xu,,112.712661529024,82.6030883789062,0.356861051201441,6177.93896484375,6177.93896484375,26.4026441470938,-109.57666015625,0,NaN,0,1.18074301939145,5000,0.00132763851433992,0.00132763851433992,0.00132763851433992,635.207203447819,6058.4885149585,6693.69571840631,,,79.0999999046326,0,26170.4741799219,29755.9061881856
2011-06-01T05:07:14Z,1306904834,3240E,56.0807018,26.4435974,6070.82,5.4,-78.1,18.6,-15899.33,30205.41,19.1,Weapon+Missile,Red,Allies,R-73,,xu,,109.686253958469,80.8203125,0.346793508284119,6070.81982421875,6070.81982421875,23.5916090846552,-107.119140625,0.0298526485598125,NaN,0.169224766876236,1.11158383222878,5000,0.000988683430477977,0.000988683430477977,0.000988683430477977,601.553715372086,5953.44052291748,6554.99423828957,,,80.0999999046326,0,26194.1711612003,29865.6200712569
2011-06-01T05:07:15Z,1306904835,3240E,56.0807698,26.4437786,5965.28,5.3,-79.2,18.6,-15892.42,30225.44,19.1,Weapon+Missile,Red,Allies,R-73,,xu,,107.649901930697,79.7538528442383,0.339887581706771,5965.27587890625,5965.27587890625,21.1890772229654,-105.5439453125,0.0145705938873797,NaN,0.199987938897973,1.01918033738179,5000,0.00071386550553143,0.00071386550553143,0.00071386550553143,579.425069284439,5849.9372697876,6429.36233907204,,,81.0999999046326,0,26215.4503402894,29973.2917144006
2011-06-01T05:07:16Z,1306904836,3240E,56.080831,26.4439419,5860.85,5.2,-80.1,18.6,-15886.18,30243.49,19.1,Weapon+Missile,Red,Allies,R-73,,xu,,106.152549834135,79.0754928588867,0.334705584277873,5860.85498046875,5860.85498046875,19.0955441345295,-104.4208984375,0.0360278815316471,NaN,0.0922895160652123,0.938505024391658,5000,0.00188867433462292,0.00188867433462292,0.00188867433462292,563.418191814423,5747.53534942139,6310.95354123581,,,82.0999999046326,0,26234.6287786455,30079.462420483
2011-06-01T05:07:17Z,1306904837,3240E,56.0808857,26.444088,5758.17,5.1,-81,18.6,-15880.61,30259.62,19.1,Weapon+Missile,Red,Allies,R-73,,xu,,104.092323631287,77.9519729614258,0.327773213365129,5758.171875,5758.171875,17.0701988932236,-102.68310546875,0.0287241763534151,NaN,0.0154089067675488,0.86927534754232,5000,0.00126348889898509,0.00126348889898509,0.00126348889898509,541.760591948032,5646.83762179688,6188.59821374491,,,83.0999999046326,0,26251.7775280366,30183.5702286548
2011-06-01T05:07:18Z,1306904838,3240E,56.080935,26.4442193,5656.51,4.9,-81.8,18.6,-15875.59,30274.13,19.1,Weapon+Missile,Red,Allies,R-73,,xu,,102.812948098409,77.4055023193359,0.323319619730356,5656.51123046875,5656.51123046875,15.3497768771081,-101.66064453125,0.0442038943299005,NaN,0.199987938897973,0.807778778854758,5000,0.00104519492015243,0.00104519492015243,0.00104519492015243,528.525114834309,5547.14258582764,6075.66770066195,,,84.0999999046326,0,26267.1943271479,30286.3952737228
2011-06-01T05:07:19Z,1306904839,3240E,56.0809791,26.444337,5556.08,4.8,-82.5,18.6,-15871.1,30287.13,19.1,Weapon+Missile,Red,Allies,R-73,,xu,,101.364969484028,76.7158203125,0.318353790040354,5556.08447265625,5556.08447265625,13.759482321926,-100.4267578125,0.0302430827538345,NaN,0.0769352508110236,0.769248454447099,5000,0.00153874233365059,0.00153874233365059,0.00153874233365059,513.742851924896,5448.65757937744,5962.40043130234,,,85.0999999046326,0,26281.0162307905,30387.770392488
2011-06-01T05:07:20Z,1306904840,3240E,56.0810186,26.4444422,5457.06,4.6,-83.2,18.6,-15867.07,30298.76,19.1,Weapon+Missile,Red,Allies,R-73,,xu,,99.7899179967736,75.9131088256836,0.313008353964808,5457.05615234375,5457.05615234375,12.3052635033832,-99.0283203125,0.034598513686455,NaN,0.199987938897973,0.719359312006298,5000,0.00136154447682202,0.00136154447682202,0.00136154447682202,497.90138669014,5351.54397163818,5849.44535832832,,,86.0999999046326,0,26293.3756627882,30487.5683266367
2011-06-01T05:07:21Z,1306904841,3240E,56.0810545,26.4445381,5357.51,4.5,-83.9,18.6,-15863.42,30309.36,19.1,Weapon+Missile,Red,Allies,R-73,,xu,,100.172464520426,76.6158828735352,0.313807481302792,5357.5126953125,5357.5126953125,11.2081582056897,-99.54345703125,0.011055676498501,NaN,0,0.619297307469876,5000,0.00136254413519055,0.00136254413519055,0.00136254413519055,501.726132404804,5253.92518734863,5755.65131975344,,,87.0999999046326,0,26304.6317513885,30587.7472380262
2011-06-01T05:07:22Z,1306904842,3240E,56.0810864,26.4446231,5259.98,4.3,-84.5,18.6,-15860.17,30318.75,19.1,Weapon+Missile,Red,Allies,R-73,,xu,,98.0376295239888,75.3568878173828,0.306736864519153,5259.97998046875,5259.97998046875,9.93711919474779,-97.53271484375,0.0185148421255451,NaN,0.199987938897973,0.569331965731147,5000,0.000483712996356189,0.000483712996356189,0.000483712996356189,480.568840134144,5158.27826754639,5638.84710768053,,,88.0999999046326,0,26314.6165835254,30685.7905619646
2011-06-01T05:07:23Z,1306904843,3240E,56.0811152,26.4446999,5162.6,4.1,-85,18.6,-15857.24,30327.23,19.1,Weapon+Missile,Red,Allies,R-73,,xu,,97.7928910572253,75.5590438842773,0.305591230024107,5162.599609375,5162.599609375,8.97289624223288,-97.38037109375,0,NaN,0.199987938897973,0.519364222754037,5000,0.000568251765798777,0.000568251765798777,0.000568251765798777,478.172477066517,5062.78074592773,5540.95322299425,,,89.0999999046326,0,26323.6300920163,30783.5878667546
2011-06-01T05:07:24Z,1306904844,3240E,56.0811411,26.4447688,5065.99,4,-85.5,18.6,-15854.61,30334.84,19.1,Weapon+Missile,Red,Allies,R-73,,xu,,96.9448981201307,75.2835845947266,0.302569102441228,5065.9892578125,5065.9892578125,8.04693994588476,-96.6103515625,0.0268331842059607,NaN,0.184633673643785,0.480924078187764,5000,0.00096282159211114,0.00096282159211114,0.00096282159211114,469.915663576126,4968.0383555127,5437.95401908882,,,90.0999999046326,0,26331.7194506674,30880.5368365119
2011-06-01T05:07:25Z,1306904845,3240E,56.0811643,26.4448307,4969.62,3.8,-85.9,18.6,-15852.25,30341.69,19.1,Weapon+Missile,Red,Allies,R-73,,xu,,96.6399796744212,75.4301376342773,0.301248651694989,4969.62158203125,4969.62158203125,7.24960247133811,-96.36767578125,0.0194927974258312,NaN,0.199987938897973,0.446314469126678,5000,0.000323618995025754,0.000323618995025754,0.000323618995025754,466.964283573627,4873.53394874268,5340.4982323163,,,91.0999999046326,0,26338.9976788063,30977.179399198
2011-06-01T05:07:26Z,1306904846,3240E,56.0811851,26.4448862,4874.06,3.6,-86.3,18.6,-15850.12,30347.82,19.1,Weapon+Missile,Red,Allies,R-73,,xu,,95.7825974685451,75.1344528198242,0.298214856791357,4874.05908203125,4874.05908203125,6.48957406702089,-95.5625,0.0217522060768009,NaN,0.199987938897973,0.400076329601513,5000,0.000374547147657722,0.000374547147657722,0.000374547147657722,458.715298891068,4779.81914968018,5238.53444857124,,,92.0999999046326,0,26345.5099225654,31072.9638770775
2011-06-01T05:07:27Z,1306904847,3240E,56.0812038,26.444936,4779.07,3.5,-86.7,18.6,-15848.22,30353.32,19.1,Weapon+Missile,Red,Allies,R-73,,xu,,95.1672750866665,75.0232009887695,0.295943696766157,4779.06982421875,4779.06982421875,5.81817391040113,-94.9892578125,0.0313161942696724,NaN,0.169224766876236,0.350127262922916,5000,0.000761045317631215,0.000761045317631215,0.000761045317631215,452.840512371063,4686.66650916748,5139.50702153854,,,93.0999999046326,0,26351.3595483491,31168.1333523782
2011-06-01T05:07:28Z,1306904848,3240E,56.0812204,26.4449804,4685.08,3.3,-87,18.6,-15846.53,30358.23,19.1,Weapon+Missile,Red,Allies,R-73,,xu,,94.134003223832,74.5705795288086,0.292383923930678,4685.0791015625,4685.0791015625,5.19178365307195,-93.99072265625,0.0140541448896653,NaN,0.199987938897973,0.327009313738244,5000,0.00033459349651821,0.00033459349651821,0.00033459349651821,443.060528147221,4594.49309713379,5037.55362528101,,,94.0999999046326,0,26356.5700084315,31262.2686015651
2011-06-01T05:07:29Z,1306904849,3240E,56.0812354,26.4450204,4591.06,3.2,-87.3,18.6,-15845,30362.65,19.1,Weapon+Missile,Red,Allies,R-73,,xu,,94.1401903337123,74.9458923339844,0.292057639606498,4591.05517578125,4591.05517578125,4.67726594813388,-94.02392578125,0.0117240734179245,NaN,0.0769352508110236,0.312004882235607,5000,0.000454840366728604,0.000454840366728604,0.000454840366728604,443.118771803379,4502.28712395752,4945.4058957609,,,95.0999999046326,0,26361.2721943784,31356.4102041661
2011-06-01T05:07:30Z,1306904850,3240E,56.0812488,26.4450562,4497.61,3,-87.6,18.6,-15843.64,30366.61,19.1,Weapon+Missile,Red,Allies,R-73,,xu,,93.5364991119334,74.8274536132812,0.289844804584675,4497.6123046875,4497.6123046875,4.18407790003188,-93.44287109375,0.0381224143342538,NaN,0.199987938897973,0.2733984385713,5000,0.000723331118933856,0.000723331118933856,0.000723331118933856,437.453833305836,4410.65097077637,4848.1048040822,,,96.0999999046326,0,26365.4750368697,31449.9476791307
2011-06-01T05:07:31Z,1306904851,3240E,56.0812608,26.4450881,4405.22,2.8,-87.8,18.6,-15842.42,30370.13,19.1,Weapon+Missile,Red,Allies,R-73,,xu,,92.4692850422955,74.325813293457,0.286206639138017,4405.21826171875,4405.21826171875,3.72954422444222,-92.39404296875,0.028663810213185,NaN,0.153815860108687,0.238826875798325,5000,0.00102989736478776,0.00102989736478776,0.00102989736478776,427.528433811665,4320.04336662842,4747.57180044008,,,97.0999999046326,0,26369.2182411474,31542.417621918
2011-06-01T05:07:32Z,1306904852,3240E,56.0812716,26.4451169,4312.49,2.7,-88,18.6,-15841.32,30373.31,19.1,Weapon+Missile,Red,Allies,R-73,,xu,,92.7856370730925,74.9454193115234,0.286853478995878,4312.49365234375,4312.49365234375,3.36470850346556,-92.724609375,0.03105779783009,NaN,0.199987938897973,0.216026930616456,5000,0.00113670283462852,0.00113670283462852,0.00113670283462852,430.458722352982,4229.11158757568,4659.57030992866,,,98.0999999046326,0,26372.5968072534,31635.2038466485
2011-06-01T05:07:33Z,1306904853,3240E,56.0812812,26.4451424,4221.12,2.6,-88.2,18.6,-15840.34,30376.12,19.1,Weapon+Missile,Red,Allies,R-73,,xu,,91.4264987473264,74.1919631958008,0.28233001982342,4221.11572265625,4221.11572265625,2.97970455266817,-91.3779296875,0.0274440609226274,NaN,0.0307631720217374,0.200281343547593,5000,0.00134391500614583,0.00134391500614583,0.00134391500614583,417.940233659744,4139.50045015869,4557.44068381843,,,99.0999999046326,0,26375.5951385571,31726.631020163
2011-06-01T05:07:34Z,1306904854,3240E,56.0812897,26.4451653,4129.72,2.4,-88.4,18.6,-15839.48,30378.65,19.1,Weapon+Missile,Red,Allies,R-73,,xu,,91.4365006637981,74.5543670654297,0.282040312826951,4129.71826171875,4129.71826171875,2.67166386712638,-91.3974609375,0.0188190280753081,NaN,0.199987938897973,0.184782630464629,5000,0.00186417507939041,0.00186417507939041,0.00186417507939041,418.031682682037,4049.87015912842,4467.90184181046,,,100.099999904633,0,26378.2825770545,31818.0680348285
2011-06-01T05:07:35Z,1306904855,3240E,56.0812974,26.4451857,4038.64,2.3,-88.6,18.6,-15838.69,30380.92,19.1,Weapon+Missile,Red,Allies,R-73,,xu,,91.1129869334873,74.6413497924805,0.280725145036199,4038.63696289062,4038.63696289062,2.40278832268529,-91.081298828125,0.0330813732703792,NaN,0.0615263440434749,0.169598492949669,5000,0.00176655594259501,0.00176655594259501,0.00176655594259501,415.078819397092,3960.54991721313,4375.62873661023,,,101.099999904633,0,26380.68592005,31909.1810769967
2011-06-01T05:07:36Z,1306904856,3240E,56.0813043,26.4452041,3948.05,2.2,-88.7,18.6,-15837.99,30382.94,19.1,Weapon+Missile,Red,Allies,R-73,,xu,,90.6159672780352,74.5807571411133,0.27888100816243,3948.04614257812,3948.04614257812,2.13466644754752,-90.5908203125,0.0287033693700545,NaN,0.0461720787892862,0.1496807408552,5000,0.000625651446171105,0.000625651446171105,0.000625651446171105,410.562676286697,3871.71067041138,4282.27334669807,,,102.099999904633,0,26382.8408084349,31999.7975549986
2011-06-01T05:07:37Z,1306904857,3240E,56.0813103,26.4452203,3858.25,2,-88.9,18.6,-15837.37,30384.73,19.1,Weapon+Missile,Red,Allies,R-73,,xu,,89.8147375087585,74.2612380981445,0.27610886168195,3858.25146484375,3858.25146484375,1.89813707274365,-89.794677734375,0.0466723800274354,NaN,0.184579032130425,0.131221314189807,5000,0.00116575742140412,0.00116575742140412,0.00116575742140412,403.334353688359,3783.652172771,4186.98652645936,,,103.099999904633,0,26384.7459434995,32089.6124654122
2011-06-01T05:07:38Z,1306904858,3240E,56.0813158,26.4452349,3768.65,1.9,-89,18.6,-15836.82,30386.34,19.1,Weapon+Missile,Red,Allies,R-73,,xu,,89.6177303499626,74.4408721923828,0.275199290558108,3768.64990234375,3768.64990234375,1.70223107632514,-89.6015625,0.0350073966646604,NaN,0.199987938897973,0.0998959722426529,5000,0.0011613235110417,0.0011613235110417,0.0011613235110417,401.566879653931,3695.78305648193,4097.34993613586,,,104.099999904633,0,26386.4574332928,32179.2303916512
2011-06-01T05:07:39Z,1306904859,3240E,56.0813207,26.4452478,3679.6,1.8,-89.1,18.6,-15836.32,30387.78,19.1,Weapon+Missile,Red,Allies,R-73,,xu,,89.0644024913438,74.3183822631836,0.273200912466548,3679.59838867188,3679.59838867188,1.51515804058173,-89.051513671875,0.022466249561778,NaN,0.199987938897973,0.100870594880489,5000,0.000197502915398218,0.000197502915398218,0.000197502915398218,396.623389557004,3608.4533538269,4005.07674338391,,,105.099999904633,0,26387.9743808855,32268.2948396939
2011-06-01T05:07:40Z,1306904860,3240E,56.081325,26.4452593,3591.24,1.7,-89.2,18.6,-15835.88,30389.05,19.1,Weapon+Missile,Red,Allies,R-73,,xu,,88.3687050666913,74.0704498291016,0.270773290032185,3591.23999023438,3591.23999023438,1.34961502802723,-88.3583984375,0.0352495820213036,NaN,0.169224766876236,0.101354391053222,5000,0.00124348106328398,0.00124348106328398,0.00124348106328398,390.451401758194,3521.80336502319,3912.25476678139,,,106.099999904633,0,26389.3224452099,32356.6635328174
2011-06-01T05:07:41Z,1306904861,3240E,56.0813288,26.4452697,3502.74,1.6,-89.3,18.6,-15835.49,30390.19,19.1,Weapon+Missile,Red,Allies,R-73,,xu,,88.5052497783007,74.5233535766602,0.270898118501949,3502.74291992188,3502.74291992188,1.20323913825479,-88.4970703125,0.0461605100972535,NaN,0.199987938897973,0.100384470840548,5000,0.000906902714632452,0.000906902714632452,0.000906902714632452,391.65896191597,3435.01738556519,3826.67634748116,,,107.099999904633,0,26390.5419857825,32445.1690150641
2011-06-01T05:07:42Z,1306904862,3240E,56.0813324,26.4452788,3414.92,1.5,-89.3,18.6,-15835.13,30391.2,19.1,Weapon+Missile,Red,Allies,R-73,,xu,,87.8319213707024,74.2863311767578,0.268549000660298,3414.91748046875,3414.91748046875,1.06705038996713,-87.825439453125,0.0484712147276261,NaN,0.199987938897973,0.101354391053222,5000,0.00158750650007278,0.00158750650007278,0.00158750650007278,385.722320583463,3348.89005098389,3734.61237156735,,,108.099999904633,0,26391.6160556354,32533.0010291173
2011-06-01T05:07:43Z,1306904863,3240E,56.0813353,26.445287,3327.73,1.4,-89.4,18.6,-15834.83,30392.1,19.1,Weapon+Missile,Red,Allies,R-73,,xu,,87.1912471458235,74.0704498291016,0.266307026278526,3327.7314453125,3327.7314453125,0.953337598759995,-87.18603515625,0.0214515380200599,NaN,0.199987938897973,0.0513960362511687,5000,0.000752700609154999,0.000752700609154999,0.000752700609154999,380.115678942204,3263.38975781738,3643.50543675959,,,109.099999904633,0,26392.5710033711,32620.1922994129
2011-06-01T05:07:44Z,1306904864,3240E,56.0813381,26.4452942,3240.83,1.3,-89.5,18.6,-15834.55,30392.9,19.1,Weapon+Missile,Red,Allies,R-73,,xu,,86.901090012673,74.1510238647461,0.26514048158795,3240.83447265625,3240.83447265625,0.845924683196508,-86.89697265625,0.0262412628256602,NaN,0.199987938897973,0.0513960362511687,5000,0.000766773533541709,0.000766773533541709,0.000766773533541709,377.589972269535,3178.17293812744,3555.76291039698,,,110.099999904633,0,26393.4205665158,32707.0934291969
2011-06-01T05:07:45Z,1306904865,3240E,56.0813405,26.4453007,3154.22,1.3,-89.5,18.6,-15834.31,30393.61,19.1,Weapon+Missile,Red,Allies,R-73,,xu,,86.6194992685917,74.2361373901367,0.264003699726866,3154.21826171875,3154.21826171875,0.75475583606244,-86.6162109375,0.029307652477432,NaN,0.0922895160652123,0.101354391053222,5000,0.000881870102602988,0.000881870102602988,0.000881870102602988,375.146882677078,3093.23145162842,3468.3783343055,,,111.099999904633,0,26394.179499137,32793.7129682958
2011-06-01T05:07:46Z,1306904866,3240E,56.0813426,26.4453064,3067.96,1.2,-89.6,18.6,-15834.08,30394.24,19.1,Weapon+Missile,Red,Allies,R-73,,xu,,86.2616249242541,74.2519454956055,0.262638470389423,3067.95922851562,3067.95922851562,0.668674386286396,-86.259033203125,0.0282118112882554,NaN,0,0.0513960362511687,5000,0.000758003036025912,0.000758003036025912,0.000758003036025912,372.053396728635,3008.64023683228,3380.69363356091,,,112.099999904633,0,26394.853653657,32879.9746384442
2011-06-01T05:07:47Z,1306904867,3240E,56.0813446,26.4453114,2982.35,1.1,-89.6,18.6,-15833.89,30394.8,19.1,Weapon+Missile,Red,Allies,R-73,,xu,,85.6128783354251,74.0117263793945,0.260393722030283,2982.34838867188,2982.34838867188,0.59079448548922,-85.61083984375,0.0318503517136783,NaN,0,0.0139882274201861,5000,0.000914369767997414,0.000914369767997414,0.000914369767997414,366.478246843815,2924.6846825769,3291.16292942072,,,113.099999904633,0,26395.4423301909,32965.5875041095
2011-06-01T05:07:48Z,1306904868,3240E,56.0813462,26.445316,2896.69,1,-89.7,18.6,-15833.72,30395.3,19.1,Weapon+Missile,Red,Allies,R-73,,xu,,85.6625337160752,74.3764038085938,0.260275744790177,2896.6875,2896.6875,0.530880968161373,-85.660888671875,0.0357146473089824,NaN,0.199987938897973,0.0504352774299245,5000,0.000789142504800111,0.000789142504800111,0.000789142504800111,366.903484132886,2840.6800471875,3207.58353132039,,,114.099999904633,0,26395.9757324815,33051.2500550207
2011-06-01T05:07:49Z,1306904869,3240E,56.0813477,26.4453199,2811.9,1,-89.7,18.6,-15833.57,30395.74,19.1,Weapon+Missile,Red,Allies,R-73,,xu,,84.7896194379964,73.9310073852539,0.257360753879368,2811.89916992188,2811.89916992188,0.467597052144074,-84.788330078125,0.00740538126987683,NaN,0,0.0504352774299245,5000,0.000392893998650834,0.000392893998650834,0.000392893998650834,359.463978222013,2757.53109947144,3116.99507769345,,,115.099999904633,0,26396.441010269,33136.039662842
2011-06-01T05:07:50Z,1306904870,3240E,56.0813491,26.4453236,2727.07,0.9,-89.7,18.6,-15833.43,30396.14,19.1,Weapon+Missile,Red,Allies,R-73,,xu,,84.8301154602445,74.2830810546875,0.257221480820153,2727.07006835938,2727.07006835938,0.414749439388584,-84.8291015625,0.0299305263676122,NaN,0,0.0395646845203054,5000,0.00120594201143831,0.00120594201143831,0.00120594201143831,359.807424449921,2674.34216858765,3034.14959303757,,,116.099999904633,0,26396.8682598297,33220.8698412751
2011-06-01T05:07:51Z,1306904871,3240E,56.0813503,26.4453266,2643.15,0.8,-89.8,18.6,-15833.31,30396.48,19.1,Weapon+Missile,Red,Allies,R-73,,xu,,83.9202453605626,73.7936401367188,0.254206758601379,2643.15063476562,2643.15063476562,0.369116080946603,-83.91943359375,0.0363402474055747,NaN,0.199987938897973,0.0494558589854351,5000,0.00130869692657143,0.00130869692657143,0.00130869692657143,352.130379068851,2592.04531724243,2944.17569631128,,,117.099999904633,0,26397.2311217955,33304.7900600195
2011-06-01T05:07:52Z,1306904872,3240E,56.0813513,26.4453294,2559.16,0.8,-89.8,18.6,-15833.2,30396.79,19.1,Weapon+Missile,Red,Allies,R-73,,xu,,83.9867075613041,74.1645126342773,0.254152629620747,2559.16455078125,2559.16455078125,0.323641711649675,-83.986083984375,0,NaN,0,0.0139882274201861,5000,0.000689495587721467,0.000689495587721467,0.000689495587721467,352.688352349401,2509.68310419189,2862.3714565413,,,118.099999904633,0,26397.5581020935,33388.7767810318
2011-06-01T05:07:53Z,1306904873,3240E,56.0813522,26.4453319,2475.68,0.7,-89.8,18.6,-15833.11,30397.07,19.1,Weapon+Missile,Red,Allies,R-73,,xu,,83.4851389701311,74.0289688110352,0.252383175715997,2475.67993164062,2475.67993164062,0.29461128098694,-83.484619140625,0.0118427336915744,NaN,0.199987938897973,0,5000,0.00119062885642052,0.00119062885642052,0.00119062885642052,348.488421443105,2427.81266016235,2776.30108160546,,,119.099999904633,0,26397.8471227086,33472.2619008555
2011-06-01T05:07:54Z,1306904874,3240E,56.0813531,26.4453341,2392.97,0.7,-89.8,18.6,-15833.02,30397.3,19.1,Weapon+Missile,Red,Allies,R-73,,xu,,82.7088748713972,73.641487121582,0.24979019514618,2392.97143554688,2392.97143554688,0.2503126097261,-82.70849609375,0.031226236131342,NaN,0,0,5000,0.0017944339197129,0.0017944339197129,0.0017944339197129,342.037899124622,2346.70333284058,2688.7412319652,,,120.099999904633,0,26398.1077058257,33554.9708077614
2011-06-01T05:07:55Z,1306904875,3240E,56.0813537,26.445336,2310.1,0.6,-89.9,18.6,-15832.96,30397.52,19.1,Weapon+Missile,Red,Allies,R-73,,xu,,82.8740894708485,74.0956192016602,0.250042643281589,2310.09765625,2310.09765625,0.226739222563782,-82.873779296875,0.0482765770458078,NaN,0.199987938897973,0.0504352774299245,5000,0.0011267033405602,0.0011267033405602,0.0011267033405602,343.40573528111,2265.43191806641,2608.83765334752,,,121.099999904633,0,26398.3302984178,33637.8448862114
2011-06-01T05:07:56Z,1306904876,3240E,56.0813544,26.4453377,2227.79,0.6,-89.9,18.6,-15832.89,30397.71,19.1,Weapon+Missile,Red,Allies,R-73,,xu,,82.3117735648921,73.8931884765625,0.248103587897536,2227.7861328125,2227.7861328125,0.202920664200255,-82.3115234375,0.0293636996871841,NaN,0,0.0504352774299245,5000,0.00136113585904241,0.00136113585904241,0.00136113585904241,338.761403369904,2184.71188793457,2523.47329130447,,,122.099999904633,0,26398.5309529407,33720.1566543953
2011-06-01T05:07:57Z,1306904877,3240E,56.081355,26.4453393,2145.68,0.6,-89.9,18.6,-15832.83,30397.88,19.1,Weapon+Missile,Red,Allies,R-73,,xu,,82.1039407113231,74.0075302124023,0.247236596417876,2145.68237304688,2145.68237304688,0.172373655185336,-82.103759765625,0.0264174841940802,NaN,0,0.00989117029631303,5000,0.000381241057766601,0.000381241057766601,0.000381241057766601,337.052854016423,2104.19560436401,2441.24845838044,,,123.099999904633,0,26398.7113669004,33802.2606125161
