ISOTime,UnixTime,Id,Longitude,Latitude,Altitude,Roll,Pitch,Yaw,U,V,Heading,Type,Color,Coalition,Name,Group,Country,Pilot,TAS,CAS,M,ASL,AGL,GS,VS,AOA,AOS,RRT,TRT,TRD,G,LatG,LonG,Ek,Ep,Em,FFW,FFV,RelativeTime,Elev,GroundDistance,AirDistance
2011-06-01T04:57:35Z,1306904255,610E,55.5762376,25.9826157,4995.5,-18,8.2,203.7,-66760.89,-20398.5,204.4,Weapon+Missile,Red,Allies,R-27ET,,xu,,365.41481967577,300.489440917969,1.13945456098369,4995.5029296875,4995.5029296875,NaN,NaN,NaN,NaN,NaN,NaN,NaN,NaN,NaN,NaN,NaN,4898.91488054199,NaN,,,0.399999856948853,0,NaN,NaN
2011-06-01T04:57:36Z,1306904256,610E,55.5740455,25.9782345,5065.92,-14,10,205.1,-66985.63,-20881.4,205.7,Weapon+Missile,Red,Allies,R-27ET,,xu,,537.264287298217,434.783416748047,1.67682295894403,5065.92041015625,5065.92041015625,532.629601928483,70.41748046875,1.29497953596666,NaN,4.20000967914049,2.80471378786092,5000,5.07935285568237,5.07935285568237,5.07935285568237,14432.6457203031,4967.97083902588,19400.6165593289,,,1.39999985694885,0,534.775703818002,539.810142868041
2011-06-01T04:57:37Z,1306904257,610E,55.5704995,25.9720773,5199.13,-11.5,9.8,208.5,-67348.09,-21559.52,209.1,Weapon+Missile,Red,Allies,R-27ET,,xu,,780.369695007804,609.498229980469,2.43969907907954,5199.13232421875,5199.13232421875,768.91576056053,133.2119140625,0.111747180664323,NaN,1.81537719647747,2.59922123157236,5000,2.0540874004364,2.0540874004364,2.0540874004364,30448.8430443287,5098.60710072998,35547.4501450587,,,2.39999985694885,0,1306.6005826967,1323.65846513169
2011-06-01T04:57:38Z,1306904258,610E,55.565666,25.9641495,5358.67,-9.9,8.4,209.2,-67841.67,-22432.34,209.8,Weapon+Missile,Red,Allies,R-27ET,,xu,,1015.32166446578,775.712158203125,3.18071713152242,5358.67431640625,5358.67431640625,1002.70854941125,159.5419921875,0.0493514068670507,NaN,1.53846937469411,1.73034155475422,5000,1.98329508304596,1.98329508304596,1.98329508304596,51543.9041166782,5255.06434849853,56798.9684651768,,,3.39999985694885,0,2313.0064639006,2343.45438884968
2011-06-01T04:57:39Z,1306904259,610E,55.5604929,25.9559442,5501.97,-8.5,7.2,210.2,-68369.63,-23335.52,210.8,Weapon+Missile,Red,Allies,R-27ET,,xu,,1055.94155257137,799.672912597656,3.31405492229757,5501.966796875,5501.966796875,1046.17389925765,143.29248046875,0.0343465947741439,NaN,1.33843533201924,1.53736277732686,5000,2.35492467880249,2.35492467880249,2.35492467880249,55750.6281223416,5395.58626885742,61146.2143911991,,,4.39999985694885,0,3362.96039012372,3404.02684965818
2011-06-01T04:57:40Z,1306904260,610E,55.5552239,25.9479352,5620.9,-7.4,5.9,211.3,-68907.02,-24216.81,212,Weapon+Missile,Red,Allies,R-27ET,,xu,,1039.04698940007,782.733520507812,3.26602841340375,5620.90283203125,5620.90283203125,1032.21745079351,118.93603515625,0.0346915704849388,NaN,1.03075409293038,1.7144273207098,5000,2.7381067276001,2.7381067276001,2.7381067276001,53980.9323090673,5512.22267577393,59493.1549848412,,,5.39999985694885,0,4398.82076261061,4447.59023058392
2011-06-01T04:57:41Z,1306904261,610E,55.5497714,25.9400437,5715.22,-6.8,4.4,212.8,-69462.73,-25084.87,213.5,Weapon+Missile,Red,Allies,R-27ET,,xu,,1035.00228196828,776.141418457031,3.25727818578272,5715.22216796875,5715.22216796875,1030.69568086213,94.3193359375,0.071952161977726,NaN,0.569229672976155,2.16335804577328,5000,3.87318301200867,3.87318301200867,3.87318301200867,53561.4861839771,5604.71834735107,59166.2045313282,,,6.39999985694885,0,5433.04317588871,5487.01990804458
2011-06-01T04:57:42Z,1306904262,610E,55.5440808,25.9323538,5779.09,-6.2,2.7,214.8,-70042.1,-25930.32,215.4,Weapon+Missile,Red,Allies,R-27ET,,xu,,1026.90443945388,767.880065917969,3.23446418032886,5779.0869140625,5779.0869140625,1024.91659269253,63.86474609375,0.0369926825636676,NaN,0.569197229577598,2.48850514578692,5000,3.93477845191956,3.93477845191956,3.93477845191956,52726.6363885045,5667.3482685791,58393.9846570836,,,7.39999985694885,0,6461.31376684295,6518.1966388319
2011-06-01T04:57:43Z,1306904263,610E,55.5381399,25.9248731,5814.43,-5.7,1.3,216.6,-70646.36,-26752.31,217.3,Weapon+Missile,Red,Allies,R-27ET,,xu,,1020.80274430048,762.177734375,3.21671771571955,5814.43115234375,5814.43115234375,1020.19068197651,35.34423828125,0.0202834616475602,NaN,0.569196375803951,2.37427193946575,5000,3.6777446269989,3.6777446269989,3.6777446269989,52101.9121385694,5702.00912601318,57803.9212645825,,,8.39999985694885,0,7484.64837567777,7543.07093290762
2011-06-01T04:57:44Z,1306904264,610E,55.5319279,25.9175688,5826.74,-5.3,0.2,218.5,-71277.63,-27554.39,219.2,Weapon+Missile,Red,Allies,R-27ET,,xu,,1020.78228852403,761.692810058594,3.21716659024293,5826.744140625,5826.744140625,1020.70802430663,12.31298828125,0.0664565888219687,NaN,0.569213451276876,2.09534131447101,5000,3.19629335403442,3.19629335403442,3.19629335403442,52099.8240282178,5714.08404266602,57813.9080708838,,,9.39999985694885,0,8508.34390522241,8567.77465090863
2011-06-01T04:57:45Z,1306904265,610E,55.5255476,25.9105211,5824.25,-4.7,-0.4,220.3,-71925.52,-28327.87,220.9,Weapon+Missile,Red,Allies,R-27ET,,xu,,1008.97844220469,753.396667480469,3.17986198972682,5824.25,5824.25,1008.97535950901,-2.494140625,0.0569757305536319,NaN,0.569251017317311,2.08888208995029,5000,3.87477326393127,3.87477326393127,3.87477326393127,50901.8748416901,5711.63812625,56613.5129679401,,,10.3999998569489,0,9520.0919092418,9580.44981047763
2011-06-01T04:57:46Z,1306904266,610E,55.5192896,25.9041307,5816.61,-3.9,-0.4,222.7,-72560.39,-29028.63,223.3,Weapon+Missile,Red,Allies,R-27ET,,xu,,945.614744916678,708.703491210938,2.97987189232573,5816.60546875,5816.60546875,945.583844482234,-7.64453125,0.0849186223308133,NaN,0.830727734218325,2.14777560951214,5000,3.39275479316711,3.39275479316711,3.39275479316711,44709.3622901917,5704.14140201172,50413.5036922034,,,11.3999998569489,0,10468.1013827539,10529.3551920503
2011-06-01T04:57:47Z,1306904267,610E,55.5132592,25.8983907,5808.14,-3.4,-0.6,224.4,-73171.73,-29657.6,225.1,Weapon+Missile,Red,Allies,R-27ET,,xu,,877.15308454439,660.542907714844,2.76382882572376,5808.14453125,5808.14453125,877.112276884983,-8.4609375,0.0483941645784989,NaN,0.569217720145108,1.79891174482269,5000,2.64717125892639,2.64717125892639,2.64717125892639,38469.8766862869,5695.84405673828,44165.7207430252,,,12.3999998569489,0,11347.2707385481,11409.3664070657
2011-06-01T04:57:48Z,1306904268,610E,55.507437,25.89316,5798.55,-2.8,-0.7,226,-73761.62,-30230.35,226.6,Weapon+Missile,Red,Allies,R-27ET,,xu,,822.261960467729,622.105346679688,2.59055003285335,5798.552734375,5798.552734375,822.206013761114,-9.591796875,0.034283539406425,NaN,0.553867296872327,1.68459027965083,5000,2.62505221366882,2.62505221366882,2.62505221366882,33805.7365816116,5686.43771725586,39492.1742988675,,,13.3999998569489,0,12171.2761330907,12234.1773226434
2011-06-01T04:57:49Z,1306904269,610E,55.5018667,25.8884426,5790.67,-2.1,-0.3,227.9,-74325.66,-30746.51,228.6,Weapon+Missile,Red,Allies,R-27ET,,xu,,764.608086481721,581.741821289062,2.4086646253768,5790.669921875,5790.669921875,764.567451033804,-7.8828125,0.0313100033237738,NaN,0.723087794880332,2.00570874199293,5000,3.42604565620422,3.42604565620422,3.42604565620422,29231.2762956619,5678.70731893555,34909.9836145975,,,14.3999998569489,0,12937.4077952647,13001.0455399843
2011-06-01T04:57:50Z,1306904270,610E,55.4964587,25.8842013,5791.3,-1.4,0.4,230.2,-74872.89,-31210.11,230.8,Weapon+Missile,Red,Allies,R-27ET,,xu,,717.204230573228,548.41943359375,2.25935173277065,5791.30224609375,5791.30224609375,717.203951828362,0.63232421875,0.0262614132410253,NaN,0.769238956215285,2.29587737604987,5000,3.39752674102783,3.39752674102783,3.39752674102783,25719.0954176068,5679.32741716553,31398.4228347724,,,15.3999998569489,0,13655.9248159639,13720.2152113061
2011-06-01T04:57:51Z,1306904271,610E,55.4912238,25.8803996,5802.18,-0.6,1.4,232.3,-75402.26,-31625.18,232.9,Weapon+Missile,Red,Allies,R-27ET,,xu,,672.77992541475,516.987121582031,2.11970384652045,5802.17529296875,5802.17529296875,672.692057997365,10.873046875,0.055458446466532,NaN,0.707704181157053,2.24344927086768,5000,3.00002121925354,3.00002121925354,3.00002121925354,22631.6414020538,5689.9902336792,28321.631635733,,,16.3999998569489,0,14329.7066552707,14394.6970596297
2011-06-01T04:57:52Z,1306904272,610E,55.4861661,25.8769869,5820.26,-0.1,1.9,234.3,-75913.41,-31997.35,235,Weapon+Missile,Red,Allies,R-27ET,,xu,,632.542735605618,488.3642578125,1.99339704887995,5820.26220703125,5820.26220703125,632.284094301869,18.0869140625,0.011472964024448,NaN,0.369263131780191,2.13425994580515,5000,2.68619441986084,2.68619441986084,2.68619441986084,20005.515618372,5707.7274372583,25713.2430556303,,,17.3999998569489,0,14962.8995786872,15028.7249300805
2011-06-01T04:57:53Z,1306904273,610E,55.4812435,25.8739061,5842,0.2,2.3,236.4,-76410.61,-32332.9,237.1,Weapon+Missile,Red,Allies,R-27ET,,xu,,600.231513365876,465.231018066406,1.89210451215276,5842.00146484375,5842.00146484375,599.837706640097,21.7392578125,0,NaN,0.307692338146258,2.12890785226021,5000,2.61993813514709,2.61993813514709,2.61993813514709,18013.8934818745,5729.046366521,23742.9398483955,,,18.3999998569489,0,15563.4836132944,15630.2509997674
2011-06-01T04:57:54Z,1306904274,610E,55.4765184,25.8711809,5865.89,0.4,2.6,238.7,-76887.61,-32629.28,239.3,Weapon+Missile,Red,Allies,R-27ET,,xu,,562.085534454426,437.905883789062,1.77240640268701,5865.890625,5865.890625,561.57764919016,23.88916015625,0.0613525679060611,NaN,0.199999998450727,2.282614856229,5000,2.63084435462952,2.63084435462952,2.63084435462952,15797.0074021459,5752.47362976562,21549.4810319115,,,19.3999998569489,0,16125.6468725182,16193.43711239
2011-06-01T04:57:55Z,1306904275,610E,55.4718988,25.8687474,5892.06,0.7,3,241.1,-77353.67,-32893.44,241.7,Weapon+Missile,Red,Allies,R-27ET,,xu,,536.357744606779,419.20703125,1.69185432621826,5892.05908203125,5892.05908203125,535.718995422296,26.16845703125,0.0861295728716802,NaN,0.199999998450727,2.33586407821548,5000,2.42728090286255,2.42728090286255,2.42728090286255,14383.9815099835,5778.13611968018,20162.1176296637,,,20.3999998569489,0,16661.8262198731,16730.7482913321
2011-06-01T04:57:56Z,1306904276,610E,55.4674344,25.8666102,5917.78,0.5,2.8,243.2,-77803.8,-33124.96,243.9,Weapon+Missile,Red,Allies,R-27ET,,xu,,506.830293357161,397.671081542969,1.59924879800437,5917.775390625,5917.775390625,506.177456764736,25.71630859375,0.0354091280390644,NaN,0.199987938897973,2.2556827800014,5000,2.11435079574585,2.11435079574585,2.11435079574585,12843.8473132253,5803.35520344727,18647.2025166725,,,21.3999998569489,0,17168.3540108703,17238.3968117727
2011-06-01T04:57:57Z,1306904277,610E,55.4631006,25.8647248,5940.72,0.4,2.6,245.5,-78240.55,-33328.73,246.2,Weapon+Missile,Red,Allies,R-27ET,,xu,,482.489215505971,379.680633544922,1.52289717975712,5940.7197265625,5940.7197265625,481.943358215417,22.9443359375,0.0579228244972869,NaN,0.169224766876236,2.27171216676637,5000,2.13527464866638,2.13527464866638,2.13527464866638,11639.7921539783,5825.85591064941,17465.6480646278,,,22.3999998569489,0,17650.5286613163,17721.564791299
2011-06-01T04:57:58Z,1306904278,610E,55.4589281,25.863098,5960.56,0.2,2.4,248,-78660.81,-33504.02,248.7,Weapon+Missile,Red,Allies,R-27ET,,xu,,455.789928832285,359.689239501953,1.43899651745059,5960.56005859375,5960.56005859375,455.357903686572,19.84033203125,0.0618663670630699,NaN,0.199987938897973,2.50945739139617,5000,2.23930549621582,2.23930549621582,2.23930549621582,10387.222961247,5845.31262986084,16232.5355911078,,,23.3999998569489,0,18106.0362838223,18177.9288719519
2011-06-01T04:57:59Z,1306904279,610E,55.4548595,25.8617089,5977.58,0,2.1,250.8,-79070.36,-33653.1,251.5,Weapon+Missile,Red,Allies,R-27ET,,xu,,436.16796638969,344.628540039062,1.3773519561719,5977.57666015625,5977.57666015625,435.835898218333,17.0166015625,0.0355119924556836,NaN,0.199987938897973,2.83837539616189,5000,2.37604308128357,2.37604308128357,2.37604308128357,9512.12474522591,5862.00021543213,15374.124960658,,,24.3999998569489,0,18541.9329826627,18614.5652224774
2011-06-01T04:58:00Z,1306904280,610E,55.4509364,25.8605757,5991.61,-0.1,1.8,254,-79465.02,-33773.98,254.7,Weapon+Missile,Red,Allies,R-27ET,,xu,,412.992939675091,326.434753417969,1.30440699069577,5991.61083984375,5991.61083984375,412.754418537189,14.0341796875,0.0462444521654974,NaN,0.0922895160652123,3.20150133616856,5000,2.57400035858154,2.57400035858154,2.57400035858154,8528.15841107369,5875.76304425537,14403.9214553291,,,25.3999998569489,0,18954.6720874775,19027.929906114
2011-06-01T04:58:01Z,1306904281,610E,55.4471374,25.8597014,6002.62,-0.3,1.4,257.7,-79846.88,-33866.33,258.4,Weapon+Missile,Red,Allies,R-27ET,,xu,,393.02899249468,310.308776855469,1.24153027303939,6002.61767578125,6002.61767578125,392.874838216993,11.0068359375,0.129181199769516,NaN,0.215451487178882,3.63212811475176,5000,2.72998070716858,2.72998070716858,2.72998070716858,7723.58944706917,5886.55706302002,13610.1465100892,,,26.3999998569489,0,19347.4672295591,19421.2484189575
2011-06-01T04:58:02Z,1306904282,610E,55.4435142,25.8590955,6011.89,0.2,1.9,261.5,-80210.8,-33929.14,262.2,Weapon+Missile,Red,Allies,R-27ET,,xu,,369.410854050486,290.755279541016,1.16706442509897,6011.89208984375,6011.89208984375,369.294414165861,9.2744140625,0.138286261194767,NaN,0.923094516798523,3.67990400733553,5000,2.83064579963684,2.83064579963684,2.83064579963684,6823.21895451546,5895.65215628662,12718.8711108021,,,27.3999998569489,0,19716.6316626538,19790.876921252
2011-06-01T04:58:03Z,1306904283,610E,55.4400502,25.8587021,6029,2,4.1,263.7,-80558.48,-33968.61,264.4,Weapon+Missile,Red,Allies,R-27ET,,xu,,350.331276241547,274.484222412109,1.10703382897426,6029.001953125,6029.001953125,349.91321165616,17.10986328125,0.0509439014108044,NaN,2.1076924309245,3.09237711134656,5000,2.69704008102417,2.69704008102417,2.69704008102417,6136.60015565157,5912.43120036133,12049.0313560129,,,28.3999998569489,0,20066.3880774903,20141.3813357685
2011-06-01T04:58:04Z,1306904284,610E,55.4367705,25.8584043,6060,3.8,6.5,264.8,-80887.56,-33997.68,265.5,Weapon+Missile,Red,Allies,R-27ET,,xu,,331.818772640926,258.336883544922,1.04895881522766,6060.0029296875,6060.0029296875,330.367427766573,31.0009765625,0.0412229357260614,NaN,1.53846126384447,2.66965798427494,5000,2.33751702308655,2.33751702308655,2.33751702308655,5505.18489384651,5942.83277304199,11448.0176668885,,,29.3999998569489,0,20396.5938134193,20473.3506883307
2011-06-01T04:58:05Z,1306904285,610E,55.4336865,25.8581872,6100.79,4.9,8.3,266.5,-81196.93,-34018.05,267.2,Weapon+Missile,Red,Allies,R-27ET,,xu,,312.709041996372,241.605560302734,0.989074614902117,6100.7919921875,6100.7919921875,310.037412785393,40.7890625,0.21887601345377,NaN,0.969231163981489,1.75279782936305,5000,1.55072247982025,1.55072247982025,1.55072247982025,4889.34724731445,5982.83317901855,10872.180426333,,,30.3999998569489,0,20706.474401853,20786.1971374167
2011-06-01T04:58:06Z,1306904286,610E,55.4307775,25.8579967,6144.45,4,8.5,264.2,-81488.72,-34035.67,264.9,Weapon+Missile,Red,Allies,R-27ET,,xu,,295.562257098709,226.682327270508,0.935373884227531,6144.44775390625,6144.44775390625,292.32041032066,43.65576171875,0.0705251223757552,NaN,1.16921910287946,1.60882715333441,5000,1.98041212558746,1.98041212558746,1.98041212558746,4367.85239106417,6025.64485658447,10393.4972476486,,,31.3999998569489,0,20998.643305294,21081.8869379975
2011-06-01T04:58:07Z,1306904287,610E,55.428041,25.8576724,6186.33,3.5,8.8,260.8,-81763.41,-34068.31,261.5,Weapon+Missile,Red,Allies,R-27ET,,xu,,279.772826360778,213.11555480957,0.885889741879914,6186.333984375,6186.333984375,276.619554744448,41.88623046875,0.0502048278194836,NaN,0.399975877795947,3.35502371158635,5000,1.8781406879425,1.8781406879425,1.8781406879425,3913.64171849489,6066.72121678711,9980.362935282,,,32.3999998569489,0,21275.1389459747,21361.8015083245
2011-06-01T04:58:08Z,1306904288,610E,55.4254384,25.8572386,6228.63,3.4,9.3,259,-82024.81,-34113.23,259.7,Weapon+Missile,Red,Allies,R-27ET,,xu,,268.590367527247,203.494155883789,0.850952000449917,6228.63330078125,6228.63330078125,265.238672444245,42.29931640625,0.0613354917491674,NaN,1.10990574012707e-05,1.87188249770734,5000,1.16021645069122,1.16021645069122,1.16021645069122,3607.03927642107,6108.20267591064,9715.24195233171,,,33.3999998569489,0,21540.2898120672,21630.5600028056
2011-06-01T04:58:09Z,1306904289,610E,55.4229578,25.8567901,6270.04,3.1,9.3,258.3,-82274.03,-34159.93,259,Weapon+Missile,Red,Allies,R-27ET,,xu,,256.913902622548,193.584457397461,0.814400241201627,6270.03759765625,6270.03759765625,253.555590672016,41.404296875,0.0447510180606147,NaN,0.399975877795947,0.614698509085195,5000,1.01842784881592,1.01842784881592,1.01842784881592,3300.23766803741,6148.80642070557,9449.04408874298,,,34.3999998569489,0,21793.7512370521,21887.6260685424
2011-06-01T04:58:10Z,1306904290,610E,55.4205767,25.8563301,6309.64,2.5,9.1,257.6,-82513.27,-34208.01,258.3,Weapon+Missile,Red,Allies,R-27ET,,xu,,247.21881898183,185.391326904297,0.784074738981094,6309.64111328125,6309.64111328125,244.026035514474,39.603515625,0.0401333889840091,NaN,0.769243225083516,0.766955431876679,5000,0.973309695720673,0.973309695720673,0.973309695720673,3055.85722293854,6187.64420235596,9243.50142529449,,,35.3999998569489,0,22037.7084439252,22135.0144221892
2011-06-01T04:58:11Z,1306904291,610E,55.4183199,25.8558659,6346.64,1.9,9,256.8,-82740.09,-34256.72,257.5,Weapon+Missile,Red,Allies,R-27ET,,xu,,234.922797232398,175.232055664062,0.745439008302622,6346.6396484375,6346.6396484375,231.991010721938,36.99853515625,0,NaN,0.569200644672183,0.774572373461713,5000,0.98451966047287,0.98451966047287,0.98451966047287,2759.43603297472,6223.92737083496,8983.36340380968,,,36.3999998569489,0,22269.616782524,22370.0827991618
2011-06-01T04:58:12Z,1306904292,610E,55.4161332,25.8553879,6382.06,1.5,8.9,256,-82959.87,-34307.02,256.7,Weapon+Missile,Red,Allies,R-27ET,,xu,,228.221761607097,169.611633300781,0.72451305747484,6382.060546875,6382.060546875,225.456276082363,35.4208984375,0.0309778065692301,NaN,0.430793691331044,0.778667071869135,5000,0.87304300069809,0.87304300069809,0.87304300069809,2604.25862355232,6258.66340620117,8862.92202975349,,,37.3999998569489,0,22495.0385612108,22598.4926921657
2011-06-01T04:58:13Z,1306904293,610E,55.4140418,25.854907,6414.49,0.2,7.6,255.6,-83170.13,-34357.77,256.3,Weapon+Missile,Red,Allies,R-27ET,,xu,,218.721299534978,161.862747192383,0.694649220952255,6414.4921875,6414.4921875,216.303480223136,32.431640625,0.0423921857013494,NaN,2.12309600160676,1.3468133060882,5000,0.181285828351974,0.181285828351974,0.181285828351974,2391.95034351349,6290.46798105469,8682.41832456818,,,38.3999998569489,0,22711.2830265208,22817.3701596939
2011-06-01T04:58:14Z,1306904294,610E,55.4120163,25.8544376,6437.97,-1.7,5.2,255.6,-83373.77,-34407.31,256.3,Weapon+Missile,Red,Allies,R-27ET,,xu,,210.882990970041,155.549133300781,0.669962162157624,6437.9697265625,6437.9697265625,209.5720426012,23.4775390625,0.024944868154319,NaN,1.73847438906501,2.40782204211227,4992.49928074962,0.104439452290535,0.104439452290535,0.104439452290535,2223.58179402351,6313.49158189941,8537.07337592293,,,39.3999998569489,0,22920.8143316876,23028.42246622
2011-06-01T04:58:15Z,1306904295,610E,55.4100583,25.8539836,6452.04,-3.4,2.8,255.6,-83570.61,-34455.22,256.3,Weapon+Missile,Red,Allies,R-27ET,,xu,,203.079007000001,149.381607055664,0.645288948583084,6452.0361328125,6452.0361328125,202.591261655868,14.06640625,0.0284213557220799,NaN,1.55384071542122,2.38848257492079,4891.24121340935,0.153340563178062,0.153340563178062,0.153340563178062,2062.05415420532,6327.28601418457,8389.34016838989,,,40.3999998569489,0,23123.3599200863,23231.6600873913
2011-06-01T04:58:16Z,1306904296,610E,55.4081619,25.8535437,6457.49,-4.7,0.4,255.6,-83761.25,-34501.64,256.3,Weapon+Missile,Red,Allies,R-27ET,,xu,,196.287065901134,144.097381591797,0.623752219579297,6457.49267578125,6457.49267578125,196.211208596518,5.45654296875,0.0467227224149705,NaN,1.3384438697557,2.36155241968389,4755.71803513119,0.183588817715645,0.183588817715645,0.183588817715645,1926.4306120038,6332.63705489502,8259.06766689882,,,41.3999998569489,0,23319.5453283089,23428.1198286128
2011-06-01T04:58:17Z,1306904297,610E,55.4063116,25.8531144,6454.91,-5.8,-2,255.6,-83947.29,-34546.94,256.3,Weapon+Missile,Red,Allies,R-27ET,,xu,,191.490574383778,140.429443359375,0.608489460856721,6454.9130859375,6454.9130859375,191.473198631212,-2.57958984375,0.0226299857476654,NaN,0.999994336003227,2.37693123093041,4638.78429673072,0.202766790986061,0.202766790986061,0.202766790986061,1833.43200389147,6330.1073414209,8163.53934531237,,,42.3999998569489,0,23510.9711433073,23619.7567748826
2011-06-01T04:58:18Z,1306904298,610E,55.404507,25.8526959,6444.68,-6.9,-4.4,255.6,-84128.73,-34591.11,256.3,Weapon+Missile,Red,Allies,R-27ET,,xu,,187.016358379131,137.074096679688,0.594191858701297,6444.6787109375,6444.6787109375,186.736112923427,-10.234375,0.0460219388606299,NaN,0.969231163981489,2.35771278615329,4552.41286483056,0.223754733800888,0.223754733800888,0.223754733800888,1748.75591506958,6320.07084806152,8068.8267631311,,,43.3999998569489,0,23697.6607735617,23806.9152246145
2011-06-01T04:58:19Z,1306904299,610E,55.4027551,25.85229,6427.25,-7.8,-6.7,255.6,-84304.86,-34633.93,256.3,Weapon+Missile,Red,Allies,R-27ET,,xu,,182.100584107797,133.43913269043,0.578440615867825,6427.25439453125,6427.25439453125,181.265043321032,-17.42431640625,0.0452222525000854,NaN,0.969231163981489,2.30827907859191,4479.7515756034,0.247131660580635,0.247131660580635,0.247131660580635,1658.03113662004,6302.98343081299,7961.01456743303,,,44.3999998569489,0,23878.8856180593,23989.1578237754
2011-06-01T04:58:20Z,1306904300,610E,55.401051,25.8518957,6403.04,-8.4,-9,255.7,-84476.19,-34675.52,256.4,Weapon+Missile,Red,Allies,R-27ET,,xu,,177.958652350541,130.446853637695,0.565103686018168,6403.0419921875,6403.0419921875,176.303832967877,-24.21240234375,0.066015150923969,NaN,0.646190536996566,2.35440782836865,4397.23378373975,0.259136855602264,0.259136855602264,0.259136855602264,1583.46409732103,6279.23917526855,7862.70327258959,,,45.3999998569489,0,24055.147169084,24167.250224121
2011-06-01T04:58:21Z,1306904301,610E,55.3993857,25.8515113,6372.24,-9.1,-11.4,255.7,-84643.62,-34716.08,256.4,Weapon+Missile,Red,Allies,R-27ET,,xu,,175.012471097992,128.411819458008,0.555523008750403,6372.2353515625,6372.2353515625,172.279760660466,-30.806640625,0.0667504691944693,NaN,0.584609551439731,2.35775440761854,4342.43046131591,0.26501727104187,0.26501727104187,0.26501727104187,1531.46825199127,6249.02818104004,7780.49643303131,,,46.3999998569489,0,24227.3811355251,24342.3874146833
2011-06-01T04:58:22Z,1306904302,610E,55.3977502,25.8511348,6334.9,-9.6,-13.6,255.7,-84808.05,-34755.78,256.5,Weapon+Missile,Red,Allies,R-27ET,,xu,,173.217118441547,127.296211242676,0.549554521955099,6334.900390625,6334.900390625,169.14570882227,-37.3349609375,0.0249790378311573,NaN,0.523028565882896,2.26214264485236,4350.58207735651,0.273713618516922,0.273713618516922,0.273713618516922,1500.20850605965,6212.41509157227,7712.62359763191,,,47.3999998569489,0,24396.4969923987,24515.7398901186
2011-06-01T04:58:23Z,1306904303,610E,55.3961499,25.8507679,6291.4,-10,-15.9,255.8,-84968.94,-34794.47,256.5,Weapon+Missile,Red,Allies,R-27ET,,xu,,171.099088870844,125.972267150879,0.542524910725438,6291.40234375,6291.40234375,165.477545698784,-43.498046875,0.0353122366683718,NaN,0.399975877795947,2.25845967878584,4344.38548435606,0.278809517621994,0.278809517621994,0.278809517621994,1463.74491062164,6169.75807943359,7633.50299005524,,,48.3999998569489,0,24561.9396025,24686.9635709825
2011-06-01T04:58:24Z,1306904304,610E,55.3945823,25.8504101,6241.91,-10.3,-18.1,255.9,-85126.54,-34832.18,256.6,Weapon+Missile,Red,Allies,R-27ET,,xu,,169.439937044247,125.034568786621,0.536915507380699,6241.90966796875,6241.90966796875,162.050508513767,-49.49267578125,0,NaN,0.199987938897973,2.25822126249512,4360.70508978611,0.282757252454758,0.282757252454758,0.282757252454758,1435.49461327791,6121.22234453857,7556.71695781649,,,49.3999998569489,0,24723.9536195201,24856.520851902
2011-06-01T04:58:25Z,1306904305,610E,55.3930453,25.8500612,6186.57,-10.6,-20.3,255.9,-85281.06,-34868.95,256.7,Weapon+Missile,Red,Allies,R-27ET,,xu,,168.201374027478,124.453308105469,0.532604733464774,6186.56982421875,6186.56982421875,158.837035726738,-55.33984375,0.0424718209944679,NaN,0.199987938897973,2.18255685375654,4437.80274717993,0.291408956050873,0.291408956050873,0.291408956050873,1414.58511123657,6066.95249666748,7481.53760790405,,,50.3999998569489,0,24882.7589569371,25024.838407758
2011-06-01T04:58:26Z,1306904306,610E,55.391541,25.8497218,6125.74,-10.8,-22.5,256,-85432.29,-34904.7,256.7,Weapon+Missile,Red,Allies,R-27ET,,xu,,166.877593277487,123.838676452637,0.52799294398717,6125.7373046875,6125.7373046875,155.394773739552,-60.83251953125,0.0659160953272661,NaN,0.199987938897973,2.15973377664495,4493.34137574759,0.292939156293869,0.292939156293869,0.292939156293869,1392.40655690432,6007.29617390137,7399.70273080568,,,51.3999998569489,0,25038.1155627311,25191.8200959879
2011-06-01T04:58:27Z,1306904307,610E,55.3900559,25.8493891,6059.04,-11,-24.6,256.1,-85581.59,-34939.73,256.8,Weapon+Missile,Red,Allies,R-27ET,,xu,,167.235563493348,124.553100585938,0.528665127073841,6059.0390625,6059.0390625,153.359310724961,-66.6982421875,0.0783996288965083,NaN,0.199987938897973,2.13662169715409,4579.55243963272,0.289199769496918,0.289199769496918,0.289199769496918,1398.38668484688,5941.88754222656,7340.27422707344,,,52.3999998569489,0,25191.4369848012,25359.1552208469
2011-06-01T04:58:28Z,1306904308,610E,55.388598,25.8490651,5986.96,-11.1,-26.6,256.2,-85728.16,-34973.82,257,Weapon+Missile,Red,Allies,R-27ET,,xu,,166.849495745415,124.730026245117,0.526949615027665,5986.958984375,5986.958984375,150.476631301984,-72.080078125,0.0346838199618928,NaN,0.153870501622047,2.05973212323314,4734.04457712457,0.297362387180328,0.297362387180328,0.297362387180328,1391.93771152496,5871.20113241211,7263.13884393707,,,53.3999998569489,0,25341.881923244,25526.104267556
2011-06-01T04:58:29Z,1306904309,610E,55.3871684,25.84875,5909.81,-11.1,-28.6,256.4,-85871.88,-35006.96,257.1,Weapon+Missile,Red,Allies,R-27ET,,xu,,166.453713570258,124.93212890625,0.525172558029334,5909.8115234375,5909.8115234375,147.496128872003,-77.1474609375,0.0407398942306223,NaN,0,1.96038232600025,4866.08030665977,0.300015866756439,0.300015866756439,0.300015866756439,1385.34193806648,5795.54531763184,7180.88725569832,,,54.3999998569489,0,25489.3331768082,25692.640076544
2011-06-01T04:58:30Z,1306904310,610E,55.3857658,25.8484439,5827.75,-11.1,-30.5,256.5,-86012.89,-35039.14,257.2,Weapon+Missile,Red,Allies,R-27ET,,xu,,166.290708402267,125.346351623535,0.52409991124712,5827.7529296875,5827.7529296875,144.633975582158,-82.05859375,0.0250599767866529,NaN,0,1.91219299352829,5000,0.297576546669006,0.297576546669006,0.297576546669006,1382.62998504639,5715.07332679199,7097.70331183838,,,55.3999998569489,0,25633.9254128485,25859.0102055623
2011-06-01T04:58:31Z,1306904311,610E,55.3843759,25.8481436,5740.08,-11.1,-32.4,256.6,-86152.6,-35070.7,257.3,Weapon+Missile,Red,Allies,R-27ET,,xu,,167.930860615315,127.208068847656,0.528668761861097,5740.08349609375,5740.08349609375,143.230040006807,-87.66943359375,0.0405994665076788,NaN,0,1.87661005583005,5000,0.294829577207565,0.294829577207565,0.294829577207565,1410.03869735003,5629.09898169678,7039.1376790468,,,56.3999998569489,0,25777.1221484927,26027.0234235131
2011-06-01T04:58:32Z,1306904312,610E,55.3830092,25.8478515,5647.57,-11,-34.2,256.8,-86289.98,-35101.36,257.5,Weapon+Missile,Red,Allies,R-27ET,,xu,,168.435631652123,128.22248840332,0.529624575605203,5647.5732421875,5647.5732421875,140.756580422554,-92.51025390625,0,NaN,0,1.79288815830497,5000,0.296807676553726,0.296807676553726,0.296807676553726,1418.52810050249,5538.37741354981,6956.9055140523,,,57.3999998569489,0,25917.8460309121,26195.5367197292
2011-06-01T04:58:33Z,1306904313,610E,55.3816621,25.8475669,5550.16,-10.9,-35.9,256.9,-86425.4,-35131.23,257.6,Weapon+Missile,Red,Allies,R-27ET,,xu,,169.469382657533,129.692779541016,0.532206629079294,5550.1630859375,5550.1630859375,138.676361063001,-97.41015625,0.0146149348725726,NaN,0,1.74279992652203,5000,0.293429583311081,0.293429583311081,0.293429583311081,1435.99358291626,5442.8506826709,6878.84426558716,,,58.3999998569489,0,26056.4720643244,26365.0645021254
2011-06-01T04:58:34Z,1306904314,610E,55.38034,25.8472909,5448.41,-10.7,-37.7,257.1,-86558.29,-35160.17,257.8,Weapon+Missile,Red,Allies,R-27ET,,xu,,169.856941706107,130.688705444336,0.532726565884327,5448.4091796875,5448.4091796875,136.005599916394,-101.75390625,0.0410590996910951,NaN,0.184604645339812,1.69273506679266,5000,0.289635449647903,0.289635449647903,0.289635449647903,1442.5690322876,5343.06418819824,6785.63322048584,,,59.3999998569489,0,26192.4453668942,26534.9894635074
2011-06-01T04:58:35Z,1306904315,610E,55.3790273,25.8470203,5341.22,-10.6,-39.3,257.2,-86690.23,-35188.52,258,Weapon+Missile,Red,Allies,R-27ET,,xu,,172.337311695157,133.398025512695,0.539763689613392,5341.22216796875,5341.22216796875,134.948484693672,-107.18701171875,0.0657453912991802,NaN,0.200042580411333,1.64412503735651,5000,0.288088351488113,0.288088351488113,0.288088351488113,1485.00745011568,5237.94963735107,6722.95708746675,,,60.3999998569489,0,26327.3559023756,26707.3864203171
2011-06-01T04:58:36Z,1306904316,610E,55.3777382,25.8467581,5229.9,-10.4,-40.9,257.4,-86819.8,-35215.98,258.1,Weapon+Missile,Red,Allies,R-27ET,,xu,,173.019543040741,134.714553833008,0.541129862300851,5229.896484375,5229.896484375,132.447553568992,-111.32568359375,0.043792170600509,NaN,0.199987938897973,1.59268357434426,5000,0.287359356880188,0.287359356880188,0.287359356880188,1496.78811370134,5128.77643584961,6625.56454955095,,,61.3999998569489,0,26459.7625263553,26880.4586325738
2011-06-01T04:58:37Z,1306904317,610E,55.3764731,25.8465042,5114.66,-10.3,-42.4,257.6,-86946.95,-35242.53,258.3,Weapon+Missile,Red,Allies,R-27ET,,xu,,173.647306911835,136.022171020508,0.542296144239495,5114.65966796875,5114.65966796875,129.899435496407,-115.23681640625,0.0773184595834858,NaN,0.169221351781651,1.49442383261422,5000,0.281602084636688,0.281602084636688,0.281602084636688,1507.66935988665,5015.76772328857,6523.43708317522,,,62.3999998569489,0,26589.6172632151,27054.1512810492
2011-06-01T04:58:38Z,1306904318,610E,55.3752206,25.8462564,4994.59,-10.1,-43.8,257.7,-87072.83,-35268.43,258.5,Weapon+Missile,Red,Allies,R-27ET,,xu,,175.876976664293,138.673843383789,0.548421911834584,4994.5869140625,4994.5869140625,128.511651961763,-120.07275390625,0.0633168767026748,NaN,0.200042580411333,1.44429771462573,5000,0.278741896152496,0.278741896152496,0.278741896152496,1546.63554602861,4898.0165760791,6444.65212210772,,,63.3999998569489,0,26718.0955980368,27230.0783169084
2011-06-01T04:58:39Z,1306904319,610E,55.373986,25.8460155,4870.3,-9.9,-45.2,257.9,-87196.91,-35293.57,258.6,Weapon+Missile,Red,Allies,R-27ET,,xu,,177.414444508873,140.813034057617,0.55234568931582,4870.2958984375,4870.2958984375,126.600270755231,-124.291015625,0.0201833744565097,NaN,0.169219644234358,1.39265091905156,5000,0.276315152645111,0.276315152645111,0.276315152645111,1573.79425601959,4776.12872724121,6349.9229832608,,,64.3999998569489,0,26844.6582108434,27407.5357366875
2011-06-01T04:58:40Z,1306904320,610E,55.3727727,25.8457823,4742.29,-9.6,-46.5,258.1,-87318.84,-35317.89,258.8,Weapon+Missile,Red,Allies,R-27ET,,xu,,178.45083743153,142.583679199219,0.554674954928314,4742.28662109375,4742.28662109375,124.331517701447,-128.00927734375,0.0117617066848734,NaN,0.353866978256483,1.3439762162617,5000,0.26926788687706,0.26926788687706,0.26926788687706,1592.23506900072,4650.5945092749,6242.82957827562,,,65.3999998569489,0,26968.9436422154,27586.0197205802
2011-06-01T04:58:41Z,1306904321,610E,55.3715774,25.8455561,4610.3,-9.4,-47.9,258.3,-87438.95,-35341.47,259,Weapon+Missile,Red,Allies,R-27ET,,xu,,180.015961726102,144.834594726562,0.558611002966482,4610.29541015625,4610.29541015625,122.409422478116,-131.9912109375,0.0596552733509789,NaN,0.199987938897973,1.29570278708558,5000,0.268835216760635,0.268835216760635,0.268835216760635,1620.28732380867,4521.15534840088,6141.44267220955,,,66.3999998569489,0,27091.3203445138,27766.0744489895
2011-06-01T04:58:42Z,1306904322,610E,55.3704024,25.8453372,4474.76,-9.2,-49.1,258.4,-87557.03,-35364.27,259.2,Weapon+Missile,Red,Allies,R-27ET,,xu,,181.193852482022,146.806777954102,0.561311007315174,4474.76220703125,4474.76220703125,120.257902143494,-135.533203125,0.0607340963236773,NaN,0.200042580411333,1.24343775266982,5000,0.262700825929642,0.262700825929642,0.262700825929642,1641.56060886383,4388.2426797583,6029.80328862213,,,67.3999998569489,0,27211.5278159591,27947.2916532047
2011-06-01T04:58:43Z,1306904323,610E,55.369246,25.845125,4335.6,-9,-50.2,258.6,-87673.23,-35386.34,259.3,Weapon+Missile,Red,Allies,R-27ET,,xu,,182.63722960917,149.044387817383,0.564798940549891,4335.60009765625,4335.60009765625,118.280450428688,-139.162109375,0.0184764125894349,NaN,0.199987938897973,1.19249532035381,5000,0.259532660245895,0.259532660245895,0.259532660245895,1667.81788196564,4251.77126976807,5919.5891517337,,,68.3999998569489,0,27329.7684001112,28129.955955553
2011-06-01T04:58:44Z,1306904324,610E,55.3681084,25.8449196,4192.96,-8.7,-51.4,258.8,-87787.55,-35407.67,259.5,Weapon+Missile,Red,Allies,R-27ET,,xu,,184.032071718547,151.285629272461,0.568102099922554,4192.96337890625,4192.96337890625,116.286585147445,-142.63671875,0,NaN,0.369263932192984,1.15979525609384,5000,0.251169085502625,0.251169085502625,0.251169085502625,1693.39017105103,4111.8924319751,5805.28260302612,,,69.3999998569489,0,27446.0077518776,28314.0072896177
2011-06-01T04:58:45Z,1306904325,610E,55.366984,25.8447198,4046.21,-8.5,-52.5,259,-87900.52,-35428.39,259.7,Weapon+Missile,Red,Allies,R-27ET,,xu,,186.35982525911,154.370986938477,0.57424082587157,4046.208984375,4046.208984375,114.861360589069,-146.75439453125,0.012408641077472,NaN,0.261522820677911,1.12605967112268,5000,0.248748913407326,0.248748913407326,0.248748913407326,1736.49922353029,3967.97553366211,5704.4747571924,,,70.3999998569489,0,27560.8329755644,28500.39055538
2011-06-01T04:58:46Z,1306904326,610E,55.3658906,25.8445288,3897.84,-8.3,-53.6,259.1,-88010.38,-35448.2,259.9,Weapon+Missile,Red,Allies,R-27ET,,xu,,185.671214994403,154.911514282227,0.571070129920477,3897.83764648438,3897.83764648438,111.623233110513,-148.371337890625,0.0479374358682768,NaN,0.200042580411333,1.07602074476782,5000,0.246587693691254,0.246587693691254,0.246587693691254,1723.6900038749,3822.4729555896,5546.1629594645,,,71.3999998569489,0,27672.424146854,28686.0842765883
2011-06-01T04:58:47Z,1306904327,610E,55.3648109,25.8443431,3745.66,-8.1,-54.6,259.3,-88118.86,-35467.42,260,Weapon+Missile,Red,Allies,R-27ET,,xu,,187.869885657388,157.969085693359,0.576750174080874,3745.66381835938,3745.66381835938,110.173590168893,-152.173828125,0.0316143142515716,NaN,0.199987938897973,1.06132377849953,5000,0.237033769488335,0.237033769488335,0.237033769488335,1764.75469684601,3673.2414084314,5437.99610527741,,,72.3999998569489,0,27782.546688242,28873.962921717
2011-06-01T04:58:48Z,1306904328,610E,55.3637476,25.8441634,3590.1,-7.9,-55.7,259.5,-88225.69,-35486,260.2,Weapon+Missile,Red,Allies,R-27ET,,xu,,189.622354872479,160.694381713867,0.581019640191646,3590.10229492188,3590.10229492188,108.430853050174,-155.5615234375,0.0440452769445241,NaN,0.200042580411333,1.02291805168338,5000,0.232099905610085,0.232099905610085,0.232099905610085,1797.83187336922,3520.68766704956,5318.51954041878,,,73.3999998569489,0,27890.9326843076,29063.5952684467
2011-06-01T04:58:49Z,1306904329,610E,55.3627036,25.8439898,3431.71,-7.7,-56.6,259.7,-88330.56,-35503.91,260.4,Weapon+Missile,Red,Allies,R-27ET,,xu,,190.807459645184,162.969390869141,0.583519668899484,3431.71142578125,3431.71142578125,106.394639099562,-158.390869140625,0.0401511198065917,NaN,0.199987938897973,0.987086559132372,5000,0.230921298265457,0.230921298265457,0.230921298265457,1820.37433281243,3365.35928536377,5185.7336181762,,,74.3999998569489,0,27997.296857486,29254.4183887972
2011-06-01T04:58:50Z,1306904330,610E,55.3616849,25.8438234,3271.57,-7.5,-57.5,259.8,-88432.91,-35521.09,260.6,Weapon+Missile,Red,Allies,R-27ET,,xu,,190.826054763528,164.247467041016,0.582439333895712,3271.56982421875,3271.56982421875,103.775000002941,-160.1416015625,0.0301936185713484,NaN,0.199987938897973,0.925168759872091,5000,0.225885435938835,0.225885435938835,0.225885435938835,1820.72915883064,3208.31402166748,5029.04318049812,,,75.3999998569489,0,28101.0273689504,29445.2498931977
2011-06-01T04:58:51Z,1306904331,610E,55.3606815,25.8436622,3108.23,-7.3,-58.5,260,-88533.71,-35537.68,260.7,Weapon+Missile,Red,Allies,R-27ET,,xu,,192.654497567751,167.161804199219,0.586855987995393,3108.23291015625,3108.23291015625,102.160696638297,-163.3369140625,0.0497587234228179,NaN,0.199987938897973,0.872982112549227,5000,0.221014454960823,0.221014454960823,0.221014454960823,1855.78777165413,3048.13522683838,4903.92299849251,,,76.3999998569489,0,28203.1482313912,29637.910351108
2011-06-01T04:58:52Z,1306904332,610E,55.3596936,25.8435061,2941.85,-7.1,-59.3,260.2,-88632.95,-35553.73,260.9,Weapon+Missile,Red,Allies,R-27ET,,xu,,194.392431242331,170.046508789062,0.590960658060297,2941.8544921875,2941.8544921875,100.531782827723,-166.37841796875,0.0462309920253716,NaN,0.199987938897973,0.873038141444762,5000,0.21466962993145,0.21466962993145,0.21466962993145,1889.42086621523,2884.97373558105,4774.39460179628,,,77.3999998569489,0,28303.6341975776,29832.3037350491
2011-06-01T04:58:53Z,1306904333,610E,55.3587214,25.8433553,2772.56,-6.9,-60.1,260.3,-88730.6,-35569.23,261.1,Weapon+Missile,Red,Allies,R-27ET,,xu,,196.0523510575,172.910003662109,0.594793732584878,2772.55908203125,2772.55908203125,98.8715755675017,-169.29541015625,0.0318539335260037,NaN,0.199987938897973,0.868824981943922,5000,0.211187914013863,0.211187914013863,0.211187914013863,1921.82621775866,2718.95165218018,4640.77786993883,,,78.3999998569489,0,28402.4656746585,30028.3581916064
2011-06-01T04:58:54Z,1306904334,610E,55.357769,25.84321,2601.13,-6.7,-61,260.5,-88826.27,-35584.12,261.2,Weapon+Missile,Red,Allies,R-27ET,,xu,,196.881878043631,175.062591552734,0.596084315436828,2601.130859375,2601.130859375,96.823749043849,-171.42822265625,0.0390943546227402,NaN,0.199987938897973,0.822602637231213,5000,0.206862360239029,0.206862360239029,0.206862360239029,1938.12369509935,2550.83799420898,4488.96168930834,,,79.3999998569489,0,28499.2473196078,30225.2394136088
2011-06-01T04:58:55Z,1306904335,610E,55.3568352,25.84307,2427.52,-6.5,-61.7,260.7,-88920.08,-35598.46,261.4,Weapon+Missile,Red,Allies,R-27ET,,xu,,197.852015190096,177.376281738281,0.59778142449353,2427.52075195312,2427.52075195312,94.8944177270037,-173.610107421875,0.0183171055210465,NaN,0.200042580411333,0.779043959573103,5000,0.202549859881401,0.202549859881401,0.202549859881401,1957.2709957391,2380.58463821411,4337.85563395321,,,80.3999998569489,0,28594.0887009299,30423.0839236579
2011-06-01T04:58:56Z,1306904336,610E,55.3559215,25.8429354,2252.17,-6.4,-62.5,260.8,-89011.84,-35612.23,261.5,Weapon+Missile,Red,Allies,R-27ET,,xu,,198.385254502341,179.318893432617,0.598144458545829,2252.17456054688,2252.17456054688,92.7923615567642,-175.34619140625,0.0318176138575131,NaN,0.0307674408899687,0.772611842365655,5000,0.199077874422073,0.199077874422073,0.199077874422073,1967.83546019793,2208.6287654187,4176.46422561663,,,81.3999998569489,0,28686.8508568262,30621.4709670724
2011-06-01T04:58:57Z,1306904337,610E,55.3550228,25.8428053,2074.22,-6.2,-63.2,261,-89102.1,-35625.52,261.7,Weapon+Missile,Red,Allies,R-27ET,,xu,,199.977920336412,182.276473999023,0.601677639338754,2074.21923828125,2074.21923828125,91.2308714165006,-177.955322265625,0.0214851749176853,NaN,0.199987938897973,0.722480975261258,5000,0.194097921252251,0.194097921252251,0.194097921252251,1999.55843110383,2034.11420930908,4033.67264041291,,,82.3999998569489,0,28778.0472768905,30821.4472809732
2011-06-01T04:58:58Z,1306904338,610E,55.3541378,25.8426794,1893.47,-6,-64,261.1,-89190.98,-35638.35,261.9,Weapon+Missile,Red,Allies,R-27ET,,xu,,201.83332176219,185.527908325195,0.605967543015437,1893.46533203125,1893.46533203125,89.8037591024217,-180.75390625,0.0204139940469819,NaN,0.199987938897973,0.703404363631119,5000,0.189532995223999,0.189532995223999,0.189532995223999,2036.83448867798,1856.85517983643,3893.6896685144,,,83.3999998569489,0,28867.8082436999,31023.2739854729
2011-06-01T04:58:59Z,1306904339,610E,55.3532763,25.842559,1712.06,-5.9,-64.6,261.3,-89277.5,-35650.61,262,Weapon+Missile,Red,Allies,R-27ET,,xu,,201.349054919751,186.614044189453,0.603227869078665,1712.06457519531,1712.06457519531,87.3796734740167,-181.400756835938,0,NaN,0.0461507344481299,0.718270377081357,5000,0.184888854622841,0.184888854622841,0.184888854622841,2027.07209585384,1678.96180663391,3706.03390248775,,,84.3999998569489,0,28955.1510905968,31224.6177725642
2011-06-01T04:59:00Z,1306904340,610E,55.3524265,25.8424423,1527.6,-5.7,-65.3,261.4,-89362.85,-35662.47,262.2,Weapon+Missile,Red,Allies,R-27ET,,xu,,203.599871977854,190.313980102539,0.608657548681087,1527.59997558594,1527.59997558594,86.1726137490999,-184.464599609375,0.0114697121837339,NaN,0.199987938897973,0.653280860324421,5000,0.180502101778984,0.180502101778984,0.180502101778984,2072.64539346993,1498.06383005798,3570.70922352791,,,85.3999998569489,0,29041.2853932216,31428.210688669
2011-06-01T04:59:01Z,1306904341,610E,55.3515982,25.8423305,1342.38,-5.5,-66,261.6,-89446.02,-35673.8,262.3,Weapon+Missile,Red,Allies,R-27ET,,xu,,203.35482274671,191.675140380859,0.606616050314679,1342.37768554688,1342.37768554688,83.9397832200635,-185.222290039062,0.0225157049685779,NaN,0.123069763559875,0.625975845095973,5000,0.175981417298317,0.175981417298317,0.175981417298317,2067.65919671729,1316.42281299683,3384.08200971412,,,86.3999998569489,0,29125.1886920572,31631.5582441694
2011-06-01T04:59:02Z,1306904342,610E,55.3507858,25.8422228,1155.21,-5.4,-66.6,261.7,-89527.61,-35684.72,262.4,Weapon+Missile,Red,Allies,R-27ET,,xu,,204.472396219314,194.362503051758,0.608628439173271,1155.20532226562,1155.20532226562,82.3132263939392,-187.17236328125,0.0307242270261149,NaN,0.199987938897973,0.660653035677245,5000,0.173016965389252,0.173016965389252,0.173016965389252,2090.44804078341,1132.86942735962,3223.31746814302,,,87.3999998569489,0,29207.463014442,31836.021464878
2011-06-01T04:59:03Z,1306904343,610E,55.3499938,25.8421195,967.32,-5.3,-67.2,261.9,-89607.14,-35695.15,262.6,Weapon+Missile,Red,Allies,R-27ET,,xu,,204.291188450558,195.82014465332,0.606772413833585,967.320007324219,967.320007324219,80.2122067263466,-187.885314941406,0.0103544934419966,NaN,0,0.62205595684262,5000,0.168281570076942,0.168281570076942,0.168281570076942,2086.74448392708,948.616874982605,3035.36135890968,,,88.3999998569489,0,29287.6408244577,32040.3043869375
2011-06-01T04:59:04Z,1306904344,610E,55.3492187,25.8420203,777.98,-5.1,-67.8,262,-89684.98,-35705.17,262.7,Weapon+Missile,Red,Allies,R-27ET,,xu,,204.956317648596,198.116668701172,0.607425446665091,777.983825683594,777.983825683594,78.4786752297738,-189.336181640625,0.0258205275448487,NaN,0.199987938897973,0.595127188987905,5000,0.164634361863136,0.164634361863136,0.164634361863136,2100.3546072036,762.941508414001,2863.2961156176,,,89.3999998569489,0,29366.0797895702,32245.2496104671
2011-06-01T04:59:05Z,1306904345,610E,55.3484618,25.8419251,587.67,-5,-68.4,262.1,-89760.98,-35714.76,262.9,Weapon+Missile,Red,Allies,R-27ET,,xu,,205.15484074039,199.977767944336,0.60669183414612,587.666870117188,587.666870117188,76.6026442307928,-190.316955566406,0.0382694052525937,NaN,0.199987938897973,0.570876548978922,5000,0.158891052007675,0.158891052007675,0.158891052007675,2104.42543396074,576.304331183472,2680.72976514421,,,90.3999998569489,0,29442.6453070581,32450.3936508583
2011-06-01T04:59:06Z,1306904346,610E,55.3477176,25.8418331,395.07,-4.9,-68.9,262.3,-89835.7,-35724.01,263,Weapon+Missile,Red,Allies,R-27ET,,xu,,206.79387917017,203.287506103516,0.61019914331627,395.065399169922,395.065399169922,75.2886568561048,-192.601470947266,0.0208955718310377,NaN,0,0.548767813604972,5000,0.155068144202232,0.155068144202232,0.155068144202232,2138.18542311233,387.426809676971,2525.61223278931,,,91.3999998569489,0,29517.9059369257,32657.1794380286
2011-06-01T04:59:07Z,1306904347,610E,55.346997,25.8417457,203.09,-4.7,-69.5,262.4,-89908.05,-35732.79,263.2,Weapon+Missile,Red,Allies,R-27ET,,xu,,205.341028247457,203.547576904297,0.604594835485698,203.093841552734,203.093841552734,72.8825009707674,-191.971557617188,0.00346519924601609,NaN,0.15387903935851,0.571390467353112,5000,0.15507647395134,0.15507647395134,0.15507647395134,2108.24689408615,199.167022126312,2307.41391621246,,,92.3999998569489,0,29590.7520807276,32862.508776592
2011-06-01T04:59:08Z,1306904348,610E,55.346295,25.841662,10.68,-4.6,-70,262.5,-89978.54,-35741.18,263.3,Weapon+Missile,Red,Allies,R-27ET,,xu,,205.088892492091,204.997329711914,0.602542348249587,10.6830759048462,10.6830759048462,70.989795649979,-192.410765647888,0.0311352354548773,NaN,0.199987938897973,0.533489427483594,5000,0.152666881680489,0.152666881680489,0.152666881680489,2103.07269118162,10.476518632226,2113.54920981384,,,93.3999998569489,0,29661.6959853772,33067.5822001217
