ISOTime,UnixTime,Id,Longitude,Latitude,Altitude,Roll,Pitch,Yaw,U,V,Heading,Type,Color,Coalition,Name,Group,Country,Pilot,TAS,CAS,M,ASL,AGL,GS,VS,AOA,AOS,RRT,TRT,TRD,G,LatG,LonG,Ek,Ep,Em,FFW,FFV,RelativeTime,Elev,GroundDistance,AirDistance
2011-06-01T04:58:22Z,1306904302,710A,55.6473284,26.0062169,3337.18,19.6,7.7,251.6,-59616.89,-17859.93,252.2,Weapon+Missile,Red,Allies,R-27ER,,xu,,243.611835063217,210.596313476562,0.744145870877031,3337.17993164062,3337.17993164062,NaN,NaN,9.61461795946891,NaN,5.81538698388894,1.1836923052865,NaN,NaN,NaN,NaN,NaN,3272.65555766235,NaN,,,0.519999980926514,0,NaN,NaN
2011-06-01T04:58:23Z,1306904303,710A,55.6444763,26.0052863,3323.62,15.5,5.9,251.5,-59903.41,-17960.04,252.1,Weapon+Missile,Red,Allies,R-27ER,,xu,,303.812375106209,265.355926513672,0.927883463573359,3323.615234375,3323.615234375,303.509403900057,-13.564697265625,6.62717980946271,NaN,3.47694877813001,2.30030974193439,3253.1899953623,3.11806654930115,3.11806654930115,3.11806654930115,4615.09796338379,3259.35313381836,7874.45109720215,,,1.51999998092651,0,303.566824106296,304.028090089353
2011-06-01T04:58:24Z,1306904304,710A,55.6395284,26.0035422,3347.66,11.9,4.4,246.1,-60400.67,-18148.09,246.7,Weapon+Missile,Red,Allies,R-27ER,,xu,,532.166054482496,462.657196044922,1.62578200097232,3347.66455078125,3347.66455078125,531.62236589882,24.04931640625,0.282302882187563,NaN,3.44613096459491,4.79867362545799,4587.76786754639,8.13327884674072,8.13327884674072,8.13327884674072,14160.0354771733,3282.93745669189,17442.9729338652,,,2.51999998092651,0,835.315830577463,836.59846620504
2011-06-01T04:58:25Z,1306904305,710A,55.6326696,26.0002633,3397.64,8.8,3,237.9,-61090.99,-18504.1,238.5,Weapon+Missile,Red,Allies,R-27ER,,xu,,778.324006456864,660.59033203125,2.37925000355427,3397.64233398438,3397.64233398438,776.717760974452,49.977783203125,0.245924521656914,NaN,3.01539191477723,8.44095609707144,4696.04630543939,14.5239601135254,14.5239601135254,14.5239601135254,30289.4129513532,3331.94891945679,33621.36187081,,,3.51999998092651,0,1612.58880831936,1615.88670697568
2011-06-01T04:58:26Z,1306904306,710A,55.6251855,25.9951197,3431.71,6,0.9,227.8,-61846.1,-19065.95,228.4,Weapon+Missile,Red,Allies,R-27ER,,xu,,941.819734086275,792.318542480469,2.88023511747813,3431.71240234375,3431.71240234375,941.203294701166,34.070068359375,0.66211654686466,NaN,2.92310239871202,8.37524626216134,5000,11.2686471939087,11.2686471939087,11.2686471939087,44351.2205757171,3365.36024304443,47716.5808187615,,,4.51999998092651,0,2555.23041004655,2559.64814311684
2011-06-01T04:58:27Z,1306904307,710A,55.618398,25.9892304,3432.46,4.1,-0.7,225.1,-62532.42,-19711.11,225.7,Weapon+Missile,Red,Allies,R-27ER,,xu,,941.95176060092,792.39794921875,2.88066515691659,3432.4599609375,3432.4599609375,941.951463959435,0.74755859375,0.0583673096999642,NaN,1.64618487299979,4.42942463430381,5000,3.10385966300964,3.10385966300964,3.10385966300964,44363.6559649587,3366.09334759277,47729.7493125514,,,5.51999998092651,0,3499.19101714064,3504.11699284294
2011-06-01T04:58:28Z,1306904308,710A,55.6117947,25.98316,3409.63,2.7,-2,224,-63200.59,-20376.49,224.6,Weapon+Missile,Red,Allies,R-27ER,,xu,,943.2398077654,794.307067871094,2.88380085645999,3409.6298828125,3409.6298828125,942.963478871857,-22.830078125,0.0749972041881139,NaN,1.30768069773396,1.73189670345087,5000,1.60441172122955,1.60441172122955,1.60441172122955,44485.0667476654,3343.70468902832,47828.7714366937,,,6.51999998092651,0,4444.30712761133,4450.01558771613
2011-06-01T04:58:29Z,1306904309,710A,55.6051218,25.9768571,3367,1.7,-3,223.5,-63876.06,-21067.5,224.1,Weapon+Missile,Red,Allies,R-27ER,,xu,,967.250082413116,815.563171386719,2.95567175949337,3366.99780273438,3366.99780273438,966.310109476451,-42.632080078125,0.0754203420937492,NaN,0.969231163981489,1.06977293594625,5000,0.438394397497177,0.438394397497177,0.438394397497177,46778.636096409,3301.89690021851,50080.5329966275,,,7.51999998092651,0,5412.91602675734,5420.07629633342
2011-06-01T04:58:30Z,1306904310,710A,55.5984904,25.9705463,3312.26,1.2,-3.5,223.6,-64547.46,-21759.43,224.2,Weapon+Missile,Red,Allies,R-27ER,,xu,,965.680433745347,816.400634765625,2.94890914872903,3312.2607421875,3312.2607421875,964.127872391048,-54.737060546875,0.039654718047393,NaN,0.461556863352782,0.504940837578527,5000,0.726299345493317,0.726299345493317,0.726299345493317,46626.9350059301,3248.2181807373,49875.1531866674,,,8.51999998092651,0,6379.327840895,6388.54221799452
2011-06-01T04:58:31Z,1306904311,710A,55.5917021,25.9641524,3251.61,1,-3.5,224.1,-65234.73,-22460.34,224.7,Weapon+Missile,Red,Allies,R-27ER,,xu,,983.511584020372,833.455993652344,3.0011463288414,3251.61376953125,3251.61376953125,981.639944485703,-60.64697265625,0.0435266563965809,NaN,0.169224766876236,0.556908918847951,5000,1.81690096855164,1.81690096855164,1.81690096855164,48364.7517951131,3188.74381729736,51553.4956124105,,,9.51999998092651,0,7363.28600522656,7374.87296809414
2011-06-01T04:58:32Z,1306904312,710A,55.5847777,25.9578049,3192.53,0.9,-3.3,225.2,-65935.66,-23155.93,225.8,Weapon+Missile,Red,Allies,R-27ER,,xu,,989.258652763499,840.559875488281,3.01651857727371,3192.53295898438,3192.53295898438,987.492855615968,-59.080810546875,0.030867656208062,NaN,0,1.04786905288655,5000,2.51872205734253,2.51872205734253,2.51872205734253,48931.6341033727,3130.80533422241,52062.4394375951,,,10.5199999809265,0,8353.0185616493,8366.86643272006
2011-06-01T04:58:33Z,1306904313,710A,55.5778129,25.9516775,3138.69,0.8,-3.2,226.3,-66640.43,-23827.07,226.9,Weapon+Missile,Red,Allies,R-27ER,,xu,,974.694557026464,830.632263183594,2.9701688280072,3138.68701171875,3138.68701171875,973.206089921391,-53.845947265625,0.0128170673131694,NaN,0.199987938897973,1.12188044912428,5000,1.99640429019928,1.99640429019928,1.99640429019928,47501.4739748508,3078.00049834717,50579.4744731979,,,11.5199999809265,0,9328.33289295837,9344.14935287172
2011-06-01T04:58:34Z,1306904314,710A,55.5712126,25.9460821,3087.64,0.6,-3.2,227.6,-67308.14,-24439.64,228.2,Weapon+Missile,Red,Allies,R-27ER,,xu,,907.571357065957,776.875671386719,2.763916516657,3087.64306640625,3087.64306640625,906.134804437771,-51.0439453125,0.0226381131774227,NaN,0.199987938897973,1.28283599134975,5000,2.73002696037292,2.73002696037292,2.73002696037292,41184.2884083271,3027.94348771729,44212.2318960444,,,12.5199999809265,0,10236.3313261209,10254.0238900616
2011-06-01T04:58:35Z,1306904315,710A,55.5648436,25.9409717,3041.58,0.7,-2.8,229.4,-67952.15,-24998.72,230.1,Weapon+Missile,Red,Allies,R-27ER,,xu,,854.074227176311,734.099548339844,2.59954764294796,3041.57983398438,3041.57983398438,852.831146327138,-46.063232421875,0.119781914921838,NaN,0.199999998450727,1.80450844451728,5000,3.58899259567261,3.58899259567261,3.58899259567261,36472.1392763406,2982.77088789429,39454.9101642349,,,13.5199999809265,0,11090.7894698791,11110.1327120833
2011-06-01T04:58:36Z,1306904316,710A,55.5587555,25.9363693,3013.78,1.8,-0.8,230.4,-68567.47,-25501.8,231,Weapon+Missile,Red,Allies,R-27ER,,xu,,795.287000555705,686.240112304688,2.41980377347469,3013.78125,3013.78125,794.801014079218,-27.798583984375,0.161100610511007,NaN,1.36923073399612,1.79553442972153,5000,3.78273606300354,3.78273606300354,3.78273606300354,31624.0706626445,2955.50978953125,34579.5804521758,,,14.5199999809265,0,11886.9827092084,11907.1888088625
2011-06-01T04:58:37Z,1306904317,710A,55.5530335,25.9320653,3013.9,2.8,1.3,230.9,-69145.8,-25972.21,231.6,Weapon+Missile,Red,Allies,R-27ER,,xu,,745.488312135365,644.998596191406,2.26828544941397,3013.89599609375,3013.89599609375,745.488303304465,0.11474609375,0.496925127635109,NaN,1.27692307524092,3.40845222603854,5000,6.47146463394165,6.47146463394165,6.47146463394165,27787.6411765218,2955.62231700928,30743.2634935311,,,15.5199999809265,0,12633.7637675275,12654.3227498177
2011-06-01T04:58:38Z,1306904318,710A,55.5474873,25.9283666,3051.41,4,3.9,234.7,-69705.82,-26375.75,235.4,Weapon+Missile,Red,Allies,R-27ER,,xu,,691.284684355778,599.228393554688,2.10431494686924,3051.41455078125,3051.41455078125,690.265798717442,37.5185546875,0.129614820611208,NaN,0.0615263440434749,3.02671551464746,5000,2.52436280250549,2.52436280250549,2.52436280250549,23893.7257412434,2992.41545044189,26886.1411916853,,,16.5199999809265,0,13325.0124764462,13346.9170875126
2011-06-01T04:58:39Z,1306904319,710A,55.5422474,25.9250215,3096.1,3.4,4,234.8,-70234.77,-26740.44,235.4,Weapon+Missile,Red,Allies,R-27ER,,xu,,644.039592362745,559.271728515625,1.96155813839308,3096.1044921875,3096.1044921875,642.487202726932,44.68994140625,0.0309023920010431,NaN,0.569255286185543,0.388412500933247,5000,1.02840173244476,1.02840173244476,1.02840173244476,20739.3498265386,3036.24131183105,23775.5911383696,,,17.5199999809265,0,13968.3339955302,13992.0982730747
2011-06-01T04:58:40Z,1306904320,710A,55.5372975,25.9218633,3138.6,2.9,4,234.8,-70734.45,-27084.74,235.4,Weapon+Missile,Red,Allies,R-27ER,,xu,,608.297730737185,529.002502441406,1.85365258706635,3138.6015625,3138.6015625,606.811443724377,42.4970703125,0.0347376366666674,NaN,0.47691112860697,0.0197823405926261,5000,1.00842380523682,1.00842380523682,1.00842380523682,18501.3064610004,3077.91670128906,21579.2231622895,,,18.5199999809265,0,14575.9489380153,14601.4937940473
2011-06-01T04:58:41Z,1306904321,710A,55.5325792,25.9188524,3179.22,2.5,4,234.8,-71210.79,-27412.95,235.4,Weapon+Missile,Red,Allies,R-27ER,,xu,,579.8888013564,504.893280029297,1.76795312005034,3179.22314453125,3179.22314453125,578.46426770531,40.62158203125,0.0382106347615672,NaN,0.369212705774209,0.0197823405926261,5000,1.00465416908264,1.00465416908264,1.00465416908264,16813.5510969281,3117.75286503174,19931.3039619599,,,19.5199999809265,0,15155.1719617692,15182.4256603304
2011-06-01T04:58:42Z,1306904322,710A,55.5281179,25.9160053,3217.71,2.1,4,234.8,-71661.2,-27723.3,235.4,Weapon+Missile,Red,Allies,R-27ER,,xu,,548.337133255439,478.333587646484,1.67254006273642,3217.71313476562,3217.71313476562,546.984581463272,38.489990234375,0.0438741960219151,NaN,0.399975877795947,0.0197823405926261,5000,1.00332295894623,1.00332295894623,1.00332295894623,15033.6805853397,3155.49865130493,18189.1792366446,,,20.5199999809265,0,15702.8737996105,15731.7522657578
2011-06-01T04:58:43Z,1306904323,710A,55.5238584,25.9132865,3254.53,1.7,4,234.8,-72091.27,-28019.64,235.4,Weapon+Missile,Red,Allies,R-27ER,,xu,,523.57641718728,457.387298583984,1.59772919019404,3254.5322265625,3254.5322265625,522.28021129842,36.819091796875,0.0472090050617103,NaN,0.307686361730734,0.0197823405926261,5000,1.00164663791656,1.00164663791656,1.00164663791656,13706.6132317334,3191.60584596191,16898.2190776954,,,21.5199999809265,0,16225.8332958835,16256.2709713823
2011-06-01T04:58:44Z,1306904324,710A,55.5198127,25.910704,3289.56,1.5,4,234.8,-72499.77,-28301.13,235.4,Weapon+Missile,Red,Allies,R-27ER,,xu,,497.322381570006,435.238037109375,1.51825957752315,3289.55981445312,3289.55981445312,496.087310155206,35.027587890625,0.0530749483667925,NaN,0.199987938897973,0.0197823405926261,5000,1.00108504295349,1.00108504295349,1.00108504295349,12366.4775605232,3225.95617544067,15592.4337359638,,,22.5199999809265,0,16722.5680707346,16754.4934106509
2011-06-01T04:58:45Z,1306904325,710A,55.515979,25.9082566,3322.81,1.3,4,234.8,-72886.88,-28567.88,235.4,Weapon+Missile,Red,Allies,R-27ER,,xu,,471.293403729373,413.223999023438,1.43937865952161,3322.80615234375,3322.80615234375,470.119297004154,33.246337890625,0.0557464707218641,NaN,0.184633673643785,0.0197823405926261,5000,0.998574495315552,0.998574495315552,0.998574495315552,11105.8736199409,3258.55969538818,14364.4333153291,,,23.5199999809265,0,17193.2959621369,17226.6372959564
2011-06-01T04:58:46Z,1306904326,710A,55.5123169,25.9059186,3354.59,1.1,4.1,234.8,-73256.67,-28822.69,235.4,Weapon+Missile,Red,Allies,R-27ER,,xu,,450.205122609526,395.194793701172,1.37550513454711,3354.59130859375,3354.59130859375,449.081681062612,31.78515625,0.0544366785458379,NaN,0.0461720787892862,0.0541761800424684,5000,1.00304102897644,1.00304102897644,1.00304102897644,10134.2326211929,3289.73028564209,13423.962906835,,,24.5199999809265,0,17642.9580072302,17677.6561306982
2011-06-01T04:58:47Z,1306904327,710A,55.5088499,25.9037049,3384.72,0.9,4.1,234.8,-73606.77,-29063.94,235.4,Weapon+Missile,Red,Allies,R-27ER,,xu,,426.239686618835,374.586486816406,1.30276205847547,3384.7177734375,3384.7177734375,425.17368987855,30.12646484375,0.051925877303144,NaN,0.199987938897973,0.0541761800424684,5000,1.00096571445465,1.00096571445465,1.00096571445465,9084.01352244616,3319.27425528809,12403.2877777342,,,25.5199999809265,0,18068.6945516292,18104.6816275635
2011-06-01T04:58:48Z,1306904328,710A,55.5055286,25.9015841,3413.6,0.8,4.1,234.8,-73942.18,-29295.07,235.4,Weapon+Missile,Red,Allies,R-27ER,,xu,,408.35290912766,358.892669677734,1.24853243885651,3413.59985351562,3413.59985351562,407.330239294094,28.882080078125,0.048551256693901,NaN,0,0.0139882274201861,5000,1.00033330917358,1.00033330917358,1.00033330917358,8337.60491965115,3347.5979003479,11685.2028199991,,,26.5199999809265,0,18476.5561386605,18513.7813781957
2011-06-01T04:58:49Z,1306904329,710A,55.5023882,25.8995787,3440.92,0.6,4.1,234.8,-74259.33,-29513.61,235.4,Weapon+Missile,Red,Allies,R-27ER,,xu,,386.120291363196,339.132080078125,1.18095021983749,3440.92065429688,3440.92065429688,385.152506479018,27.32080078125,0.0473821710169905,NaN,0.138461594854498,0.0139882274201861,5000,1.00119173526764,1.00119173526764,1.00119173526764,7454.44397011995,3374.39045344604,10828.834423566,,,27.5199999809265,0,18862.2037674687,18900.6022605297
2011-06-01T04:58:50Z,1306904330,710A,55.4993759,25.8976549,3467.15,0.5,4.1,234.8,-74563.55,-29723.25,235.4,Weapon+Missile,Red,Allies,R-27ER,,xu,,370.384586149663,324.736785888672,1.13318543387301,3467.15307617188,3467.15307617188,369.454464988352,26.232421875,0.0445660488647997,NaN,0.199987938897973,0.0139882274201861,5000,0.999476671218872,0.999476671218872,0.999476671218872,6859.23708286285,3400.11567144409,10259.3527543069,,,28.5199999809265,0,19232.1469215649,19271.6741488915
2011-06-01T04:58:51Z,1306904331,710A,55.496528,25.8958361,3491.96,0.5,4.1,234.8,-74851.18,-29921.45,235.4,Weapon+Missile,Red,Allies,R-27ER,,xu,,350.188225915185,306.044189453125,1.07171981662796,3491.96142578125,3491.96142578125,349.308372873144,24.808349609375,0.0433599279509951,NaN,0.0154089067675488,0.0139882274201861,5000,0.999571204185486,0.999571204185486,0.999571204185486,6131.58967848122,3424.44435161377,9556.03403009499,,,29.5199999809265,0,19581.9050263638,19622.501308892
2011-06-01T04:58:52Z,1306904332,710A,55.4938215,25.8941074,3515.55,0.4,4.1,234.8,-75124.54,-30109.82,235.4,Weapon+Missile,Red,Allies,R-27ER,,xu,,332.813196185463,289.755676269531,1.01883884329487,3515.54833984375,3515.54833984375,331.976326023697,23.5869140625,0.0419153540198867,NaN,0,0.0139882274201861,5000,0.999825954437256,0.999825954437256,0.999825954437256,5538.23117775917,3447.57521269287,8985.80639045204,,,30.5199999809265,0,19914.3067920561,19955.92101961
2011-06-01T04:58:53Z,1306904333,710A,55.4912589,25.8924705,3537.89,0.3,4.1,234.8,-75383.37,-30288.17,235.4,Weapon+Missile,Red,Allies,R-27ER,,xu,,315.123289786926,273.252532958984,0.964948572988619,3537.89379882812,3537.89379882812,314.330030746208,22.345458984375,0.0407552092440408,NaN,0.199987938897973,0.0139882274201861,5000,0.998026609420776,0.998026609420776,0.998026609420776,4965.13438830674,3469.48862222778,8434.62301053452,,,31.5199999809265,0,20229.0459945734,20271.6260473778
2011-06-01T04:58:54Z,1306904334,710A,55.48881,25.8909061,3559.25,0.3,4.1,234.8,-75630.73,-30458.63,235.4,Weapon+Missile,Red,Allies,R-27ER,,xu,,301.162543373657,260.252655029297,0.922439987703113,3559.24682617188,3559.24682617188,300.404603417703,21.35302734375,0.0415229858782249,NaN,0,0.0139882274201861,5000,0.999918580055237,0.999918580055237,0.999918580055237,4534.9438765645,3490.42878878784,8025.37266535234,,,32.5199999809265,0,20529.8407473009,20573.3446911637
2011-06-01T04:58:55Z,1306904335,710A,55.4864582,25.8894038,3579.77,0.2,4.1,234.8,-75868.27,-30622.33,235.4,Weapon+Missile,Red,Allies,R-27ER,,xu,,289.217070832677,249.174209594727,0.886074487470399,3579.77001953125,3579.77001953125,288.487976517857,20.523193359375,0.0372766494788023,NaN,0.199987938897973,0.0139882274201861,5000,0.99778288602829,0.99778288602829,0.99778288602829,4182.32570305169,3510.55516620361,7692.8808692553,,,33.5199999809265,0,20818.6997787859,20863.0931357314
2011-06-01T04:58:56Z,1306904336,710A,55.4842281,25.8879791,3599.23,0.2,4.1,234.8,-76093.52,-30777.55,235.4,Weapon+Missile,Red,Allies,R-27ER,,xu,,274.2447329983,235.449035644531,0.840404024943327,3599.22607421875,3599.22607421875,273.553715955945,19.4560546875,0.0385198271216343,NaN,0,0.0139882274201861,5000,0.998040974140167,0.998040974140167,0.998040974140167,3760.50867886543,3529.63503807373,7290.14371693916,,,34.5199999809265,0,21092.6198926845,21137.8571147016
2011-06-01T04:58:57Z,1306904337,710A,55.482083,25.8866086,3617.94,0.2,4.1,234.8,-76310.22,-30926.87,235.4,Weapon+Missile,Red,Allies,R-27ER,,xu,,263.82298254729,225.901626586914,0.808652784905911,3617.94287109375,3617.94287109375,263.158217874509,18.716796875,0.0385224100154832,NaN,0,0.0139882274201861,5000,0.999528765678406,0.999528765678406,0.999528765678406,3480.12830600739,3547.98994568115,7028.11825168854,,,35.5199999809265,0,21356.1084883136,21402.1583441101
2011-06-01T04:58:58Z,1306904338,710A,55.4800139,25.8852866,3636.01,0.1,4.1,234.8,-76519.23,-31070.9,235.4,Weapon+Missile,Red,Allies,R-27ER,,xu,,254.471493679749,217.366485595703,0.780162058084562,3636.01147460938,3636.01147460938,253.829207662549,18.068603515625,0.0368195384395381,NaN,0.199987938897973,0.0139882274201861,5000,0.996873795986176,0.996873795986176,0.996873795986176,3237.78705478013,3565.7091927478,6803.49624752793,,,36.5199999809265,0,21610.2676901442,21657.1031660916
2011-06-01T04:58:59Z,1306904339,710A,55.4780391,25.8840249,3653.25,0.1,4.1,234.8,-76718.72,-31208.37,235.4,Weapon+Missile,Red,Allies,R-27ER,,xu,,242.884532621755,206.900115966797,0.744796057402081,3653.24609375,3653.24609375,242.272293277555,17.234619140625,0.0387738148186007,NaN,0,0.0139882274201861,5000,0.999116480350494,0.999116480350494,0.999116480350494,2949.64480934441,3582.61058052734,6532.25538987175,,,37.5199999809265,0,21852.8529179387,21900.4381164416
2011-06-01T04:59:00Z,1306904340,710A,55.47612,25.8827986,3670.01,0.1,4.1,234.8,-76912.59,-31341.97,235.4,Weapon+Missile,Red,Allies,R-27ER,,xu,,236.037639319948,200.682876586914,0.723949233798496,3670.00756835938,3670.00756835938,235.441755312547,16.761474609375,0.034580616872944,NaN,0,0.0139882274201861,5000,0.997303605079651,0.997303605079651,0.997303605079651,2785.6883587867,3599.04797202515,6384.73633081185,,,38.5199999809265,0,22088.5961608792,22136.9114805627
2011-06-01T04:59:01Z,1306904341,710A,55.4742905,25.8816296,3685.98,0.1,4.1,234.8,-77097.41,-31469.33,235.4,Weapon+Missile,Red,Allies,R-27ER,,xu,,225.020168566242,190.82991027832,0.69029299249833,3685.97998046875,3685.97998046875,224.452574752415,15.972412109375,0.0386641060074282,NaN,0,0.0139882274201861,5000,0.998165130615234,0.998165130615234,0.998165130615234,2531.703813079,3614.71155754639,6146.41537062539,,,39.5199999809265,0,22313.3356348996,22362.347097224
2011-06-01T04:59:02Z,1306904342,710A,55.4725138,25.8804942,3701.5,0.1,4.1,234.8,-77276.9,-31593.01,235.4,Weapon+Missile,Red,Allies,R-27ER,,xu,,218.528802488011,184.996994018555,0.670507235194192,3701.49536132812,3701.49536132812,217.977316419927,15.515380859375,0.0358867271134242,NaN,0,0.0139882274201861,5000,0.998409032821655,0.998409032821655,0.998409032821655,2387.74187584221,3629.92694851685,6017.66882435906,,,40.5199999809265,0,22531.594577515,22581.2828972968
2011-06-01T04:59:03Z,1306904343,710A,55.4708074,25.8794038,3716.4,0.1,4.1,234.7,-77449.28,-31711.81,235.4,Weapon+Missile,Red,Allies,R-27ER,,xu,,209.883792741291,177.312057495117,0.644099901811235,3716.40209960938,3716.40209960938,209.353757093785,14.90673828125,0.0359822880865842,NaN,0,0.0139882274201861,5000,0.996734142303467,0.996734142303467,0.996734142303467,2202.56032277346,3644.54546501343,5847.10578778688,,,41.5199999809265,0,22741.2267605253,22791.5660100488
2011-06-01T04:59:04Z,1306904344,710A,55.4691643,25.8783537,3730.75,0.1,4.1,234.7,-77615.28,-31826.21,235.4,Weapon+Missile,Red,Allies,R-27ER,,xu,,202.109638081082,170.423782348633,0.620351626154383,3730.74609375,3730.74609375,201.599989179959,14.343994140625,0.036091253906902,NaN,0,0.0139882274201861,5000,0.97498744726181,0.97498744726181,0.97498744726181,2042.4152902633,3658.61211802734,5701.02740829064,,,42.5199999809265,0,22943.0858200139,22994.0516156357
2011-06-01T04:59:05Z,1306904345,710A,55.4675788,25.8773404,3744.36,-0.4,3.4,234.7,-77775.46,-31936.58,235.4,Weapon+Missile,Red,Allies,R-27ER,,xu,,195.002577595914,164.147842407227,0.598637562430297,3744.3623046875,3744.3623046875,194.526615322315,13.6162109375,0.0422234900355607,NaN,0.707716881040041,1.02320502635022,5000,0.347132682800293,0.347132682800293,0.347132682800293,1901.30026345253,3671.96505952637,5573.2653229789,,,43.5199999809265,0,23137.8666858801,23189.4216868467
2011-06-01T04:59:06Z,1306904346,710A,55.4660419,25.8763581,3751.23,-2.1,0.7,234.7,-77930.73,-32043.6,235.4,Weapon+Missile,Red,Allies,R-27ER,,xu,,188.696825179894,158.64013671875,0.579328484892794,3751.22900390625,3751.22900390625,188.571843801801,6.86669921875,0.051481392390004,NaN,1.6153670594647,2.41160233837446,3919.51240540979,0.0912633761763573,0.0912633761763573,0.0912633761763573,1780.32459164858,3678.69899111572,5459.0235827643,,,44.5199999809265,0,23326.6871737982,23378.4778694102
2011-06-01T04:59:07Z,1306904347,710A,55.4645647,25.8754137,3749.1,-3.5,-2.1,234.7,-78079.98,-32146.47,235.4,Weapon+Missile,Red,Allies,R-27ER,,xu,,181.288977874197,152.267013549805,0.556570670449985,3749.09985351562,3749.09985351562,181.276474527957,-2.129150390625,0.0234490420567782,NaN,1.33849851126906,2.77693080094504,3753.36417094239,0.115103125572205,0.115103125572205,0.115103125572205,1643.28467493355,3676.6110078479,5319.89568278145,,,45.5199999809265,0,23508.1853204509,23560.0952125863
2011-06-01T04:59:08Z,1306904348,710A,55.463118,25.8744892,3738.43,-4.8,-4.9,234.8,-78226.15,-32247.18,235.4,Weapon+Missile,Red,Allies,R-27ER,,xu,,177.818190266884,149.358047485352,0.545843460626476,3738.42919921875,3738.42919921875,177.497734990242,-10.670654296875,0.119765095313934,NaN,1.13851057237109,2.77742492244281,3673.5557685141,0.131159067153931,0.131159067153931,0.131159067153931,1580.96543948948,3666.14667065185,5247.11211014134,,,46.5199999809265,0,23685.9137884071,23738.2478541202
2011-06-01T04:59:09Z,1306904349,710A,55.4617206,25.873597,3719.77,-5.8,-7.6,234.8,-78367.34,-32344.36,235.5,Weapon+Missile,Red,Allies,R-27ER,,xu,,172.416868125908,144.847702026367,0.529141768676991,3719.767578125,3719.767578125,171.403968193563,-18.66162109375,0.0332778092124967,NaN,0.969231163981489,2.77738949083649,3583.58086414148,0.153223231434822,0.153223231434822,0.153223231434822,1486.37882071733,3647.84587200195,5134.22469271929,,,47.5199999809265,0,23857.5375777529,23910.9830090938
2011-06-01T04:59:10Z,1306904350,710A,55.4603551,25.8727266,3693.34,-6.6,-10.4,234.9,-78505.3,-32439.17,235.5,Weapon+Missile,Red,Allies,R-27ER,,xu,,169.475348578901,142.506942749023,0.51994550909126,3693.34375,3693.34375,167.402733200986,-26.423828125,0.0633380923199061,NaN,0.769243225083516,2.72356012965739,3545.10968891961,0.170136690139771,0.170136690139771,0.170136690139771,1436.094688797,3621.93294859375,5058.02763739075,,,48.5199999809265,0,24025.1578793121,24080.7694910208
2011-06-01T04:59:11Z,1306904351,710A,55.4590387,25.8718897,3659.93,-7.4,-13.1,234.9,-78638.3,-32530.33,235.6,Weapon+Missile,Red,Allies,R-27ER,,xu,,164.65985274939,138.600158691406,0.504964507482148,3659.92993164062,3659.92993164062,161.233941371219,-33.413818359375,0.0175029281287043,NaN,0.769243225083516,2.69025932891558,3467.80497555772,0.181174129247665,0.181174129247665,0.181174129247665,1355.64335537255,3589.16518641235,4944.8085417849,,,49.5199999809265,0,24186.5958968354,24245.7203086584
2011-06-01T04:59:12Z,1306904352,710A,55.45774,25.871067,3619.05,-8,-15.8,235.1,-78769.52,-32619.92,235.7,Weapon+Missile,Red,Allies,R-27ER,,xu,,164.06372511706,138.367645263672,0.502884149704492,3619.05444335938,3619.05444335938,158.890214793283,-40.87548828125,0.0112871908299752,NaN,0.569255286185543,2.70945706968178,3493.09515682564,0.187232434749603,0.187232434749603,0.187232434749603,1345.84529496431,3549.08002569702,4894.92532066133,,,50.5199999809265,0,24345.6853440395,24410.0649165742
2011-06-01T04:59:13Z,1306904353,710A,55.4564794,25.870272,3571.64,-8.5,-18.5,235.2,-78896.87,-32706.49,235.9,Weapon+Missile,Red,Allies,R-27ER,,xu,,161.123089828777,136.157089233398,0.493583721306224,3571.63623046875,3571.63623046875,153.987542230635,-47.418212890625,0.0551774230585816,NaN,0.507728942142068,2.66736325415723,3498.89109603844,0.199443116784096,0.199443116784096,0.199443116784096,1298.0325037986,3502.57864395264,4800.61114775124,,,51.5199999809265,0,24499.8726984137,24571.4620576678
2011-06-01T04:59:14Z,1306904354,710A,55.4552425,25.8694964,3517.48,-8.9,-21.1,235.4,-79021.84,-32790.95,236,Weapon+Missile,Red,Allies,R-27ER,,xu,,160.2665299744,135.782455444336,0.490634461654613,3517.47998046875,3517.47998046875,150.839189920832,-54.15625,0.0523530414396564,NaN,0.400030519309307,2.61153606264589,3524.59597356323,0.198546513915062,0.198546513915062,0.198546513915062,1284.26803150177,3449.46950504639,4733.73753654816,,,52.5199999809265,0,24650.8856217734,24731.9711118476
2011-06-01T04:59:15Z,1306904355,710A,55.4540291,25.8687407,3456.79,-9.2,-23.7,235.6,-79144.41,-32873.22,236.2,Weapon+Missile,Red,Allies,R-27ER,,xu,,159.605643231855,135.6181640625,0.488248981116097,3456.78833007812,3456.78833007812,147.616004973432,-60.691650390625,0.0650839634714864,NaN,0.230751110919711,2.5561987237641,3614.83240576666,0.209245651960373,0.209245651960373,0.209245651960373,1273.69806757271,3389.95132771606,4663.64939528878,,,53.5199999809265,0,24798.696016321,24891.831318332
2011-06-01T04:59:16Z,1306904356,710A,55.4528444,25.8680086,3390.13,-9.5,-26.1,235.8,-79264.09,-32952.91,236.4,Weapon+Missile,Red,Allies,R-27ER,,xu,,158.483756693834,135.090881347656,0.484422868460805,3390.13134765625,3390.13134765625,143.784379646053,-66.656982421875,0.0311869637144318,NaN,0.199987938897973,2.51793344271274,3710.40793107757,0.219351276755333,0.219351276755333,0.219351276755333,1255.85505678952,3324.58315804932,4580.43821483883,,,54.5199999809265,0,24942.6526458262,25050.5414853322
2011-06-01T04:59:17Z,1306904357,710A,55.4516825,25.8672971,3317.52,-9.7,-28.5,236,-79381.46,-33030.36,236.7,Weapon+Missile,Red,Allies,R-27ER,,xu,,158.264915400882,135.384872436523,0.48332627223222,3317.51928710938,3317.51928710938,140.62457861265,-72.612060546875,0.0267224462266298,NaN,0.199987938897973,2.42177569169978,3801.47273771352,0.219415307044983,0.219415307044983,0.219415307044983,1252.38917234242,3253.37505169312,4505.76422403554,,,55.5199999809265,0,25083.4324876847,25209.0101685501
2011-06-01T04:59:18Z,1306904358,710A,55.4505401,25.8666044,3238.96,-9.8,-30.8,236.3,-79496.85,-33105.73,237,Weapon+Missile,Red,Allies,R-27ER,,xu,,158.643466414351,136.239959716797,0.484019775431089,3238.95751953125,3238.95751953125,137.825244824604,-78.561767578125,0,NaN,0,2.32057256532429,3966.69177948246,0.227405488491058,0.227405488491058,0.227405488491058,1258.38747179806,3176.33227589111,4434.71974768918,,,56.5199999809265,0,25221.4192358507,25367.8556020872
2011-06-01T04:59:19Z,1306904359,710A,55.4494215,25.8659337,3155.05,-9.9,-33.1,236.6,-79609.82,-33178.7,237.3,Weapon+Missile,Red,Allies,R-27ER,,xu,,158.512811817608,136.68733215332,0.48312898319969,3155.0498046875,3155.0498046875,134.483481885414,-83.90771484375,0,NaN,0,2.26970665247132,4116.15145563344,0.229310140013695,0.229310140013695,0.229310140013695,1256.31557551622,3094.04691671387,4350.36249223009,,,57.5199999809265,0,25356.0591987583,25526.5584747834
2011-06-01T04:59:20Z,1306904360,710A,55.4483161,25.8652787,3065.21,-10,-35.2,236.9,-79721.45,-33249.94,237.6,Weapon+Missile,Red,Allies,R-27ER,,xu,,160.024603227793,138.621307373047,0.487206463292691,3065.21362304688,3065.21362304688,132.428600032037,-89.836181640625,0.0332592315955033,NaN,0,2.17383470218644,4322.6384343331,0.23180428147316,0.23180428147316,0.23180428147316,1280.39368191063,3005.94771764526,4286.3413995559,,,58.5199999809265,0,25488.6395439804,25686.762201684
2011-06-01T04:59:21Z,1306904361,710A,55.4472309,25.8646442,2970.25,-10,-37.4,237.3,-79831.04,-33318.94,238,Weapon+Missile,Red,Allies,R-27ER,,xu,,160.588390288554,139.763580322266,0.488362293085141,2970.24755859375,2970.24755859375,129.499334738654,-94.966064453125,0.0785856020923168,NaN,0,2.0449176563668,4524.50716403182,0.233263358473778,0.233263358473778,0.233263358473778,1289.43155477345,2912.81782204834,4202.24937682179,,,59.5199999809265,0,25618.2713108928,25847.5068865201
2011-06-01T04:59:22Z,1306904362,710A,55.4461643,25.8640291,2870.25,-10,-39.3,237.7,-79938.73,-33385.8,238.4,Weapon+Missile,Red,Allies,R-27ER,,xu,,161.45452222992,141.214416503906,0.490404839111249,2870.25463867188,2870.25463867188,126.763475472982,-99.992919921875,0.0252832522961803,NaN,0,1.96005746512786,4786.27518239764,0.23911739885807,0.23911739885807,0.23911739885807,1303.37813742459,2814.75826523315,4118.13640265774,,,60.5199999809265,0,25745.1706865829,26009.1137706454
2011-06-01T04:59:23Z,1306904363,710A,55.4451131,25.8634318,2765.21,-9.9,-41.1,238,-80044.87,-33450.72,238.7,Weapon+Missile,Red,Allies,R-27ER,,xu,,162.82878859875,143.162216186523,0.493954753195253,2765.2060546875,2765.2060546875,124.410648255742,-105.048583984375,0.0383314864746775,NaN,0,1.91326810799233,5000,0.233955264091492,0.233955264091492,0.233955264091492,1325.66071982682,2711.74079562012,4037.40151544693,,,61.5199999809265,0,25869.7057875302,26172.0797256806
2011-06-01T04:59:24Z,1306904364,710A,55.4440711,25.8628489,2654.6,-9.8,-42.9,238.5,-80150.05,-33514.06,239.2,Weapon+Missile,Red,Allies,R-27ER,,xu,,165.258590529958,146.109512329102,0.500661193092086,2654.59838867188,2654.59838867188,122.785772638871,-110.607666015625,0.0270583483079399,NaN,0.199987938897973,1.81543461275518,5000,0.236292272806168,0.236292272806168,0.236292272806168,1365.52008719742,2603.2717288269,3968.79181602433,,,62.5199999809265,0,25992.6115239711,26337.4662870648
2011-06-01T04:59:25Z,1306904365,710A,55.4430515,25.8622878,2540.06,-9.7,-44.6,238.9,-80252.97,-33575,239.6,Weapon+Missile,Red,Allies,R-27ER,,xu,,165.605878142319,147.229080200195,0.501026446533009,2540.05517578125,2540.05517578125,119.604177418606,-114.543212890625,0.0275369216025013,NaN,0.200042580411333,1.7152265595644,5000,0.239850804209709,0.239850804209709,0.239850804209709,1371.26534376442,2490.94320895752,3862.20855272194,,,63.5199999809265,0,26112.3248733402,26503.1862559354
2011-06-01T04:59:26Z,1306904366,710A,55.4420461,25.8617437,2420.92,-9.6,-46.3,239.3,-80354.45,-33634.06,240,Weapon+Missile,Red,Allies,R-27ER,,xu,,167.264801194587,149.575775146484,0.505326849639794,2420.92456054688,2420.92456054688,117.411286648874,-119.130615234375,0.0517876264966022,NaN,0.199987938897973,1.66465690616668,5000,0.238109022378922,0.238109022378922,0.238109022378922,1398.87568593323,2374.1159841687,3772.99167010193,,,64.5199999809265,0,26229.8480683121,26670.5617314745
2011-06-01T04:59:27Z,1306904367,710A,55.4410535,25.861216,2297.22,-9.5,-47.8,239.8,-80454.62,-33691.34,240.5,Weapon+Missile,Red,Allies,R-27ER,,xu,,169.169653575896,152.197860717773,0.510330290196041,2297.21997070312,2297.21997070312,115.393007338305,-123.70458984375,0.0580982596612781,NaN,0.199987938897973,1.57541205364571,5000,0.237448185682297,0.237448185682297,0.237448185682297,1430.91858454943,2252.80322256958,3683.72180711901,,,65.5199999809265,0,26345.3346009524,26839.8243456861
2011-06-01T04:59:28Z,1306904368,710A,55.440077,25.8607063,2169.55,-9.4,-49.2,240.3,-80553.15,-33746.63,241,Weapon+Missile,Red,Allies,R-27ER,,xu,,170.488492303273,154.33186340332,0.513530794432519,2169.54614257812,2169.54614257812,112.985484110796,-127.673828125,0.0424536978019046,NaN,0.0307665871163224,1.47172071069992,5000,0.242227613925934,0.242227613925934,0.242227613925934,1453.31630039215,2127.59796791138,3580.91426830353,,,66.5199999809265,0,26458.4189522251,27010.4046325229
2011-06-01T04:59:29Z,1306904369,710A,55.4391109,25.8602114,2037.41,-9.2,-50.6,240.7,-80650.62,-33800.31,241.4,Weapon+Missile,Red,Allies,R-27ER,,xu,,172.749337934878,157.38362121582,0.519528607598936,2037.41149902344,2037.41149902344,111.277894164179,-132.134643554688,0,NaN,0.200042580411333,1.41347360450999,5000,0.237848415970802,0.237848415970802,0.237848415970802,1492.11668784693,1998.01814768982,3490.13483553675,,,67.5199999809265,0,26569.7745860938,27183.2277257146
2011-06-01T04:59:30Z,1306904370,710A,55.4381485,25.8597277,1900,-9.1,-51.9,241.2,-80747.71,-33852.73,241.9,Weapon+Missile,Red,Allies,R-27ER,,xu,,176.228614457674,161.632522583008,0.529134757078505,1899.99682617188,1899.99682617188,110.334637529515,-137.414672851562,0.0397569564185693,NaN,0.153836350676197,1.32586725033788,5000,0.236741006374359,0.236741006374359,0.236741006374359,1552.82622768357,1863.26038753784,3416.08661522142,,,68.5199999809265,0,26680.1975029403,27359.5329759699
2011-06-01T04:59:31Z,1306904371,710A,55.4372033,25.859262,1759.38,-8.9,-53.2,241.7,-80843.05,-33903.2,242.4,Weapon+Missile,Red,Allies,R-27ER,,xu,,177.230549974758,163.631713867188,0.531264982533493,1759.37841796875,1759.37841796875,107.875535311647,-140.618408203125,0.0457636197324151,NaN,0.199987938897973,1.27099457776306,5000,0.237006574869156,0.237006574869156,0.237006574869156,1570.53339221776,1725.36083625732,3295.89422847508,,,69.5199999809265,0,26788.1431007017,27536.8250375268
2011-06-01T04:59:32Z,1306904372,710A,55.4362629,25.8588078,1613.91,-8.8,-54.3,242.1,-80937.9,-33952.38,242.8,Weapon+Missile,Red,Allies,R-27ER,,xu,,180.48894549717,167.802658081055,0.540111836008566,1613.90844726562,1613.90844726562,106.839819684949,-145.469970703125,0.0222129002997427,NaN,0.0923014688962598,1.22104113549452,5000,0.236581861972809,0.236581861972809,0.236581861972809,1628.81297233403,1582.70352743774,3211.51649977177,,,70.5199999809265,0,26895.0596693478,27717.3761703546
2011-06-01T04:59:33Z,1306904373,710A,55.4353376,25.8583698,1465.32,-8.6,-55.4,242.6,-81031.22,-33999.79,243.3,Weapon+Missile,Red,Allies,R-27ER,,xu,,181.754163326792,170.152801513672,0.542956045778617,1465.31994628906,1465.31994628906,104.671071763693,-148.588500976562,0.0322548690657626,NaN,0.199987938897973,1.1287938812248,5000,0.233929798007011,0.233929798007011,0.233929798007011,1651.7287943311,1436.98798512756,3088.71677945867,,,71.5199999809265,0,26999.7932964845,27899.1809326038
2011-06-01T04:59:34Z,1306904374,710A,55.4344162,25.8579426,1311.97,-8.4,-56.5,243.1,-81124.12,-34046,243.8,Weapon+Missile,Red,Allies,R-27ER,,xu,,185.157597770453,174.592376708984,0.552138041331116,1311.97082519531,1311.97082519531,103.766001522172,-153.34912109375,0.0346740892271446,NaN,0.199987938897973,1.08827399741711,5000,0.23089998960495,0.23089998960495,0.23089998960495,1714.16680060625,1286.60386929016,3000.77066989641,,,72.5199999809265,0,27103.6249988681,28084.3880338418
2011-06-01T04:59:35Z,1306904375,710A,55.4335086,25.8575306,1155.61,-8.2,-57.5,243.6,-81215.62,-34090.56,244.3,Weapon+Missile,Red,Allies,R-27ER,,xu,,186.562552927839,177.185317993164,0.555320966664404,1155.61157226562,1155.61157226562,101.771165750534,-156.359252929688,0.0263852182503678,NaN,0.199987938897973,1.05085320522361,5000,0.230857148766518,0.230857148766518,0.230857148766518,1740.27930774763,1133.26782251587,2873.5471302635,,,73.5199999809265,0,27205.4555154102,28270.99372028
2011-06-01T04:59:36Z,1306904376,710A,55.4326095,25.857131,995.5,-8.1,-58.4,244.1,-81306.26,-34133.75,244.8,Weapon+Missile,Red,Allies,R-27ER,,xu,,188.988138905396,180.812133789062,0.561502450636509,995.496887207031,995.496887207031,100.398228448079,-160.114685058594,0.046665141223019,NaN,0.169221351781651,0.952425376806967,5000,0.228632733225822,0.228632733225822,0.228632733225822,1785.82583234627,976.248954892883,2762.07478723915,,,74.5199999809265,0,27305.9046390841,28460.0179041675
2011-06-01T04:59:37Z,1306904377,710A,55.4317242,25.8567458,832.7,-7.9,-59.3,244.6,-81395.49,-34175.37,245.2,Weapon+Missile,Red,Allies,R-27ER,,xu,,190.254021936093,183.368499755859,0.564206478418243,832.703063964844,832.703063964844,98.4619925506831,-162.793823242188,0.0174760872656066,NaN,0.200042580411333,0.939651215511751,5000,0.224299475550652,0.224299475550652,0.224299475550652,1809.82964314297,816.602750223083,2626.43239336605,,,75.5199999809265,0,27404.4173211288,28650.3054742608
2011-06-01T04:59:38Z,1306904378,710A,55.4308444,25.856371,665.78,-7.7,-60.2,245,-81484.16,-34215.82,245.7,Weapon+Missile,Red,Allies,R-27ER,,xu,,193.293889662129,187.708984375,0.5721264087296,665.78076171875,665.78076171875,97.465238898692,-166.922302246094,0.0230919135178085,NaN,0.199987938897973,0.900948482188403,5000,0.224061071872711,0.224061071872711,0.224061071872711,1868.12638903577,652.907890690918,2521.03427972669,,,76.5199999809265,0,27501.9271241196,28843.6276164222
2011-06-01T04:59:39Z,1306904379,710A,55.4299805,25.856011,496.87,-7.6,-61,245.5,-81571.23,-34254.66,246.2,Weapon+Missile,Red,Allies,R-27ER,,xu,,193.954191763189,189.769744873047,0.57297547038284,496.873046875,496.873046875,95.3331651041463,-168.90771484375,0.0628260550521056,NaN,0.0615348817799374,0.862268053701563,5000,0.219406396150589,0.219406396150589,0.219406396150589,1880.9114251256,487.266006513672,2368.17743163927,,,77.5199999809265,0,27597.2976273441,29037.6044374438
2011-06-01T04:59:40Z,1306904380,710A,55.4291421,25.8556691,328.01,-7.4,-61.8,246,-81655.71,-34291.54,246.7,Weapon+Missile,Red,Allies,R-27ER,,xu,,192.385318703184,189.638763427734,0.567250922977136,328.009979248047,328.009979248047,92.1812087366,-168.863067626953,0.0371632776834277,NaN,0.200042580411333,0.849520892997909,5000,0.213949710130692,0.213949710130692,0.213949710130692,1850.60554262628,321.667906299286,2172.27344892556,,,78.5199999809265,0,27689.504237835,29230.0047862744
2011-06-01T04:59:41Z,1306904381,710A,55.4283161,25.8553396,156.66,-7.3,-62.6,246.4,-81738.93,-34327.05,247.1,Weapon+Missile,Red,Allies,R-27ER,,xu,,193.771117358868,192.451232910156,0.570229564299116,156.659225463867,156.659225463867,90.4774286775307,-171.35075378418,0.0325419903270037,NaN,0.0307665871163224,0.830475177301593,5000,0.215675294399261,0.215675294399261,0.215675294399261,1877.36229612521,153.630219339523,2030.99251546473,,,79.5199999809265,0,27780.0210230877,29423.7958899047
