ISOTime,UnixTime,Id,Longitude,Latitude,Altitude,Roll,Pitch,Yaw,U,V,Heading,Type,Color,Coalition,Name,Group,Country,Pilot,TAS,CAS,M,ASL,AGL,GS,VS,AOA,AOS,RRT,TRT,TRD,G,LatG,LonG,Ek,Ep,Em,FFW,FFV,RelativeTime,Elev,GroundDistance,AirDistance
2011-06-01T04:30:00Z,1306902600,102,55.2343046,27.3349358,8997.77,0,0.3,116.5,-98921.91,129836.54,117.4,Air+FixedWing,Red,Allies,E-2C,Red AWACS #002,xu,,NaN,NaN,NaN,8997.76953125,8534.55679321289,NaN,NaN,NaN,NaN,NaN,NaN,NaN,NaN,NaN,NaN,NaN,8823.79765736328,NaN,,,0,463.212738037109,NaN,NaN
2011-06-01T04:30:01Z,1306902601,102,55.235685,27.3343198,8994.67,-0.4,2.4,116.5,-98786.28,129766.35,117.3,Air+FixedWing,Red,Allies,E-2C,Red AWACS #002,xu,,152.741622073836,96.3155899047852,0.502465132745736,8994.6748046875,8536.24374389648,152.710267438866,-3.0947265625,4.22378911437662,0.00339911931835677,0.733343750805929,0.120543724481668,5000,0.767371547720499,-0.000350519070329596,0.00470487492141979,1166.50015568733,8820.76276733887,9987.2629230262,,,1,458.431060791016,152.76299908894,153.009767619983
2011-06-01T04:30:02Z,1306902602,102,55.2370632,27.3337052,8989.29,-0.2,4,116.5,-98650.88,129696.33,117.3,Air+FixedWing,Red,Allies,E-2C,Red AWACS #002,xu,,152.535530241293,96.2101898193359,0.501749039995885,8989.2939453125,8584.98324584961,152.440592816936,-5.380859375,5.89548291603696,0.017129621035772,0.371398366308613,1.61508189906685,5000,1.08308940932394,-0.000720074451076586,0.119170394097536,1163.35439929962,8815.48594687988,9978.8403461795,,,2,404.310699462891,305.266560859413,305.823095719399
2011-06-01T04:30:03Z,1306902603,102,55.2384454,27.333089,8984.78,0,5.1,116.5,-98515.07,129626.13,117.3,Air+FixedWing,Red,Allies,E-2C,Red AWACS #002,xu,,152.93999424293,96.5013809204102,0.503047442720096,8984.783203125,8614.55422973633,152.87346088823,-4.5107421875,6.40552323231314,0.0405696909490367,0.0190464494080433,1.1118038923861,5000,1.19541664473938,-0.00296941363943495,0.012824085930321,1169.53209195137,8811.06241989258,9980.59451184395,,,3,370.228973388672,458.197895459898,459.036331057176
2011-06-01T04:30:04Z,1306902604,102,55.2398193,27.3324765,8982.15,0.1,5.8,116.5,-98380.09,129556.33,117.3,Air+FixedWing,Red,Allies,E-2C,Red AWACS #002,xu,,151.988114795811,95.890754699707,0.499897985347073,8982.154296875,8620.58609008789,151.965377277567,-2.62890625,6.43319001357394,0.0533799424300525,0.20000001179094,0.730896355288096,5000,1.17479924081373,0.00348952922008359,0.176356654168291,1155.01935195923,8808.48434354492,9963.50369550415,,,4,361.568206787109,610.206568422501,611.281804042269
2011-06-01T04:30:05Z,1306902605,102,55.2411981,27.3318615,8981.36,0.1,6.2,116.5,-98244.6,129486.28,117.3,Air+FixedWing,Red,Allies,E-2C,Red AWACS #002,xu,,152.522846461701,96.2464065551758,0.501651092777062,8981.35546875,8649.14672851562,152.520754543132,-0.798828125,6.19819665104919,0.0556596546365414,0,0.419767124648426,5000,1.14124003488387,-0.00189072226241344,0.0706028751747355,1163.16093463898,8807.70096076172,9970.8618954007,,,5,332.208740234375,762.786277461813,764.078465489634
2011-06-01T04:30:06Z,1306902606,102,55.2425723,27.3312484,8981.95,0.1,6.4,116.5,-98109.59,129416.44,117.4,Air+FixedWing,Red,Allies,E-2C,Red AWACS #002,xu,,152.005308171494,95.9033584594727,0.499953101807147,8981.951171875,8663.99810791016,152.004140897864,0.595703125,5.94451571749336,-0.0322444173751354,0,0.185311343135284,5000,1.08956979440906,0.00175231061454121,0.0618782663791326,1155.28068561554,8808.2851459668,9963.56583158234,,,6,317.953063964844,914.858543000198,916.366043367746
2011-06-01T04:30:07Z,1306902607,102,55.2439412,27.3306376,8983.43,0.1,6.4,116.5,-97975.1,129346.86,117.4,Air+FixedWing,Red,Allies,E-2C,Red AWACS #002,xu,,151.431308951979,95.5178985595703,0.498075564591929,8983.4267578125,8668.12814331055,151.424119535333,1.4755859375,5.73511722566004,-0.0289777230031242,0,0.0513960362511687,5000,1.04943684451269,-0.000932792519974359,0.0252483621187541,1146.57206654549,8809.7322014502,9956.30426799568,,,7,315.298614501953,1066.34953872573,1068.07756851727
2011-06-01T04:30:08Z,1306902608,102,55.2453017,27.3300302,8985.35,0.1,6.3,116.5,-97841.42,129277.67,117.4,Air+FixedWing,Red,Allies,E-2C,Red AWACS #002,xu,,150.535278659197,94.9191436767578,0.495141862185581,8985.3505859375,8669.97515869141,150.522984976872,1.923828125,5.52524448231725,-0.0288116212339614,0,0.0513960362511687,5000,1.00603170861924,0.0012790024243986,0.151940410799654,1133.04350605011,8811.6188323584,9944.66233840851,,,8,315.375427246094,1216.92696412572,1218.87937265209
2011-06-01T04:30:09Z,1306902609,102,55.2466658,27.3294212,8987.44,0.1,6.3,116.6,-97707.39,129208.3,117.4,Air+FixedWing,Red,Allies,E-2C,Red AWACS #002,xu,,150.93582017489,95.17041015625,0.49647395430348,8987.4375,8633.88101196289,150.921392127036,2.0869140625,5.50836834166943,-0.0193360113097503,0,0.100870594880489,5000,0.986662092612,0.000226411756414556,0.128666595190636,1139.08109059334,8813.6653959375,9952.74648653084,,,9,353.556488037109,1367.90026540387,1370.0797886169
2011-06-01T04:30:10Z,1306902610,102,55.2480315,27.3288113,8989.47,0,6.2,116.6,-97573.2,129138.82,117.4,Air+FixedWing,Red,Allies,E-2C,Red AWACS #002,xu,,151.127497400768,95.2849349975586,0.497118730310945,8989.4736328125,8578.33447265625,151.113780423193,2.0361328125,5.45986792199851,-0.0295636041336634,0,0.100870594880489,5000,0.985720374733522,0.000327506028529875,0.00672452935508429,1141.97602353096,8815.66216012207,9957.63818365303,,,10,411.13916015625,1519.07357451668,1521.47983256257
2011-06-01T04:30:11Z,1306902611,102,55.2493885,27.3282052,8991.32,0,6.1,116.6,-97439.87,129069.8,117.4,Air+FixedWing,Red,Allies,E-2C,Red AWACS #002,xu,,150.146708476078,94.6314697265625,0.493905401965599,8991.3203125,8605.38879394531,150.135351734134,1.8466796875,5.43563532233935,-0.024922009178983,0,0.0532655904281015,5000,0.982976649219542,-0.00286503593505962,-0.018894250447312,1127.20170331001,8817.47313425781,9944.67483756783,,,11,385.931518554688,1669.27146071502,1671.90076844047
2011-06-01T04:30:12Z,1306902612,102,55.2507344,27.327604,8992.93,0,6,116.6,-97307.62,129001.3,117.4,Air+FixedWing,Red,Allies,E-2C,Red AWACS #002,xu,,148.935400201656,93.8290252685547,0.489931927798384,8992.92578125,8671.4504699707,148.926746769411,1.60546875,5.4285976930105,-0.0247838810338325,0,0.0523391626455858,5000,0.959628375828913,0.0024984162965898,0.224070745247254,1109.08767166138,8819.04756126953,9928.13523293091,,,12,321.475311279297,1818.25750828756,1821.10549962096
2011-06-01T04:30:13Z,1306902613,102,55.2520911,27.3269979,8994.31,0,5.9,116.6,-97174.3,128932.28,117.4,Air+FixedWing,Red,Allies,E-2C,Red AWACS #002,xu,,150.134827231041,94.6070327758789,0.493887192969602,8994.3134765625,8701.0339050293,150.128413864312,1.3876953125,5.42874262349489,-0.0231178170128564,0,0.100870594880489,5000,0.979469332023798,-0.00150559216381925,-0.00247759592602933,1127.02331738472,8820.40842549316,9947.43174287788,,,13,293.279571533203,1968.43647118851,1971.50262755283
2011-06-01T04:30:14Z,1306902614,102,55.2534387,27.3263959,8995.45,0,5.9,116.6,-97041.89,128863.71,117.4,Air+FixedWing,Red,Allies,E-2C,Red AWACS #002,xu,,149.119599544331,93.9356231689453,0.490555322631369,8995.4462890625,8704.7001953125,149.11529668046,1.1328125,5.50289468714364,-0.022406253064373,0,0.0523391626455858,5000,0.971669930762678,-0.00199525078646078,0.134829654906244,1111.83274841309,8821.51933506348,9933.35208347656,,,14,290.74609375,2117.61576791022,2120.89660196306
2011-06-01T04:30:15Z,1306902615,102,55.2547893,27.3257924,8996.39,0,5.9,116.6,-96909.19,128794.97,117.4,Air+FixedWing,Red,Allies,E-2C,Red AWACS #002,xu,,149.453979990658,94.1495819091797,0.491661855935488,8996.38671875,8705.23837280273,149.451021164296,0.9404296875,5.57774844039523,-0.0199257431408494,0,0.0523391626455858,5000,0.982762516256506,0.00179078374210261,0.0284576700152929,1116.8246067524,8822.44158154297,9939.26618829537,,,15,291.148345947266,2267.12582665615,2270.62048769032
2011-06-01T04:30:16Z,1306902616,102,55.2561333,27.3251919,8997.14,0,5.8,116.6,-96777.11,128726.57,117.4,Air+FixedWing,Red,Allies,E-2C,Red AWACS #002,xu,,148.739834583971,93.6777267456055,0.489317692970993,8997.1357421875,8697.42727661133,148.737948607465,0.7490234375,5.53888416919631,-0.0217854127656567,0,0.0523391626455858,5000,0.980399788046117,0.00109985891540947,0.101718245457225,1106.17691960335,8823.1761226123,9929.35304221565,,,16,299.708465576172,2415.91306361139,2419.61948104778
2011-06-01T04:30:17Z,1306902617,102,55.2574778,27.3245911,8997.74,0,5.8,116.6,-96645.01,128658.17,117.4,Air+FixedWing,Red,Allies,E-2C,Red AWACS #002,xu,,148.760005431707,93.6876754760742,0.489388255040804,8997.744140625,8690.72766113281,148.758761313016,0.6083984375,5.5933572362185,-0.0214968347422651,0,0.0139882274201861,5000,0.985346776623947,-0.00172286256940364,0.0549869076585275,1106.47696080208,8823.77275766602,9930.24971846809,,,17,307.016479492188,2564.74648623603,2568.66410010522
2011-06-01T04:30:18Z,1306902618,102,55.2588181,27.3239923,8998.21,0,5.8,116.6,-96513.3,128589.96,117.4,Air+FixedWing,Red,Allies,E-2C,Red AWACS #002,xu,,148.319471993525,93.3965759277344,0.487942232224122,8998.2138671875,8694.27630615234,148.318728181557,0.4697265625,5.63530152453438,-0.0236183679330059,0,0.0139882274201861,5000,0.982463931254079,0.00117453353185219,0.131652882760354,1099.9332886219,8824.23340206543,9924.16669068733,,,18,303.937561035156,2713.11478834557,2717.24245583042
2011-06-01T04:30:19Z,1306902619,102,55.2601612,27.3233921,8998.59,0,5.8,116.6,-96381.32,128521.62,117.4,Air+FixedWing,Red,Allies,E-2C,Red AWACS #002,xu,,148.630033903479,93.5981216430664,0.488966537148475,8998.5927734375,8676.34356689453,148.629550925121,0.37890625,5.6689170445411,-0.0203122586309056,0,0.0139882274201861,5000,0.992885349307914,-0.00119729117712872,0.0428517177147865,1104.54434890747,8824.60498216309,9929.14933107056,,,19,322.249206542969,2861.80989526006,2866.14782686285
2011-06-01T04:30:20Z,1306902620,102,55.2614991,27.3227943,8998.89,0,5.8,116.6,-96249.84,128453.52,117.4,Air+FixedWing,Red,Allies,E-2C,Red AWACS #002,xu,,148.063960279523,93.225715637207,0.487106330933153,8998.89453125,8658.59140014648,148.063652784466,0.3017578125,5.69861886918163,-0.0215943690125703,0,0.0139882274201861,5000,0.98641777410392,0.00167414643854402,0.11736322241342,1096.14681668282,8824.90090548828,9921.0477221711,,,20,340.303131103516,3009.91838771686,3014.46558861631
2011-06-01T04:30:21Z,1306902621,102,55.2628387,27.3221957,8999.13,0,5.8,116.6,-96118.21,128385.37,117.4,Air+FixedWing,Red,Allies,E-2C,Red AWACS #002,xu,,148.23132978922,93.3341064453125,0.487658570325966,8999.1298828125,8669.43884277344,148.231142951549,0.2353515625,5.72090907095973,-0.0240073759378119,0,0.0139882274201861,5000,0.990033628445248,-0.000785156248105829,0.0955615227179167,1098.62635655403,8825.13170652832,9923.75806308235,,,21,329.691040039062,3158.21948907704,3162.97611678231
2011-06-01T04:30:22Z,1306902622,102,55.2641777,27.3215973,8999.31,0,5.8,116.6,-95986.62,128317.23,117.4,Air+FixedWing,Red,Allies,E-2C,Red AWACS #002,xu,,148.182445222711,93.3011932373047,0.487499004867009,8999.3125,8673.68334960938,148.182332695718,0.1826171875,5.73472507727194,-0.0243996413180137,0,0.0139882274201861,5000,1.00020805668479,0.000142595789141678,0.0131335507584726,1097.90185360909,8825.3107928125,9923.21264642159,,,22,325.629150390625,3306.46258688779,3311.42849025337
2011-06-01T04:30:23Z,1306902623,102,55.2655089,27.3210024,8999.46,0,5.8,116.6,-95855.8,128249.48,117.4,Air+FixedWing,Red,Allies,E-2C,Red AWACS #002,xu,,147.319312632835,92.7357635498047,0.484660431745493,8999.4599609375,8665.13952636719,147.319238831467,0.1474609375,5.75180532815751,-0.0285134184379488,0,0.0139882274201861,5000,0.986571194547929,0.000726837596326533,0.150342054159585,1085.14899373055,8825.45540259277,9910.60439632332,,,23,334.320434570312,3453.8328231215,3459.00673574825
2011-06-01T04:30:24Z,1306902624,102,55.2668446,27.3204055,8999.58,0,5.8,116.6,-95724.55,128181.52,117.4,Air+FixedWing,Red,Allies,E-2C,Red AWACS #002,xu,,147.808374753007,93.0548934936523,0.486270170782183,8999.5751953125,8654.64749145508,147.808329833484,0.115234375,5.75910850355503,-0.0235271321046695,0,0.0139882274201861,5000,1.00094543814324,-0.000590643487797968,0.0117866110016362,1092.36578235626,8825.56840891113,9917.9341912674,,,24,344.927703857422,3601.70433581482,3607.08693920099
2011-06-01T04:30:25Z,1306902625,102,55.2681723,27.3198123,8999.66,0,5.8,116.6,-95594.07,128113.96,117.4,Air+FixedWing,Red,Allies,E-2C,Red AWACS #002,xu,,146.93138586878,92.4808654785156,0.483385579058176,8999.6611328125,8648.92245483398,146.931360737136,0.0859375,5.7685605187809,-0.023141613892068,0,0.0139882274201861,5000,0.988102251143278,0.000464051900189069,0.156948038926592,1079.44160766602,8825.65268480957,9905.09429247559,,,25,350.738677978516,3748.68961018873,3754.27963642496
2011-06-01T04:30:26Z,1306902626,102,55.269505,27.3192167,8999.74,0,5.8,116.6,-95463.1,128046.15,117.4,Air+FixedWing,Red,Allies,E-2C,Red AWACS #002,xu,,147.483403429496,92.8413925170898,0.485202161948542,8999.736328125,8651.11175537109,147.483384260101,0.0751953125,5.77749213332207,-0.0296180708366844,0,0.0139882274201861,5000,0.994986880872679,-0.000600246008717638,0.0842431514956051,1087.56771435738,8825.7264262207,9913.29414057808,,,26,348.624572753906,3896.22832445108,3902.02655035833
2011-06-01T04:30:27Z,1306902627,102,55.2708362,27.3186219,8999.8,0,5.8,116.6,-95332.28,127978.41,117.4,Air+FixedWing,Red,Allies,E-2C,Red AWACS #002,xu,,147.319250875454,92.7339096069336,0.48466252811168,8999.7958984375,8662.91580200195,147.319238831467,0.0595703125,5.7776122114384,-0.027111592353992,0,0.0139882274201861,5000,1.00434156016069,0.000801160449638616,-0.0147497115418475,1085.14808392525,8825.78484474121,9910.93292866646,,,27,336.880096435547,4043.60556724171,4049.61175942425
2011-06-01T04:30:28Z,1306902628,102,55.2721571,27.3180315,8999.83,0,5.8,116.6,-95202.47,127911.2,117.4,Air+FixedWing,Red,Allies,E-2C,Red AWACS #002,xu,,146.18001454708,91.9888381958008,0.480914830353479,8999.8330078125,8675.69958496094,146.180009836773,0.037109375,5.78553604415637,-0.0272242560433636,0,0.0139882274201861,5000,0.982631123143466,0.00142451586676342,0.22263511908923,1068.42983264923,8825.82123660645,9894.25106925568,,,28,324.133422851562,4189.84986049728,4196.06241411332
2011-06-01T04:30:29Z,1306902629,102,55.2734888,27.3174364,8999.87,0,5.8,116.6,-95071.59,127843.45,117.4,Air+FixedWing,Red,Allies,E-2C,Red AWACS #002,xu,,147.378338158797,92.7722320556641,0.484857433065128,8999.87109375,8678.92788696289,147.378333237658,0.0380859375,5.78895197617124,-0.0250422371122105,0,0.0139882274201861,5000,0.995588141246509,-0.00204076607701384,0.0832508911555717,1086.01872792244,8825.85858615234,9911.87731407478,,,29,320.943206787109,4337.28192346161,4343.70251558295
2011-06-01T04:30:30Z,1306902630,102,55.274819,27.316842,8999.9,0,5.8,116.6,-94940.87,127775.76,117.4,Air+FixedWing,Red,Allies,E-2C,Red AWACS #002,xu,,147.20390621683,92.6579513549805,0.484283759478433,8999.8984375,8680.08374023438,147.203903677221,0.02734375,5.79008597961244,-0.0311255655445018,0,0.0139882274201861,5000,1.00919430116266,0.000700527347612802,-0.0457721030185542,1083.44950027466,8825.88540121094,9909.3349014856,,,30,319.814697265625,4484.54626442451,4491.17465676465
2011-06-01T04:30:31Z,1306902631,102,55.2761361,27.3162533,8999.92,0,5.8,116.6,-94811.43,127708.74,117.4,Air+FixedWing,Red,Allies,E-2C,Red AWACS #002,xu,,145.757198319565,91.7122955322266,0.479524403980925,8999.919921875,8684.91250610352,145.757196736184,0.021484375,5.79236034587691,-0.0254398921286274,0,0.0139882274201861,5000,0.986742419821519,-9.60252091967177e-06,0.173291536070152,1062.25804309845,8825.90647018555,9888.16451328399,,,31,315.007415771484,4630.36977411306,4637.20393318782
2011-06-01T04:30:32Z,1306902632,102,55.2774596,27.3156619,8999.93,0,5.9,116.6,-94681.36,127641.4,117.4,Air+FixedWing,Red,Allies,E-2C,Red AWACS #002,xu,,146.470020976411,92.1781005859375,0.481869601514686,8999.93359375,8685.06060791016,146.470020338328,0.013671875,5.89616453419302,-0.0311271916271137,0,0.0523391626455858,5000,0.99910325732874,0.000843474899885125,0.0631154660337308,1072.67335224152,8825.91987771484,9898.59322995636,,,32,314.872985839844,4776.89201750285,4783.93292872538
2011-06-01T04:30:33Z,1306902633,102,55.2787796,27.315072,8999.95,0,5.9,116.6,-94551.63,127574.24,117.4,Air+FixedWing,Red,Allies,E-2C,Red AWACS #002,xu,,146.078551497955,91.9220275878906,0.480581824429426,8999.9501953125,8686.41052246094,146.078550554587,0.0166015625,5.89389556474387,-0.027092504202661,0,0.0523391626455858,5000,0.993715837217313,-0.000314702667303643,0.105560827811922,1066.94716038704,8825.93615828613,9892.88331867317,,,33,313.539672851562,4923.03345050127,4930.28057717616
2011-06-01T04:30:34Z,1306902634,102,55.2800996,27.3144819,8999.96,0,5.9,116.6,-94421.88,127507.07,117.4,Air+FixedWing,Red,Allies,E-2C,Red AWACS #002,xu,,146.10654806128,91.9404220581055,0.480673996237114,8999.9599609375,8698.77444458008,146.106547734917,0.009765625,5.89691997756481,-0.0308653466907773,0,0.0139882274201861,5000,0.989648821324435,0.000360217957856707,0.151697876770559,1067.35616931915,8825.94573509277,9893.30190441193,,,34,301.185516357422,5069.18914427954,5076.64250621705
2011-06-01T04:30:35Z,1306902635,102,55.2814243,27.3138899,8999.97,0,5.9,116.6,-94291.7,127439.68,117.4,Air+FixedWing,Red,Allies,E-2C,Red AWACS #002,xu,,146.58870171625,92.2551956176758,0.482260293673553,8999.9697265625,8701.39334106445,146.588701390961,0.009765625,5.89733657373165,-0.0266911596414902,0,0.0139882274201861,5000,1.00557047187691,-0.00126876495326488,-0.00818535560886129,1074.41237354279,8825.95531189941,9900.3676854422,,,35,298.576385498047,5215.84614188432,5223.50644667901
2011-06-01T04:30:36Z,1306902636,102,55.2827389,27.3133024,8999.97,0,5.9,116.6,-94162.5,127372.78,117.4,Air+FixedWing,Red,Allies,E-2C,Red AWACS #002,xu,,145.495183648689,91.5409088134766,0.478662768986525,8999.9736328125,8707.52954101562,145.495183596252,0.00390625,5.89615182057461,-0.0298312456309828,0,0.0139882274201861,5000,0.98615007003351,0.0019532880993449,0.187492125274842,1058.44242324829,8825.95914262207,9884.40156587036,,,36,292.444091796875,5361.39875011958,5369.26443928976
2011-06-01T04:30:37Z,1306902637,102,55.2840611,27.3127113,8999.98,0,5.9,116.6,-94032.55,127305.52,117.4,Air+FixedWing,Red,Allies,E-2C,Red AWACS #002,xu,,146.330034641691,92.0863265991211,0.481409374574682,8999.9794921875,8707.81777954102,146.33003452438,0.005859375,5.89999926828606,-0.0329669495368932,0,0.0139882274201861,5000,1.00483810345316,-0.00116493101093252,-0.00109837172864252,1070.62395191193,8825.96488870605,9896.58884061798,,,37,292.161712646484,5507.79098743493,5515.86324592998
2011-06-01T04:30:38Z,1306902638,102,55.285374,27.3121246,8999.98,0,5.9,116.6,-93903.51,127238.71,117.4,Air+FixedWing,Red,Allies,E-2C,Red AWACS #002,xu,,145.30638638013,91.4175491333008,0.47804168679555,8999.9794921875,8703.32766723633,145.30638638013,0,5.8957781328458,-0.0278053834531943,0,0.0139882274201861,5000,0.992569337737653,0.000100633102025803,0.134093015799921,1055.69729614258,8825.96488870605,9881.66218484863,,,38,296.651824951172,5653.15017581188,5661.42754587991
2011-06-01T04:30:39Z,1306902639,102,55.2866898,27.3115365,8999.99,0,5.9,116.6,-93774.2,127171.77,117.4,Air+FixedWing,Red,Allies,E-2C,Red AWACS #002,xu,,145.613864852792,91.6181640625,0.479053329108723,8999.990234375,8694.91775512695,145.613864456557,0.0107421875,5.89999926828606,-0.0330333232782754,0,0.0139882274201861,5000,0.997934609129924,-0.000256384015524345,0.0608615559824039,1060.16988186836,8825.97542319336,9886.14530506172,,,39,305.072479248047,5798.83295267478,5807.31589143894
2011-06-01T04:30:40Z,1306902640,102,55.2880017,27.31095,8999.99,0,5.9,116.6,-93645.25,127105.01,117.4,Air+FixedWing,Red,Allies,E-2C,Red AWACS #002,xu,,145.201581070964,91.3488159179688,0.477696961578598,8999.990234375,8692.32543945312,145.201581070964,0,5.89999926828606,-0.0269705787383261,0,0.0139882274201861,5000,0.989541100731387,0.00180073802615292,0.1527402675697,1054.17495727539,8825.97542319336,9880.15038046875,,,40,307.664794921875,5944.09069144383,5952.77859887412
2011-06-01T04:30:41Z,1306902641,102,55.289318,27.3103617,8999.99,0,5.9,116.6,-93515.86,127038.04,117.4,Air+FixedWing,Red,Allies,E-2C,Red AWACS #002,xu,,145.6940194876,91.6705169677734,0.479317028892303,8999.990234375,8689.42294311523,145.6940194876,0,5.89999926828606,-0.0358557603125318,0,0.0139882274201861,5000,1.00902156713564,-0.0013174810841245,-0.0357683394483959,1061.33736572266,8825.97542319336,9887.31278891602,,,41,310.567291259766,6089.83950944268,6098.73307848499
2011-06-01T04:30:42Z,1306902642,102,55.2906221,27.3097787,8999.99,0,5.9,116.6,-93387.69,126971.69,117.4,Air+FixedWing,Red,Allies,E-2C,Red AWACS #002,xu,,144.327957746263,90.7788238525391,0.474822838551177,8999.990234375,8691.0270690918,144.327957746263,0,5.89845371551155,-0.0319326376338154,0,0.0523391626455858,5000,0.98166518102605,-0.000148997469754796,0.238641612763589,1041.52796936035,8825.97542319336,9867.50339255371,,,42,308.963165283203,6234.23208685087,6243.32940375671
2011-06-01T04:30:43Z,1306902643,102,55.2919382,27.3091904,9000,0,6,116.6,-93258.33,126904.72,117.4,Air+FixedWing,Red,Allies,E-2C,Red AWACS #002,xu,,145.666267448303,91.6524429321289,0.479225793885014,9000,8694.23782348633,145.666267120954,0.009765625,5.99767889662341,-0.0319708727907672,0,0.0523391626455858,5000,0.996959390807207,0.000947308842217487,0.0718094033330396,1060.93307361603,8825.985,9886.91807361603,,,43,305.762176513672,6379.96063326428,6389.26358361597
2011-06-01T04:30:44Z,1306902644,102,55.2932514,27.3086033,9000,0,6,116.6,-93129.25,126837.91,117.4,Air+FixedWing,Red,Allies,E-2C,Red AWACS #002,xu,,145.344667978449,91.4424667358398,0.478167767452721,9000,8696.30853271484,145.344667978449,0,5.99999314935044,-0.0262221121770632,0,0.0139882274201861,5000,1.00636363715849,-0.00129472343884796,-0.00813937123206553,1056.25362548828,8825.985,9882.23862548828,,,44,303.691467285156,6525.35825307589,6534.86636969765
2011-06-01T04:30:45Z,1306902645,102,55.2945545,27.3080208,9000,0,6,116.6,-93001.16,126771.59,117.4,Air+FixedWing,Red,Allies,E-2C,Red AWACS #002,xu,,144.233682063185,90.7172241210938,0.474512747546163,9000,8700.86965942383,144.233682063185,0,5.99999314935044,-0.0322307018676185,0,0.0139882274201861,5000,0.98413110613505,0.000379774762826679,0.203389282506498,1040.1677520752,8825.985,9866.15275207519,,,45,299.130340576172,6669.64945936691,6679.36118103105
2011-06-01T04:30:46Z,1306902646,102,55.2958665,27.3074342,9000,0,6,116.6,-92872.21,126704.84,117.4,Air+FixedWing,Red,Allies,E-2C,Red AWACS #002,xu,,145.208518954815,91.3533477783203,0.477719852330841,9000,8702.1149597168,145.208518954815,0,5.99999314935044,-0.0315153582412679,0,0.0139882274201861,5000,1.0084143736997,0.000200914440920977,-0.027650849222463,1054.27569885254,8825.985,9880.26069885254,,,46,297.885040283203,6814.92424273599,6824.84095734037
2011-06-01T04:30:47Z,1306902647,102,55.2971666,27.306853,9000,0,6,116.6,-92744.41,126638.68,117.4,Air+FixedWing,Red,Allies,E-2C,Red AWACS #002,xu,,143.905144709382,90.5027847290039,0.4734318962485,9000,8703.15130615234,143.905144709382,0,5.99999314935044,-0.0295935665268602,0,0.0139882274201861,5000,0.978060967593259,0.000869785148598839,0.261142861367922,1035.43453369141,8825.985,9861.41953369141,,,47,296.848693847656,6958.87819354477,6968.99803729999
2011-06-01T04:30:48Z,1306902648,102,55.2984808,27.3062655,9000,0,6,116.6,-92615.24,126571.82,117.4,Air+FixedWing,Red,Allies,E-2C,Red AWACS #002,xu,,145.449473413987,91.5107421875,0.478512565661182,9000,8704.13134765625,145.449473413987,0,5.99999314935044,-0.0348233714988402,0,0.0139882274201861,5000,1.00889628117932,-0.00129152259854142,-0.0322358980538991,1057.77746582031,8825.985,9883.76246582031,,,48,295.86865234375,7104.39695687228,7114.72213783976
2011-06-01T04:30:49Z,1306902649,102,55.2997826,27.3056834,9000,0,6,116.6,-92487.27,126505.57,117.4,Air+FixedWing,Red,Allies,E-2C,Red AWACS #002,xu,,144.100879513494,90.6304397583008,0.474075841950788,9000,8708.14419555664,144.100879513494,0,5.99999314935044,-0.0275305206585584,0,0.0139882274201861,5000,0.991468923385998,0.000781955407799271,0.133574532092525,1038.25317382812,8825.985,9864.23817382812,,,49,291.855804443359,7248.55672635566,7259.08532689909
2011-06-01T04:30:50Z,1306902650,102,55.3010871,27.3051001,9000,0,6,116.6,-92359.05,126439.2,117.4,Air+FixedWing,Red,Allies,E-2C,Red AWACS #002,xu,,144.3872984565,90.8175964355469,0.475018128368571,9000,8709.75738525391,144.3872984565,0,5.99999314935044,-0.0332767827471931,0,0.0139882274201861,5000,1.00059193557165,-0.000490010385772162,0.0467747663062131,1042.38459777832,8825.985,9868.36959777832,,,50,290.242614746094,7393.00164173602,7403.73406421646
2011-06-01T04:30:51Z,1306902651,102,55.3023864,27.3045192,9000,0,6,116.6,-92231.33,126373.08,117.4,Air+FixedWing,Red,Allies,E-2C,Red AWACS #002,xu,,143.817806910245,90.4459457397461,0.473144564618052,9000,8711.15173339844,143.817806910245,0,5.99999314935044,-0.0336676920642371,0,0.0139882274201861,5000,0.991655107308154,0.000755996922216181,0.131803108300967,1034.17807922363,8825.985,9860.16307922363,,,51,288.848266601562,7536.87558890518,7547.81102764669
2011-06-01T04:30:52Z,1306902652,102,55.3036882,27.3039371,9000,0,6,116.6,-92103.37,126306.84,117.4,Air+FixedWing,Red,Allies,E-2C,Red AWACS #002,xu,,144.086758439211,90.6213073730469,0.474029385189368,9000,8711.88293457031,144.086758439211,0,5.99999314935044,-0.0287706230762209,0,0.0139882274201861,5000,0.991019911254829,-0.000580689203747662,0.137846602218875,1038.04969787598,8825.985,9864.03469787598,,,52,288.117065429688,7681.02998106568,7692.16883179598
2011-06-01T04:30:53Z,1306902653,102,55.3049928,27.3033537,9000,0,6,116.6,-91975.12,126240.45,117.4,Air+FixedWing,Red,Allies,E-2C,Red AWACS #002,xu,,144.415295546873,90.8358306884766,0.475110235677253,9000,8711.9924621582,144.415295546873,0,5.99999314935044,-0.0331789961591824,0,0.0139882274201861,5000,1.00990384507695,-6.75344374374691e-06,-0.041822239554922,1042.78887939453,8825.985,9868.77387939453,,,53,288.007537841797,7825.50061202235,7836.84332097601
2011-06-01T04:30:54Z,1306902654,102,55.3062844,27.3027761,9000,0,6.1,116.6,-91848.15,126174.73,117.4,Air+FixedWing,Red,Allies,E-2C,Red AWACS #002,xu,,142.97218084169,89.8944244384766,0.470362549048269,9000,8712.2341003418,142.97218084169,0,6.09998740397696,-0.0349146043254573,0,0.0523391626455858,5000,0.972529494852547,0.000496763829515906,0.31033026768008,1022.05222473145,8825.985,9848.03722473144,,,54,287.765899658203,7968.5312523174,7980.07578756598
2011-06-01T04:30:55Z,1306902655,102,55.3075943,27.3021904,9000,0,6.1,116.6,-91719.39,126108.08,117.4,Air+FixedWing,Red,Allies,E-2C,Red AWACS #002,xu,,144.984787136363,91.2074127197266,0.476983799570014,9000,8713.37622070312,144.984787136363,0,6.09998740397696,-0.0314205842809903,0,0.0523391626455858,5000,1.0138749172338,-0.00018526200251881,-0.076549406506932,1051.02942504883,8825.985,9877.01442504883,,,55,286.623779296875,8113.57832410722,8125.32753097864
2011-06-01T04:30:56Z,1306902656,102,55.3088878,27.3016119,9000,0,6.1,116.6,-91592.23,126042.26,117.4,Air+FixedWing,Red,Allies,E-2C,Red AWACS #002,xu,,143.181791620514,90.0313720703125,0.471052145161687,9000,8714.42831420898,143.181791620514,0,6.09998740397696,-0.0352951387575864,0,0.0171320104161963,5000,0.99172420459094,-0.000710481631663115,0.130720467561783,1025.05127258301,8825.985,9851.03627258301,,,56,285.571685791016,8256.8230162537,8268.77435146301
2011-06-01T04:30:57Z,1306902657,102,55.3101835,27.3010325,9000,0,6.1,116.6,-91464.87,125976.32,117.4,Air+FixedWing,Red,Allies,E-2C,Red AWACS #002,xu,,143.422991036689,90.1884078979492,0.47184566437328,9000,8720.22106933594,143.422991036689,0,6.09998740397696,-0.0265915758748449,0,0.0171320104161963,5000,0.994112381963473,0.00109985891540947,0.108373682099872,1028.50771789551,8825.985,9854.49271789551,,,57,279.778930664062,8400.30620937277,8412.46000946118
2011-06-01T04:30:58Z,1306902658,102,55.3114793,27.300453,9000,0,6.1,116.6,-91337.48,125910.38,117.4,Air+FixedWing,Red,Allies,E-2C,Red AWACS #002,xu,,143.443805178685,90.2021789550781,0.471914140581925,9000,8721.77603149414,143.443805178685,0,6.09998740397696,-0.035000562919691,0,0.0171320104161963,5000,0.991345654236316,-0.000658564660496935,0.134262659887454,1028.80626220703,8825.985,9854.79126220703,,,58,278.223968505859,8543.80279822216,8556.15908209217
2011-06-01T04:30:59Z,1306902659,102,55.3127776,27.2998724,9000,0,6.1,116.6,-91209.84,125844.31,117.4,Air+FixedWing,Red,Allies,E-2C,Red AWACS #002,xu,,143.719939536961,90.3822021484375,0.472822591861564,9000,8723.18200683594,143.719939536961,0,6.09998740397696,-0.0276114478553173,0,0.0171320104161963,5000,0.996344725676291,8.10762970558291e-05,0.0874850719818093,1032.77105102539,8825.985,9858.75605102539,,,59,276.817993164062,8687.5831709626,8700.142339053
2011-06-01T04:31:00Z,1306902660,102,55.3140743,27.2992924,9000,0,6.1,116.6,-91082.38,125778.33,117.4,Air+FixedWing,Red,Allies,E-2C,Red AWACS #002,xu,,143.534734370128,90.2614593505859,0.472213287493009,9000,8721.02319335938,143.534734370128,0,6.09998740397696,-0.0341445735266864,0,0.0171320104161963,5000,1.00440839991953,-0.000668518944547239,0.0120312131433248,1030.11099853516,8825.985,9856.09599853515,,,60,278.976806640625,8831.18364369418,8843.9454421538
2011-06-01T04:31:01Z,1306902661,102,55.3153626,27.2987163,9000,0,6.1,116.6,-90955.73,125712.77,117.4,Air+FixedWing,Red,Allies,E-2C,Red AWACS #002,xu,,142.605362124433,89.6556930541992,0.46915575632907,9000,8714.21478271484,142.605362124433,0,6.09998740397696,-0.0289187040123395,0,0.0171320104161963,5000,0.989038152142306,0.000726837596326533,0.155854546168952,1016.81446533203,8825.985,9842.79946533203,,,61,285.785217285156,8973.84916390191,8986.81227344665
2011-06-01T04:31:02Z,1306902662,102,55.3166551,27.2981381,9000,0,6.1,116.6,-90828.66,125646.98,117.4,Air+FixedWing,Red,Allies,E-2C,Red AWACS #002,xu,,143.094453788671,89.9742431640625,0.470764813423639,9000,8698.4873046875,143.094453788671,0,6.09998740397696,-0.0352951387575864,0,0.0171320104161963,5000,0.998654986218966,0.0004768552614153,0.0658673741918226,1023.80113525391,8825.985,9849.78613525391,,,62,301.5126953125,9116.99618820863,9130.16128827552
2011-06-01T04:31:03Z,1306902663,102,55.3179442,27.2975615,9000,0,6.1,116.6,-90701.93,125581.39,117.4,Air+FixedWing,Red,Allies,E-2C,Red AWACS #002,xu,,142.696046483877,89.7145690917969,0.469454097770154,9000,8673.2604675293,142.696046483877,0,6.09998740397696,-0.0266625591961199,0,0.0171320104161963,5000,0.985553282120828,-0.000220471245890955,0.188463364771914,1018.10808410645,8825.985,9844.09308410644,,,63,326.739532470703,9259.7587147917,9273.12526282596
2011-06-01T04:31:04Z,1306902664,102,55.3192406,27.2969816,9000,0,6.1,116.6,-90574.48,125515.42,117.4,Air+FixedWing,Red,Allies,E-2C,Red AWACS #002,xu,,143.506737314961,90.2431030273438,0.47212118030015,9000,8663.47827148438,143.506737314961,0,6.09998740397696,-0.0357333300952462,0,0.0171320104161963,5000,0.998841502947614,-0.00133028444535073,0.0641220895374752,1029.70918273926,8825.985,9855.69418273926,,,64,336.521728515625,9403.32867997443,9416.89781532969
2011-06-01T04:31:05Z,1306902665,102,55.3205331,27.2964034,9000,0,6.1,116.6,-90447.41,125449.63,117.4,Air+FixedWing,Red,Allies,E-2C,Red AWACS #002,xu,,143.091107562548,89.9719390869141,0.470753804712435,9000,8667.55737304688,143.091107562548,0,6.09998740397696,-0.0300065254215553,0,0.0171320104161963,5000,1.00058669640702,0.000924551196940953,0.0477918687275066,1023.75325317383,8825.985,9849.73825317383,,,65,332.442626953125,9546.47678042274,9560.2479078187
2011-06-01T04:31:06Z,1306902666,102,55.3218205,27.2958276,9000,0,6.1,116.6,-90320.85,125384.12,117.4,Air+FixedWing,Red,Allies,E-2C,Red AWACS #002,xu,,142.514432691537,89.5960083007812,0.468856608623631,9000,8676.51174926758,142.514432691537,0,6.09998740397696,-0.0315815505607935,0,0.0370093733476075,5000,0.992294788571542,0.000992824132770553,0.125381367564789,1015.51817626953,8825.985,9841.50317626953,,,66,323.488250732422,9689.05241564831,9703.02472729501
2011-06-01T04:31:07Z,1306902667,102,55.3231095,27.2952509,9000,0,6.2,116.6,-90194.12,125318.52,117.4,Air+FixedWing,Red,Allies,E-2C,Red AWACS #002,xu,,142.702984711964,89.7191925048828,0.469476923767698,9000,8684.75433349609,142.702984711964,0,6.20000822753505,-0.0338658719519205,0,0.0532655904281015,5000,0.994456421263977,-0.0014664785538793,0.105186927725312,1018.20709228516,8825.985,9844.19209228516,,,67,315.245666503906,9831.81969601999,9845.99346234273
2011-06-01T04:31:08Z,1306902668,102,55.3243982,27.2946744,9000,0,6.2,116.6,-90067.41,125252.93,117.4,Air+FixedWing,Red,Allies,E-2C,Red AWACS #002,xu,,142.675232341945,89.7011032104492,0.469385621561721,9000,8689.61767578125,142.675232341945,0,6.20000822753505,-0.0297661836054905,0,0.0242283218322616,5000,0.997576686703426,0.000606647689330755,0.0764644336275986,1017.81109619141,8825.985,9843.79609619141,,,68,310.38232421875,9974.54423164527,9988.91939232827
2011-06-01T04:31:09Z,1306902669,102,55.3256842,27.2940991,9000,0,6.2,116.6,-89940.98,125187.48,117.4,Air+FixedWing,Red,Allies,E-2C,Red AWACS #002,xu,,142.364162658902,89.4985122680664,0.468362236955103,9000,8686.85241699219,142.364162658902,0,6.20000822753505,-0.0364033062754972,0,0.0197823405926261,5000,0.996498872484676,0.000395778964359472,0.0863858692032679,1013.37774047852,8825.985,9839.36274047851,,,69,313.147583007812,10116.9725548743,10131.5486919409
2011-06-01T04:31:10Z,1306902670,102,55.3269683,27.2935246,9000,0,6.2,116.6,-89814.74,125122.14,117.4,Air+FixedWing,Red,Allies,E-2C,Red AWACS #002,xu,,142.150960492174,89.3595809936523,0.46766082557553,9000,8692.76861572266,142.150960492174,0,6.20000822753505,-0.0294806484245037,0,0.0197823405926261,5000,0.995033521362908,-0.00154435401062857,0.0998746379515765,1010.34477844238,8825.985,9836.32977844238,,,70,307.231384277344,10259.1891701417,10273.9659848568
2011-06-01T04:31:11Z,1306902671,102,55.3282516,27.2929505,9000,0,6.2,116.6,-89688.58,125056.82,117.4,Air+FixedWing,Red,Allies,E-2C,Red AWACS #002,xu,,142.07080590889,89.3070449829102,0.467397125925085,9000,8700.81060791016,142.07080590889,0,6.20000822753505,-0.0319497662935956,0,0.0197823405926261,5000,0.982147755990523,0.00197604574462143,0.218489969574852,1009.20569458008,8825.985,9835.19069458008,,,71,299.189392089844,10401.3238850204,10416.3012618175
2011-06-01T04:31:12Z,1306902672,102,55.3295446,27.2923719,9000,0,6.2,116.6,-89561.44,124991.02,117.4,Air+FixedWing,Red,Allies,E-2C,Red AWACS #002,xu,,143.160732822808,90.017578125,0.470982864063011,9000,8709.22045898438,143.160732822808,0,6.20000822753505,-0.0314859647429101,0,0.0197823405926261,5000,1.00307613151025,-0.00156070997529199,0.0258412497767733,1024.74977111816,8825.985,9850.73477111816,,,72,290.779541015625,10544.5335962567,10559.7130520305
2011-06-01T04:31:13Z,1306902673,102,55.3308305,27.2917966,9000,0,6.2,116.6,-89435.02,124925.57,117.4,Air+FixedWing,Red,Allies,E-2C,Red AWACS #002,xu,,142.350286708445,89.4892578125,0.468316586623767,9000,8713.90280151367,142.350286708445,0,6.20000822753505,-0.0293061393215584,0,0.0197823405926261,5000,1.0066207250904,0.00116778008810844,-0.00678724615107228,1013.18020629883,8825.985,9839.16520629883,,,73,286.097198486328,10686.9591158763,10702.3395440779
2011-06-01T04:31:14Z,1306902674,102,55.332106,27.2912259,9000,0,6.2,116.6,-89309.61,124860.66,117.4,Air+FixedWing,Red,Allies,E-2C,Red AWACS #002,xu,,141.217996668299,88.7519378662109,0.464591478519452,9000,8718.69482421875,141.217996668299,0,6.20000822753505,-0.0339647307060464,0,0.0197823405926261,5000,0.982297724445014,-0.000538374753501153,0.217109488288065,997.126129150391,8825.985,9823.11112915039,,,74,281.30517578125,10828.236576092,10843.8163567298
2011-06-01T04:31:15Z,1306902675,102,55.3333912,27.2906508,9000,0,6.2,116.6,-89183.24,124795.24,117.4,Air+FixedWing,Red,Allies,E-2C,Red AWACS #002,xu,,142.294292399288,89.452995300293,0.468132371583943,9000,8723.52569580078,142.294292399288,0,6.20000822753505,-0.0327491472778728,0,0.0197823405926261,5000,0.99561342496557,0.0001589517538051,0.0945365415210254,1012.3832824707,8825.985,9838.3682824707,,,75,276.474304199219,10970.5852315545,10986.3658761583
2011-06-01T04:31:16Z,1306902676,102,55.3346753,27.2900762,9000,0,6.2,116.6,-89056.99,124729.89,117.4,Air+FixedWing,Red,Allies,E-2C,Red AWACS #002,xu,,142.161489937294,89.3661499023438,0.467695466277082,9000,8728.35229492188,142.161489937294,0,6.20000822753505,-0.0338954801821822,0,0.0197823405926261,5000,0.99942396772075,0.000713682471969673,0.0594599450202821,1010.49446105957,8825.985,9836.47946105957,,,76,271.647705078125,11112.8109847041,11128.7923198511
2011-06-01T04:31:17Z,1306902677,102,55.3359549,27.2895035,9000,0,6.2,116.6,-88931.16,124664.77,117.4,Air+FixedWing,Red,Allies,E-2C,Red AWACS #002,xu,,141.682683013894,89.0543365478516,0.466120244834235,9000,8733.2389831543,141.682683013894,0,6.20000822753505,-0.0297290542701424,0,0.0197823405926261,5000,0.992224406847366,-0.00152159636535203,0.125732942848452,1003.69913330078,8825.985,9829.68413330078,,,77,266.761016845703,11254.5512748767,11270.732615545
2011-06-01T04:31:18Z,1306902678,102,55.3372362,27.2889302,9000,0,6.2,116.6,-88805.19,124599.55,117.4,Air+FixedWing,Red,Allies,E-2C,Red AWACS #002,xu,,141.857603429915,89.1681976318359,0.466695713518252,9000,8737.53228759766,141.857603429915,0,6.20000822753505,-0.0317494537023648,0,0.0197823405926261,5000,0.992843905191449,0.000888990190438191,0.120030371103592,1006.17898254395,8825.985,9832.16398254394,,,78,262.467712402344,11396.4689093552,11412.8505057892
2011-06-01T04:31:19Z,1306902679,102,55.3385185,27.2883563,9000,0,6.2,116.6,-88679.1,124534.28,117.4,Air+FixedWing,Red,Allies,E-2C,Red AWACS #002,xu,,141.976284786913,89.2455749511719,0.467086161962652,9000,8741.38885498047,141.976284786913,0,6.20000822753505,-0.0347693436120734,0,0.0197823405926261,5000,1.00580886004668,-0.00121684798209869,0.000686088851699298,1007.86327209473,8825.985,9833.84827209472,,,79,258.611145019531,11538.5083984823,11555.0904226275
2011-06-01T04:31:20Z,1306902680,102,55.3397912,27.2877867,9000,0,6.2,116.6,-88553.96,124469.49,117.4,Air+FixedWing,Red,Allies,E-2C,Red AWACS #002,xu,,140.917701673777,88.5565185546875,0.463603541437856,9000,8745.55120849609,140.917701673777,0,6.20000822753505,-0.0302635278435573,0,0.0197823405926261,5000,0.977799707877834,0.00220647127456269,0.258514380535023,992.889932250977,8825.985,9818.87493225098,,,80,254.448791503906,11679.4792863976,11696.2602303821
2011-06-01T04:31:21Z,1306902681,102,55.3410774,27.2872111,9000,0,6.2,116.6,-88427.49,124404.04,117.4,Air+FixedWing,Red,Allies,E-2C,Red AWACS #002,xu,,142.402444848493,89.5231781005859,0.468488181094538,9000,8749.52275085449,142.402444848493,0,6.20000822753505,-0.0322839949782944,0,0.0523391626455858,5000,1.00773252704311,-0.0014764328379296,-0.0170215437274189,1013.92281494141,8825.985,9839.90781494141,,,81,250.477249145508,11821.9498640525,11838.9318440453
2011-06-01T04:31:22Z,1306902682,102,55.3423525,27.2866404,9000,0,6.3,116.6,-88302.12,124339.14,117.4,Air+FixedWing,Red,Allies,E-2C,Red AWACS #002,xu,,141.169185347233,88.7200469970703,0.464430894710323,9000,8752.11610412598,141.169185347233,0,6.30000282459342,-0.0317230932291341,0,0.0523391626455858,5000,0.992865670609656,-0.000210868724971281,0.119653893413066,996.436944580078,8825.985,9822.42194458008,,,82,247.883895874023,11963.1873593615,11980.3686353958
2011-06-01T04:31:23Z,1306902683,102,55.3436282,27.2860694,9000,0,6.3,116.6,-88176.67,124274.2,117.4,Air+FixedWing,Red,Allies,E-2C,Red AWACS #002,xu,,141.267052733425,88.7838134765625,0.464752867509274,9000,8756.85635375977,141.267052733425,0,6.30000282459342,-0.0309592975152839,0,0.00989117029631303,5000,0.986924354956819,0.000934505480991256,0.173469634970653,997.819009399414,8825.985,9823.80400939941,,,83,243.143646240234,12104.5058934961,12121.8865799242
2011-06-01T04:31:24Z,1306902684,102,55.3449098,27.2854958,9000,0,6.3,116.6,-88050.66,124208.97,117.4,Air+FixedWing,Red,Allies,E-2C,Red AWACS #002,xu,,141.895885069677,89.193359375,0.466821655848812,9000,8760.29653930664,141.895885069677,0,6.30000282459342,-0.0335839473880001,0,0.00989117029631303,5000,0.99916051754444,-0.00033425947227362,0.0626359068960423,1006.72210998535,8825.985,9832.70710998535,,,84,239.703460693359,12246.464638999,12264.0456392031
2011-06-01T04:31:25Z,1306902685,102,55.3461871,27.284924,9000,0,6.3,116.6,-87925.05,124143.95,117.4,Air+FixedWing,Red,Allies,E-2C,Red AWACS #002,xu,,141.43119880911,88.8906555175781,0.46529288981376,9000,8762.3871307373,141.43119880911,0,6.30000282459342,-0.0337622019580869,0,0.00989117029631303,5000,1.00306965264991,-0.000853429183935432,0.0272274188030966,1000.1391998291,8825.985,9826.1241998291,,,85,237.612869262695,12387.9572696096,12405.7379258699
2011-06-01T04:31:26Z,1306902686,102,55.347457,27.2843556,9000,0,6.3,116.6,-87800.18,124079.3,117.4,Air+FixedWing,Red,Allies,E-2C,Red AWACS #002,xu,,140.617161456884,88.3606643676758,0.462614797601979,9000,8762.96086120605,140.617161456884,0,6.30000282459342,-0.0271170798915396,0,0.00989117029631303,5000,0.988252321477711,4.55152905530654e-05,0.161441069706433,988.65930480957,8825.985,9814.64430480957,,,86,237.039138793945,12528.6296692835,12546.6088241947
2011-06-01T04:31:27Z,1306902687,102,55.3487317,27.2837851,9000,0,6.3,116.6,-87674.85,124014.42,117.4,Air+FixedWing,Red,Allies,E-2C,Red AWACS #002,xu,,141.127312289031,88.6928024291992,0.464293137013151,9000,8763.21876525879,141.127312289031,0,6.30000282459342,-0.0322557770563038,0,0.00989117029631303,5000,0.992009079131358,0.00204076607701384,0.12741279873137,995.845913696289,8825.985,9821.83091369629,,,87,236.781234741211,12669.8288216929,12688.0072185421
2011-06-01T04:31:28Z,1306902688,102,55.3500077,27.2832139,9000,0,6.3,116.6,-87549.36,123949.48,117.4,Air+FixedWing,Red,Allies,E-2C,Red AWACS #002,xu,,141.301743581804,88.8063583374023,0.464866996536166,9000,8764.15093994141,141.301743581804,0,6.30000282459342,-0.0338923361257976,0,0.00989117029631303,5000,0.994621932869698,-0.00222567631640203,0.103745875489695,998.309136962891,8825.985,9824.29413696289,,,88,235.849060058594,12811.1832984395,12829.5611563995
2011-06-01T04:31:29Z,1306902689,102,55.3512833,27.2826428,9000,0,6.3,116.6,-87423.93,123884.54,117.4,Air+FixedWing,Red,Allies,E-2C,Red AWACS #002,xu,,141.24264728685,88.7678756713867,0.464672576308609,9000,8766.43605041504,141.24264728685,0,6.30000282459342,-0.0341920352251118,0,0.00989117029631303,5000,0.995527300726285,0.00157351333651822,0.0955451594477188,997.474270629883,8825.985,9823.45927062988,,,89,233.563949584961,12952.4926307442,12971.0698861131
2011-06-01T04:31:30Z,1306902690,102,55.3525576,27.2820723,9000,0,6.3,116.6,-87298.62,123819.68,117.4,Air+FixedWing,Red,Allies,E-2C,Red AWACS #002,xu,,141.102661851719,88.6768569946289,0.46421203982025,9000,8771.19828796387,141.102661851719,0,6.30000282459342,-0.0318886314322064,0,0.00989117029631303,5000,0.996383892204584,-0.00067812146546691,0.0877862541294153,995.498059082031,8825.985,9821.48305908203,,,90,228.801712036133,13093.6543454348,13112.4307899133
2011-06-01T04:31:31Z,1306902691,102,55.35383,27.2815028,9000,0,6.3,116.6,-87173.5,123754.91,117.4,Air+FixedWing,Red,Allies,E-2C,Red AWACS #002,xu,,140.88611283427,88.5358581542969,0.463499617674616,9000,8776.06489562988,140.88611283427,0,6.30000282459342,-0.029059010479992,0,0.00989117029631303,5000,1.00021541431543,-0.000830671538658894,0.0530807754546377,992.444839477539,8825.985,9818.42983947754,,,91,223.935104370117,13234.6042813605,13253.5796161145
2011-06-01T04:31:32Z,1306902692,102,55.3550973,27.2809353,9000,0,6.3,116.6,-87048.88,123690.4,117.4,Air+FixedWing,Red,Allies,E-2C,Red AWACS #002,xu,,140.327150935059,88.1722106933594,0.461660695289952,9000,8780.09722900391,140.327150935059,0,6.30000282459342,-0.0325910600441944,0,0.00989117029631303,5000,0.988878922509556,0.000674920625160352,0.15576539092418,984.585464477539,8825.985,9810.57046447754,,,92,219.902770996094,13375.0023884509,13394.1758348109
2011-06-01T04:31:33Z,1306902693,102,55.3563686,27.2803662,9000,0,6.3,116.6,-86923.86,123625.68,117.4,Air+FixedWing,Red,Allies,E-2C,Red AWACS #002,xu,,140.781307444841,88.4676208496094,0.46315481961785,9000,8782.0837097168,140.781307444841,0,6.30000282459342,-0.032355753118578,0,0.00989117029631303,5000,0.992943283604281,-0.000577488363441105,0.118950883994898,990.968826293945,8825.985,9816.95382629394,,,93,217.916290283203,13515.8383131863,13535.2104889439
2011-06-01T04:31:34Z,1306902694,102,55.3576409,27.2797966,9000,0,6.3,116.6,-86798.76,123560.91,117.4,Air+FixedWing,Red,Allies,E-2C,Red AWACS #002,xu,,140.872236872927,88.5269012451172,0.463453967307464,9000,8780.97259521484,140.872236872927,0,6.30000282459342,-0.0319218698655261,0,0.00989117029631303,5000,0.995096156449714,0.000918149516327839,0.0994504138253244,992.249356079102,8825.985,9818.2343560791,,,94,219.027404785156,13656.7815105387,13676.3525670629
2011-06-01T04:31:35Z,1306902695,102,55.358912,27.2792275,9000,0,6.3,116.6,-86673.74,123496.2,117.4,Air+FixedWing,Red,Allies,E-2C,Red AWACS #002,xu,,140.770777955759,88.4606018066406,0.463120178771667,9000,8776.80926513672,140.770777955759,0,6.30000282459342,-0.0328598731757872,0,0.00989117029631303,5000,1.00342318393186,0.000168554274724774,0.0240251738436593,990.820596313477,8825.985,9816.80559631348,,,95,223.190734863281,13797.5985652843,13817.3683245783
2011-06-01T04:31:36Z,1306902696,102,55.3601755,27.2786617,9000,0,6.3,116.6,-86549.48,123431.88,117.4,Air+FixedWing,Red,Allies,E-2C,Red AWACS #002,xu,,139.925151980401,87.9103546142578,0.460338163508493,9000,8773.31344604492,139.925151980401,0,6.30000282459342,-0.0308535090241994,0,0.00989117029631303,5000,0.983521128585118,-3.87618468093157e-05,0.204295660986279,978.952407836914,8825.985,9804.93740783691,,,96,226.686553955078,13937.5836363194,13957.5509243961
2011-06-01T04:31:37Z,1306902697,102,55.3614476,27.278092,9000,0,6.3,116.6,-86424.38,123367.13,117.4,Air+FixedWing,Red,Allies,E-2C,Red AWACS #002,xu,,140.858115808293,88.5175323486328,0.463407510577788,9000,8773.16122436523,140.858115808293,0,6.30000282459342,-0.0318549140921763,0,0.00989117029631303,5000,0.999238130539065,-0.000700879110743442,0.0619328974778741,992.050439453125,8825.985,9818.03543945312,,,97,226.838775634766,14078.5190349754,14098.6851928145
2011-06-01T04:31:38Z,1306902698,102,55.3627153,27.2775244,9000,0,6.3,116.6,-86299.71,123302.59,117.4,Air+FixedWing,Red,Allies,E-2C,Red AWACS #002,xu,,140.386491531039,88.210563659668,0.461855919240675,9000,8773.57928466797,140.386491531039,0,6.30000282459342,-0.0342037835905725,0,0.00989117029631303,5000,0.994742625167769,-0.000103833942332362,0.102652658784762,985.418350219727,8825.985,9811.40335021973,,,98,226.420715332031,14218.9644153821,14239.3287515336
2011-06-01T04:31:39Z,1306902699,102,55.3639824,27.276957,9000,0,6.4,116.6,-86175.1,123238.09,117.4,Air+FixedWing,Red,Allies,E-2C,Red AWACS #002,xu,,140.316621294221,88.1651611328125,0.46162605394451,9000,8775.24444580078,140.316621294221,0,6.39999669631503,-0.0320286814149421,0,0.0513960362511687,5000,0.995475874822448,0.00013299326822201,0.0962410203434204,984.437710571289,8825.985,9810.42271057129,,,99,224.755554199219,14359.3369007708,14379.8993123744
2011-06-01T04:31:40Z,1306902700,102,55.3652481,27.2763902,9000,0,6.4,116.6,-86050.62,123173.65,117.4,Air+FixedWing,Red,Allies,E-2C,Red AWACS #002,xu,,140.166351233334,88.0676422119141,0.461131682183038,9000,8781.50915527344,140.166351233334,0,6.39999669631503,-0.0298432651159791,0,0.0513960362511687,5000,0.981417063843384,0.000902145314795053,0.221578213680221,982.33030090332,8825.985,9808.31530090332,,,100,218.490844726562,14499.565957377,14520.3262420438
2011-06-01T04:31:41Z,1306902701,102,55.3665236,27.275819,9000,0,6.4,116.6,-85925.18,123108.72,117.4,Air+FixedWing,Red,Allies,E-2C,Red AWACS #002,xu,,141.25293181761,88.7744903564453,0.464706411269196,9000,8782.53247070312,141.25293181761,0,6.39999669631503,-0.0329666328587462,0,0.0139882274201861,5000,1.01104421605075,-0.000477207024545923,-0.0425539458432855,997.619537353516,8825.985,9823.60453735351,,,101,217.467529296875,14640.8809939001,14661.8406840254
2011-06-01T04:31:42Z,1306902702,102,55.3677855,27.2752539,9000,0,6.4,116.6,-85801.09,123044.48,117.4,Air+FixedWing,Red,Allies,E-2C,Red AWACS #002,xu,,139.733008701248,87.7854232788086,0.459706033523257,9000,8779.93226623535,139.733008701248,0,6.39999669631503,-0.032464493300369,0,0.0139882274201861,5000,0.993011586412273,-0.00097006648749402,0.118210658697884,976.265686035156,8825.985,9802.25068603516,,,102,220.067733764648,14780.6902511309,14801.8472219527
2011-06-01T04:31:43Z,1306902703,102,55.3690479,27.2746885,9000,0,6.4,116.6,-85676.94,122980.21,117.4,Air+FixedWing,Red,Allies,E-2C,Red AWACS #002,xu,,139.799532552,87.8286590576172,0.459924889582023,9000,8779.01937866211,139.799532552,0,6.39999669631503,-0.0334372902859924,0,0.0139882274201861,5000,0.984555830807346,0.00156070997529199,0.193595460203623,977.195465087891,8825.985,9803.18046508789,,,103,220.980621337891,14920.5495749291,14941.9038970961
2011-06-01T04:31:44Z,1306902704,102,55.3703175,27.2741199,9000,0,6.4,116.6,-85552.06,122915.58,117.4,Air+FixedWing,Red,Allies,E-2C,Red AWACS #002,xu,,140.609978581394,88.3559799194336,0.46259116674173,9000,8776.05187988281,140.609978581394,0,6.39999669631503,-0.0301465823954186,0,0.0139882274201861,5000,0.998214655713762,-0.000937706321297815,0.0718242250260331,988.558303833008,8825.985,9814.54330383301,,,104,223.948120117188,15061.2162605749,15082.7690733305
2011-06-01T04:31:45Z,1306902705,102,55.3715836,27.2735529,9000,0,6.4,116.6,-85427.54,122851.12,117.4,Air+FixedWing,Red,Allies,E-2C,Red AWACS #002,xu,,140.218753917567,88.1013336181641,0.461304081176938,9000,8773.25044250488,140.218753917567,0,6.39999669631503,-0.0305506524197484,0,0.0139882274201861,5000,0.995277328567629,0.0001589517538051,0.0980111010681514,983.064947509766,8825.985,9809.04994750976,,,105,226.749557495117,15201.4943764051,15223.2451314512
2011-06-01T04:31:46Z,1306902706,102,55.3728485,27.2729863,9000,0,6.4,116.6,-85303.13,122786.72,117.4,Air+FixedWing,Red,Allies,E-2C,Red AWACS #002,xu,,140.085951442334,88.0151138305664,0.46086717582652,9000,8770.75769042969,140.085951442334,0,6.39999669631503,-0.0302107788143261,0,0.0139882274201861,5000,0.996188326489394,-0.00138540225682347,0.0898893671021885,981.203689575195,8825.985,9807.18868957519,,,106,229.242309570312,15341.6446941617,15363.5932111653
2011-06-01T04:31:47Z,1306902707,102,55.3741115,27.2724206,9000,0,6.4,116.6,-85178.92,122722.41,117.4,Air+FixedWing,Red,Allies,E-2C,Red AWACS #002,xu,,139.872994716203,87.876594543457,0.46016657191917,9000,8769.36363220215,139.872994716203,0,6.39999669631503,-0.0364626034550625,0,0.0139882274201861,5000,0.993137080003784,0.00293295710775859,0.117091857501597,978.222732543945,8825.985,9804.20773254394,,,107,230.636367797852,15481.5801368422,15503.7261125996
2011-06-01T04:31:48Z,1306902708,102,55.375375,27.2718547,9000,0,6.4,116.6,-85054.65,122658.09,117.4,Air+FixedWing,Red,Allies,E-2C,Red AWACS #002,xu,,139.928499328466,87.912712097168,0.460349175910759,9000,8766.70890808105,139.928499328466,0,6.39999669631503,-0.0312878864129711,0,0.0139882274201861,5000,1.00067605056093,-0.00161582778676472,0.0498803833813191,978.99924621582,8825.985,9804.98424621582,,,108,233.291091918945,15621.5731159896,15643.9166316893
2011-06-01T04:31:49Z,1306902709,102,55.3766329,27.2712912,9000,0,6.4,116.6,-84930.92,122594.05,117.4,Air+FixedWing,Red,Allies,E-2C,Red AWACS #002,xu,,139.320725182336,87.517692565918,0.458349666671017,9000,8764.26361083984,139.320725182336,0,6.39999669631503,-0.0306155033286065,0,0.0139882274201861,5000,0.985586535194605,0.000357017117550154,0.184406518460871,970.513223266602,8825.985,9796.4982232666,,,109,235.736389160156,15760.9538573328,15783.4940490633
2011-06-01T04:31:50Z,1306902710,102,55.3778974,27.2707247,9000,0,6.4,116.6,-84806.55,122529.67,117.4,Air+FixedWing,Red,Allies,E-2C,Red AWACS #002,xu,,140.040486830274,87.9856948852539,0.460717602317226,9000,8761.70263671875,140.040486830274,0,6.39999669631503,-0.0336775258733603,0,0.0139882274201861,5000,1.00139139579088,-0.00135304209062726,0.0435029334303379,980.566897583008,8825.985,9806.55189758301,,,110,238.29736328125,15901.0594590989,15923.7973496902
2011-06-01T04:31:51Z,1306902711,102,55.3791558,27.2701611,9000,0,6.4,116.6,-84682.79,122465.59,117.4,Air+FixedWing,Red,Allies,E-2C,Red AWACS #002,xu,,139.36978164278,87.5492324829102,0.458511056961393,9000,8759.34645080566,139.36978164278,0,6.39999669631503,-0.0325024905632231,0,0.0139882274201861,5000,0.988845008624061,0.00135624293093382,0.155356557207484,971.196801757813,8825.985,9797.18180175781,,,111,240.653549194336,16040.4895821012,16063.4242184041
2011-06-01T04:31:52Z,1306902712,102,55.380418,27.2695956,9000,0,6.4,116.6,-84558.63,122401.33,117.4,Air+FixedWing,Red,Allies,E-2C,Red AWACS #002,xu,,139.802878978593,87.8310241699219,0.459935898952749,9000,8757.61572265625,139.802878978593,0,6.39999669631503,-0.0270441106140508,0,0.0139882274201861,5000,0.991823202446361,0.000966865647187462,0.12880534633652,977.242248535156,8825.985,9803.22724853516,,,112,242.38427734375,16180.3547276599,16203.4867235226
2011-06-01T04:31:53Z,1306902713,102,55.3816819,27.2690294,9000,0,6.4,116.6,-84434.32,122336.99,117.4,Air+FixedWing,Red,Allies,E-2C,Red AWACS #002,xu,,139.973963687015,87.9421539306641,0.460498748586034,9000,8755.90942382812,139.973963687015,0,6.39999669631503,-0.0340802267986958,0,0.0139882274201861,5000,0.991578002389357,-0.00327681910095188,0.130991355309596,979.635525512695,8825.985,9805.62052551269,,,113,244.090576171875,16320.3973405759,16343.7269464177
2011-06-01T04:31:54Z,1306902714,102,55.3829475,27.2684623,9000,0,6.4,116.6,-84309.85,122272.54,117.4,Air+FixedWing,Red,Allies,E-2C,Red AWACS #002,xu,,140.166597478958,88.0676422119141,0.461132492303709,9000,8754.77729797363,140.166597478958,0,6.39999669631503,-0.0313890164077362,0,0.0139882274201861,5000,1.00123950333825,0.00294255962867826,0.0448570859067242,982.333752441406,8825.985,9808.3187524414,,,114,245.222702026367,16460.6331891536,16484.1606776432
2011-06-01T04:31:55Z,1306902715,102,55.384207,27.2678981,9000,0,6.4,116.6,-84185.95,122208.41,117.4,Air+FixedWing,Red,Allies,E-2C,Red AWACS #002,xu,,139.509277254029,87.6402435302734,0.45896998198374,9000,8753.99523925781,139.509277254029,0,6.39999669631503,-0.0325024905632231,0,0.0139882274201861,5000,0.997420470694482,-0.000833872378965454,0.0789045479249569,973.14192199707,8825.985,9799.12692199707,,,115,246.004760742188,16600.1992587687,16623.9236848011
2011-06-01T04:31:56Z,1306902716,102,55.3854637,27.2673351,9000,0,6.4,116.6,-84062.34,122144.43,117.4,Air+FixedWing,Red,Allies,E-2C,Red AWACS #002,xu,,139.187922723314,87.4312896728516,0.457912761373932,9000,8753.29440307617,139.187922723314,0,6.39999669631503,-0.035606038052383,0,0.0139882274201861,5000,0.997341630905156,-0.000467252740495628,0.0796074208728994,968.663891601563,8825.985,9794.64889160156,,,116,246.705596923828,16739.4431742351,16763.3640832271
2011-06-01T04:31:57Z,1306902717,102,55.3867175,27.2667733,9000,0,6.4,116.6,-83939.02,122080.59,117.4,Air+FixedWing,Red,Allies,E-2C,Red AWACS #002,xu,,138.87350658091,87.2269744873047,0.456878367288787,9000,8751.14880371094,138.87350658091,0,6.39999669631503,-0.0283026007050504,0,0.0139882274201861,5000,0.980742585289598,0.00134664041001414,0.227591328802357,964.292541503906,8825.985,9790.27754150391,,,117,248.851196289062,16878.3809922117,16902.4979522391
2011-06-01T04:31:58Z,1306902718,102,55.3879817,27.2662069,9000,0,6.4,116.6,-83814.66,122016.23,117.4,Air+FixedWing,Red,Allies,E-2C,Red AWACS #002,xu,,140.019428104039,87.9719772338867,0.460648321453679,9000,8748.52137756348,140.019428104039,0,6.39999669631503,-0.0323347024989942,0,0.0139882274201861,5000,1.00166878183503,-0.00174562021468018,0.0410299797576644,980.272012329102,8825.985,9806.2570123291,,,118,251.478622436523,17018.4614556564,17042.7760790723
2011-06-01T04:31:59Z,1306902719,102,55.3892396,27.2656432,9000,0,6.4,116.6,-83690.94,121952.17,117.4,Air+FixedWing,Red,Allies,E-2C,Red AWACS #002,xu,,139.32431682513,87.519660949707,0.458361482775728,9000,8746.38104248047,139.32431682513,0,6.39999669631503,-0.0326690112073674,0,0.0139882274201861,5000,0.995794127542762,0.000447695935525653,0.0934037318419011,970.563262939453,8825.985,9796.54826293945,,,119,253.618957519531,17157.858400833,17182.3697231446
2011-06-01T04:32:00Z,1306902720,102,55.3904959,27.2650803,9000,0,6.4,116.6,-83567.37,121888.2,117.4,Air+FixedWing,Red,Allies,E-2C,Red AWACS #002,xu,,139.146049559124,87.4040451049805,0.457775003328071,9000,8744.87414550781,139.146049559124,0,6.39999669631503,-0.0318596551711846,0,0.0419646855956116,5000,0.986658106258032,-0.00013939494883513,0.174853241889274,968.081155395508,8825.985,9794.06615539551,,,120,255.125854492188,17297.0664161091,17321.7741707235
2011-06-01T04:32:01Z,1306902721,102,55.3917577,27.2645148,9000,0,6.5,116.6,-83443.24,121823.95,117.4,Air+FixedWing,Red,Allies,E-2C,Red AWACS #002,xu,,139.771535343521,87.8105926513672,0.459832781884784,9000,8748.9635925293,139.771535343521,0,6.49999046451537,-0.0329094298062909,0,0.0504352774299245,5000,1.00341625515674,0.00158311585743789,0.0267988808510747,976.804104614258,8825.985,9802.78910461426,,,121,251.036407470703,17436.9014033675,17461.8064749865
2011-06-01T04:32:02Z,1306902722,102,55.393012,27.2639528,9000,0,6.5,116.6,-83319.87,121760.09,117.4,Air+FixedWing,Red,Allies,E-2C,Red AWACS #002,xu,,138.918726810648,87.2562484741211,0.457027136807463,9000,8760.04095458984,138.918726810648,0,6.49999046451537,-0.0301699216428584,0,0.0139882274201861,5000,0.986671722893238,-0.00160587350271443,0.173763977121875,964.92063293457,8825.985,9790.90563293457,,,122,239.959045410156,17575.891480061,17600.9926764557
2011-06-01T04:32:03Z,1306902723,102,55.3942716,27.2633883,9000,0,6.5,116.6,-83195.97,121695.95,117.4,Air+FixedWing,Red,Allies,E-2C,Red AWACS #002,xu,,139.516459926175,87.6449661254883,0.458993612175012,9000,8777.66831970215,139.516459926175,0,6.49999046451537,-0.032306050050881,0,0,5000,1.0037365205152,0.000116637303558593,0.0239879436150974,973.242129516602,8825.985,9799.2271295166,,,123,222.331680297852,17715.4722586397,17740.7704133322
2011-06-01T04:32:04Z,1306902724,102,55.3955231,27.2628275,9000,0,6.5,116.6,-83072.85,121632.22,117.4,Air+FixedWing,Red,Allies,E-2C,Red AWACS #002,xu,,138.63589872234,87.072135925293,0.456096663901643,9000,8782.98986816406,138.63589872234,0,6.49999046451537,-0.0296722138077784,0,0,5000,0.988934150459843,0.00059704516841108,0.153906875119891,960.995620727539,8825.985,9786.98062072754,,,124,217.010131835938,17854.1634966187,17879.6573544052
2011-06-01T04:32:05Z,1306902725,102,55.3967782,27.262265,9000,0,6.5,116.6,-82949.38,121568.3,117.4,Air+FixedWing,Red,Allies,E-2C,Red AWACS #002,xu,,139.037652713466,87.3333358764648,0.45741838978037,9000,8788.9303894043,139.037652713466,0,6.49999046451537,-0.0353838316906363,0,0,5000,0.998209366846983,-0.00059704516841108,0.0724992222922183,966.573443603516,8825.985,9792.55844360352,,,125,211.069610595703,17993.251464163,18018.9415848563
2011-06-01T04:32:06Z,1306902726,102,55.3980299,27.261704,9000,0,6.5,116.6,-82826.26,121504.57,117.4,Air+FixedWing,Red,Allies,E-2C,Red AWACS #002,xu,,138.63589872234,87.072135925293,0.456096663901643,9000,8792.74099731445,138.63589872234,0,6.49999046451537,-0.0308832181420606,0,0,5000,0.981835418140442,0.000798311372462692,0.216211743497473,960.995620727539,8825.985,9786.98062072754,,,126,207.259002685547,18131.9646611593,18157.8505159314
