ISOTime,UnixTime,Id,Longitude,Latitude,Altitude,Roll,Pitch,Yaw,U,V,Heading,Type,Color,Coalition,Name,Group,Country,Pilot,TAS,CAS,M,ASL,AGL,GS,VS,AOA,AOS,RRT,TRT,TRD,G,LatG,LonG,Ek,Ep,Em,FFW,FFV,RelativeTime,Elev,GroundDistance,AirDistance
2011-06-01T04:31:43Z,1306902703,105,56.3836487,27.2337226,9.64,0,-0.3,144.1,14730.83,117539.81,144.4,Air+FixedWing,Red,Allies,J-11A,Red J-11A #002,xu,[51☭] Teknetinium,0.11697930738491,0,0.000343676137761628,9.63999938964844,2.34870767593384,NaN,NaN,NaN,NaN,0.190480315573316,NaN,NaN,NaN,NaN,NaN,NaN,9.45361000144958,NaN,,,0.720000028610229,7.2912917137146,NaN,NaN
2011-06-01T04:31:44Z,1306902704,105,56.3836491,27.2337221,9.67,0,-0.8,144,14730.87,117539.76,144.3,Air+FixedWing,Red,Allies,J-11A,Red J-11A #002,xu,[51☭] Teknetinium,0.073370604347923,0,0.000215557216664412,9.66809558868408,2.37739753723145,0.0677779402322681,0.0280961990356445,NaN,NaN,0,0.0648607570189105,NaN,0.992024352966384,0.000645571180164507,-0.0251613757607532,0.000269162279118973,9.48116296047688,9.481432122756,,,1.72000002861023,7.29069805145264,0.067229334027946,0.0728642115205661
2011-06-01T04:31:45Z,1306902705,105,56.3836488,27.2337224,9.62,0,-0.8,144,14730.85,117539.8,144.3,Air+FixedWing,Red,Allies,J-11A,Red J-11A #002,xu,[51☭] Teknetinium,0.0646142078452151,0,0.000189831492509213,9.62047576904297,2.32939291000366,0.0436732026855428,-0.0476198196411133,NaN,NaN,0,0.0442346629476897,NaN,1.00446867124091,-0.00159658150892424,-0.010435031640006,0.000208749792773233,9.43446387004852,9.4346726198413,,,2.72000002861023,7.29108285903931,0.109978356904417,0.136857427991119
2011-06-01T04:31:46Z,1306902706,105,56.3836488,27.2337225,9.62,-0.1,-0.7,144,14730.84,117539.8,144.3,Air+FixedWing,Red,Allies,J-11A,Red J-11A #002,xu,[51☭] Teknetinium,0.0112474038250914,0,3.30439921190387e-05,9.61714267730713,2.32598400115967,0.0107421875,-0.00333309173583984,NaN,NaN,0.199987938897973,0.150007202553185,NaN,1.00057464567615,-0.000512865060837774,-0.0108566224898937,6.32520464023401e-06,9.43119522364139,9.43120154884604,,,3.72000002861023,7.29115867614746,0.121649918730332,0.148995602297511
2011-06-01T04:31:47Z,1306902707,105,56.3836489,27.2337224,9.62,-0.1,-0.7,144,14730.85,117539.79,144.3,Air+FixedWing,Red,Allies,J-11A,Red J-11A #002,xu,[51☭] Teknetinium,0.0128283368713818,0,3.7688650884433e-05,9.61999988555908,2.32895994186401,0.012506102026236,0.00285720825195312,NaN,NaN,0,0.0171320104161963,NaN,0.999616830804831,-0.00208836416431428,-0.0134413998288756,8.2283113442827e-06,9.4339971877718,9.43400541608314,,,4.72000002861023,7.29103994369507,0.136085769661765,0.163711514790931
2011-06-01T04:31:48Z,1306902708,105,56.3836489,27.2337224,9.62,-0.1,-0.7,144,14730.85,117539.79,144.3,Air+FixedWing,Red,Allies,J-11A,Red J-11A #002,xu,[51☭] Teknetinium,0,0,0,9.61999988555908,2.32895994186401,0,0,NaN,NaN,0,0,NaN,0.99991326907868,-0.00160366888564007,-0.0130963254270364,0,9.4339971877718,9.4339971877718,,,5.72000002861023,7.29103994369507,0.136478543722756,0.164104289755316
2011-06-01T04:31:49Z,1306902709,105,56.3836488,27.2337224,9.62,-0.1,-0.7,144,14730.85,117539.8,144.3,Air+FixedWing,Red,Allies,J-11A,Red J-11A #002,xu,[51☭] Teknetinium,0.00873464053710855,0,2.56616910753639e-05,9.61999988555908,2.32891702651978,0.00873464053710855,0,NaN,NaN,0,0,NaN,0.99993766672107,-0.00156304742130224,-0.0111052559678166,3.814697265625e-06,9.4339971877718,9.43400100246906,,,6.72000002861023,7.29108285903931,0.145276715097452,0.172902473658333
2011-06-01T04:31:50Z,1306902710,105,56.3836488,27.2337224,9.62,-0.1,-0.7,144,14730.85,117539.8,144.3,Air+FixedWing,Red,Allies,J-11A,Red J-11A #002,xu,[51☭] Teknetinium,0.00390625,0,1.14762571324227e-05,9.61999988555908,2.32893133163452,0.00390625,0,NaN,NaN,0,0,NaN,0.999920361525468,-0.0020685618721959,-0.0124494245735985,7.62939453125e-07,9.4339971877718,9.43399795071125,,,7.72000002861023,7.29106855392456,0.148104698984017,0.175730461290613
2011-06-01T04:31:51Z,1306902711,105,56.3836488,27.2337224,9.62,-0.1,-0.7,144,14730.85,117539.8,144.3,Air+FixedWing,Red,Allies,J-11A,Red J-11A #002,xu,[51☭] Teknetinium,0,0,0,9.61999988555908,2.32891702651978,0,0,NaN,NaN,0,0,NaN,0.999923765775072,-0.0017450927263794,-0.0122170019894838,0,9.4339971877718,9.4339971877718,,,8.72000002861023,7.29108285903931,0.150932682870583,0.178558448922892
2011-06-01T04:31:52Z,1306902712,105,56.3836488,27.2337224,9.62,-0.1,-0.7,144,14730.85,117539.8,144.3,Air+FixedWing,Red,Allies,J-11A,Red J-11A #002,xu,[51☭] Teknetinium,0,0,0,9.61999988555908,2.32891702651978,0,0,NaN,NaN,0,0,NaN,0.999930858221861,-0.00220998571293523,-0.011570101136046,0,9.4339971877718,9.4339971877718,,,9.72000002861023,7.29108285903931,0.150932682870583,0.178558448922892
2011-06-01T04:31:53Z,1306902713,105,56.3836488,27.2337224,9.62,-0.1,-0.7,144,14730.85,117539.79,144.3,Air+FixedWing,Red,Allies,J-11A,Red J-11A #002,xu,[51☭] Teknetinium,0.0078125,0,2.29525142648454e-05,9.61999988555908,2.32891702651978,0.0078125,0,NaN,NaN,0,0,NaN,0.999916673328284,-0.00128019973982358,-0.0128639028429217,3.0517578125e-06,9.4339971877718,9.43400023952961,,,10.7200000286102,7.29108285903931,0.150932682870583,0.178558448922892
2011-06-01T04:31:54Z,1306902714,105,56.3836488,27.2337224,9.62,-0.1,-0.7,144,14730.85,117539.79,144.3,Air+FixedWing,Red,Allies,J-11A,Red J-11A #002,xu,[51☭] Teknetinium,0,0,0,9.61999988555908,2.32891702651978,0,0,NaN,NaN,0,0,NaN,0.999923765775072,-0.0017450927263794,-0.0122170019894838,0,9.4339971877718,9.4339971877718,,,11.7200000286102,7.29108285903931,0.150932682870583,0.178558448922892
2011-06-01T04:31:55Z,1306902715,105,56.3836488,27.2337224,9.62,-0.1,-0.7,144,14730.85,117539.79,144.3,Air+FixedWing,Red,Allies,J-11A,Red J-11A #002,xu,[51☭] Teknetinium,0,0,0,9.61999988555908,2.32891702651978,0,0,NaN,NaN,0,0,NaN,0.999923765775072,-0.0017450927263794,-0.0122170019894838,0,9.4339971877718,9.4339971877718,,,12.7200000286102,7.29108285903931,0.150932682870583,0.178558448922892
2011-06-01T04:31:56Z,1306902716,105,56.3836488,27.2337224,9.62,-0.1,-0.7,144,14730.85,117539.79,144.3,Air+FixedWing,Red,Allies,J-11A,Red J-11A #002,xu,[51☭] Teknetinium,0,0,0,9.61999988555908,2.32891702651978,0,0,NaN,NaN,0,0,NaN,0.999923765775072,-0.0017450927263794,-0.0122170019894838,0,9.4339971877718,9.4339971877718,,,13.7200000286102,7.29108285903931,0.150932682870583,0.178558448922892
2011-06-01T04:31:57Z,1306902717,105,56.3836488,27.2337224,9.62,-0.1,-0.7,144,14730.85,117539.79,144.3,Air+FixedWing,Red,Allies,J-11A,Red J-11A #002,xu,[51☭] Teknetinium,0,0,0,9.61999988555908,2.32891702651978,0,0,NaN,NaN,0,0,NaN,0.999916673328284,-0.00128019973982358,-0.0128639028429217,0,9.4339971877718,9.4339971877718,,,14.7200000286102,7.29108285903931,0.150932682870583,0.178558448922892
2011-06-01T04:31:58Z,1306902718,105,56.3836488,27.2337224,9.62,-0.1,-0.7,144,14730.85,117539.8,144.3,Air+FixedWing,Red,Allies,J-11A,Red J-11A #002,xu,[51☭] Teknetinium,0.0078125,0,2.29525142648454e-05,9.61999988555908,2.32891702651978,0.0078125,0,NaN,NaN,0,0,NaN,0.999930858221861,-0.00220998571293523,-0.011570101136046,3.0517578125e-06,9.4339971877718,9.43400023952961,,,15.7200000286102,7.29108285903931,0.150932682870583,0.178558448922892
2011-06-01T04:31:59Z,1306902719,105,56.3836488,27.2337224,9.62,-0.1,-0.7,144,14730.85,117539.8,144.3,Air+FixedWing,Red,Allies,J-11A,Red J-11A #002,xu,[51☭] Teknetinium,0,0,0,9.61999988555908,2.32891702651978,0,0,NaN,NaN,0,0,NaN,0.999923765775072,-0.0017450927263794,-0.0122170019894838,0,9.4339971877718,9.4339971877718,,,16.7200000286102,7.29108285903931,0.150932682870583,0.178558448922892
2011-06-01T04:32:00Z,1306902720,105,56.3836488,27.2337224,9.62,-0.1,-0.7,144,14730.85,117539.8,144.3,Air+FixedWing,Red,Allies,J-11A,Red J-11A #002,xu,[51☭] Teknetinium,0,0,0,9.61999988555908,2.32891702651978,0,0,NaN,NaN,0,0,NaN,0.999923765775072,-0.0017450927263794,-0.0122170019894838,0,9.4339971877718,9.4339971877718,,,17.7200000286102,7.29108285903931,0.150932682870583,0.178558448922892
2011-06-01T04:32:01Z,1306902721,105,56.3836488,27.2337224,9.62,-0.1,-0.7,144,14730.85,117539.8,144.3,Air+FixedWing,Red,Allies,J-11A,Red J-11A #002,xu,[51☭] Teknetinium,0,0,0,9.61999988555908,2.32891702651978,0,0,NaN,NaN,0,0,NaN,0.999923765775072,-0.0017450927263794,-0.0122170019894838,0,9.4339971877718,9.4339971877718,,,18.7200000286102,7.29108285903931,0.150932682870583,0.178558448922892
2011-06-01T04:32:02Z,1306902722,105,56.3836488,27.2337224,9.62,-0.1,-0.7,144,14730.85,117539.8,144.3,Air+FixedWing,Red,Allies,J-11A,Red J-11A #002,xu,[51☭] Teknetinium,0,0,0,9.61999988555908,2.32891702651978,0,0,NaN,NaN,0,0,NaN,0.999930858221861,-0.00220998571293523,-0.011570101136046,0,9.4339971877718,9.4339971877718,,,19.7200000286102,7.29108285903931,0.150932682870583,0.178558448922892
2011-06-01T04:32:03Z,1306902723,105,56.3836488,27.2337224,9.62,-0.1,-0.7,144,14730.85,117539.79,144.3,Air+FixedWing,Red,Allies,J-11A,Red J-11A #002,xu,[51☭] Teknetinium,0.0078125,0,2.29525142648454e-05,9.61999988555908,2.32891702651978,0.0078125,0,NaN,NaN,0,0,NaN,0.999909580881496,-0.000815306753267746,-0.0135108036963595,3.0517578125e-06,9.4339971877718,9.43400023952961,,,20.7200000286102,7.29108285903931,0.150932682870583,0.178558448922892
2011-06-01T04:32:04Z,1306902724,105,56.3836488,27.2337224,9.62,-0.1,-0.7,144,14730.85,117539.8,144.3,Air+FixedWing,Red,Allies,J-11A,Red J-11A #002,xu,[51☭] Teknetinium,0.0078125,0,2.29525142648454e-05,9.61999988555908,2.32891702651978,0.0078125,0,NaN,NaN,0,0,NaN,0.999937950668649,-0.00267487869949106,-0.0109232002826082,3.0517578125e-06,9.4339971877718,9.43400023952961,,,21.7200000286102,7.29108285903931,0.150932682870583,0.178558448922892
2011-06-01T04:32:05Z,1306902725,105,56.3836488,27.2337224,9.62,-0.1,-0.7,144,14730.85,117539.79,144.3,Air+FixedWing,Red,Allies,J-11A,Red J-11A #002,xu,[51☭] Teknetinium,0.0078125,0,2.29525142648454e-05,9.61999988555908,2.32891702651978,0.0078125,0,NaN,NaN,0,0,NaN,0.999916673328284,-0.00128019973982358,-0.0128639028429217,3.0517578125e-06,9.4339971877718,9.43400023952961,,,22.7200000286102,7.29108285903931,0.150932682870583,0.178558448922892
2011-06-01T04:32:06Z,1306902726,105,56.3836488,27.2337224,9.62,-0.1,-0.7,144,14730.85,117539.79,144.3,Air+FixedWing,Red,Allies,J-11A,Red J-11A #002,xu,[51☭] Teknetinium,0,0,0,9.61999988555908,2.32891702651978,0,0,NaN,NaN,0,0,NaN,0.999916673328284,-0.00128019973982358,-0.0128639028429217,0,9.4339971877718,9.4339971877718,,,23.7200000286102,7.29108285903931,0.150932682870583,0.178558448922892
2011-06-01T04:32:07Z,1306902727,105,56.3836488,27.2337224,9.62,-0.1,-0.7,144,14730.85,117539.8,144.3,Air+FixedWing,Red,Allies,J-11A,Red J-11A #002,xu,[51☭] Teknetinium,0.0078125,0,2.29525142648454e-05,9.61999988555908,2.32891702651978,0.0078125,0,NaN,NaN,0,0,NaN,0.999937950668649,-0.00267487869949106,-0.0109232002826082,3.0517578125e-06,9.4339971877718,9.43400023952961,,,24.7200000286102,7.29108285903931,0.150932682870583,0.178558448922892
2011-06-01T04:32:08Z,1306902728,105,56.3836488,27.2337224,9.62,-0.1,-0.7,144,14730.85,117539.79,144.3,Air+FixedWing,Red,Allies,J-11A,Red J-11A #002,xu,[51☭] Teknetinium,0.0078125,0,2.29525142648454e-05,9.61999988555908,2.32891702651978,0.0078125,0,NaN,NaN,0,0,NaN,0.999909580881496,-0.000815306753267746,-0.0135108036963595,3.0517578125e-06,9.4339971877718,9.43400023952961,,,25.7200000286102,7.29108285903931,0.150932682870583,0.178558448922892
2011-06-01T04:32:09Z,1306902729,105,56.3836488,27.2337224,9.62,-0.1,-0.7,144,14730.85,117539.8,144.3,Air+FixedWing,Red,Allies,J-11A,Red J-11A #002,xu,[51☭] Teknetinium,0.0078125,0,2.29525142648454e-05,9.61999988555908,2.32891702651978,0.0078125,0,NaN,NaN,0,0,NaN,0.999937950668649,-0.00267487869949106,-0.0109232002826082,3.0517578125e-06,9.4339971877718,9.43400023952961,,,26.7200000286102,7.29108285903931,0.150932682870583,0.178558448922892
2011-06-01T04:32:10Z,1306902730,105,56.3836488,27.2337224,9.62,-0.1,-0.7,144,14730.85,117539.79,144.3,Air+FixedWing,Red,Allies,J-11A,Red J-11A #002,xu,[51☭] Teknetinium,0.0078125,0,2.29525142648454e-05,9.61999988555908,2.32891702651978,0.0078125,0,NaN,NaN,0,0,NaN,0.999909580881496,-0.000815306753267746,-0.0135108036963595,3.0517578125e-06,9.4339971877718,9.43400023952961,,,27.7200000286102,7.29108285903931,0.150932682870583,0.178558448922892
2011-06-01T04:32:11Z,1306902731,105,56.3836488,27.2337224,9.62,-0.1,-0.7,144,14730.85,117539.8,144.3,Air+FixedWing,Red,Allies,J-11A,Red J-11A #002,xu,[51☭] Teknetinium,0.0078125,0,2.29525142648454e-05,9.61999988555908,2.32891702651978,0.0078125,0,NaN,NaN,0,0,NaN,0.999930858221861,-0.00220998571293523,-0.011570101136046,3.0517578125e-06,9.4339971877718,9.43400023952961,,,28.7200000286102,7.29108285903931,0.150932682870583,0.178558448922892
2011-06-01T04:32:12Z,1306902732,105,56.3836488,27.2337224,9.62,-0.1,-0.7,144,14730.85,117539.8,144.3,Air+FixedWing,Red,Allies,J-11A,Red J-11A #002,xu,[51☭] Teknetinium,0,0,0,9.61999988555908,2.32891702651978,0,0,NaN,NaN,0,0,NaN,0.999930858221861,-0.00220998571293523,-0.011570101136046,0,9.4339971877718,9.4339971877718,,,29.7200000286102,7.29108285903931,0.150932682870583,0.178558448922892
2011-06-01T04:32:13Z,1306902733,105,56.3836488,27.2337224,9.62,-0.1,-0.7,144,14730.85,117539.79,144.3,Air+FixedWing,Red,Allies,J-11A,Red J-11A #002,xu,[51☭] Teknetinium,0.0078125,0,2.29525142648454e-05,9.61999988555908,2.32891702651978,0.0078125,0,NaN,NaN,0,0,NaN,0.999909580881496,-0.000815306753267746,-0.0135108036963595,3.0517578125e-06,9.4339971877718,9.43400023952961,,,30.7200000286102,7.29108285903931,0.150932682870583,0.178558448922892
2011-06-01T04:32:14Z,1306902734,105,56.3836488,27.2337224,9.62,-0.1,-0.7,144,14730.85,117539.8,144.3,Air+FixedWing,Red,Allies,J-11A,Red J-11A #002,xu,[51☭] Teknetinium,0.0078125,0,2.29525142648454e-05,9.61999988555908,2.32891702651978,0.0078125,0,NaN,NaN,0,0,NaN,0.999937950668649,-0.00267487869949106,-0.0109232002826082,3.0517578125e-06,9.4339971877718,9.43400023952961,,,31.7200000286102,7.29108285903931,0.150932682870583,0.178558448922892
2011-06-01T04:32:15Z,1306902735,105,56.3836488,27.2337224,9.62,-0.1,-0.7,144,14730.85,117539.79,144.3,Air+FixedWing,Red,Allies,J-11A,Red J-11A #002,xu,[51☭] Teknetinium,0.0078125,0,2.29525142648454e-05,9.61999988555908,2.32891702651978,0.0078125,0,NaN,NaN,0,0,NaN,0.999916673328284,-0.00128019973982358,-0.0128639028429217,3.0517578125e-06,9.4339971877718,9.43400023952961,,,32.7200000286102,7.29108285903931,0.150932682870583,0.178558448922892
2011-06-01T04:32:16Z,1306902736,105,56.3836488,27.2337224,9.62,-0.1,-0.7,144,14730.85,117539.79,144.3,Air+FixedWing,Red,Allies,J-11A,Red J-11A #002,xu,[51☭] Teknetinium,0,0,0,9.61999988555908,2.32891702651978,0,0,NaN,NaN,0,0,NaN,0.999916673328284,-0.00128019973982358,-0.0128639028429217,0,9.4339971877718,9.4339971877718,,,33.7200000286102,7.29108285903931,0.150932682870583,0.178558448922892
2011-06-01T04:32:17Z,1306902737,105,56.3836488,27.2337224,9.62,-0.1,-0.7,144,14730.85,117539.8,144.3,Air+FixedWing,Red,Allies,J-11A,Red J-11A #002,xu,[51☭] Teknetinium,0.0078125,0,2.29525142648454e-05,9.61999988555908,2.32891702651978,0.0078125,0,NaN,NaN,0,0,NaN,0.999930858221861,-0.00220998571293523,-0.011570101136046,3.0517578125e-06,9.4339971877718,9.43400023952961,,,34.7200000286102,7.29108285903931,0.150932682870583,0.178558448922892
2011-06-01T04:32:18Z,1306902738,105,56.3836488,27.2337224,9.62,-0.1,-0.7,144,14730.85,117539.8,144.3,Air+FixedWing,Red,Allies,J-11A,Red J-11A #002,xu,[51☭] Teknetinium,0,0,0,9.61999988555908,2.32891702651978,0,0,NaN,NaN,0,0,NaN,0.999923765775072,-0.0017450927263794,-0.0122170019894838,0,9.4339971877718,9.4339971877718,,,35.7200000286102,7.29108285903931,0.150932682870583,0.178558448922892
2011-06-01T04:32:19Z,1306902739,105,56.3836488,27.2337224,9.62,-0.1,-0.7,144,14730.85,117539.8,144.3,Air+FixedWing,Red,Allies,J-11A,Red J-11A #002,xu,[51☭] Teknetinium,0,0,0,9.61999988555908,2.32891702651978,0,0,NaN,NaN,0,0,NaN,0.999923765775072,-0.0017450927263794,-0.0122170019894838,0,9.4339971877718,9.4339971877718,,,36.7200000286102,7.29108285903931,0.150932682870583,0.178558448922892
2011-06-01T04:32:20Z,1306902740,105,56.3836488,27.2337224,9.62,-0.1,-0.7,144,14730.85,117539.8,144.3,Air+FixedWing,Red,Allies,J-11A,Red J-11A #002,xu,[51☭] Teknetinium,0,0,0,9.61999988555908,2.32891702651978,0,0,NaN,NaN,0,0,NaN,0.999930858221861,-0.00220998571293523,-0.011570101136046,0,9.4339971877718,9.4339971877718,,,37.7200000286102,7.29108285903931,0.150932682870583,0.178558448922892
2011-06-01T04:32:21Z,1306902741,105,56.3836488,27.2337224,9.62,-0.1,-0.7,144,14730.85,117539.79,144.3,Air+FixedWing,Red,Allies,J-11A,Red J-11A #002,xu,[51☭] Teknetinium,0.0078125,0,2.29525142648454e-05,9.61999988555908,2.32891702651978,0.0078125,0,NaN,NaN,0,0,NaN,0.999909580881496,-0.000815306753267746,-0.0135108036963595,3.0517578125e-06,9.4339971877718,9.43400023952961,,,38.7200000286102,7.29108285903931,0.150932682870583,0.178558448922892
2011-06-01T04:32:22Z,1306902742,105,56.3836488,27.2337224,9.62,-0.1,-0.7,144,14730.85,117539.8,144.3,Air+FixedWing,Red,Allies,J-11A,Red J-11A #002,xu,[51☭] Teknetinium,0.0078125,0,2.29525142648454e-05,9.61999988555908,2.32891702651978,0.0078125,0,NaN,NaN,0,0,NaN,0.999937950668649,-0.00267487869949106,-0.0109232002826082,3.0517578125e-06,9.4339971877718,9.43400023952961,,,39.7200000286102,7.29108285903931,0.150932682870583,0.178558448922892
2011-06-01T04:32:23Z,1306902743,105,56.3836488,27.2337224,9.62,-0.1,-0.7,144,14730.85,117539.79,144.3,Air+FixedWing,Red,Allies,J-11A,Red J-11A #002,xu,[51☭] Teknetinium,0.0078125,0,2.29525142648454e-05,9.61999988555908,2.32891702651978,0.0078125,0,NaN,NaN,0,0,NaN,0.999916673328284,-0.00128019973982358,-0.0128639028429217,3.0517578125e-06,9.4339971877718,9.43400023952961,,,40.7200000286102,7.29108285903931,0.150932682870583,0.178558448922892
2011-06-01T04:32:24Z,1306902744,105,56.3836488,27.2337224,9.62,-0.1,-0.7,144,14730.85,117539.79,144.3,Air+FixedWing,Red,Allies,J-11A,Red J-11A #002,xu,[51☭] Teknetinium,0,0,0,9.61999988555908,2.32891702651978,0,0,NaN,NaN,0,0,NaN,0.999916673328284,-0.00128019973982358,-0.0128639028429217,0,9.4339971877718,9.4339971877718,,,41.7200000286102,7.29108285903931,0.150932682870583,0.178558448922892
2011-06-01T04:32:25Z,1306902745,105,56.3836488,27.2337224,9.62,-0.1,-0.7,144,14730.85,117539.8,144.3,Air+FixedWing,Red,Allies,J-11A,Red J-11A #002,xu,[51☭] Teknetinium,0.0078125,0,2.29525142648454e-05,9.61999988555908,2.32891702651978,0.0078125,0,NaN,NaN,0,0,NaN,0.999937950668649,-0.00267487869949106,-0.0109232002826082,3.0517578125e-06,9.4339971877718,9.43400023952961,,,42.7200000286102,7.29108285903931,0.150932682870583,0.178558448922892
2011-06-01T04:32:26Z,1306902746,105,56.3836488,27.2337224,9.62,-0.1,-0.7,144,14730.85,117539.79,144.3,Air+FixedWing,Red,Allies,J-11A,Red J-11A #002,xu,[51☭] Teknetinium,0.0078125,0,2.29525142648454e-05,9.61999988555908,2.32891702651978,0.0078125,0,NaN,NaN,0,0,NaN,0.999916673328284,-0.00128019973982358,-0.0128639028429217,3.0517578125e-06,9.4339971877718,9.43400023952961,,,43.7200000286102,7.29108285903931,0.150932682870583,0.178558448922892
2011-06-01T04:32:27Z,1306902747,105,56.3836488,27.2337224,9.62,-0.1,-0.7,144,14730.85,117539.79,144.3,Air+FixedWing,Red,Allies,J-11A,Red J-11A #002,xu,[51☭] Teknetinium,0,0,0,9.61999988555908,2.32891702651978,0,0,NaN,NaN,0,0,NaN,0.999916673328284,-0.00128019973982358,-0.0128639028429217,0,9.4339971877718,9.4339971877718,,,44.7200000286102,7.29108285903931,0.150932682870583,0.178558448922892
2011-06-01T04:32:28Z,1306902748,105,56.3836488,27.2337224,9.62,-0.1,-0.7,144,14730.85,117539.8,144.3,Air+FixedWing,Red,Allies,J-11A,Red J-11A #002,xu,[51☭] Teknetinium,0.0078125,0,2.29525142648454e-05,9.61999988555908,2.32891702651978,0.0078125,0,NaN,NaN,0,0,NaN,0.999937950668649,-0.00267487869949106,-0.0109232002826082,3.0517578125e-06,9.4339971877718,9.43400023952961,,,45.7200000286102,7.29108285903931,0.150932682870583,0.178558448922892
2011-06-01T04:32:29Z,1306902749,105,56.3836488,27.2337224,9.62,-0.1,-0.7,144,14730.85,117539.79,144.3,Air+FixedWing,Red,Allies,J-11A,Red J-11A #002,xu,[51☭] Teknetinium,0.0078125,0,2.29525142648454e-05,9.61999988555908,2.32891702651978,0.0078125,0,NaN,NaN,0,0,NaN,0.999903623444688,-0.00138137775844661,-0.0139175432185602,3.0517578125e-06,9.4339971877718,9.43400023952961,,,46.7200000286102,7.29108285903931,0.150932682870583,0.178558448922892
2011-06-01T04:32:30Z,1306902750,105,56.3836488,27.2337224,9.62,-0.1,-0.7,144,14730.84,117539.8,144.3,Air+FixedWing,Red,Allies,J-11A,Red J-11A #002,xu,[51☭] Teknetinium,0.0103810017702487,0,3.04985716755223e-05,9.61999988555908,2.32891702651978,0.0103810017702487,0,NaN,NaN,0,0.0504352774299245,NaN,0.999941354918254,-0.00235140955367457,-0.0106907776984935,5.38825988769531e-06,9.4339971877718,9.43400257603169,,,47.7200000286102,7.29108285903931,0.150932682870583,0.178558448922892
2011-06-01T04:32:31Z,1306902751,105,56.3836488,27.2337224,9.62,-0.1,-0.6,144,14730.84,117539.79,144.3,Air+FixedWing,Red,Allies,J-11A,Red J-11A #002,xu,[51☭] Teknetinium,0.00834375365753665,0,2.45132959804116e-05,9.61999988555908,2.32891702651978,0.00834375365753665,0,NaN,NaN,0,0.0504352774299245,NaN,0.999939840048865,-0.00103763385573113,-0.01094437776724,3.48091125488281e-06,9.4339971877718,9.43400066868305,,,48.7200000286102,7.29108285903931,0.150932682870583,0.178558448922892
2011-06-01T04:32:32Z,1306902752,105,56.3836488,27.2337224,9.62,-0.1,-0.6,144,14730.84,117539.79,144.3,Air+FixedWing,Red,Allies,J-11A,Red J-11A #002,xu,[51☭] Teknetinium,0,0,0,9.61999988555908,2.32891702651978,0,0,NaN,NaN,0,0,NaN,0.99993759110488,-0.00128023624606662,-0.0111186981512716,0,9.4339971877718,9.4339971877718,,,49.7200000286102,7.29108285903931,0.150932682870583,0.178558448922892
2011-06-01T04:32:33Z,1306902753,105,56.3836488,27.2337224,9.62,-0.1,-0.6,144,14730.84,117539.8,144.3,Air+FixedWing,Red,Allies,J-11A,Red J-11A #002,xu,[51☭] Teknetinium,0.0078125,0,2.29525142648454e-05,9.61999988555908,2.32891702651978,0.0078125,0,NaN,NaN,0,0,NaN,0.999955481249654,-0.00267490929431237,-0.00917795722661207,3.0517578125e-06,9.4339971877718,9.43400023952961,,,50.7200000286102,7.29108285903931,0.150932682870583,0.178558448922892
2011-06-01T04:32:34Z,1306902754,105,56.3836488,27.2337224,9.62,-0.1,-0.6,144,14730.84,117539.79,144.3,Air+FixedWing,Red,Allies,J-11A,Red J-11A #002,xu,[51☭] Teknetinium,0.0078125,0,2.29525142648454e-05,9.61999988555908,2.32891702651978,0.0078125,0,NaN,NaN,0,0,NaN,0.99993759110488,-0.00128023624606662,-0.0111186981512716,3.0517578125e-06,9.4339971877718,9.43400023952961,,,51.7200000286102,7.29108285903931,0.150932682870583,0.178558448922892
2011-06-01T04:32:35Z,1306902755,105,56.3836488,27.2337224,9.62,-0.1,-0.6,144,14730.84,117539.79,144.3,Air+FixedWing,Red,Allies,J-11A,Red J-11A #002,xu,[51☭] Teknetinium,0,0,0,9.61999988555908,2.32891702651978,0,0,NaN,NaN,0,0,NaN,0.99993759110488,-0.00128023624606662,-0.0111186981512716,0,9.4339971877718,9.4339971877718,,,52.7200000286102,7.29108285903931,0.150932682870583,0.178558448922892
2011-06-01T04:32:36Z,1306902756,105,56.3836488,27.2337224,9.62,-0.1,-0.6,144,14730.84,117539.8,144.3,Air+FixedWing,Red,Allies,J-11A,Red J-11A #002,xu,[51☭] Teknetinium,0.0078125,0,2.29525142648454e-05,9.61999988555908,2.32891702651978,0.0078125,0,NaN,NaN,0,0,NaN,0.999949517868062,-0.00221001827823045,-0.00982487086816524,3.0517578125e-06,9.4339971877718,9.43400023952961,,,53.7200000286102,7.29108285903931,0.150932682870583,0.178558448922892
2011-06-01T04:32:37Z,1306902757,105,56.3836488,27.2337224,9.62,-0.1,-0.6,144,14730.84,117539.8,144.3,Air+FixedWing,Red,Allies,J-11A,Red J-11A #002,xu,[51☭] Teknetinium,0,0,0,9.61999988555908,2.32891702651978,0,0,NaN,NaN,0,0,NaN,0.999949517868062,-0.00221001827823045,-0.00982487086816524,0,9.4339971877718,9.4339971877718,,,54.7200000286102,7.29108285903931,0.150932682870583,0.178558448922892
2011-06-01T04:32:38Z,1306902758,105,56.3836488,27.2337224,9.62,-0.1,-0.6,144,14730.84,117539.79,144.3,Air+FixedWing,Red,Allies,J-11A,Red J-11A #002,xu,[51☭] Teknetinium,0.0078125,0,2.29525142648454e-05,9.61999988555908,2.32891702651978,0.0078125,0,NaN,NaN,0,0,NaN,0.999931627723288,-0.000815345229984709,-0.0117656117928248,3.0517578125e-06,9.4339971877718,9.43400023952961,,,55.7200000286102,7.29108285903931,0.150932682870583,0.178558448922892
2011-06-01T04:32:39Z,1306902759,105,56.3836488,27.2337224,9.62,-0.1,-0.6,144,14730.84,117539.8,144.3,Air+FixedWing,Red,Allies,J-11A,Red J-11A #002,xu,[51☭] Teknetinium,0.0078125,0,2.29525142648454e-05,9.61999988555908,2.32891702651978,0.0078125,0,NaN,NaN,0,0,NaN,0.998934333951045,-0.00172303392216511,-0.00946555160746681,3.0517578125e-06,9.4339971877718,9.43400023952961,,,56.7200000286102,7.29108285903931,0.150932682870583,0.178558448922892
2011-06-01T04:32:40Z,1306902760,105,56.3836488,27.2337225,9.61,0,-0.6,144,14730.85,117539.8,144.3,Air+FixedWing,Red,Allies,J-11A,Red J-11A #002,xu,[51☭] Teknetinium,0.011590377607297,0,3.40516195074705e-05,9.60999965667725,2.31887912750244,0.005859375,-0.0100002288818359,NaN,NaN,0.114255404435973,0,NaN,1.00096503543441,-0.000686523622638506,-0.0105328308969268,6.71684265398653e-06,9.42419031331539,9.42419703015804,,,57.7200000286102,7.2911205291748,0.15729379729187,0.190410389228333
2011-06-01T04:32:41Z,1306902761,105,56.3836488,27.2337224,9.61,0,-0.6,144,14730.84,117539.79,144.3,Air+FixedWing,Red,Allies,J-11A,Red J-11A #002,xu,[51☭] Teknetinium,0.009765625,0,2.86906395994628e-05,9.60999965667725,2.31888818740845,0.009765625,0,NaN,NaN,0,0,NaN,0.999935146190768,0.00141497155372287,-0.0114169710247617,4.76837158203125e-06,9.42419031331539,9.42419508168697,,,58.7200000286102,7.2911114692688,0.164848564133633,0.19796516726123
2011-06-01T04:32:42Z,1306902762,105,56.3836488,27.2337224,9.61,0,-0.6,144,14730.84,117539.8,144.3,Air+FixedWing,Red,Allies,J-11A,Red J-11A #002,xu,[51☭] Teknetinium,0.0078125,0,2.29525116795703e-05,9.60999965667725,2.31891679763794,0.0078125,0,NaN,NaN,0,0,NaN,0.999951819230984,-0.000464879854938567,-0.00982487086816524,3.0517578125e-06,9.42419031331539,9.4241933650732,,,59.7200000286102,7.29108285903931,0.168924189073741,0.202040799045017
2011-06-01T04:32:43Z,1306902763,105,56.3836488,27.2337224,9.61,-0.1,-0.6,144,14730.84,117539.8,144.3,Air+FixedWing,Red,Allies,J-11A,Red J-11A #002,xu,[51☭] Teknetinium,0,0,0,9.60999965667725,2.31891679763794,0,0,NaN,NaN,0.199987938897973,0,NaN,0.999943554486471,-0.00174512726214854,-0.0104717845097184,0,9.42419031331539,9.42419031331539,,,60.7200000286102,7.29108285903931,0.168924189073741,0.202040799045017
2011-06-01T04:32:44Z,1306902764,105,56.3836488,27.2337224,9.61,-0.1,-0.6,144,14730.84,117539.8,144.3,Air+FixedWing,Red,Allies,J-11A,Red J-11A #002,xu,[51☭] Teknetinium,0,0,0,9.60999965667725,2.31891679763794,0,0,NaN,NaN,0,0,NaN,0.999943554486471,-0.00174512726214854,-0.0104717845097184,0,9.42419031331539,9.42419031331539,,,61.7200000286102,7.29108285903931,0.168924189073741,0.202040799045017
2011-06-01T04:32:45Z,1306902765,105,56.3836488,27.2337224,9.61,-0,-0.6,144,14730.84,117539.8,144.3,Air+FixedWing,Red,Allies,J-11A,Red J-11A #002,xu,[51☭] Teknetinium,0,0,0,9.60999965667725,2.31891679763794,0,0,NaN,NaN,0.109883469717357,0,NaN,0.999951614173533,-0.00090595928390265,-0.00982487086816524,0,9.42419031331539,9.42419031331539,,,62.7200000286102,7.29108285903931,0.168924189073741,0.202040799045017
2011-06-01T04:32:46Z,1306902766,105,56.3836488,27.2337224,9.61,-0.1,-0.6,144,14730.84,117539.79,144.3,Air+FixedWing,Red,Allies,J-11A,Red J-11A #002,xu,[51☭] Teknetinium,0.0078125,0,2.29525116795703e-05,9.60999965667725,2.31891679763794,0.0078125,0,NaN,NaN,0.161301747439021,0,NaN,0.99993176869654,-0.0006464642744809,-0.0117656117928248,3.0517578125e-06,9.42419031331539,9.4241933650732,,,63.7200000286102,7.29108285903931,0.168924189073741,0.202040799045017
2011-06-01T04:32:47Z,1306902767,105,56.3836488,27.2337224,9.61,-0.1,-0.6,144,14730.84,117539.8,144.3,Air+FixedWing,Red,Allies,J-11A,Red J-11A #002,xu,[51☭] Teknetinium,0.0078125,0,2.29525116795703e-05,9.60999965667725,2.31891679763794,0.0078125,0,NaN,NaN,0.146657821858514,0,NaN,0.999950449440924,-0.00174464888140737,-0.00982487086816524,3.0517578125e-06,9.42419031331539,9.4241933650732,,,64.7200000286102,7.29108285903931,0.168924189073741,0.202040799045017
2011-06-01T04:32:48Z,1306902768,105,56.3836488,27.2337224,9.61,-0.1,-0.6,144,14730.84,117539.8,144.3,Air+FixedWing,Red,Allies,J-11A,Red J-11A #002,xu,[51☭] Teknetinium,0,0,0,9.60999965667725,2.31889820098877,0,0,NaN,NaN,0.157859332097335,0,NaN,0.999949517868062,-0.00221001827823045,-0.00982487086816524,0,9.42419031331539,9.42419031331539,,,65.7200000286102,7.29110145568848,0.170351361689627,0.203467973730839
2011-06-01T04:32:49Z,1306902769,105,56.3836488,27.2337224,9.61,-0.1,-0.6,144,14730.84,117539.79,144.3,Air+FixedWing,Red,Allies,J-11A,Red J-11A #002,xu,[51☭] Teknetinium,0.0078125,0,2.29525116795703e-05,9.60999965667725,2.31891679763794,0.0078125,0,NaN,NaN,0,0,NaN,0.999931627723288,-0.000815345229984709,-0.0117656117928248,3.0517578125e-06,9.42419031331539,9.4241933650732,,,66.7200000286102,7.29108285903931,0.171778534305512,0.204895148416662
2011-06-01T04:32:50Z,1306902770,105,56.3836488,27.2337224,9.61,-0.1,-0.6,144,14730.84,117539.8,144.3,Air+FixedWing,Red,Allies,J-11A,Red J-11A #002,xu,[51☭] Teknetinium,0.0078125,0,2.29525116795703e-05,9.60999965667725,2.31891679763794,0.0078125,0,NaN,NaN,0,0,NaN,0.999949517868062,-0.00221001827823045,-0.00982487086816524,3.0517578125e-06,9.42419031331539,9.4241933650732,,,67.7200000286102,7.29108285903931,0.171778534305512,0.204895148416662
2011-06-01T04:32:51Z,1306902771,105,56.3836488,27.2337224,9.61,-0,-0.6,144,14730.84,117539.8,144.3,Air+FixedWing,Red,Allies,J-11A,Red J-11A #002,xu,[51☭] Teknetinium,0,0,0,9.60999965667725,2.31891679763794,0,0,NaN,NaN,0.0943339437622278,0,NaN,0.99995159124222,-0.000827078781091969,-0.00982487086816524,0,9.42419031331539,9.42419031331539,,,68.7200000286102,7.29108285903931,0.171778534305512,0.204895148416662
2011-06-01T04:32:52Z,1306902772,105,56.3836488,27.2337224,9.61,0,-0.6,144,14730.84,117539.79,144.3,Air+FixedWing,Red,Allies,J-11A,Red J-11A #002,xu,[51☭] Teknetinium,0.0078125,0,2.29525116795703e-05,9.60999965667725,2.31891679763794,0.0078125,0,NaN,NaN,0,0,NaN,0.999931495100399,0.000929759709877135,-0.0117656117928248,3.0517578125e-06,9.42419031331539,9.4241933650732,,,69.7200000286102,7.29108285903931,0.171778534305512,0.204895148416662
2011-06-01T04:32:53Z,1306902773,105,56.3836488,27.2337224,9.61,-0,-0.6,144,14730.84,117539.8,144.3,Air+FixedWing,Red,Allies,J-11A,Red J-11A #002,xu,[51☭] Teknetinium,0.0078125,0,2.29525116795703e-05,9.60999965667725,2.31891679763794,0.0078125,0,NaN,NaN,0.062127400690436,0,NaN,0.99995133303193,-0.00112608183696911,-0.00982487086816524,3.0517578125e-06,9.42419031331539,9.4241933650732,,,70.7200000286102,7.29108285903931,0.171778534305512,0.204895148416662
2011-06-01T04:32:54Z,1306902774,105,56.3836488,27.2337224,9.61,-0.1,-0.6,144,14730.84,117539.8,144.3,Air+FixedWing,Red,Allies,J-11A,Red J-11A #002,xu,[51☭] Teknetinium,0,0,0,9.60999965667725,2.31891679763794,0,0,NaN,NaN,0.062127400690436,0,NaN,0.999949517868062,-0.00221001827823045,-0.00982487086816524,0,9.42419031331539,9.42419031331539,,,71.7200000286102,7.29108285903931,0.171778534305512,0.204895148416662
2011-06-01T04:32:55Z,1306902775,105,56.3836488,27.2337224,9.61,-0.1,-0.6,144,14730.84,117539.79,144.3,Air+FixedWing,Red,Allies,J-11A,Red J-11A #002,xu,[51☭] Teknetinium,0.0078125,0,2.29525116795703e-05,9.60999965667725,2.31891679763794,0.0078125,0,NaN,NaN,0,0,NaN,0.99993759110488,-0.00128023624606662,-0.0111186981512716,3.0517578125e-06,9.42419031331539,9.4241933650732,,,72.7200000286102,7.29108285903931,0.171778534305512,0.204895148416662
2011-06-01T04:32:56Z,1306902776,105,56.3836488,27.2337224,9.61,-0.1,-0.6,144,14730.84,117539.79,144.3,Air+FixedWing,Red,Allies,J-11A,Red J-11A #002,xu,[51☭] Teknetinium,0,0,0,9.60999965667725,2.31891679763794,0,0,NaN,NaN,0,0,NaN,0.99993759110488,-0.00128023624606662,-0.0111186981512716,0,9.42419031331539,9.42419031331539,,,73.7200000286102,7.29108285903931,0.171778534305512,0.204895148416662
2011-06-01T04:32:57Z,1306902777,105,56.3836488,27.2337225,9.61,-0.1,-0.6,144,14730.84,117539.8,144.3,Air+FixedWing,Red,Allies,J-11A,Red J-11A #002,xu,[51☭] Teknetinium,0.0078125,0,2.29525116795703e-05,9.60999965667725,2.31884098052979,0.0078125,0,NaN,NaN,0,0,NaN,0.999949517868062,-0.00221001827823045,-0.00982487086816524,3.0517578125e-06,9.42419031331539,9.4241933650732,,,74.7200000286102,7.29115867614746,0.18209346050704,0.215210090940564
2011-06-01T04:32:58Z,1306902778,105,56.3836488,27.2337225,9.61,-0.1,-0.6,144,14730.84,117539.8,144.3,Air+FixedWing,Red,Allies,J-11A,Red J-11A #002,xu,[51☭] Teknetinium,0,0,0,9.60999965667725,2.31886005401611,0,0,NaN,NaN,0,0,NaN,0.999943554486471,-0.00174512726214854,-0.0104717845097184,0,9.42419031331539,9.42419031331539,,,75.7200000286102,7.29113960266113,0.184136019413185,0.217252653572811
2011-06-01T04:32:59Z,1306902779,105,56.3836488,27.2337225,9.61,-0.1,-0.6,144,14730.84,117539.8,144.3,Air+FixedWing,Red,Allies,J-11A,Red J-11A #002,xu,[51☭] Teknetinium,0,0,0,9.60999965667725,2.31887912750244,0,0,NaN,NaN,0,0,NaN,0.999943554486471,-0.00174512726214854,-0.0104717845097184,0,9.42419031331539,9.42419031331539,,,76.7200000286102,7.2911205291748,0.186178579620037,0.219295216854782
2011-06-01T04:33:00Z,1306902780,105,56.3836488,27.2337224,9.61,-0.1,-0.6,144,14730.84,117539.8,144.3,Air+FixedWing,Red,Allies,J-11A,Red J-11A #002,xu,[51☭] Teknetinium,0,0,0,9.60999965667725,2.31887912750244,0,0,NaN,NaN,0,0,NaN,0.999943554486471,-0.00174512726214854,-0.0104717845097184,0,9.42419031331539,9.42419031331539,,,77.7200000286102,7.2911205291748,0.188221138822247,0.221337779190964
2011-06-01T04:33:01Z,1306902781,105,56.3836488,27.2337224,9.61,-0.1,-0.6,144,14730.84,117539.8,144.3,Air+FixedWing,Red,Allies,J-11A,Red J-11A #002,xu,[51☭] Teknetinium,0,0,0,9.60999965667725,2.31889820098877,0,0,NaN,NaN,0,0,NaN,0.999943554486471,-0.00174512726214854,-0.0104717845097184,0,9.42419031331539,9.42419031331539,,,78.7200000286102,7.29110145568848,0.190263698201285,0.223380341823211
2011-06-01T04:33:02Z,1306902782,105,56.3836488,27.2337224,9.61,-0.1,-0.6,144,14730.84,117539.8,144.3,Air+FixedWing,Red,Allies,J-11A,Red J-11A #002,xu,[51☭] Teknetinium,0,0,0,9.60999965667725,2.31891679763794,0,0,NaN,NaN,0,0,NaN,0.999943554486471,-0.00174512726214854,-0.0104717845097184,0,9.42419031331539,9.42419031331539,,,79.7200000286102,7.29108285903931,0.192306257817266,0.225422904159393
2011-06-01T04:33:03Z,1306902783,105,56.3836488,27.2337224,9.61,-0.1,-0.6,144,14730.84,117539.8,144.3,Air+FixedWing,Red,Allies,J-11A,Red J-11A #002,xu,[51☭] Teknetinium,0,0,0,9.60999965667725,2.31891679763794,0,0,NaN,NaN,0,0,NaN,0.999943554486471,-0.00174512726214854,-0.0104717845097184,0,9.42419031331539,9.42419031331539,,,80.7200000286102,7.29108285903931,0.192408386708571,0.225525033464482
2011-06-01T04:33:04Z,1306902784,105,56.3836488,27.2337224,9.61,-0.1,-0.6,144,14730.84,117539.8,144.3,Air+FixedWing,Red,Allies,J-11A,Red J-11A #002,xu,[51☭] Teknetinium,0,0,0,9.60999965667725,2.31891679763794,0,0,NaN,NaN,0,0,NaN,0.999949517868062,-0.00221001827823045,-0.00982487086816524,0,9.42419031331539,9.42419031331539,,,81.7200000286102,7.29108285903931,0.192408386708571,0.225525033464482
2011-06-01T04:33:05Z,1306902785,105,56.3836488,27.2337224,9.61,-0.1,-0.6,144,14730.84,117539.79,144.3,Air+FixedWing,Red,Allies,J-11A,Red J-11A #002,xu,[51☭] Teknetinium,0.0078125,0,2.29525116795703e-05,9.60999965667725,2.31891679763794,0.0078125,0,NaN,NaN,0,0,NaN,0.999931627723288,-0.000815345229984709,-0.0117656117928248,3.0517578125e-06,9.42419031331539,9.4241933650732,,,82.7200000286102,7.29108285903931,0.192408386708571,0.225525033464482
2011-06-01T04:33:06Z,1306902786,105,56.3836488,27.2337224,9.61,-0.1,-0.6,144,14730.84,117539.8,144.3,Air+FixedWing,Red,Allies,J-11A,Red J-11A #002,xu,[51☭] Teknetinium,0.0078125,0,2.29525116795703e-05,9.60999965667725,2.31891679763794,0.0078125,0,NaN,NaN,0,0,NaN,0.999955481249654,-0.00267490929431237,-0.00917795722661207,3.0517578125e-06,9.42419031331539,9.4241933650732,,,83.7200000286102,7.29108285903931,0.192408386708571,0.225525033464482
2011-06-01T04:33:07Z,1306902787,105,56.3836488,27.2337224,9.61,-0.1,-0.6,144,14730.84,117539.79,144.3,Air+FixedWing,Red,Allies,J-11A,Red J-11A #002,xu,[51☭] Teknetinium,0.0078125,0,2.29525116795703e-05,9.60999965667725,2.31891679763794,0.0078125,0,NaN,NaN,0,0,NaN,0.99993759110488,-0.00128023624606662,-0.0111186981512716,3.0517578125e-06,9.42419031331539,9.4241933650732,,,84.7200000286102,7.29108285903931,0.192408386708571,0.225525033464482
2011-06-01T04:33:08Z,1306902788,105,56.3836488,27.2337224,9.61,-0.1,-0.6,144,14730.84,117539.79,144.3,Air+FixedWing,Red,Allies,J-11A,Red J-11A #002,xu,[51☭] Teknetinium,0,0,0,9.60999965667725,2.31891679763794,0,0,NaN,NaN,0,0,NaN,0.999943554486471,-0.00174512726214854,-0.0104717845097184,0,9.42419031331539,9.42419031331539,,,85.7200000286102,7.29108285903931,0.192408386708571,0.225525033464482
2011-06-01T04:33:09Z,1306902789,105,56.3836488,27.2337224,9.61,-0.1,-0.6,144,14730.84,117539.79,144.3,Air+FixedWing,Red,Allies,J-11A,Red J-11A #002,xu,[51☭] Teknetinium,0,0,0,9.60999965667725,2.31891679763794,0,0,NaN,NaN,0,0,NaN,0.99993759110488,-0.00128023624606662,-0.0111186981512716,0,9.42419031331539,9.42419031331539,,,86.7200000286102,7.29108285903931,0.192408386708571,0.225525033464482
2011-06-01T04:33:10Z,1306902790,105,56.3836488,27.2337224,9.61,-0.1,-0.6,144,14730.84,117539.8,144.3,Air+FixedWing,Red,Allies,J-11A,Red J-11A #002,xu,[51☭] Teknetinium,0.0078125,0,2.29525116795703e-05,9.60999965667725,2.31891679763794,0.0078125,0,NaN,NaN,0,0,NaN,0.999949517868062,-0.00221001827823045,-0.00982487086816524,3.0517578125e-06,9.42419031331539,9.4241933650732,,,87.7200000286102,7.29108285903931,0.192408386708571,0.225525033464482
2011-06-01T04:33:11Z,1306902791,105,56.3836488,27.2337224,9.61,-0.1,-0.6,144,14730.84,117539.8,144.3,Air+FixedWing,Red,Allies,J-11A,Red J-11A #002,xu,[51☭] Teknetinium,0,0,0,9.60999965667725,2.31891679763794,0,0,NaN,NaN,0,0,NaN,0.999949517868062,-0.00221001827823045,-0.00982487086816524,0,9.42419031331539,9.42419031331539,,,88.7200000286102,7.29108285903931,0.192408386708571,0.225525033464482
2011-06-01T04:33:12Z,1306902792,105,56.3836488,27.2337224,9.61,-0.1,-0.6,144,14730.84,117539.79,144.3,Air+FixedWing,Red,Allies,J-11A,Red J-11A #002,xu,[51☭] Teknetinium,0.0078125,0,2.29525116795703e-05,9.60999965667725,2.31891679763794,0.0078125,0,NaN,NaN,0,0,NaN,0.999931627723288,-0.000815345229984709,-0.0117656117928248,3.0517578125e-06,9.42419031331539,9.4241933650732,,,89.7200000286102,7.29108285903931,0.192408386708571,0.225525033464482
2011-06-01T04:33:13Z,1306902793,105,56.3836488,27.2337224,9.61,-0.1,-0.6,144,14730.84,117539.8,144.3,Air+FixedWing,Red,Allies,J-11A,Red J-11A #002,xu,[51☭] Teknetinium,0.0078125,0,2.29525116795703e-05,9.60999965667725,2.31891679763794,0.0078125,0,NaN,NaN,0,0,NaN,0.999949517868062,-0.00221001827823045,-0.00982487086816524,3.0517578125e-06,9.42419031331539,9.4241933650732,,,90.7200000286102,7.29108285903931,0.192408386708571,0.225525033464482
2011-06-01T04:33:14Z,1306902794,105,56.3836488,27.2337224,9.61,-0.1,-0.6,144,14730.84,117539.8,144.3,Air+FixedWing,Red,Allies,J-11A,Red J-11A #002,xu,[51☭] Teknetinium,0,0,0,9.60999965667725,2.31891679763794,0,0,NaN,NaN,0,0,NaN,0.999949517868062,-0.00221001827823045,-0.00982487086816524,0,9.42419031331539,9.42419031331539,,,91.7200000286102,7.29108285903931,0.192408386708571,0.225525033464482
2011-06-01T04:33:15Z,1306902795,105,56.3836488,27.2337224,9.61,-0.1,-0.6,144,14730.84,117539.79,144.3,Air+FixedWing,Red,Allies,J-11A,Red J-11A #002,xu,[51☭] Teknetinium,0.0078125,0,2.29525116795703e-05,9.60999965667725,2.31891679763794,0.0078125,0,NaN,NaN,0,0,NaN,0.99993759110488,-0.00128023624606662,-0.0111186981512716,3.0517578125e-06,9.42419031331539,9.4241933650732,,,92.7200000286102,7.29108285903931,0.192408386708571,0.225525033464482
2011-06-01T04:33:16Z,1306902796,105,56.3836488,27.2337224,9.61,-0.1,-0.6,144,14730.84,117539.79,144.3,Air+FixedWing,Red,Allies,J-11A,Red J-11A #002,xu,[51☭] Teknetinium,0,0,0,9.60999965667725,2.31891679763794,0,0,NaN,NaN,0,0,NaN,0.99993759110488,-0.00128023624606662,-0.0111186981512716,0,9.42419031331539,9.42419031331539,,,93.7200000286102,7.29108285903931,0.192408386708571,0.225525033464482
2011-06-01T04:33:17Z,1306902797,105,56.3836488,27.2337224,9.61,-0.1,-0.6,144,14730.84,117539.8,144.3,Air+FixedWing,Red,Allies,J-11A,Red J-11A #002,xu,[51☭] Teknetinium,0.0078125,0,2.29525116795703e-05,9.60999965667725,2.31891679763794,0.0078125,0,NaN,NaN,0,0,NaN,0.999955481249654,-0.00267490929431237,-0.00917795722661207,3.0517578125e-06,9.42419031331539,9.4241933650732,,,94.7200000286102,7.29108285903931,0.192408386708571,0.225525033464482
2011-06-01T04:33:18Z,1306902798,105,56.3836488,27.2337224,9.61,-0.1,-0.6,144,14730.84,117539.79,144.3,Air+FixedWing,Red,Allies,J-11A,Red J-11A #002,xu,[51☭] Teknetinium,0.0078125,0,2.29525116795703e-05,9.60999965667725,2.31891679763794,0.0078125,0,NaN,NaN,0,0,NaN,0.999931627723288,-0.000815345229984709,-0.0117656117928248,3.0517578125e-06,9.42419031331539,9.4241933650732,,,95.7200000286102,7.29108285903931,0.192408386708571,0.225525033464482
2011-06-01T04:33:19Z,1306902799,105,56.3836488,27.2337224,9.61,-0.1,-0.6,144,14730.84,117539.8,144.3,Air+FixedWing,Red,Allies,J-11A,Red J-11A #002,xu,[51☭] Teknetinium,0.0078125,0,2.29525116795703e-05,9.60999965667725,2.31891679763794,0.0078125,0,NaN,NaN,0,0,NaN,0.999955481249654,-0.00267490929431237,-0.00917795722661207,3.0517578125e-06,9.42419031331539,9.4241933650732,,,96.7200000286102,7.29108285903931,0.192408386708571,0.225525033464482
2011-06-01T04:33:20Z,1306902800,105,56.3836488,27.2337224,9.61,-0.1,-0.6,144,14730.84,117539.79,144.3,Air+FixedWing,Red,Allies,J-11A,Red J-11A #002,xu,[51☭] Teknetinium,0.0078125,0,2.29525116795703e-05,9.60999965667725,2.31891679763794,0.0078125,0,NaN,NaN,0,0,NaN,0.999931627723288,-0.000815345229984709,-0.0117656117928248,3.0517578125e-06,9.42419031331539,9.4241933650732,,,97.7200000286102,7.29108285903931,0.192408386708571,0.225525033464482
2011-06-01T04:33:21Z,1306902801,105,56.3836488,27.2337224,9.61,-0.1,-0.6,144,14730.84,117539.8,144.3,Air+FixedWing,Red,Allies,J-11A,Red J-11A #002,xu,[51☭] Teknetinium,0.0078125,0,2.29525116795703e-05,9.60999965667725,2.31891679763794,0.0078125,0,NaN,NaN,0,0,NaN,0.999955481249654,-0.00267490929431237,-0.00917795722661207,3.0517578125e-06,9.42419031331539,9.4241933650732,,,98.7200000286102,7.29108285903931,0.192408386708571,0.225525033464482
2011-06-01T04:33:22Z,1306902802,105,56.3836488,27.2337224,9.61,-0.1,-0.6,144,14730.84,117539.79,144.3,Air+FixedWing,Red,Allies,J-11A,Red J-11A #002,xu,[51☭] Teknetinium,0.0078125,0,2.29525116795703e-05,9.60999965667725,2.31891679763794,0.0078125,0,NaN,NaN,0,0,NaN,0.99993759110488,-0.00128023624606662,-0.0111186981512716,3.0517578125e-06,9.42419031331539,9.4241933650732,,,99.7200000286102,7.29108285903931,0.192408386708571,0.225525033464482
2011-06-01T04:33:23Z,1306902803,105,56.3836488,27.2337224,9.61,-0.1,-0.6,144,14730.84,117539.79,144.3,Air+FixedWing,Red,Allies,J-11A,Red J-11A #002,xu,[51☭] Teknetinium,0,0,0,9.60999965667725,2.31891679763794,0,0,NaN,NaN,0,0,NaN,0.999943554486471,-0.00174512726214854,-0.0104717845097184,0,9.42419031331539,9.42419031331539,,,100.72000002861,7.29108285903931,0.192408386708571,0.225525033464482
2011-06-01T04:33:24Z,1306902804,105,56.3836488,27.2337224,9.61,-0.1,-0.6,144,14730.84,117539.79,144.3,Air+FixedWing,Red,Allies,J-11A,Red J-11A #002,xu,[51☭] Teknetinium,0,0,0,9.60999965667725,2.31891679763794,0,0,NaN,NaN,0,0,NaN,0.999943554486471,-0.00174512726214854,-0.0104717845097184,0,9.42419031331539,9.42419031331539,,,101.72000002861,7.29108285903931,0.192408386708571,0.225525033464482
2011-06-01T04:33:25Z,1306902805,105,56.3836488,27.2337224,9.61,-0.1,-0.6,144,14730.84,117539.79,144.3,Air+FixedWing,Red,Allies,J-11A,Red J-11A #002,xu,[51☭] Teknetinium,0,0,0,9.60999965667725,2.31891679763794,0,0,NaN,NaN,0,0,NaN,0.99993759110488,-0.00128023624606662,-0.0111186981512716,0,9.42419031331539,9.42419031331539,,,102.72000002861,7.29108285903931,0.192408386708571,0.225525033464482
2011-06-01T04:33:26Z,1306902806,105,56.3836488,27.2337224,9.61,-0.1,-0.6,144,14730.84,117539.8,144.3,Air+FixedWing,Red,Allies,J-11A,Red J-11A #002,xu,[51☭] Teknetinium,0.0078125,0,2.29525116795703e-05,9.60999965667725,2.31891679763794,0.0078125,0,NaN,NaN,0,0,NaN,0.999955481249654,-0.00267490929431237,-0.00917795722661207,3.0517578125e-06,9.42419031331539,9.4241933650732,,,103.72000002861,7.29108285903931,0.192408386708571,0.225525033464482
2011-06-01T04:33:27Z,1306902807,105,56.3836488,27.2337224,9.61,-0.1,-0.6,144,14730.84,117539.79,144.3,Air+FixedWing,Red,Allies,J-11A,Red J-11A #002,xu,[51☭] Teknetinium,0.0078125,0,2.29525116795703e-05,9.60999965667725,2.31891679763794,0.0078125,0,NaN,NaN,0,0,NaN,0.999931627723288,-0.000815345229984709,-0.0117656117928248,3.0517578125e-06,9.42419031331539,9.4241933650732,,,104.72000002861,7.29108285903931,0.192408386708571,0.225525033464482
2011-06-01T04:33:28Z,1306902808,105,56.3836488,27.2337224,9.61,-0.1,-0.6,144,14730.84,117539.8,144.3,Air+FixedWing,Red,Allies,J-11A,Red J-11A #002,xu,[51☭] Teknetinium,0.0078125,0,2.29525116795703e-05,9.60999965667725,2.31891679763794,0.0078125,0,NaN,NaN,0,0,NaN,0.999949517868062,-0.00221001827823045,-0.00982487086816524,3.0517578125e-06,9.42419031331539,9.4241933650732,,,105.72000002861,7.29108285903931,0.192408386708571,0.225525033464482
2011-06-01T04:33:29Z,1306902809,105,56.3836488,27.2337224,9.61,-0.1,-0.6,144,14730.84,117539.8,144.3,Air+FixedWing,Red,Allies,J-11A,Red J-11A #002,xu,[51☭] Teknetinium,0,0,0,9.60999965667725,2.31891679763794,0,0,NaN,NaN,0,0,NaN,0.999943554486471,-0.00174512726214854,-0.0104717845097184,0,9.42419031331539,9.42419031331539,,,106.72000002861,7.29108285903931,0.192408386708571,0.225525033464482
2011-06-01T04:33:30Z,1306902810,105,56.3836488,27.2337224,9.61,-0.1,-0.6,144,14730.84,117539.8,144.3,Air+FixedWing,Red,Allies,J-11A,Red J-11A #002,xu,[51☭] Teknetinium,0,0,0,9.60999965667725,2.31891679763794,0,0,NaN,NaN,0,0,NaN,0.999949517868062,-0.00221001827823045,-0.00982487086816524,0,9.42419031331539,9.42419031331539,,,107.72000002861,7.29108285903931,0.192408386708571,0.225525033464482
2011-06-01T04:33:31Z,1306902811,105,56.3836488,27.2337224,9.61,-0.1,-0.6,144,14730.84,117539.79,144.3,Air+FixedWing,Red,Allies,J-11A,Red J-11A #002,xu,[51☭] Teknetinium,0.0078125,0,2.29525116795703e-05,9.60999965667725,2.31891679763794,0.0078125,0,NaN,NaN,0,0,NaN,0.99993759110488,-0.00128023624606662,-0.0111186981512716,3.0517578125e-06,9.42419031331539,9.4241933650732,,,108.72000002861,7.29108285903931,0.192408386708571,0.225525033464482
2011-06-01T04:33:32Z,1306902812,105,56.3836488,27.2337224,9.61,-0.1,-0.6,144,14730.84,117539.79,144.3,Air+FixedWing,Red,Allies,J-11A,Red J-11A #002,xu,[51☭] Teknetinium,0,0,0,9.60999965667725,2.31891679763794,0,0,NaN,NaN,0,0,NaN,0.99993759110488,-0.00128023624606662,-0.0111186981512716,0,9.42419031331539,9.42419031331539,,,109.72000002861,7.29108285903931,0.192408386708571,0.225525033464482
2011-06-01T04:33:33Z,1306902813,105,56.3836488,27.2337224,9.61,-0.1,-0.6,144,14730.84,117539.8,144.3,Air+FixedWing,Red,Allies,J-11A,Red J-11A #002,xu,[51☭] Teknetinium,0.0078125,0,2.29525116795703e-05,9.60999965667725,2.31891679763794,0.0078125,0,NaN,NaN,0,0,NaN,0.999955481249654,-0.00267490929431237,-0.00917795722661207,3.0517578125e-06,9.42419031331539,9.4241933650732,,,110.72000002861,7.29108285903931,0.192408386708571,0.225525033464482
2011-06-01T04:33:34Z,1306902814,105,56.3836488,27.2337224,9.61,-0.1,-0.6,144,14730.84,117539.79,144.3,Air+FixedWing,Red,Allies,J-11A,Red J-11A #002,xu,[51☭] Teknetinium,0.0078125,0,2.29525116795703e-05,9.60999965667725,2.31891679763794,0.0078125,0,NaN,NaN,0,0,NaN,0.99993759110488,-0.00128023624606662,-0.0111186981512716,3.0517578125e-06,9.42419031331539,9.4241933650732,,,111.72000002861,7.29108285903931,0.192408386708571,0.225525033464482
2011-06-01T04:33:35Z,1306902815,105,56.3836488,27.2337224,9.61,-0.1,-0.6,144,14730.84,117539.79,144.3,Air+FixedWing,Red,Allies,J-11A,Red J-11A #002,xu,[51☭] Teknetinium,0,0,0,9.60999965667725,2.31891679763794,0,0,NaN,NaN,0,0,NaN,0.99993759110488,-0.00128023624606662,-0.0111186981512716,0,9.42419031331539,9.42419031331539,,,112.72000002861,7.29108285903931,0.192408386708571,0.225525033464482
2011-06-01T04:33:36Z,1306902816,105,56.3836488,27.2337224,9.61,-0.1,-0.6,144,14730.84,117539.8,144.3,Air+FixedWing,Red,Allies,J-11A,Red J-11A #002,xu,[51☭] Teknetinium,0.0078125,0,2.29525116795703e-05,9.60999965667725,2.31891679763794,0.0078125,0,NaN,NaN,0,0,NaN,0.999955481249654,-0.00267490929431237,-0.00917795722661207,3.0517578125e-06,9.42419031331539,9.4241933650732,,,113.72000002861,7.29108285903931,0.192408386708571,0.225525033464482
2011-06-01T04:33:37Z,1306902817,105,56.3836488,27.2337224,9.61,-0.1,-0.6,144,14730.84,117539.79,144.3,Air+FixedWing,Red,Allies,J-11A,Red J-11A #002,xu,[51☭] Teknetinium,0.0078125,0,2.29525116795703e-05,9.60999965667725,2.31891679763794,0.0078125,0,NaN,NaN,0,0,NaN,0.999931627723288,-0.000815345229984709,-0.0117656117928248,3.0517578125e-06,9.42419031331539,9.4241933650732,,,114.72000002861,7.29108285903931,0.192408386708571,0.225525033464482
2011-06-01T04:33:38Z,1306902818,105,56.3836488,27.2337224,9.61,-0.1,-0.6,144,14730.84,117539.8,144.3,Air+FixedWing,Red,Allies,J-11A,Red J-11A #002,xu,[51☭] Teknetinium,0.0078125,0,2.29525116795703e-05,9.60999965667725,2.31891679763794,0.0078125,0,NaN,NaN,0,0,NaN,0.999949517868062,-0.00221001827823045,-0.00982487086816524,3.0517578125e-06,9.42419031331539,9.4241933650732,,,115.72000002861,7.29108285903931,0.192408386708571,0.225525033464482
2011-06-01T04:33:39Z,1306902819,105,56.3836488,27.2337224,9.61,-0.1,-0.6,144,14730.84,117539.8,144.3,Air+FixedWing,Red,Allies,J-11A,Red J-11A #002,xu,[51☭] Teknetinium,0,0,0,9.60999965667725,2.31891679763794,0,0,NaN,NaN,0,0,NaN,0.999949517868062,-0.00221001827823045,-0.00982487086816524,0,9.42419031331539,9.42419031331539,,,116.72000002861,7.29108285903931,0.192408386708571,0.225525033464482
2011-06-01T04:33:40Z,1306902820,105,56.3836488,27.2337224,9.61,-0.1,-0.6,144,14730.84,117539.79,144.3,Air+FixedWing,Red,Allies,J-11A,Red J-11A #002,xu,[51☭] Teknetinium,0.0078125,0,2.29525116795703e-05,9.60999965667725,2.31891679763794,0.0078125,0,NaN,NaN,0,0,NaN,0.99993759110488,-0.00128023624606662,-0.0111186981512716,3.0517578125e-06,9.42419031331539,9.4241933650732,,,117.72000002861,7.29108285903931,0.192408386708571,0.225525033464482
2011-06-01T04:33:41Z,1306902821,105,56.3836488,27.2337224,9.61,-0.1,-0.6,144,14730.84,117539.79,144.3,Air+FixedWing,Red,Allies,J-11A,Red J-11A #002,xu,[51☭] Teknetinium,0,0,0,9.60999965667725,2.31891679763794,0,0,NaN,NaN,0,0,NaN,0.999943554486471,-0.00174512726214854,-0.0104717845097184,0,9.42419031331539,9.42419031331539,,,118.72000002861,7.29108285903931,0.192408386708571,0.225525033464482
2011-06-01T04:33:42Z,1306902822,105,56.3836488,27.2337224,9.61,-0.1,-0.6,144,14730.84,117539.79,144.3,Air+FixedWing,Red,Allies,J-11A,Red J-11A #002,xu,[51☭] Teknetinium,0,0,0,9.60999965667725,2.31891679763794,0,0,NaN,NaN,0,0,NaN,0.99993759110488,-0.00128023624606662,-0.0111186981512716,0,9.42419031331539,9.42419031331539,,,119.72000002861,7.29108285903931,0.192408386708571,0.225525033464482
2011-06-01T04:33:43Z,1306902823,105,56.3836488,27.2337224,9.61,-0.1,-0.6,144,14730.84,117539.8,144.3,Air+FixedWing,Red,Allies,J-11A,Red J-11A #002,xu,[51☭] Teknetinium,0.0078125,0,2.29525116795703e-05,9.60999965667725,2.31891679763794,0.0078125,0,NaN,NaN,0,0,NaN,0.999949517868062,-0.00221001827823045,-0.00982487086816524,3.0517578125e-06,9.42419031331539,9.4241933650732,,,120.72000002861,7.29108285903931,0.192408386708571,0.225525033464482
2011-06-01T04:33:44Z,1306902824,105,56.3836488,27.2337224,9.61,-0.1,-0.6,144,14730.84,117539.8,144.3,Air+FixedWing,Red,Allies,J-11A,Red J-11A #002,xu,[51☭] Teknetinium,0,0,0,9.60999965667725,2.31891679763794,0,0,NaN,NaN,0,0,NaN,0.999949517868062,-0.00221001827823045,-0.00982487086816524,0,9.42419031331539,9.42419031331539,,,121.72000002861,7.29108285903931,0.192408386708571,0.225525033464482
2011-06-01T04:33:45Z,1306902825,105,56.3836488,27.2337224,9.61,-0.1,-0.6,144,14730.84,117539.79,144.3,Air+FixedWing,Red,Allies,J-11A,Red J-11A #002,xu,[51☭] Teknetinium,0.0078125,0,2.29525116795703e-05,9.60999965667725,2.31891679763794,0.0078125,0,NaN,NaN,0,0,NaN,0.999931627723288,-0.000815345229984709,-0.0117656117928248,3.0517578125e-06,9.42419031331539,9.4241933650732,,,122.72000002861,7.29108285903931,0.192408386708571,0.225525033464482
2011-06-01T04:33:46Z,1306902826,105,56.3836488,27.2337224,9.61,-0.1,-0.6,144,14730.84,117539.8,144.3,Air+FixedWing,Red,Allies,J-11A,Red J-11A #002,xu,[51☭] Teknetinium,0.0078125,0,2.29525116795703e-05,9.60999965667725,2.31891679763794,0.0078125,0,NaN,NaN,0,0,NaN,0.999955481249654,-0.00267490929431237,-0.00917795722661207,3.0517578125e-06,9.42419031331539,9.4241933650732,,,123.72000002861,7.29108285903931,0.192408386708571,0.225525033464482
2011-06-01T04:33:47Z,1306902827,105,56.3836488,27.2337224,9.61,-0.1,-0.6,144,14730.84,117539.79,144.3,Air+FixedWing,Red,Allies,J-11A,Red J-11A #002,xu,[51☭] Teknetinium,0.0078125,0,2.29525116795703e-05,9.60999965667725,2.31891679763794,0.0078125,0,NaN,NaN,0,0,NaN,0.999931627723288,-0.000815345229984709,-0.0117656117928248,3.0517578125e-06,9.42419031331539,9.4241933650732,,,124.72000002861,7.29108285903931,0.192408386708571,0.225525033464482
2011-06-01T04:33:48Z,1306902828,105,56.3836488,27.2337224,9.61,-0.1,-0.6,144,14730.84,117539.8,144.3,Air+FixedWing,Red,Allies,J-11A,Red J-11A #002,xu,[51☭] Teknetinium,0.0078125,0,2.29525116795703e-05,9.60999965667725,2.31891679763794,0.0078125,0,NaN,NaN,0,0,NaN,0.999955481249654,-0.00267490929431237,-0.00917795722661207,3.0517578125e-06,9.42419031331539,9.4241933650732,,,125.72000002861,7.29108285903931,0.192408386708571,0.225525033464482
2011-06-01T04:33:49Z,1306902829,105,56.3836488,27.2337224,9.61,-0.1,-0.6,144,14730.84,117539.79,144.3,Air+FixedWing,Red,Allies,J-11A,Red J-11A #002,xu,[51☭] Teknetinium,0.0078125,0,2.29525116795703e-05,9.60999965667725,2.31891679763794,0.0078125,0,NaN,NaN,0,0,NaN,0.99993759110488,-0.00128023624606662,-0.0111186981512716,3.0517578125e-06,9.42419031331539,9.4241933650732,,,126.72000002861,7.29108285903931,0.192408386708571,0.225525033464482
2011-06-01T04:33:50Z,1306902830,105,56.3836488,27.2337224,9.61,-0.1,-0.6,144,14730.84,117539.79,144.3,Air+FixedWing,Red,Allies,J-11A,Red J-11A #002,xu,[51☭] Teknetinium,0,0,0,9.60999965667725,2.31891679763794,0,0,NaN,NaN,0,0,NaN,0.99993759110488,-0.00128023624606662,-0.0111186981512716,0,9.42419031331539,9.42419031331539,,,127.72000002861,7.29108285903931,0.192408386708571,0.225525033464482
2011-06-01T04:33:51Z,1306902831,105,56.3836488,27.2337225,9.61,-0.1,-0.6,144,14730.84,117539.8,144.3,Air+FixedWing,Red,Allies,J-11A,Red J-11A #002,xu,[51☭] Teknetinium,0.0078125,0,2.29525116795703e-05,9.60999965667725,2.31886005401611,0.0078125,0,NaN,NaN,0,0,NaN,0.999949517868062,-0.00221001827823045,-0.00982487086816524,3.0517578125e-06,9.42419031331539,9.4241933650732,,,128.72000002861,7.29113960266113,0.200533430277224,0.233650089984325
2011-06-01T04:33:52Z,1306902832,105,56.3836488,27.2337224,9.61,-0.1,-0.6,144,14730.84,117539.8,144.3,Air+FixedWing,Red,Allies,J-11A,Red J-11A #002,xu,[51☭] Teknetinium,0,0,0,9.60999965667725,2.31889820098877,0,0,NaN,NaN,0,0,NaN,0.999943554486471,-0.00174512726214854,-0.0104717845097184,0,9.42419031331539,9.42419031331539,,,129.72000002861,7.29110145568848,0.206931101269754,0.24004777132609
2011-06-01T04:33:53Z,1306902833,105,56.3836488,27.2337225,9.61,-0.1,-0.6,144,14730.84,117539.8,144.3,Air+FixedWing,Red,Allies,J-11A,Red J-11A #002,xu,[51☭] Teknetinium,0,0,0,9.60999965667725,2.31884098052979,0,0,NaN,NaN,0,0,NaN,0.999943554486471,-0.00174512726214854,-0.0104717845097184,0,9.42419031331539,9.42419031331539,,,130.72000002861,7.29115867614746,0.216322157613898,0.249438841922673
2011-06-01T04:33:54Z,1306902834,105,56.3836488,27.2337225,9.61,-0.1,-0.6,144,14730.84,117539.8,144.3,Air+FixedWing,Red,Allies,J-11A,Red J-11A #002,xu,[51☭] Teknetinium,0,0,0,9.60999965667725,2.31884098052979,0,0,NaN,NaN,0,0,NaN,0.999943554486471,-0.00174512726214854,-0.0104717845097184,0,9.42419031331539,9.42419031331539,,,131.72000002861,7.29115867614746,0.216348159282534,0.249464843177271
2011-06-01T04:33:55Z,1306902835,105,56.3836488,27.2337225,9.61,-0.1,-0.6,144,14730.84,117539.8,144.3,Air+FixedWing,Red,Allies,J-11A,Red J-11A #002,xu,[51☭] Teknetinium,0,0,0,9.60999965667725,2.31884098052979,0,0,NaN,NaN,0,0,NaN,0.999943554486471,-0.00174512726214854,-0.0104717845097184,0,9.42419031331539,9.42419031331539,,,132.72000002861,7.29115867614746,0.216374160064235,0.249490844373017
2011-06-01T04:33:56Z,1306902836,105,56.3836488,27.2337225,9.61,-0.1,-0.6,144,14730.84,117539.8,144.3,Air+FixedWing,Red,Allies,J-11A,Red J-11A #002,xu,[51☭] Teknetinium,0,0,0,9.60999965667725,2.31884098052979,0,0,NaN,NaN,0,0,NaN,0.999943554486471,-0.00174512726214854,-0.0104717845097184,0,9.42419031331539,9.42419031331539,,,133.72000002861,7.29115867614746,0.21640016125998,0.249516845154717
2011-06-01T04:33:57Z,1306902837,105,56.3836488,27.2337225,9.61,-0.1,-0.6,144,14730.84,117539.8,144.3,Air+FixedWing,Red,Allies,J-11A,Red J-11A #002,xu,[51☭] Teknetinium,0,0,0,9.60999965667725,2.31884098052979,0,0,NaN,NaN,0,0,NaN,0.999943554486471,-0.00174512726214854,-0.0104717845097184,0,9.42419031331539,9.42419031331539,,,134.72000002861,7.29115867614746,0.216426162455726,0.249542847237392
2011-06-01T04:33:58Z,1306902838,105,56.3836488,27.2337225,9.61,-0.1,-0.6,144,14730.84,117539.8,144.3,Air+FixedWing,Red,Allies,J-11A,Red J-11A #002,xu,[51☭] Teknetinium,0,0,0,9.60999965667725,2.31884098052979,0,0,NaN,NaN,0,0,NaN,0.999943554486471,-0.00174512726214854,-0.0104717845097184,0,9.42419031331539,9.42419031331539,,,135.72000002861,7.29115867614746,0.216452164183255,0.249568848491991
2011-06-01T04:33:59Z,1306902839,105,56.3836488,27.2337225,9.61,-0.1,-0.6,144,14730.84,117539.8,144.3,Air+FixedWing,Red,Allies,J-11A,Red J-11A #002,xu,[51☭] Teknetinium,0,0,0,9.60999965667725,2.31884098052979,0,0,NaN,NaN,0,0,NaN,0.999943554486471,-0.00174512726214854,-0.0104717845097184,0,9.42419031331539,9.42419031331539,,,136.72000002861,7.29115867614746,0.216478164906143,0.249594849687736
2011-06-01T04:34:00Z,1306902840,105,56.3836488,27.2337225,9.61,-0.1,-0.6,144,14730.84,117539.8,144.3,Air+FixedWing,Red,Allies,J-11A,Red J-11A #002,xu,[51☭] Teknetinium,0,0,0,9.60999965667725,2.31884098052979,0,0,NaN,NaN,0,0,NaN,0.999943554486471,-0.00174512726214854,-0.0104717845097184,0,9.42419031331539,9.42419031331539,,,137.72000002861,7.29115867614746,0.216504166574779,0.249620850883482
2011-06-01T04:34:01Z,1306902841,105,56.3836488,27.2337225,9.61,-0.1,-0.6,144,14730.84,117539.8,144.3,Air+FixedWing,Red,Allies,J-11A,Red J-11A #002,xu,[51☭] Teknetinium,0,0,0,9.60999965667725,2.31884098052979,0,0,NaN,NaN,0,0,NaN,0.999943554486471,-0.00174512726214854,-0.0104717845097184,0,9.42419031331539,9.42419031331539,,,138.72000002861,7.29115867614746,0.216530167829377,0.249646853025041
2011-06-01T04:34:02Z,1306902842,105,56.3836488,27.2337225,9.61,-0.1,-0.6,144,14730.84,117539.8,144.3,Air+FixedWing,Red,Allies,J-11A,Red J-11A #002,xu,[51☭] Teknetinium,0,0,0,9.60999965667725,2.31884098052979,0,0,NaN,NaN,0,0,NaN,0.999943554486471,-0.00174512726214854,-0.0104717845097184,0,9.42419031331539,9.42419031331539,,,139.72000002861,7.29115867614746,0.21655616943917,0.249672854220787
