ISOTime,UnixTime,Id,Longitude,Latitude,Altitude,Roll,Pitch,Yaw,U,V,Heading,Type,Color,Coalition,Name,Group,Country,Pilot,TAS,CAS,M,ASL,AGL,GS,VS,AOA,AOS,RRT,TRT,TRD,G,LatG,LonG,Ek,Ep,Em,FFW,FFV,RelativeTime,Elev,GroundDistance,AirDistance
2011-06-01T04:30:38Z,1306902638,106,56.3843452,27.233566,9.19,-0.4,0,265.4,14799.71,117522.13,265.7,Air+FixedWing,Red,Allies,J-11A,Red J-11A #001,xu,[51☭] Frostie,0.159158125822132,0,0.000467591892049062,9.19476127624512,2.19476127624512,NaN,NaN,NaN,NaN,1.27620718603854,NaN,NaN,NaN,NaN,NaN,NaN,9.01698056696892,NaN,,,0.789999961853027,7,NaN,NaN
2011-06-01T04:30:39Z,1306902639,106,56.384345,27.233566,9.2,-0.6,0,265.4,14799.7,117522.13,265.7,Air+FixedWing,Red,Allies,J-11A,Red J-11A #001,xu,[51☭] Frostie,0.0127042643686323,0,3.73239570046412e-05,9.19523811340332,2.19523811340332,0.0126953125,0.000476837158203125,NaN,NaN,0.0666626462993244,0.188711843527024,NaN,1.00352805334475,-0.0113733377971456,0.00123125134257479,8.06991665740498e-06,9.01744818448067,9.01745625439732,,,1.78999996185303,7,0.0127259378929758,0.0127348858282719
2011-06-01T04:30:40Z,1306902640,106,56.3843449,27.2335661,9.23,-0.4,0,265.4,14799.68,117522.13,265.7,Air+FixedWing,Red,Allies,J-11A,Red J-11A #001,xu,[51☭] Frostie,0.0393841636977482,0,0.000115707087098571,9.23095226287842,2.23095226287842,0.0166015625,0.0357141494750977,NaN,NaN,0.199987938897973,0.100870594880489,NaN,0.996237500993759,-0.00682828496857841,-0.00168812259807519,7.75556175085512e-05,9.05247180087566,9.05254935649317,,,2.78999996185303,7,0.0318530174212171,0.0532484233629378
2011-06-01T04:30:41Z,1306902641,106,56.3843449,27.2335661,9.23,-0.3,0,265.4,14799.68,117522.13,265.7,Air+FixedWing,Red,Allies,J-11A,Red J-11A #001,xu,[51☭] Frostie,0.000952720642089844,0,2.79900647321051e-06,9.22999954223633,2.22999954223633,0,-0.000952720642089844,NaN,NaN,0.104755678517543,0.0964072530208705,NaN,0.999064044724712,-0.00516409678706879,-0.000893711963686863,4.53838310932042e-08,9.05153750108719,9.05153754647102,,,3.78999996185303,7,0.0323243481635985,0.0543113578306219
2011-06-01T04:30:42Z,1306902642,106,56.3843449,27.2335661,9.22,-0.3,-0.1,265.4,14799.69,117522.13,265.7,Air+FixedWing,Red,Allies,J-11A,Red J-11A #001,xu,[51☭] Frostie,0.0133128931605651,0,3.91120631701089e-05,9.22000026702881,2.22000026702881,0.0087890625,-0.00999927520751953,NaN,NaN,0,0.0139882274201861,NaN,1.00202621630754,-0.00537373932724019,-6.0767450767162e-05,8.86165621523105e-06,9.04173156186581,9.04174042352202,,,4.78999996185303,7,0.0337383406463593,0.0644101150632724
2011-06-01T04:30:43Z,1306902643,106,56.3843449,27.2335661,9.23,-0.3,-0.1,265.4,14799.68,117522.13,265.7,Air+FixedWing,Red,Allies,J-11A,Red J-11A #001,xu,[51☭] Frostie,0.0126893916688593,0,3.7280276980596e-05,9.22999954223633,2.22999954223633,0.0078125,0.00999927520751953,NaN,NaN,0,0.0139882274201861,NaN,0.9989639813954,-0.00517103945239913,-0.00253795831602905,8.05103304628574e-06,9.05153750108719,9.05154555212023,,,5.78999996185303,7,0.0337383406463593,0.0744093903071229
2011-06-01T04:30:44Z,1306902644,106,56.3843449,27.2335661,9.23,-0.3,-0.1,265.4,14799.68,117522.13,265.7,Air+FixedWing,Red,Allies,J-11A,Red J-11A #001,xu,[51☭] Frostie,0,0,0,9.22999954223633,2.22999954223633,0,0,NaN,NaN,0,0.0139882274201861,NaN,0.999956869211658,-0.0052359713396737,-0.00174527988101906,0,9.05153750108719,9.05153750108719,,,6.78999996185303,7,0.0337383406463593,0.0744093903071229
2011-06-01T04:30:45Z,1306902645,106,56.3843449,27.2335661,9.23,-0.3,-0.1,265.4,14799.68,117522.13,265.7,Air+FixedWing,Red,Allies,J-11A,Red J-11A #001,xu,[51☭] Frostie,0.000272750854492188,0,8.01317166045023e-07,9.22972679138184,2.22972679138184,0,-0.000272750854492188,NaN,NaN,0,0.0139882274201861,NaN,0.999976804684645,-0.00523607572574351,-0.00174531467550281,3.71965143131092e-09,9.05127002387047,9.05127002759012,,,7.78999996185303,7,0.0337383406463593,0.0746821413014089
2011-06-01T04:30:46Z,1306902646,106,56.3843449,27.2335661,9.23,-0.3,-0.1,265.4,14799.68,117522.13,265.7,Air+FixedWing,Red,Allies,J-11A,Red J-11A #001,xu,[51☭] Frostie,0.000349998474121094,0,1.02826363209515e-06,9.22937679290771,2.22937679290771,0,-0.000349998474121094,NaN,NaN,0,0.0139882274201861,NaN,0.99998468162763,-0.00523611697097109,-0.00174532842356712,6.1249465943547e-09,9.05092679261684,9.05092679874179,,,8.78999996185303,7,0.0337383406463593,0.0750321394559763
2011-06-01T04:30:47Z,1306902647,106,56.3843449,27.2335661,9.23,-0.3,-0.1,265.4,14799.68,117522.13,265.7,Air+FixedWing,Red,Allies,J-11A,Red J-11A #001,xu,[51☭] Frostie,0.000349998474121094,0,1.02826362804162e-06,9.22902679443359,2.22902679443359,0,-0.000349998474121094,NaN,NaN,0,0.0139882274201861,NaN,0.99998477887384,-0.00523611748017143,-0.00174532859329631,6.1249465943547e-09,9.05058356136322,9.05058356748817,,,9.78999996185303,7,0.0337383406463593,0.0753821378397652
2011-06-01T04:30:48Z,1306902648,106,56.3843449,27.2335661,9.23,-0.3,-0.1,265.4,14799.68,117522.13,265.7,Air+FixedWing,Red,Allies,J-11A,Red J-11A #001,xu,[51☭] Frostie,0.000349044799804688,0,1.02546181575936e-06,9.22867774963379,2.22867774963379,0,-0.000349044799804688,NaN,NaN,0,0.0139882274201861,NaN,0.999984584381421,-0.00523611646177075,-0.00174532825383793,6.09161361353472e-09,9.05024126534462,9.05024127143623,,,10.789999961853,7,0.0337383406463593,0.0757311832548553
2011-06-01T04:30:49Z,1306902649,106,56.3843449,27.2335661,9.23,-0.3,-0.1,265.4,14799.68,117522.13,265.7,Air+FixedWing,Red,Allies,J-11A,Red J-11A #001,xu,[51☭] Frostie,0.000349998474121094,0,1.02826361994561e-06,9.22832775115967,2.22832775115967,0,-0.000349998474121094,NaN,NaN,0,0.0139882274201861,NaN,0.99998468162763,-0.00523611697097109,-0.00174532842356712,6.1249465943547e-09,9.049898034091,9.04989804021594,,,11.789999961853,7,0.0337383406463593,0.0760811814094227
2011-06-01T04:30:50Z,1306902650,106,56.3843449,27.2335661,9.23,-0.3,-0.1,265.4,14799.68,117522.13,265.7,Air+FixedWing,Red,Allies,J-11A,Red J-11A #001,xu,[51☭] Frostie,0.000349998474121094,0,1.02826361589208e-06,9.22797775268555,2.22797775268555,0,-0.000349998474121094,NaN,NaN,0,0.0139882274201861,NaN,0.99998477887384,-0.00523611748017143,-0.00174532859329631,6.1249465943547e-09,9.04955480283737,9.04955480896232,,,12.789999961853,7,0.0337383406463593,0.0764311797932117
2011-06-01T04:30:51Z,1306902651,106,56.3843449,27.2335661,9.23,-0.3,-0.1,265.4,14799.68,117522.13,265.7,Air+FixedWing,Red,Allies,J-11A,Red J-11A #001,xu,[51☭] Frostie,0.000349044799804688,0,1.02546180364292e-06,9.22762870788574,2.22762870788574,0,-0.000349044799804688,NaN,NaN,0,0.0139882274201861,NaN,0.999984584381421,-0.00523611646177075,-0.00174532825383793,6.09161361353472e-09,9.04921250681877,9.04921251291039,,,13.789999961853,7,0.0337383406463593,0.0767802242894761
2011-06-01T04:30:52Z,1306902652,106,56.3843449,27.2335661,9.23,-0.3,-0.1,265.4,14799.68,117522.13,265.7,Air+FixedWing,Red,Allies,J-11A,Red J-11A #001,xu,[51☭] Frostie,0.000349998474121094,0,1.02826360779606e-06,9.22727870941162,2.22727870941162,0,-0.000349998474121094,NaN,NaN,0,0.0139882274201861,NaN,0.99998468162763,-0.00523611697097109,-0.00174532842356712,6.1249465943547e-09,9.04886927556515,9.04886928169009,,,14.789999961853,7,0.0337383406463593,0.0771302224440435
2011-06-01T04:30:53Z,1306902653,106,56.3843449,27.2335661,9.23,-0.3,-0.1,265.4,14799.68,117522.13,265.7,Air+FixedWing,Red,Allies,J-11A,Red J-11A #001,xu,[51☭] Frostie,0.000349998474121094,0,1.02826360374253e-06,9.2269287109375,2.2269287109375,0,-0.000349998474121094,NaN,NaN,0,0.0139882274201861,NaN,0.99998468162763,-0.00523611697097109,-0.00174532842356712,6.1249465943547e-09,9.04852604431152,9.04852605043647,,,15.789999961853,7,0.0337383406463593,0.0774802215335626
2011-06-01T04:30:54Z,1306902654,106,56.3843449,27.2335661,9.23,-0.3,-0.1,265.4,14799.68,117522.13,265.7,Air+FixedWing,Red,Allies,J-11A,Red J-11A #001,xu,[51☭] Frostie,0.000349998474121094,0,1.028263599689e-06,9.22657871246338,2.22657871246338,0,-0.000349998474121094,NaN,NaN,0,0.0139882274201861,NaN,0.99998477887384,-0.00523611748017143,-0.00174532859329631,6.1249465943547e-09,9.0481828130579,9.04818281918284,,,16.789999961853,7,0.0337383406463593,0.0778302203777339
2011-06-01T04:30:55Z,1306902655,106,56.3843449,27.2335661,9.23,-0.3,-0.1,265.4,14799.68,117522.13,265.7,Air+FixedWing,Red,Allies,J-11A,Red J-11A #001,xu,[51☭] Frostie,0.000349044799804688,0,1.02546178748399e-06,9.22622966766357,2.22622966766357,0,-0.000349044799804688,NaN,NaN,0,0.0139882274201861,NaN,0.999984584381421,-0.00523611646177075,-0.00174532825383793,6.09161361353472e-09,9.0478405170393,9.04784052313091,,,17.789999961853,7,0.0337383406463593,0.078179264397491
2011-06-01T04:30:56Z,1306902656,106,56.3843449,27.2335661,9.23,-0.3,-0.1,265.4,14799.68,117522.13,265.7,Air+FixedWing,Red,Allies,J-11A,Red J-11A #001,xu,[51☭] Frostie,0.000349998474121094,0,1.02826359159299e-06,9.22587966918945,2.22587966918945,0,-0.000349998474121094,NaN,NaN,0,0.0139882274201861,NaN,0.99998468162763,-0.00523611697097109,-0.00174532842356712,6.1249465943547e-09,9.04749728578567,9.04749729191062,,,18.789999961853,7,0.0337383406463593,0.0785292632577884
2011-06-01T04:30:57Z,1306902657,106,56.3843449,27.2335661,9.23,-0.3,-0.1,265.4,14799.68,117522.13,265.7,Air+FixedWing,Red,Allies,J-11A,Red J-11A #001,xu,[51☭] Frostie,0.000349998474121094,0,1.02826358753946e-06,9.22552967071533,2.22552967071533,0,-0.000349998474121094,NaN,NaN,0,0.0139882274201861,NaN,0.99998468162763,-0.00523611697097109,-0.00174532842356712,6.1249465943547e-09,9.04715405453205,9.047154060657,,,19.789999961853,7,0.0337383406463593,0.0788792614123558
2011-06-01T04:30:58Z,1306902658,106,56.3843449,27.2335661,9.23,-0.3,-0.1,265.4,14799.68,117522.13,265.7,Air+FixedWing,Red,Allies,J-11A,Red J-11A #001,xu,[51☭] Frostie,0.000349998474121094,0,1.02826358348593e-06,9.22517967224121,2.22517967224121,0,-0.000349998474121094,NaN,NaN,0,0.0139882274201861,NaN,0.99998477887384,-0.00523611748017143,-0.00174532859329631,6.1249465943547e-09,9.04681082327843,9.04681082940337,,,20.789999961853,7,0.0337383406463593,0.0792292607149698
2011-06-01T04:30:59Z,1306902659,106,56.3843449,27.2335661,9.22,-0.3,-0.1,265.4,14799.68,117522.13,265.7,Air+FixedWing,Red,Allies,J-11A,Red J-11A #001,xu,[51☭] Frostie,0.000349044799804688,0,1.02546177132507e-06,9.22483062744141,2.22483062744141,0,-0.000349044799804688,NaN,NaN,0,0.0139882274201861,NaN,0.999984584381421,-0.00523611646177075,-0.00174532825383793,6.09161361353472e-09,9.04646852725983,9.04646853335144,,,21.789999961853,7,0.0337383406463593,0.0795783052112342
2011-06-01T04:31:00Z,1306902660,106,56.3843449,27.2335661,9.22,-0.3,-0.1,265.4,14799.68,117522.13,265.7,Air+FixedWing,Red,Allies,J-11A,Red J-11A #001,xu,[51☭] Frostie,0.000349998474121094,0,1.02826357538991e-06,9.22448062896729,2.22448062896729,0,-0.000349998474121094,NaN,NaN,0,0.0139882274201861,NaN,0.99998468162763,-0.00523611697097109,-0.00174532842356712,6.1249465943547e-09,9.0461252960062,9.04612530213115,,,22.789999961853,7,0.0337383406463593,0.0799283033658016
2011-06-01T04:31:01Z,1306902661,106,56.3843449,27.2335661,9.22,-0.3,-0.1,265.4,14799.68,117522.13,265.7,Air+FixedWing,Red,Allies,J-11A,Red J-11A #001,xu,[51☭] Frostie,0.000349998474121094,0,1.02826357133638e-06,9.22413063049316,2.22413063049316,0,-0.000349998474121094,NaN,NaN,0,0.0139882274201861,NaN,0.99998468162763,-0.00523611697097109,-0.00174532842356712,6.1249465943547e-09,9.04578206475258,9.04578207087752,,,23.789999961853,7,0.0337383406463593,0.0802783017495906
2011-06-01T04:31:02Z,1306902662,106,56.3843449,27.2335661,9.22,-0.3,-0.1,265.4,14799.68,117522.13,265.7,Air+FixedWing,Red,Allies,J-11A,Red J-11A #001,xu,[51☭] Frostie,0.000349998474121094,0,1.02826356728285e-06,9.22378063201904,2.22378063201904,0,-0.000349998474121094,NaN,NaN,0,0.0139882274201861,NaN,0.99998477887384,-0.00523611748017143,-0.00174532859329631,6.1249465943547e-09,9.04543883349895,9.0454388396239,,,24.789999961853,7,0.0337383406463593,0.0806282996910624
2011-06-01T04:31:03Z,1306902663,106,56.3843449,27.2335661,9.22,-0.3,-0.1,265.4,14799.68,117522.13,265.7,Air+FixedWing,Red,Allies,J-11A,Red J-11A #001,xu,[51☭] Frostie,0.000349044799804688,0,1.02546175516614e-06,9.22343158721924,2.22343158721924,0,-0.000349044799804688,NaN,NaN,0,0.0139882274201861,NaN,0.999984584381421,-0.00523611646177075,-0.00174532825383793,6.09161361353472e-09,9.04509653748035,9.04509654357197,,,25.789999961853,7,0.0337383406463593,0.0809773453192475
2011-06-01T04:31:04Z,1306902664,106,56.3843449,27.2335661,9.22,-0.3,-0.1,265.4,14799.68,117522.13,265.7,Air+FixedWing,Red,Allies,J-11A,Red J-11A #001,xu,[51☭] Frostie,0.000349998474121094,0,1.02826355918684e-06,9.22308158874512,2.22308158874512,0,-0.000349998474121094,NaN,NaN,0,0.0139882274201861,NaN,0.99998468162763,-0.00523611697097109,-0.00174532842356712,6.1249465943547e-09,9.04475330622673,9.04475331235168,,,26.789999961853,7,0.0337383406463593,0.081327343489941
2011-06-01T04:31:05Z,1306902665,106,56.3843449,27.2335661,9.22,-0.3,-0.1,265.4,14799.68,117522.13,265.7,Air+FixedWing,Red,Allies,J-11A,Red J-11A #001,xu,[51☭] Frostie,0.000349998474121094,0,1.02826355513331e-06,9.222731590271,2.222731590271,0,-0.000349998474121094,NaN,NaN,0,0.0139882274201861,NaN,0.99998468162763,-0.00523611697097109,-0.00174532842356712,6.1249465943547e-09,9.04441007497311,9.04441008109805,,,27.789999961853,7,0.0337383406463593,0.0816773416445084
2011-06-01T04:31:06Z,1306902666,106,56.3843449,27.2335661,9.22,-0.3,-0.1,265.4,14799.68,117522.13,265.7,Air+FixedWing,Red,Allies,J-11A,Red J-11A #001,xu,[51☭] Frostie,0.000349998474121094,0,1.02826355107978e-06,9.22238159179688,2.22238159179688,0,-0.000349998474121094,NaN,NaN,0,0.0139882274201861,NaN,0.99998477887384,-0.00523611748017143,-0.00174532859329631,6.1249465943547e-09,9.04406684371948,9.04406684984443,,,28.789999961853,7,0.0337383406463593,0.0820273407179008
2011-06-01T04:31:07Z,1306902667,106,56.3843449,27.2335661,9.22,-0.3,-0.1,265.4,14799.68,117522.13,265.7,Air+FixedWing,Red,Allies,J-11A,Red J-11A #001,xu,[51☭] Frostie,0.000349044799804688,0,1.02546173900722e-06,9.22203254699707,2.22203254699707,0,-0.000349044799804688,NaN,NaN,0,0.0139882274201861,NaN,0.999984584381421,-0.00523611646177075,-0.00174532825383793,6.09161361353472e-09,9.04372454770088,9.0437245537925,,,29.789999961853,7,0.0337383406463593,0.0823763854433869
2011-06-01T04:31:08Z,1306902668,106,56.3843449,27.2335661,9.22,-0.3,-0.1,265.4,14799.68,117522.13,265.7,Air+FixedWing,Red,Allies,J-11A,Red J-11A #001,xu,[51☭] Frostie,0.000349998474121094,0,1.02826354298377e-06,9.22168254852295,2.22168254852295,0,-0.000349998474121094,NaN,NaN,0,0.0139882274201861,NaN,0.99998468162763,-0.00523611697097109,-0.00174532842356712,6.1249465943547e-09,9.04338131644726,9.0433813225722,,,30.789999961853,7,0.0337383406463593,0.0827263835979543
2011-06-01T04:31:09Z,1306902669,106,56.3843449,27.2335661,9.22,-0.3,-0.1,265.4,14799.68,117522.13,265.7,Air+FixedWing,Red,Allies,J-11A,Red J-11A #001,xu,[51☭] Frostie,0.000349998474121094,0,1.02826353893024e-06,9.22133255004883,2.22133255004883,0,-0.000349998474121094,NaN,NaN,0,0.0139882274201861,NaN,0.99998477887384,-0.00523611748017143,-0.00174532859329631,6.1249465943547e-09,9.04303808519363,9.04303809131858,,,31.789999961853,7,0.0337383406463593,0.0830763826713467
2011-06-01T04:31:10Z,1306902670,106,56.3843449,27.2335661,9.22,-0.3,-0.1,265.4,14799.68,117522.13,265.7,Air+FixedWing,Red,Allies,J-11A,Red J-11A #001,xu,[51☭] Frostie,0.000349044799804688,0,1.02546172689078e-06,9.22098350524902,2.22098350524902,0,-0.000349044799804688,NaN,NaN,0,0.0139882274201861,NaN,0.999984584381421,-0.00523611646177075,-0.00174532825383793,6.09161361353472e-09,9.04269578917503,9.04269579526665,,,32.789999961853,7,0.0337383406463593,0.0834254273968328
2011-06-01T04:31:11Z,1306902671,106,56.3843449,27.2335661,9.22,-0.3,-0.1,265.4,14799.68,117522.13,265.7,Air+FixedWing,Red,Allies,J-11A,Red J-11A #001,xu,[51☭] Frostie,0.000349998474121094,0,1.02826353083422e-06,9.2206335067749,2.2206335067749,0,-0.000349998474121094,NaN,NaN,0,0.0139882274201861,NaN,0.99998468162763,-0.00523611697097109,-0.00174532842356712,6.1249465943547e-09,9.04235255792141,9.04235256404636,,,33.789999961853,7,0.0337383406463593,0.0837754255514002
2011-06-01T04:31:12Z,1306902672,106,56.3843449,27.2335661,9.22,-0.3,-0.1,265.4,14799.68,117522.13,265.7,Air+FixedWing,Red,Allies,J-11A,Red J-11A #001,xu,[51☭] Frostie,0.000349998474121094,0,1.02826352678069e-06,9.22028350830078,2.22028350830078,0,-0.000349998474121094,NaN,NaN,0,0.0139882274201861,NaN,0.999991488862309,-0.00523615261499493,-0.00174534030461035,6.1249465943547e-09,9.04200932666779,9.04200933279273,,,34.789999961853,7,0.0337383406463593,0.0841254246247926
2011-06-01T04:31:13Z,1306902673,106,56.3843449,27.2335661,9.22,-0.3,-0,265.4,14799.68,117522.13,265.7,Air+FixedWing,Red,Allies,J-11A,Red J-11A #001,xu,[51☭] Frostie,0.000283241271972656,0,8.32136965884453e-07,9.22000026702881,2.22000026702881,0,-0.000283241271972656,NaN,NaN,0,0.0139882274201861,NaN,1.0001766773246,-0.00523712229835903,-0.000166348667116416,4.01128090743441e-09,9.04173156186581,9.04173156587709,,,35.789999961853,7,0.0337383406463593,0.0844086655509798
2011-06-01T04:31:14Z,1306902674,106,56.3843449,27.2335661,9.22,-0.3,-0.1,265.4,14799.68,117522.13,265.7,Air+FixedWing,Red,Allies,J-11A,Red J-11A #001,xu,[51☭] Frostie,0.00158500671386719,0,4.65660492252485e-06,9.22158527374268,2.22158527374268,0,0.00158500671386719,NaN,NaN,0,0.0139882274201861,NaN,1.00068186702794,-0.00528456726936075,-0.00115073672703309,1.25612314150203e-07,9.04328592247486,9.04328604808718,,,36.789999961853,7,0.0337383406463593,0.0859936718582567
2011-06-01T04:31:15Z,1306902675,106,56.3843448,27.2335661,9.23,-0.3,-0.1,265.4,14799.67,117522.13,265.7,Air+FixedWing,Red,Allies,J-11A,Red J-11A #001,xu,[51☭] Frostie,0.0102533989327391,0,3.01235521906957e-05,9.22999954223633,2.22999954223633,0.005859375,0.00841426849365234,NaN,NaN,0,0.0139882274201861,NaN,0.998105441225479,-0.00513667750129384,-0.00293366554689874,5.25660948369477e-06,9.05153750108719,9.05154275769667,,,37.789999961853,7,0.0436362955127575,0.0989848118472614
2011-06-01T04:31:16Z,1306902676,106,56.3843449,27.2335661,9.22,-0.2,-0.1,265.4,14799.68,117522.13,265.7,Air+FixedWing,Red,Allies,J-11A,Red J-11A #001,xu,[51☭] Frostie,0.0115895547829215,0,3.40490525474798e-05,9.22000026702881,2.22000026702881,0.005859375,-0.00999927520751953,NaN,NaN,0.156283265946354,0.0139882274201861,NaN,1.00101250057224,-0.00358593823462875,-0.00125060209473347,6.71588900331699e-06,9.04173156186581,9.04173827775481,,,38.789999961853,7,0.0535342503791557,0.113054470873689
2011-06-01T04:31:17Z,1306902677,106,56.3843449,27.2335661,9.22,-0.3,-0.1,265.4,14799.68,117522.13,265.7,Air+FixedWing,Red,Allies,J-11A,Red J-11A #001,xu,[51☭] Frostie,0.0009765625,0,2.8690513571235e-06,9.22000026702881,2.22000026702881,0.0009765625,0,NaN,NaN,0,0.0139882274201861,NaN,0.999984144765831,-0.0052062476944704,-0.0021425331750715,4.76837158203125e-08,9.04173156186581,9.04173160954952,,,39.789999961853,7,0.0535342503791557,0.113054470873689
2011-06-01T04:31:18Z,1306902678,106,56.3843449,27.2335661,9.22,-0.3,-0.1,265.4,14799.69,117522.13,265.7,Air+FixedWing,Red,Allies,J-11A,Red J-11A #001,xu,[51☭] Frostie,0.0048828125,0,1.43452567856175e-05,9.22000026702881,2.22000026702881,0.0048828125,0,NaN,NaN,0,0.0139882274201861,NaN,0.99998468162763,-0.00523611697097109,-0.00174532842356712,1.19209289550781e-06,9.04173156186581,9.0417327539587,,,40.789999961853,7,0.0535342503791557,0.113054470873689
2011-06-01T04:31:19Z,1306902679,106,56.384345,27.2335661,9.22,-0.3,-0.1,265.4,14799.69,117522.13,265.7,Air+FixedWing,Red,Allies,J-11A,Red J-11A #001,xu,[51☭] Frostie,0.0048828125,0,1.43452567856175e-05,9.22000026702881,2.22000026702881,0.0048828125,0,NaN,NaN,0,0.0139882274201861,NaN,0.999986829074827,-0.00535559407697387,-0.000156509417549587,1.19209289550781e-06,9.04173156186581,9.0417327539587,,,41.789999961853,7,0.061075551410202,0.120595782881908
2011-06-01T04:31:20Z,1306902680,106,56.3843449,27.2335661,9.22,-0.3,-0.1,265.4,14799.68,117522.13,265.7,Air+FixedWing,Red,Allies,J-11A,Red J-11A #001,xu,[51☭] Frostie,0.0107421875,0,3.15595649283585e-05,9.22000026702881,2.22000026702881,0.0107421875,0,NaN,NaN,0.0456718207934357,0.0139882274201861,NaN,0.999985316319225,-0.00473150746914226,-0.00283764149020417,5.76972961425781e-06,9.04173156186581,9.04173733159542,,,42.789999961853,7,0.0686168524412483,0.128137094890126
2011-06-01T04:31:21Z,1306902681,106,56.3843449,27.2335661,9.22,-0.2,-0.1,265.4,14799.68,117522.13,265.7,Air+FixedWing,Red,Allies,J-11A,Red J-11A #001,xu,[51☭] Frostie,0,0,0,9.22000026702881,2.22000026702881,0,0,NaN,NaN,0.0456718207934357,0.0139882274201861,NaN,0.999983813598024,-0.0056053408507703,-0.00186479247743393,0,9.04173156186581,9.04173156186581,,,43.789999961853,7,0.0686168524412483,0.128137094890126
2011-06-01T04:31:22Z,1306902682,106,56.3843449,27.2335662,9.22,-0.1,0,265.4,14799.68,117522.15,265.7,Air+FixedWing,Red,Allies,J-11A,Red J-11A #001,xu,[51☭] Frostie,0.015625,0,4.5904821713976e-05,9.22000026702881,2.22000026702881,0.015625,0,NaN,NaN,0.138417065222761,0.0523391626455858,NaN,1.0000046185002,0.000767564421041322,0.000238928448009492,1.220703125e-05,9.04173156186581,9.04174376889706,,,44.789999961853,7,0.0755080588725991,0.135028311079846
2011-06-01T04:31:23Z,1306902683,106,56.3843449,27.2335661,9.22,-0.2,0,265.4,14799.68,117522.13,265.7,Air+FixedWing,Red,Allies,J-11A,Red J-11A #001,xu,[51☭] Frostie,0.015625,0,4.5904821713976e-05,9.22000026702881,2.22000026702881,0.015625,0,NaN,NaN,0.0100540384582588,0.0523391626455858,NaN,0.999987817953375,-0.00516702380982288,-0.000119464224004746,1.220703125e-05,9.04173156186581,9.04174376889706,,,45.789999961853,7,0.0823992653039499,0.141919527269565
2011-06-01T04:31:24Z,1306902684,106,56.3843449,27.2335661,9.22,-0.3,0,265.4,14799.68,117522.13,265.7,Air+FixedWing,Red,Allies,J-11A,Red J-11A #001,xu,[51☭] Frostie,0,0,0,9.22000026702881,2.22000026702881,0,0,NaN,NaN,0.0558982681673844,0.0171320104161963,NaN,0.999989509583141,-0.00455345651933808,0,0,9.04173156186581,9.04173156186581,,,46.789999961853,7,0.0823992653039499,0.141919527269565
2011-06-01T04:31:25Z,1306902685,106,56.3843449,27.233566,9.22,-0.3,0,265.4,14799.68,117522.13,265.7,Air+FixedWing,Red,Allies,J-11A,Red J-11A #001,xu,[51☭] Frostie,0,0,0,9.22000026702881,2.22000026702881,0,0,NaN,NaN,0.108080913426282,0.0171320104161963,NaN,0.999981999398347,-0.00598406476622432,0,0,9.04173156186581,9.04173156186581,,,47.789999961853,7,0.0935312139913221,0.153051492338435
2011-06-01T04:31:26Z,1306902686,106,56.3843449,27.2335661,9.22,-0.3,0,265.4,14799.68,117522.13,265.7,Air+FixedWing,Red,Allies,J-11A,Red J-11A #001,xu,[51☭] Frostie,0,0,0,9.22000026702881,2.22000026702881,0,0,NaN,NaN,0.0243954613637286,0.0171320104161963,NaN,0.999987244606775,-0.00502323701839225,0,0,9.04173156186581,9.04173156186581,,,48.789999961853,7,0.104663162678694,0.164183457407305
2011-06-01T04:31:27Z,1306902687,106,56.3843449,27.2335661,9.22,-0.2,0,265.4,14799.68,117522.13,265.7,Air+FixedWing,Red,Allies,J-11A,Red J-11A #001,xu,[51☭] Frostie,0,0,0,9.22000026702881,2.22000026702881,0,0,NaN,NaN,0.0487908693666043,0.0171320104161963,NaN,0.999987924086634,-0.00496608846339847,-5.9732112002373e-05,0,9.04173156186581,9.04173156186581,,,49.789999961853,7,0.104663162678694,0.164183457407305
2011-06-01T04:31:28Z,1306902688,106,56.3843449,27.2335661,9.22,-0.2,0,265.4,14799.68,117522.14,265.7,Air+FixedWing,Red,Allies,J-11A,Red J-11A #001,xu,[51☭] Frostie,0.0078125,0,2.2952410856988e-05,9.22000026702881,2.22000026702881,0.0078125,0,NaN,NaN,0.029274510947792,0.0171320104161963,NaN,0.999999406409503,-0.00190162887379784,0.000119464224004746,3.0517578125e-06,9.04173156186581,9.04173461362362,,,50.789999961853,7,0.104663162678694,0.164183457407305
2011-06-01T04:31:29Z,1306902689,106,56.3843449,27.2335661,9.22,-0.3,0,265.4,14799.68,117522.13,265.7,Air+FixedWing,Red,Allies,J-11A,Red J-11A #001,xu,[51☭] Frostie,0.0078125,0,2.2952410856988e-05,9.22000026702881,2.22000026702881,0.0078125,0,NaN,NaN,0.0381033308628268,0.0171320104161963,NaN,0.999981148299919,-0.00632616316969657,-0.000119464224004746,3.0517578125e-06,9.04173156186581,9.04173461362362,,,51.789999961853,7,0.104663162678694,0.164183457407305
2011-06-01T04:31:30Z,1306902690,106,56.3843449,27.2335661,9.22,-0.3,0,265.4,14799.68,117522.14,265.7,Air+FixedWing,Red,Allies,J-11A,Red J-11A #001,xu,[51☭] Frostie,0.0078125,0,2.2952410856988e-05,9.22000026702881,2.22000026702881,0.0078125,0,NaN,NaN,0.200042580411333,0.0171320104161963,NaN,0.999994490989886,-0.00364732528738852,0.000119464224004746,3.0517578125e-06,9.04173156186581,9.04173461362362,,,52.789999961853,7,0.104663162678694,0.164183457407305
2011-06-01T04:31:31Z,1306902691,106,56.3843449,27.2335661,9.22,-0.3,0,265.4,14799.68,117522.13,265.7,Air+FixedWing,Red,Allies,J-11A,Red J-11A #001,xu,[51☭] Frostie,0.0078125,0,2.2952410856988e-05,9.22000026702881,2.22000026702881,0.0078125,0,NaN,NaN,0,0.0171320104161963,NaN,0.999982012089906,-0.00603052451641397,-5.9732112002373e-05,3.0517578125e-06,9.04173156186581,9.04173461362362,,,53.789999961853,7,0.10519325383467,0.164713549864257
2011-06-01T04:31:32Z,1306902692,106,56.3843449,27.2335661,9.22,-0.3,0,265.4,14799.68,117522.13,265.7,Air+FixedWing,Red,Allies,J-11A,Red J-11A #001,xu,[51☭] Frostie,0,0,0,9.22000026702881,2.22000026702881,0,0,NaN,NaN,0.0363713976605526,0.0171320104161963,NaN,0.999989271164576,-0.00460767997904538,0,0,9.04173156186581,9.04173156186581,,,54.789999961853,7,0.105723344990646,0.165243642321209
2011-06-01T04:31:33Z,1306902693,106,56.3843449,27.2335661,9.22,-0.2,0,265.4,14799.68,117522.13,265.7,Air+FixedWing,Red,Allies,J-11A,Red J-11A #001,xu,[51☭] Frostie,0,0,0,9.22000026702881,2.22000026702881,0,0,NaN,NaN,0.0363713442996997,0.0171320104161963,NaN,0.999988797270756,-0.00476729017381212,-5.9732112002373e-05,0,9.04173156186581,9.04173156186581,,,55.789999961853,7,0.105723344990646,0.165243642321209
2011-06-01T04:31:34Z,1306902694,106,56.3843449,27.2335661,9.22,-0.2,0,265.4,14799.68,117522.14,265.7,Air+FixedWing,Red,Allies,J-11A,Red J-11A #001,xu,[51☭] Frostie,0.0078125,0,2.2952410856988e-05,9.22000026702881,2.22000026702881,0.0078125,0,NaN,NaN,0.0189131139768827,0.0171320104161963,NaN,0.999996633565727,-0.00269603483943946,5.9732112002373e-05,3.0517578125e-06,9.04173156186581,9.04173461362362,,,56.789999961853,7,0.105723344990646,0.165243642321209
2011-06-01T04:31:35Z,1306902695,106,56.3843449,27.2335661,9.22,-0.3,0,265.4,14799.68,117522.14,265.7,Air+FixedWing,Red,Allies,J-11A,Red J-11A #001,xu,[51☭] Frostie,0,0,0,9.22000026702881,2.22000026702881,0,0,NaN,NaN,0.0265011339796495,0.0171320104161963,NaN,0.999993724098237,-0.0036104460744582,5.9732112002373e-05,0,9.04173156186581,9.04173156186581,,,57.789999961853,7,0.105723344990646,0.165243642321209
2011-06-01T04:31:36Z,1306902696,106,56.3843449,27.2335661,9.22,-0.3,0,265.4,14799.68,117522.13,265.7,Air+FixedWing,Red,Allies,J-11A,Red J-11A #001,xu,[51☭] Frostie,0.0078125,0,2.2952410856988e-05,9.22000026702881,2.22000026702881,0.0078125,0,NaN,NaN,0.00781144189382029,0.0171320104161963,NaN,0.999985544011864,-0.00541109266357933,-5.9732112002373e-05,3.0517578125e-06,9.04173156186581,9.04173461362362,,,58.789999961853,7,0.105723344990646,0.165243642321209
2011-06-01T04:31:37Z,1306902697,106,56.3843449,27.233566,9.22,-0.3,0,265.4,14799.68,117522.13,265.7,Air+FixedWing,Red,Allies,J-11A,Red J-11A #001,xu,[51☭] Frostie,0,0,0,9.22000026702881,2.22000026702881,0,0,NaN,NaN,0.0125129065594634,0.0139882274201861,NaN,0.999986171723233,-0.00523612477340549,0,0,9.04173156186581,9.04173156186581,,,59.789999961853,7,0.111390518796816,0.170910824643621
2011-06-01T04:31:38Z,1306902698,106,56.3843449,27.2335661,9.22,-0.3,-0,265.4,14799.68,117522.13,265.7,Air+FixedWing,Red,Allies,J-11A,Red J-11A #001,xu,[51☭] Frostie,0,0,0,9.22000026702881,2.22000026702881,0,0,NaN,NaN,0,0.0171320104161963,NaN,0.999986171723233,-0.00523612477340549,-2.04384423341253e-06,0,9.04173156186581,9.04173156186581,,,60.789999961853,7,0.117057692602985,0.176578006966033
2011-06-01T04:31:39Z,1306902699,106,56.3843449,27.2335661,9.22,-0.3,-0,265.4,14799.68,117522.13,265.7,Air+FixedWing,Red,Allies,J-11A,Red J-11A #001,xu,[51☭] Frostie,0,0,0,9.22000026702881,2.22000026702881,0,0,NaN,NaN,0,0.0139882274201861,NaN,0.999986171723233,-0.00523612477340549,-4.88251680508256e-06,0,9.04173156186581,9.04173156186581,,,61.789999961853,7,0.117057692602985,0.176578006966033
2011-06-01T04:31:40Z,1306902700,106,56.3843449,27.2335661,9.22,-0.3,-0,265.4,14799.68,117522.13,265.7,Air+FixedWing,Red,Allies,J-11A,Red J-11A #001,xu,[51☭] Frostie,0,0,0,9.22000026702881,2.22000026702881,0,0,NaN,NaN,0,0.0139882274201861,NaN,0.999986171723233,-0.00523612477340549,-7.72118983149994e-06,0,9.04173156186581,9.04173156186581,,,62.789999961853,7,0.117057692602985,0.176578006966033
2011-06-01T04:31:41Z,1306902701,106,56.3843449,27.2335661,9.22,-0.3,-0,265.4,14799.68,117522.13,265.7,Air+FixedWing,Red,Allies,J-11A,Red J-11A #001,xu,[51☭] Frostie,0,0,0,9.22000026702881,2.22000026702881,0,0,NaN,NaN,0,0.0171320104161963,NaN,0.999986231327057,-0.00523612508550286,-1.05598619484226e-05,0,9.04173156186581,9.04173156186581,,,63.789999961853,7,0.117057692602985,0.176578006966033
2011-06-01T04:31:42Z,1306902702,106,56.3843449,27.2335661,9.22,-0.3,-0,265.4,14799.68,117522.13,265.7,Air+FixedWing,Red,Allies,J-11A,Red J-11A #001,xu,[51☭] Frostie,0,0,0,9.22000026702881,2.22000026702881,0,0,NaN,NaN,0,0.0139882274201861,NaN,0.999986171723233,-0.00523612477340549,-1.33985340653453e-05,0,9.04173156186581,9.04173156186581,,,64.789999961853,7,0.117057692602985,0.176578006966033
2011-06-01T04:31:43Z,1306902703,106,56.3843449,27.2335661,9.22,-0.3,-0,265.4,14799.68,117522.13,265.7,Air+FixedWing,Red,Allies,J-11A,Red J-11A #001,xu,[51☭] Frostie,0,0,0,9.22000026702881,2.22000026702881,0,0,NaN,NaN,0,0.0171320104161963,NaN,0.999986231327057,-0.00523612508550286,-1.62372070917627e-05,0,9.04173156186581,9.04173156186581,,,65.789999961853,7,0.117057692602985,0.176578006966033
2011-06-01T04:31:44Z,1306902704,106,56.3843449,27.2335661,9.22,-0.3,-0,265.4,14799.68,117522.13,265.7,Air+FixedWing,Red,Allies,J-11A,Red J-11A #001,xu,[51☭] Frostie,0,0,0,9.22000026702881,2.22000026702881,0,0,NaN,NaN,0,0.0171320104161963,NaN,0.999986171723233,-0.00523612477340549,-1.90758782991907e-05,0,9.04173156186581,9.04173156186581,,,66.789999961853,7,0.117057692602985,0.176578006966033
2011-06-01T04:31:45Z,1306902705,106,56.3843449,27.2335661,9.22,-0.3,-0,265.4,14799.68,117522.13,265.7,Air+FixedWing,Red,Allies,J-11A,Red J-11A #001,xu,[51☭] Frostie,0,0,0,9.22000026702881,2.22000026702881,0,0,NaN,NaN,0,0.0139882274201861,NaN,0.999986231327057,-0.00523612508550286,-2.1914551325608e-05,0,9.04173156186581,9.04173156186581,,,67.789999961853,7,0.117057692602985,0.176578006966033
2011-06-01T04:31:46Z,1306902706,106,56.3843449,27.2335661,9.22,-0.3,-0,265.4,14799.68,117522.13,265.7,Air+FixedWing,Red,Allies,J-11A,Red J-11A #001,xu,[51☭] Frostie,0,0,0,9.22000026702881,2.22000026702881,0,0,NaN,NaN,0,0.0139882274201861,NaN,0.999986171723233,-0.00523612477340549,-2.47532243520254e-05,0,9.04173156186581,9.04173156186581,,,68.789999961853,7,0.117057692602985,0.176578006966033
2011-06-01T04:31:47Z,1306902707,106,56.3843449,27.2335661,9.22,-0.3,-0,265.4,14799.68,117522.13,265.7,Air+FixedWing,Red,Allies,J-11A,Red J-11A #001,xu,[51☭] Frostie,0,0,0,9.22000026702881,2.22000026702881,0,0,NaN,NaN,0,0.0139882274201861,NaN,0.999986171723233,-0.00523612477340549,-2.75918955594534e-05,0,9.04173156186581,9.04173156186581,,,69.789999961853,7,0.117057692602985,0.176578006966033
2011-06-01T04:31:48Z,1306902708,106,56.3843449,27.2335661,9.22,-0.3,-0,265.4,14799.68,117522.13,265.7,Air+FixedWing,Red,Allies,J-11A,Red J-11A #001,xu,[51☭] Frostie,0,0,0,9.22000026702881,2.22000026702881,0,0,NaN,NaN,0,0.0139882274201861,NaN,0.999986231327057,-0.00523612508550286,-3.04305667668814e-05,0,9.04173156186581,9.04173156186581,,,70.789999961853,7,0.117057692602985,0.176578006966033
2011-06-01T04:31:49Z,1306902709,106,56.3843449,27.2335661,9.22,-0.3,-0,265.4,14799.68,117522.13,265.7,Air+FixedWing,Red,Allies,J-11A,Red J-11A #001,xu,[51☭] Frostie,0,0,0,9.22000026702881,2.22000026702881,0,0,NaN,NaN,0,0.0139882274201861,NaN,0.999986171723233,-0.00523612477340549,-3.32692397932988e-05,0,9.04173156186581,9.04173156186581,,,71.789999961853,7,0.117057692602985,0.176578006966033
2011-06-01T04:31:50Z,1306902710,106,56.3843449,27.2335661,9.22,-0.3,-0,265.4,14799.68,117522.13,265.7,Air+FixedWing,Red,Allies,J-11A,Red J-11A #001,xu,[51☭] Frostie,0,0,0,9.22000026702881,2.22000026702881,0,0,NaN,NaN,0,0.0171320104161963,NaN,0.999986231327057,-0.00523612508550286,-3.61079110007267e-05,0,9.04173156186581,9.04173156186581,,,72.789999961853,7,0.117057692602985,0.176578006966033
2011-06-01T04:31:51Z,1306902711,106,56.3843449,27.2335661,9.22,-0.3,-0,265.4,14799.68,117522.13,265.7,Air+FixedWing,Red,Allies,J-11A,Red J-11A #001,xu,[51☭] Frostie,0,0,0,9.22000026702881,2.22000026702881,0,0,NaN,NaN,0,0.00989117029631303,NaN,0.999986231327057,-0.00523612508550286,-3.89465858461335e-05,0,9.04173156186581,9.04173156186581,,,73.789999961853,7,0.117057692602985,0.176578006966033
2011-06-01T04:31:52Z,1306902712,106,56.3843449,27.2335661,9.22,-0.3,-0,265.4,14799.68,117522.13,265.7,Air+FixedWing,Red,Allies,J-11A,Red J-11A #001,xu,[51☭] Frostie,0,0,0,9.22000026702881,2.22000026702881,0,0,NaN,NaN,0,0.0171320104161963,NaN,0.999986171723233,-0.00523612477340549,-4.17852570535615e-05,0,9.04173156186581,9.04173156186581,,,74.789999961853,7,0.117057692602985,0.176578006966033
2011-06-01T04:31:53Z,1306902713,106,56.3843449,27.2335661,9.22,-0.3,-0,265.4,14799.68,117522.13,265.7,Air+FixedWing,Red,Allies,J-11A,Red J-11A #001,xu,[51☭] Frostie,0,0,0,9.22000026702881,2.22000026702881,0,0,NaN,NaN,0,0.0139882274201861,NaN,0.999986231327057,-0.00523612508550286,-4.46239282609895e-05,0,9.04173156186581,9.04173156186581,,,75.789999961853,7,0.117057692602985,0.176578006966033
2011-06-01T04:31:54Z,1306902714,106,56.3843449,27.2335661,9.22,-0.3,-0,265.4,14799.68,117522.13,265.7,Air+FixedWing,Red,Allies,J-11A,Red J-11A #001,xu,[51☭] Frostie,0,0,0,9.22000026702881,2.22000026702881,0,0,NaN,NaN,0,0.0139882274201861,NaN,0.999986171723233,-0.00523612477340549,-4.74626031063963e-05,0,9.04173156186581,9.04173156186581,,,76.789999961853,7,0.117057692602985,0.176578006966033
2011-06-01T04:31:55Z,1306902715,106,56.3843449,27.2335661,9.22,-0.3,-0,265.4,14799.68,117522.13,265.7,Air+FixedWing,Red,Allies,J-11A,Red J-11A #001,xu,[51☭] Frostie,0,0,0,9.22000026702881,2.22000026702881,0,0,NaN,NaN,0,0.0171320104161963,NaN,0.999986231327057,-0.00523612508550286,-5.03012743138243e-05,0,9.04173156186581,9.04173156186581,,,77.789999961853,7,0.117057692602985,0.176578006966033
2011-06-01T04:31:56Z,1306902716,106,56.3843449,27.2335661,9.22,-0.3,-0,265.4,14799.68,117522.13,265.7,Air+FixedWing,Red,Allies,J-11A,Red J-11A #001,xu,[51☭] Frostie,0,0,0,9.22000026702881,2.22000026702881,0,0,NaN,NaN,0,0.00989117029631303,NaN,0.999986231327057,-0.00523612508550286,-5.31399455212522e-05,0,9.04173156186581,9.04173156186581,,,78.789999961853,7,0.117057692602985,0.176578006966033
2011-06-01T04:31:57Z,1306902717,106,56.3843449,27.2335661,9.22,-0.3,-0,265.4,14799.68,117522.13,265.7,Air+FixedWing,Red,Allies,J-11A,Red J-11A #001,xu,[51☭] Frostie,0,0,0,9.22000026702881,2.22000026702881,0,0,NaN,NaN,0,0.0171320104161963,NaN,0.999986231327057,-0.00523612508550286,-5.5978620366659e-05,0,9.04173156186581,9.04173156186581,,,79.789999961853,7,0.117057692602985,0.176578006966033
2011-06-01T04:31:58Z,1306902718,106,56.3843449,27.2335661,9.22,-0.3,-0,265.4,14799.68,117522.13,265.7,Air+FixedWing,Red,Allies,J-11A,Red J-11A #001,xu,[51☭] Frostie,0,0,0,9.22000026702881,2.22000026702881,0,0,NaN,NaN,0,0.00989117029631303,NaN,0.999986231327057,-0.00523612508550286,-5.88172952120658e-05,0,9.04173156186581,9.04173156186581,,,80.789999961853,7,0.117057692602985,0.176578006966033
2011-06-01T04:31:59Z,1306902719,106,56.3843449,27.2335661,9.22,-0.3,-0,265.4,14799.68,117522.13,265.7,Air+FixedWing,Red,Allies,J-11A,Red J-11A #001,xu,[51☭] Frostie,0,0,0,9.22000026702881,2.22000026702881,0,0,NaN,NaN,0,0.0139882274201861,NaN,0.999986231327057,-0.00523612508550286,-6.16559700574726e-05,0,9.04173156186581,9.04173156186581,,,81.789999961853,7,0.117057692602985,0.176578006966033
2011-06-01T04:32:00Z,1306902720,106,56.3843449,27.2335661,9.22,-0.3,-0,265.4,14799.68,117522.13,265.7,Air+FixedWing,Red,Allies,J-11A,Red J-11A #001,xu,[51☭] Frostie,0,0,0,9.22000026702881,2.22000026702881,0,0,NaN,NaN,0,0.0139882274201861,NaN,0.999986171723233,-0.00523612477340549,-6.44946412649006e-05,0,9.04173156186581,9.04173156186581,,,82.789999961853,7,0.117057692602985,0.176578006966033
2011-06-01T04:32:01Z,1306902721,106,56.3843449,27.2335661,9.22,-0.3,-0,265.4,14799.68,117522.13,265.7,Air+FixedWing,Red,Allies,J-11A,Red J-11A #001,xu,[51☭] Frostie,0,0,0,9.22000026702881,2.22000026702881,0,0,NaN,NaN,0,0.0139882274201861,NaN,0.999986231327057,-0.00523612508550286,-6.73333124723285e-05,0,9.04173156186581,9.04173156186581,,,83.789999961853,7,0.117057692602985,0.176578006966033
2011-06-01T04:32:02Z,1306902722,106,56.3843449,27.2335661,9.22,-0.3,-0,265.4,14799.68,117522.13,265.7,Air+FixedWing,Red,Allies,J-11A,Red J-11A #001,xu,[51☭] Frostie,0,0,0,9.22000026702881,2.22000026702881,0,0,NaN,NaN,0,0.0139882274201861,NaN,0.999986112119409,-0.00523612446130811,-7.01719836797565e-05,0,9.04173156186581,9.04173156186581,,,84.789999961853,7,0.117057692602985,0.176578006966033
2011-06-01T04:32:03Z,1306902723,106,56.3843449,27.2335661,9.22,-0.3,-0,265.4,14799.68,117522.13,265.7,Air+FixedWing,Red,Allies,J-11A,Red J-11A #001,xu,[51☭] Frostie,0,0,0,9.22000026702881,2.22000026702881,0,0,NaN,NaN,0,0.0139882274201861,NaN,0.999986171723233,-0.00523612477340549,-7.30106548871845e-05,0,9.04173156186581,9.04173156186581,,,85.789999961853,7,0.117057692602985,0.176578006966033
2011-06-01T04:32:04Z,1306902724,106,56.3843449,27.2335661,9.22,-0.3,-0,265.4,14799.68,117522.13,265.7,Air+FixedWing,Red,Allies,J-11A,Red J-11A #001,xu,[51☭] Frostie,0,0,0,9.22000026702881,2.22000026702881,0,0,NaN,NaN,0,0.00989117029631303,NaN,0.999986231327057,-0.00523612508550286,-7.58493260946125e-05,0,9.04173156186581,9.04173156186581,,,86.789999961853,7,0.117057692602985,0.176578006966033
2011-06-01T04:32:05Z,1306902725,106,56.3843449,27.2335661,9.22,-0.3,-0,265.4,14799.68,117522.13,265.7,Air+FixedWing,Red,Allies,J-11A,Red J-11A #001,xu,[51☭] Frostie,0,0,0,9.22000026702881,2.22000026702881,0,0,NaN,NaN,0,0.0139882274201861,NaN,0.999986171723233,-0.00523612477340549,-7.86880045779981e-05,0,9.04173156186581,9.04173156186581,,,87.789999961853,7,0.117057692602985,0.176578006966033
2011-06-01T04:32:06Z,1306902726,106,56.3843449,27.2335661,9.22,-0.3,-0,265.4,14799.68,117522.13,265.7,Air+FixedWing,Red,Allies,J-11A,Red J-11A #001,xu,[51☭] Frostie,0,0,0,9.22000026702881,2.22000026702881,0,0,NaN,NaN,0,0.0139882274201861,NaN,0.999986231327057,-0.00523612508550286,-8.15266757854261e-05,0,9.04173156186581,9.04173156186581,,,88.789999961853,7,0.117057692602985,0.176578006966033
2011-06-01T04:32:07Z,1306902727,106,56.3843449,27.2335661,9.22,-0.3,-0,265.4,14799.68,117522.13,265.7,Air+FixedWing,Red,Allies,J-11A,Red J-11A #001,xu,[51☭] Frostie,0,0,0,9.22000026702881,2.22000026702881,0,0,NaN,NaN,0,0.0139882274201861,NaN,0.999986171723233,-0.00523612477340549,-8.4365346992854e-05,0,9.04173156186581,9.04173156186581,,,89.789999961853,7,0.117057692602985,0.176578006966033
2011-06-01T04:32:08Z,1306902728,106,56.3843449,27.2335661,9.22,-0.3,-0,265.4,14799.68,117522.13,265.7,Air+FixedWing,Red,Allies,J-11A,Red J-11A #001,xu,[51☭] Frostie,0,0,0,9.22000026702881,2.22000026702881,0,0,NaN,NaN,0,0.0139882274201861,NaN,0.999986171723233,-0.00523612477340549,-8.7204018200282e-05,0,9.04173156186581,9.04173156186581,,,90.789999961853,7,0.117057692602985,0.176578006966033
2011-06-01T04:32:09Z,1306902729,106,56.3843449,27.2335661,9.22,-0.3,-0,265.4,14799.68,117522.13,265.7,Air+FixedWing,Red,Allies,J-11A,Red J-11A #001,xu,[51☭] Frostie,0,0,0,9.22000026702881,2.22000026702881,0,0,NaN,NaN,0,0.0139882274201861,NaN,0.999986231327057,-0.00523612508550286,-9.004268940771e-05,0,9.04173156186581,9.04173156186581,,,91.789999961853,7,0.117057692602985,0.176578006966033
2011-06-01T04:32:10Z,1306902730,106,56.3843449,27.2335661,9.22,-0.3,-0,265.4,14799.68,117522.13,265.7,Air+FixedWing,Red,Allies,J-11A,Red J-11A #001,xu,[51☭] Frostie,0,0,0,9.22000026702881,2.22000026702881,0,0,NaN,NaN,0,0.00989117029631303,NaN,0.999986231327057,-0.00523612508550286,-9.2881360615138e-05,0,9.04173156186581,9.04173156186581,,,92.789999961853,7,0.117057692602985,0.176578006966033
2011-06-01T04:32:11Z,1306902731,106,56.3843449,27.2335661,9.22,-0.3,-0,265.4,14799.68,117522.13,265.7,Air+FixedWing,Red,Allies,J-11A,Red J-11A #001,xu,[51☭] Frostie,0,0,0,9.22000026702881,2.22000026702881,0,0,NaN,NaN,0,0.0171320104161963,NaN,0.999986171723233,-0.00523612477340549,-9.57200390985236e-05,0,9.04173156186581,9.04173156186581,,,93.789999961853,7,0.117057692602985,0.176578006966033
2011-06-01T04:32:12Z,1306902732,106,56.3843449,27.2335661,9.22,-0.3,-0,265.4,14799.68,117522.13,265.7,Air+FixedWing,Red,Allies,J-11A,Red J-11A #001,xu,[51☭] Frostie,0,0,0,9.22000026702881,2.22000026702881,0,0,NaN,NaN,0,0.00989117029631303,NaN,0.999986171723233,-0.00523612477340549,-9.85587103059515e-05,0,9.04173156186581,9.04173156186581,,,94.789999961853,7,0.117057692602985,0.176578006966033
2011-06-01T04:32:13Z,1306902733,106,56.3843449,27.2335661,9.22,-0.3,-0,265.4,14799.68,117522.13,265.7,Air+FixedWing,Red,Allies,J-11A,Red J-11A #001,xu,[51☭] Frostie,0,0,0,9.22000026702881,2.22000026702881,0,0,NaN,NaN,0,0.0171320104161963,NaN,0.999986231327057,-0.00523612508550286,-0.00010139738151338,0,9.04173156186581,9.04173156186581,,,95.789999961853,7,0.117057692602985,0.176578006966033
2011-06-01T04:32:14Z,1306902734,106,56.3843449,27.2335661,9.22,-0.3,-0,265.4,14799.68,117522.13,265.7,Air+FixedWing,Red,Allies,J-11A,Red J-11A #001,xu,[51☭] Frostie,0,0,0,9.22000026702881,2.22000026702881,0,0,NaN,NaN,0,0.0139882274201861,NaN,0.999986171723233,-0.00523612477340549,-0.000104236052720807,0,9.04173156186581,9.04173156186581,,,96.789999961853,7,0.117057692602985,0.176578006966033
2011-06-01T04:32:15Z,1306902735,106,56.3843449,27.2335661,9.22,-0.3,-0,265.4,14799.68,117522.13,265.7,Air+FixedWing,Red,Allies,J-11A,Red J-11A #001,xu,[51☭] Frostie,0,0,0,9.22000026702881,2.22000026702881,0,0,NaN,NaN,0,0.0139882274201861,NaN,0.999986231327057,-0.00523612508550286,-0.000107074723928235,0,9.04173156186581,9.04173156186581,,,97.789999961853,7,0.117057692602985,0.176578006966033
2011-06-01T04:32:16Z,1306902736,106,56.3843449,27.2335661,9.22,-0.3,-0,265.4,14799.68,117522.13,265.7,Air+FixedWing,Red,Allies,J-11A,Red J-11A #001,xu,[51☭] Frostie,0,0,0,9.22000026702881,2.22000026702881,0,0,NaN,NaN,0,0.0171320104161963,NaN,0.999986171723233,-0.00523612477340549,-0.000109913395135663,0,9.04173156186581,9.04173156186581,,,98.789999961853,7,0.117057692602985,0.176578006966033
2011-06-01T04:32:17Z,1306902737,106,56.3843449,27.2335661,9.22,-0.3,-0,265.4,14799.68,117522.13,265.7,Air+FixedWing,Red,Allies,J-11A,Red J-11A #001,xu,[51☭] Frostie,0,0,0,9.22000026702881,2.22000026702881,0,0,NaN,NaN,0,0.0139882274201861,NaN,0.999986171723233,-0.00523612477340549,-0.000112752073619049,0,9.04173156186581,9.04173156186581,,,99.789999961853,7,0.117057692602985,0.176578006966033
2011-06-01T04:32:18Z,1306902738,106,56.3843449,27.2335661,9.22,-0.3,-0,265.4,14799.68,117522.13,265.7,Air+FixedWing,Red,Allies,J-11A,Red J-11A #001,xu,[51☭] Frostie,0,0,0,9.22000026702881,2.22000026702881,0,0,NaN,NaN,0,0.0171320104161963,NaN,0.999986231327057,-0.00523612508550286,-0.000115590744826477,0,9.04173156186581,9.04173156186581,,,100.789999961853,7,0.117057692602985,0.176578006966033
2011-06-01T04:32:19Z,1306902739,106,56.3843449,27.2335661,9.22,-0.3,-0,265.4,14799.68,117522.13,265.7,Air+FixedWing,Red,Allies,J-11A,Red J-11A #001,xu,[51☭] Frostie,0,0,0,9.22000026702881,2.22000026702881,0,0,NaN,NaN,0,0.0171320104161963,NaN,0.999986171723233,-0.00523612477340549,-0.000118429416033905,0,9.04173156186581,9.04173156186581,,,101.789999961853,7,0.117057692602985,0.176578006966033
2011-06-01T04:32:20Z,1306902740,106,56.3843449,27.2335661,9.22,-0.3,-0,265.4,14799.68,117522.13,265.7,Air+FixedWing,Red,Allies,J-11A,Red J-11A #001,xu,[51☭] Frostie,0,0,0,9.22000026702881,2.22000026702881,0,0,NaN,NaN,0,0.0171320104161963,NaN,0.999986231327057,-0.00523612508550286,-0.000121268087241333,0,9.04173156186581,9.04173156186581,,,102.789999961853,7,0.117057692602985,0.176578006966033
2011-06-01T04:32:21Z,1306902741,106,56.3843449,27.2335661,9.22,-0.3,-0,265.4,14799.68,117522.13,265.7,Air+FixedWing,Red,Allies,J-11A,Red J-11A #001,xu,[51☭] Frostie,0,0,0,9.22000026702881,2.22000026702881,0,0,NaN,NaN,0,0.0139882274201861,NaN,0.999986112119409,-0.00523612446130811,-0.000124106765724719,0,9.04173156186581,9.04173156186581,,,103.789999961853,7,0.117057692602985,0.176578006966033
2011-06-01T04:32:22Z,1306902742,106,56.3843449,27.2335661,9.22,-0.3,-0,265.4,14799.68,117522.13,265.7,Air+FixedWing,Red,Allies,J-11A,Red J-11A #001,xu,[51☭] Frostie,0,0,0,9.22000026702881,2.22000026702881,0,0,NaN,NaN,0,0.0171320104161963,NaN,0.999986171723233,-0.00523612477340549,-0.000126945436932147,0,9.04173156186581,9.04173156186581,,,104.789999961853,7,0.117057692602985,0.176578006966033
2011-06-01T04:32:23Z,1306902743,106,56.3843449,27.2335661,9.22,-0.3,-0,265.4,14799.68,117522.13,265.7,Air+FixedWing,Red,Allies,J-11A,Red J-11A #001,xu,[51☭] Frostie,0,0,0,9.22000026702881,2.22000026702881,0,0,NaN,NaN,0,0.0139882274201861,NaN,0.999986171723233,-0.00523612477340549,-0.000129784108139575,0,9.04173156186581,9.04173156186581,,,105.789999961853,7,0.117057692602985,0.176578006966033
2011-06-01T04:32:24Z,1306902744,106,56.3843449,27.2335661,9.22,-0.3,-0,265.4,14799.68,117522.13,265.7,Air+FixedWing,Red,Allies,J-11A,Red J-11A #001,xu,[51☭] Frostie,0,0,0,9.22000026702881,2.22000026702881,0,0,NaN,NaN,0,0.0171320104161963,NaN,0.999986171723233,-0.00523612477340549,-0.000132622779347003,0,9.04173156186581,9.04173156186581,,,106.789999961853,7,0.117057692602985,0.176578006966033
2011-06-01T04:32:25Z,1306902745,106,56.3843449,27.2335661,9.22,-0.3,-0,265.4,14799.68,117522.13,265.7,Air+FixedWing,Red,Allies,J-11A,Red J-11A #001,xu,[51☭] Frostie,0,0,0,9.22000026702881,2.22000026702881,0,0,NaN,NaN,0,0.0171320104161963,NaN,0.999986171723233,-0.00523612477340549,-0.00013546145055443,0,9.04173156186581,9.04173156186581,,,107.789999961853,7,0.117057692602985,0.176578006966033
2011-06-01T04:32:26Z,1306902746,106,56.3843449,27.2335661,9.22,-0.3,-0,265.4,14799.68,117522.13,265.7,Air+FixedWing,Red,Allies,J-11A,Red J-11A #001,xu,[51☭] Frostie,0,0,0,9.22000026702881,2.22000026702881,0,0,NaN,NaN,0,0.0139882274201861,NaN,0.999986171723233,-0.00523612477340549,-0.000138300121761858,0,9.04173156186581,9.04173156186581,,,108.789999961853,7,0.117057692602985,0.176578006966033
2011-06-01T04:32:27Z,1306902747,106,56.3843449,27.2335661,9.22,-0.3,-0,265.4,14799.68,117522.13,265.7,Air+FixedWing,Red,Allies,J-11A,Red J-11A #001,xu,[51☭] Frostie,0,0,0,9.22000026702881,2.22000026702881,0,0,NaN,NaN,0,0.0197823405926261,NaN,0.999986171723233,-0.00523612477340549,-0.000141138792969286,0,9.04173156186581,9.04173156186581,,,109.789999961853,7,0.117057692602985,0.176578006966033
2011-06-01T04:32:28Z,1306902748,106,56.3843449,27.2335661,9.22,-0.3,-0,265.4,14799.68,117522.13,265.7,Air+FixedWing,Red,Allies,J-11A,Red J-11A #001,xu,[51☭] Frostie,0,0,0,9.22000026702881,2.22000026702881,0,0,NaN,NaN,0,0.0139882274201861,NaN,0.999986171723233,-0.00523612477340549,-0.000143977464176714,0,9.04173156186581,9.04173156186581,,,110.789999961853,7,0.117057692602985,0.176578006966033
2011-06-01T04:32:29Z,1306902749,106,56.3843449,27.2335661,9.22,-0.3,-0,265.4,14799.68,117522.13,265.7,Air+FixedWing,Red,Allies,J-11A,Red J-11A #001,xu,[51☭] Frostie,0,0,0,9.22000026702881,2.22000026702881,0,0,NaN,NaN,0,0.0171320104161963,NaN,0.999986171723233,-0.00523612477340549,-0.000146816135384142,0,9.04173156186581,9.04173156186581,,,111.789999961853,7,0.117057692602985,0.176578006966033
2011-06-01T04:32:30Z,1306902750,106,56.3843449,27.2335661,9.22,-0.3,-0,265.4,14799.68,117522.13,265.7,Air+FixedWing,Red,Allies,J-11A,Red J-11A #001,xu,[51☭] Frostie,0,0,0,9.22000026702881,2.22000026702881,0,0,NaN,NaN,0,0.0171320104161963,NaN,0.999986112119409,-0.00523612446130811,-0.00014965480659157,0,9.04173156186581,9.04173156186581,,,112.789999961853,7,0.117057692602985,0.176578006966033
2011-06-01T04:32:31Z,1306902751,106,56.3843449,27.2335661,9.22,-0.3,-0,265.4,14799.68,117522.13,265.7,Air+FixedWing,Red,Allies,J-11A,Red J-11A #001,xu,[51☭] Frostie,0,0,0,9.22000026702881,2.22000026702881,0,0,NaN,NaN,0,0.0139882274201861,NaN,0.999986171723233,-0.00523612477340549,-0.000152493477798998,0,9.04173156186581,9.04173156186581,,,113.789999961853,7,0.117057692602985,0.176578006966033
2011-06-01T04:32:32Z,1306902752,106,56.3843449,27.2335661,9.22,-0.3,-0,265.4,14799.68,117522.13,265.7,Air+FixedWing,Red,Allies,J-11A,Red J-11A #001,xu,[51☭] Frostie,0,0,0,9.22000026702881,2.22000026702881,0,0,NaN,NaN,0,0.0171320104161963,NaN,0.999986231327057,-0.00523612508550286,-0.000155332163558342,0,9.04173156186581,9.04173156186581,,,114.789999961853,7,0.117057692602985,0.176578006966033
2011-06-01T04:32:33Z,1306902753,106,56.3843449,27.2335661,9.22,-0.3,-0,265.4,14799.68,117522.13,265.7,Air+FixedWing,Red,Allies,J-11A,Red J-11A #001,xu,[51☭] Frostie,0,0,0,9.22000026702881,2.22000026702881,0,0,NaN,NaN,0,0.0171320104161963,NaN,0.999986171723233,-0.00523612477340549,-0.00015817083476577,0,9.04173156186581,9.04173156186581,,,115.789999961853,7,0.117057692602985,0.176578006966033
2011-06-01T04:32:34Z,1306902754,106,56.3843449,27.2335661,9.22,-0.3,-0,265.4,14799.68,117522.13,265.7,Air+FixedWing,Red,Allies,J-11A,Red J-11A #001,xu,[51☭] Frostie,0,0,0,9.22000026702881,2.22000026702881,0,0,NaN,NaN,0,0.0171320104161963,NaN,0.999986171723233,-0.00523612477340549,-0.000161009505973198,0,9.04173156186581,9.04173156186581,,,116.789999961853,7,0.117057692602985,0.176578006966033
2011-06-01T04:32:35Z,1306902755,106,56.3843449,27.2335661,9.22,-0.3,-0,265.4,14799.68,117522.13,265.7,Air+FixedWing,Red,Allies,J-11A,Red J-11A #001,xu,[51☭] Frostie,0,0,0,9.22000026702881,2.22000026702881,0,0,NaN,NaN,0,0.0171320104161963,NaN,0.999986112119409,-0.00523612446130811,-0.000163848177180625,0,9.04173156186581,9.04173156186581,,,117.789999961853,7,0.117057692602985,0.176578006966033
2011-06-01T04:32:36Z,1306902756,106,56.3843449,27.2335661,9.22,-0.3,-0,265.4,14799.68,117522.13,265.7,Air+FixedWing,Red,Allies,J-11A,Red J-11A #001,xu,[51☭] Frostie,0,0,0,9.22000026702881,2.22000026702881,0,0,NaN,NaN,0,0.0171320104161963,NaN,0.999986171723233,-0.00523612477340549,-0.000166686848388053,0,9.04173156186581,9.04173156186581,,,118.789999961853,7,0.117057692602985,0.176578006966033
2011-06-01T04:32:37Z,1306902757,106,56.3843449,27.2335661,9.22,-0.3,-0,265.4,14799.68,117522.13,265.7,Air+FixedWing,Red,Allies,J-11A,Red J-11A #001,xu,[51☭] Frostie,0,0,0,9.22000026702881,2.22000026702881,0,0,NaN,NaN,0,0.0171320104161963,NaN,0.999986231327057,-0.00523612508550286,-0.000169525519595481,0,9.04173156186581,9.04173156186581,,,119.789999961853,7,0.117057692602985,0.176578006966033
2011-06-01T04:32:38Z,1306902758,106,56.3843449,27.2335661,9.22,-0.3,-0,265.4,14799.68,117522.13,265.7,Air+FixedWing,Red,Allies,J-11A,Red J-11A #001,xu,[51☭] Frostie,0,0,0,9.22000026702881,2.22000026702881,0,0,NaN,NaN,0,0.0171320104161963,NaN,0.999986171723233,-0.00523612477340549,-0.000172364190802909,0,9.04173156186581,9.04173156186581,,,120.789999961853,7,0.117057692602985,0.176578006966033
2011-06-01T04:32:39Z,1306902759,106,56.3843449,27.2335661,9.22,-0.3,-0,265.4,14799.68,117522.13,265.7,Air+FixedWing,Red,Allies,J-11A,Red J-11A #001,xu,[51☭] Frostie,0,0,0,9.22000026702881,2.22000026702881,0,0,NaN,NaN,0,0.0139882274201861,NaN,0.999986171723233,-0.00523612477340549,-0.000175202862010337,0,9.04173156186581,9.04173156186581,,,121.789999961853,7,0.117057692602985,0.176578006966033
2011-06-01T04:32:40Z,1306902760,106,56.3843449,27.2335661,9.22,-0.3,-0,265.4,14799.68,117522.13,265.7,Air+FixedWing,Red,Allies,J-11A,Red J-11A #001,xu,[51☭] Frostie,0,0,0,9.22000026702881,2.22000026702881,0,0,NaN,NaN,0,0.00989117029631303,NaN,0.999986231327057,-0.00523612508550286,-0.000178041533217765,0,9.04173156186581,9.04173156186581,,,122.789999961853,7,0.117057692602985,0.176578006966033
2011-06-01T04:32:41Z,1306902761,106,56.3843449,27.2335661,9.22,-0.3,-0,265.4,14799.68,117522.13,265.7,Air+FixedWing,Red,Allies,J-11A,Red J-11A #001,xu,[51☭] Frostie,0,0,0,9.22000026702881,2.22000026702881,0,0,NaN,NaN,0,0.0139882274201861,NaN,0.999986171723233,-0.00523612477340549,-0.000180880204425193,0,9.04173156186581,9.04173156186581,,,123.789999961853,7,0.117057692602985,0.176578006966033
2011-06-01T04:32:42Z,1306902762,106,56.3843449,27.2335661,9.22,-0.3,-0,265.4,14799.68,117522.13,265.7,Air+FixedWing,Red,Allies,J-11A,Red J-11A #001,xu,[51☭] Frostie,0,0,0,9.22000026702881,2.22000026702881,0,0,NaN,NaN,0,0.00989117029631303,NaN,0.999986171723233,-0.00523612477340549,-0.000183718875632621,0,9.04173156186581,9.04173156186581,,,124.789999961853,7,0.117057692602985,0.176578006966033
2011-06-01T04:32:43Z,1306902763,106,56.3843449,27.2335661,9.22,-0.3,-0,265.4,14799.68,117522.13,265.7,Air+FixedWing,Red,Allies,J-11A,Red J-11A #001,xu,[51☭] Frostie,0,0,0,9.22000026702881,2.22000026702881,0,0,NaN,NaN,0,0.0139882274201861,NaN,0.999986171723233,-0.00523612477340549,-0.000186557546840049,0,9.04173156186581,9.04173156186581,,,125.789999961853,7,0.117057692602985,0.176578006966033
2011-06-01T04:32:44Z,1306902764,106,56.3843449,27.2335661,9.22,-0.3,-0,265.4,14799.68,117522.13,265.7,Air+FixedWing,Red,Allies,J-11A,Red J-11A #001,xu,[51☭] Frostie,0,0,0,9.22000026702881,2.22000026702881,0,0,NaN,NaN,0,0.0139882274201861,NaN,0.999986171723233,-0.00523612477340549,-0.000189396232599393,0,9.04173156186581,9.04173156186581,,,126.789999961853,7,0.117057692602985,0.176578006966033
2011-06-01T04:32:45Z,1306902765,106,56.3843449,27.2335661,9.22,-0.3,-0,265.4,14799.68,117522.13,265.7,Air+FixedWing,Red,Allies,J-11A,Red J-11A #001,xu,[51☭] Frostie,0,0,0,9.22000026702881,2.22000026702881,0,0,NaN,NaN,0,0.00989117029631303,NaN,0.999986231327057,-0.00523612508550286,-0.000192234903806821,0,9.04173156186581,9.04173156186581,,,127.789999961853,7,0.117057692602985,0.176578006966033
2011-06-01T04:32:46Z,1306902766,106,56.3843449,27.2335661,9.22,-0.3,-0,265.4,14799.68,117522.13,265.7,Air+FixedWing,Red,Allies,J-11A,Red J-11A #001,xu,[51☭] Frostie,0,0,0,9.22000026702881,2.22000026702881,0,0,NaN,NaN,0,0.0139882274201861,NaN,0.999986171723233,-0.00523612477340549,-0.000195073575014248,0,9.04173156186581,9.04173156186581,,,128.789999961853,7,0.117057692602985,0.176578006966033
2011-06-01T04:32:47Z,1306902767,106,56.3843449,27.2335661,9.22,-0.3,-0,265.4,14799.68,117522.13,265.7,Air+FixedWing,Red,Allies,J-11A,Red J-11A #001,xu,[51☭] Frostie,0,0,0,9.22000026702881,2.22000026702881,0,0,NaN,NaN,0,0.00989117029631303,NaN,0.999986171723233,-0.00523612477340549,-0.000197912246221676,0,9.04173156186581,9.04173156186581,,,129.789999961853,7,0.117057692602985,0.176578006966033
2011-06-01T04:32:48Z,1306902768,106,56.3843449,27.2335661,9.22,-0.3,-0,265.4,14799.68,117522.13,265.7,Air+FixedWing,Red,Allies,J-11A,Red J-11A #001,xu,[51☭] Frostie,0,0,0,9.22000026702881,2.22000026702881,0,0,NaN,NaN,0,0.0139882274201861,NaN,0.999986231327057,-0.00523612508550286,-0.000200750917429104,0,9.04173156186581,9.04173156186581,,,130.789999961853,7,0.117057692602985,0.176578006966033
2011-06-01T04:32:49Z,1306902769,106,56.3843449,27.2335661,9.22,-0.3,-0,265.4,14799.68,117522.13,265.7,Air+FixedWing,Red,Allies,J-11A,Red J-11A #001,xu,[51☭] Frostie,0,0,0,9.22000026702881,2.22000026702881,0,0,NaN,NaN,0,0.0139882274201861,NaN,0.999986171723233,-0.00523612477340549,-0.000203589588636532,0,9.04173156186581,9.04173156186581,,,131.789999961853,7,0.117057692602985,0.176578006966033
2011-06-01T04:32:50Z,1306902770,106,56.3843449,27.2335661,9.22,-0.3,-0,265.4,14799.68,117522.13,265.7,Air+FixedWing,Red,Allies,J-11A,Red J-11A #001,xu,[51☭] Frostie,0,0,0,9.22000026702881,2.22000026702881,0,0,NaN,NaN,0,0.0139882274201861,NaN,0.999986231327057,-0.00523612508550286,-0.00020642825984396,0,9.04173156186581,9.04173156186581,,,132.789999961853,7,0.117057692602985,0.176578006966033
2011-06-01T04:32:51Z,1306902771,106,56.3843449,27.2335661,9.22,-0.3,-0,265.4,14799.68,117522.13,265.7,Air+FixedWing,Red,Allies,J-11A,Red J-11A #001,xu,[51☭] Frostie,0,0,0,9.22000026702881,2.22000026702881,0,0,NaN,NaN,0,0.0139882274201861,NaN,0.999986231327057,-0.00523612508550286,-0.000209266931051388,0,9.04173156186581,9.04173156186581,,,133.789999961853,7,0.117057692602985,0.176578006966033
2011-06-01T04:32:52Z,1306902772,106,56.3843449,27.2335661,9.22,-0.3,-0,265.4,14799.68,117522.13,265.7,Air+FixedWing,Red,Allies,J-11A,Red J-11A #001,xu,[51☭] Frostie,0,0,0,9.22000026702881,2.22000026702881,0,0,NaN,NaN,0,0.0139882274201861,NaN,0.999986171723233,-0.00523612477340549,-0.000212105602258816,0,9.04173156186581,9.04173156186581,,,134.789999961853,7,0.117057692602985,0.176578006966033
2011-06-01T04:32:53Z,1306902773,106,56.3843449,27.2335661,9.22,-0.3,-0,265.4,14799.68,117522.13,265.7,Air+FixedWing,Red,Allies,J-11A,Red J-11A #001,xu,[51☭] Frostie,0,0,0,9.22000026702881,2.22000026702881,0,0,NaN,NaN,0,0.0139882274201861,NaN,0.999986231327057,-0.00523612508550286,-0.000214944273466244,0,9.04173156186581,9.04173156186581,,,135.789999961853,7,0.117057692602985,0.176578006966033
2011-06-01T04:32:54Z,1306902774,106,56.3843449,27.2335661,9.22,-0.3,-0,265.4,14799.68,117522.13,265.7,Air+FixedWing,Red,Allies,J-11A,Red J-11A #001,xu,[51☭] Frostie,0,0,0,9.22000026702881,2.22000026702881,0,0,NaN,NaN,0,0.0139882274201861,NaN,0.999986171723233,-0.00523612477340549,-0.000217782944673672,0,9.04173156186581,9.04173156186581,,,136.789999961853,7,0.117057692602985,0.176578006966033
2011-06-01T04:32:55Z,1306902775,106,56.3843449,27.2335661,9.22,-0.3,-0,265.4,14799.68,117522.13,265.7,Air+FixedWing,Red,Allies,J-11A,Red J-11A #001,xu,[51☭] Frostie,0,0,0,9.22000026702881,2.22000026702881,0,0,NaN,NaN,0,0.0139882274201861,NaN,0.999986171723233,-0.00523612477340549,-0.0002206216158811,0,9.04173156186581,9.04173156186581,,,137.789999961853,7,0.117057692602985,0.176578006966033
2011-06-01T04:32:56Z,1306902776,106,56.3843449,27.2335661,9.22,-0.3,-0,265.4,14799.68,117522.13,265.7,Air+FixedWing,Red,Allies,J-11A,Red J-11A #001,xu,[51☭] Frostie,0,0,0,9.22000026702881,2.22000026702881,0,0,NaN,NaN,0,0.0139882274201861,NaN,0.999986171723233,-0.00523612477340549,-0.000223460301640443,0,9.04173156186581,9.04173156186581,,,138.789999961853,7,0.117057692602985,0.176578006966033
2011-06-01T04:32:57Z,1306902777,106,56.3843449,27.2335661,9.22,-0.3,-0,265.4,14799.68,117522.13,265.7,Air+FixedWing,Red,Allies,J-11A,Red J-11A #001,xu,[51☭] Frostie,0,0,0,9.22000026702881,2.22000026702881,0,0,NaN,NaN,0,0.0139882274201861,NaN,0.999986171723233,-0.00523612477340549,-0.000226298958295956,0,9.04173156186581,9.04173156186581,,,139.789999961853,7,0.117057692602985,0.176578006966033
2011-06-01T04:32:58Z,1306902778,106,56.3843449,27.2335661,9.22,-0.3,-0,265.4,14799.68,117522.13,265.7,Air+FixedWing,Red,Allies,J-11A,Red J-11A #001,xu,[51☭] Frostie,0,0,0,9.22000026702881,2.22000026702881,0,0,NaN,NaN,0,0.0139882274201861,NaN,0.999986171723233,-0.00523612477340549,-0.000229137644055299,0,9.04173156186581,9.04173156186581,,,140.789999961853,7,0.117057692602985,0.176578006966033
