ISOTime,UnixTime,Id,Longitude,Latitude,Altitude,Roll,Pitch,Yaw,U,V,Heading,Type,Color,Coalition,Name,Group,Country,Pilot,TAS,CAS,M,ASL,AGL,GS,VS,AOA,AOS,RRT,TRT,TRD,G,LatG,LonG,Ek,Ep,Em,FFW,FFV,RelativeTime,Elev,GroundDistance,AirDistance
2011-06-01T04:31:01Z,1306902661,109,56.3838279,27.2326934,9.05,-0.2,-1.3,265.4,14748.01,117425.72,265.7,Air+FixedWing,Red,Allies,Su-33,Red Su-33 #001,xu,[100☭] Coxy_99,0.177470774035208,0,0.000521391890750187,9.04619026184082,2.04619026184082,NaN,NaN,NaN,NaN,0.0380851348119911,NaN,NaN,NaN,NaN,NaN,NaN,8.87128217312813,NaN,,,0.670000076293945,7,NaN,NaN
2011-06-01T04:31:02Z,1306902662,109,56.3838281,27.2326934,9.07,-0.3,-1.8,265.4,14748.04,117425.73,265.7,Air+FixedWing,Red,Allies,Su-33,Red Su-33 #001,xu,[100☭] Coxy_99,0.0410598583176922,0,0.000120629905345893,9.06904697418213,2.06904697418213,0.0341098617120566,0.0228567123413086,NaN,NaN,0,0.562154770934786,NaN,0.997614266405298,-0.00457861581241906,-0.029471034112959,8.42955982534477e-05,8.89369695093632,8.89378124653457,,,1.67000007629395,7,0.0221527355973004,0.0318304000304548
2011-06-01T04:31:03Z,1306902663,109,56.3838282,27.2326934,9.07,-0.3,-1.1,265.4,14748.05,117425.73,265.7,Air+FixedWing,Red,Allies,Su-33,Red Su-33 #001,xu,[100☭] Coxy_99,0.0141928053672728,0,4.16970956954722e-05,9.07285690307617,2.07285690307617,0.013671875,0.00380992889404297,NaN,NaN,0,0.428988973925427,NaN,0.99713895561395,-0.00462839330628453,-0.0164048777293236,1.00717862096644e-05,8.89743321485519,8.8974432866414,,,2.67000007629395,7,0.0362927806252181,0.0464747510941276
2011-06-01T04:31:04Z,1306902664,109,56.3838282,27.2326934,9.05,-0.3,-1.2,265.4,14748.04,117425.72,265.7,Air+FixedWing,Red,Allies,Su-33,Red Su-33 #001,xu,[100☭] Coxy_99,0.0272880086260611,0,8.01695214338035e-05,9.05000019073486,2.05000019073486,0.0149065796117908,-0.0228567123413086,NaN,NaN,0,0.0221173298063182,NaN,1.00307913854854,-0.00674409719287242,-0.0224226589755984,3.72317707387992e-05,8.875018437047,8.87505566881774,,,3.67000007629395,7,0.0394301021908405,0.0695457749939182
2011-06-01T04:31:05Z,1306902665,109,56.3838282,27.2326934,9.06,-0.3,-1.2,265.4,14748.04,117425.73,265.7,Air+FixedWing,Red,Allies,Su-33,Red Su-33 #001,xu,[100☭] Coxy_99,0.0126893916688593,0,3.72802055984146e-05,9.05999946594238,2.05999946594238,0.0078125,0.00999927520751953,NaN,NaN,0,0.0171320104161963,NaN,0.998752895371366,-0.0044352455714365,-0.0208613488355124,8.05103304628574e-06,8.88482437626839,8.88483242730143,,,4.67000007629395,7,0.0397394142846708,0.0795498345549521
2011-06-01T04:31:06Z,1306902666,109,56.3838282,27.2326934,9.06,-0.3,-1.2,265.4,14748.04,117425.73,265.7,Air+FixedWing,Red,Allies,Su-33,Red Su-33 #001,xu,[100☭] Coxy_99,0,0,0,9.05999946594238,2.05999946594238,0,0,NaN,NaN,0,0.0171320104161963,NaN,0.999772299805851,-0.00444058337420328,-0.0208827026126957,0,8.88482437626839,8.88482437626839,,,5.67000007629395,7,0.0397394142846708,0.0795498345549521
2011-06-01T04:31:07Z,1306902667,109,56.3838282,27.2326934,9.06,-0.3,-1.2,265.4,14748.04,117425.72,265.7,Air+FixedWing,Red,Allies,Su-33,Red Su-33 #001,xu,[100☭] Coxy_99,0.0078125,0,2.29523694939899e-05,9.05999946594238,2.05999946594238,0.0078125,0,NaN,NaN,0,0.0171320104161963,NaN,0.999761478702898,-0.00602936976011714,-0.0210021406473541,3.0517578125e-06,8.88482437626839,8.8848274280262,,,6.67000007629395,7,0.0397394142846708,0.0795498345549521
2011-06-01T04:31:08Z,1306902668,109,56.3838282,27.2326934,9.06,-0.3,-1.2,265.4,14748.04,117425.72,265.7,Air+FixedWing,Red,Allies,Su-33,Red Su-33 #001,xu,[100☭] Coxy_99,0,0,0,9.05999946594238,2.05999946594238,0,0,NaN,NaN,0,0.0171320104161963,NaN,0.999767366084967,-0.00523497906393922,-0.0209172703325748,0,8.88482437626839,8.88482437626839,,,7.67000007629395,7,0.0397394142846708,0.0795498345549521
2011-06-01T04:31:09Z,1306902669,109,56.3838282,27.2326934,9.06,-0.3,-1.2,265.4,14748.04,117425.72,265.7,Air+FixedWing,Red,Allies,Su-33,Red Su-33 #001,xu,[100☭] Coxy_99,0,0,0,9.05999946594238,2.05999946594238,0,0,NaN,NaN,0,0.0221173298063182,NaN,0.999768200538505,-0.00523498343330248,-0.0208797305822372,0,8.88482437626839,8.88482437626839,,,8.67000007629395,7,0.0397394142846708,0.0795498345549521
2011-06-01T04:31:10Z,1306902670,109,56.3838282,27.2326934,9.06,-0.3,-1.2,265.4,14748.04,117425.72,265.7,Air+FixedWing,Red,Allies,Su-33,Red Su-33 #001,xu,[100☭] Coxy_99,0,0,0,9.05999946594238,2.05999946594238,0,0,NaN,NaN,0,0.0197823405926261,NaN,0.999768975388218,-0.00523498749056836,-0.0208421908318996,0,8.88482437626839,8.88482437626839,,,9.67000007629395,7,0.0397394142846708,0.0795498345549521
2011-06-01T04:31:11Z,1306902671,109,56.3838282,27.2326934,9.06,-0.3,-1.2,265.4,14748.04,117425.72,265.7,Air+FixedWing,Red,Allies,Su-33,Red Su-33 #001,xu,[100☭] Coxy_99,0,0,0,9.05999946594238,2.05999946594238,0,0,NaN,NaN,0,0.0197823405926261,NaN,0.999769690634107,-0.00523499123573687,-0.020804651081562,0,8.88482437626839,8.88482437626839,,,10.6700000762939,7,0.0397394142846708,0.0795498345549521
2011-06-01T04:31:12Z,1306902672,109,56.3838282,27.2326934,9.06,-0.3,-1.2,265.4,14748.04,117425.72,265.7,Air+FixedWing,Red,Allies,Su-33,Red Su-33 #001,xu,[100☭] Coxy_99,0,0,0,9.05999946594238,2.05999946594238,0,0,NaN,NaN,0,0.0171320104161963,NaN,0.99977046548382,-0.00523499529300275,-0.0207671113312244,0,8.88482437626839,8.88482437626839,,,11.6700000762939,7,0.0397394142846708,0.0795498345549521
2011-06-01T04:31:13Z,1306902673,109,56.3838282,27.2326934,9.06,-0.3,-1.2,265.4,14748.04,117425.72,265.7,Air+FixedWing,Red,Allies,Su-33,Red Su-33 #001,xu,[100☭] Coxy_99,0,0,0,9.05999946594238,2.05999946594238,0,0,NaN,NaN,0,0.0171320104161963,NaN,0.999771299937357,-0.00523499966236601,-0.0207295715808868,0,8.88482437626839,8.88482437626839,,,12.6700000762939,7,0.0397394142846708,0.0795498345549521
2011-06-01T04:31:14Z,1306902674,109,56.3838282,27.2326934,9.06,-0.3,-1.2,265.4,14748.04,117425.72,265.7,Air+FixedWing,Red,Allies,Su-33,Red Su-33 #001,xu,[100☭] Coxy_99,0,0,0,9.05999946594238,2.05999946594238,0,0,NaN,NaN,0,0.0139882274201861,NaN,0.999772074787071,-0.0052350037196319,-0.0206920318305492,0,8.88482437626839,8.88482437626839,,,13.6700000762939,7,0.0397394142846708,0.0795498345549521
2011-06-01T04:31:15Z,1306902675,109,56.3838282,27.2326934,9.06,-0.3,-1.2,265.4,14748.04,117425.72,265.7,Air+FixedWing,Red,Allies,Su-33,Red Su-33 #001,xu,[100☭] Coxy_99,0,0,0,9.05999946594238,2.05999946594238,0,0,NaN,NaN,0,0.0139882274201861,NaN,0.999772909240608,-0.00523500808899516,-0.0206544902175665,0,8.88482437626839,8.88482437626839,,,14.6700000762939,7,0.0397394142846708,0.0795498345549521
2011-06-01T04:31:16Z,1306902676,109,56.3838282,27.2326934,9.06,-0.3,-1.2,265.4,14748.04,117425.72,265.7,Air+FixedWing,Red,Allies,Su-33,Red Su-33 #001,xu,[100☭] Coxy_99,0,0,0,9.05999946594238,2.05999946594238,0,0,NaN,NaN,0,0.0139882274201861,NaN,0.999773624486498,-0.00523501183416367,-0.020616952329874,0,8.88482437626839,8.88482437626839,,,15.6700000762939,7,0.0397394142846708,0.0795498345549521
2011-06-01T04:31:17Z,1306902677,109,56.3838282,27.2326934,9.06,-0.3,-1.2,265.4,14748.04,117425.72,265.7,Air+FixedWing,Red,Allies,Su-33,Red Su-33 #001,xu,[100☭] Coxy_99,0,0,0,9.05999946594238,2.05999946594238,0,0,NaN,NaN,0,0.0139882274201861,NaN,0.999774399336211,-0.00523501589142955,-0.0205794125795364,0,8.88482437626839,8.88482437626839,,,16.6700000762939,7,0.0397394142846708,0.0795498345549521
2011-06-01T04:31:18Z,1306902678,109,56.3838282,27.2326934,9.06,-0.3,-1.2,265.4,14748.04,117425.72,265.7,Air+FixedWing,Red,Allies,Su-33,Red Su-33 #001,xu,[100☭] Coxy_99,0,0,0,9.05999946594238,2.05999946594238,0,0,NaN,NaN,0,0.0139882274201861,NaN,0.999775174185924,-0.00523501994869544,-0.0205418709665537,0,8.88482437626839,8.88482437626839,,,17.6700000762939,7,0.0397394142846708,0.0795498345549521
2011-06-01T04:31:19Z,1306902679,109,56.3838282,27.2326934,9.06,-0.3,-1.2,265.4,14748.04,117425.72,265.7,Air+FixedWing,Red,Allies,Su-33,Red Su-33 #001,xu,[100☭] Coxy_99,0,0,0,9.05999946594238,2.05999946594238,0,0,NaN,NaN,0,0,NaN,0.999775949035637,-0.00523502400596132,-0.0205043312162161,0,8.88482437626839,8.88482437626839,,,18.6700000762939,7,0.0397394142846708,0.0795498345549521
2011-06-01T04:31:20Z,1306902680,109,56.3838282,27.2326934,9.06,-0.3,-1.2,265.4,14748.04,117425.72,265.7,Air+FixedWing,Red,Allies,Su-33,Red Su-33 #001,xu,[100☭] Coxy_99,0,0,0,9.05999946594238,2.05999946594238,0,0,NaN,NaN,0,0.0139882274201861,NaN,0.999776783489175,-0.00523502837532458,-0.0204667933285236,0,8.88482437626839,8.88482437626839,,,19.6700000762939,7,0.0397394142846708,0.0795498345549521
2011-06-01T04:31:21Z,1306902681,109,56.3838282,27.2326934,9.06,-0.3,-1.2,265.4,14748.04,117425.72,265.7,Air+FixedWing,Red,Allies,Su-33,Red Su-33 #001,xu,[100☭] Coxy_99,0,0,0,9.05999946594238,2.05999946594238,0,0,NaN,NaN,0,0.00989117029631303,NaN,0.999777498735064,-0.00523503212049309,-0.0204292517155409,0,8.88482437626839,8.88482437626839,,,20.6700000762939,7,0.0397394142846708,0.0795498345549521
2011-06-01T04:31:22Z,1306902682,109,56.3838282,27.2326934,9.06,-0.3,-1.2,265.4,14748.04,117425.72,265.7,Air+FixedWing,Red,Allies,Su-33,Red Su-33 #001,xu,[100☭] Coxy_99,0,0,0,9.05999946594238,2.05999946594238,0,0,NaN,NaN,0,0.00989117029631303,NaN,0.999778273584777,-0.00523503617775897,-0.0203917119652033,0,8.88482437626839,8.88482437626839,,,21.6700000762939,7,0.0397394142846708,0.0795498345549521
2011-06-01T04:31:23Z,1306902683,109,56.3838282,27.2326934,9.06,-0.3,-1.2,265.4,14748.04,117425.72,265.7,Air+FixedWing,Red,Allies,Su-33,Red Su-33 #001,xu,[100☭] Coxy_99,0,0,0,9.05999946594238,2.05999946594238,0,0,NaN,NaN,0,0.0171320104161963,NaN,0.999779108038314,-0.00523504054712223,-0.0203541722148657,0,8.88482437626839,8.88482437626839,,,22.6700000762939,7,0.0397394142846708,0.0795498345549521
2011-06-01T04:31:24Z,1306902684,109,56.3838282,27.2326934,9.06,-0.3,-1.2,265.4,14748.04,117425.72,265.7,Air+FixedWing,Red,Allies,Su-33,Red Su-33 #001,xu,[100☭] Coxy_99,0,0,0,9.05999946594238,2.05999946594238,0,0,NaN,NaN,0,0.00989117029631303,NaN,0.999779763680379,-0.00523504398019337,-0.0203166306018829,0,8.88482437626839,8.88482437626839,,,23.6700000762939,7,0.0397394142846708,0.0795498345549521
2011-06-01T04:31:25Z,1306902685,109,56.3838282,27.2326934,9.06,-0.3,-1.2,265.4,14748.04,117425.72,265.7,Air+FixedWing,Red,Allies,Su-33,Red Su-33 #001,xu,[100☭] Coxy_99,0,0,0,9.05999946594238,2.05999946594238,0,0,NaN,NaN,0,0.0139882274201861,NaN,0.999780538530093,-0.00523504803745925,-0.0202790927141905,0,8.88482437626839,8.88482437626839,,,24.6700000762939,7,0.0397394142846708,0.0795498345549521
2011-06-01T04:31:26Z,1306902686,109,56.3838282,27.2326934,9.06,-0.3,-1.2,265.4,14748.04,117425.72,265.7,Air+FixedWing,Red,Allies,Su-33,Red Su-33 #001,xu,[100☭] Coxy_99,0,0,0,9.05999946594238,2.05999946594238,0,0,NaN,NaN,0,0.0139882274201861,NaN,0.999781313379806,-0.00523505209472513,-0.0202415529638529,0,8.88482437626839,8.88482437626839,,,25.6700000762939,7,0.0397394142846708,0.0795498345549521
2011-06-01T04:31:27Z,1306902687,109,56.3838282,27.2326934,9.06,-0.3,-1.2,265.4,14748.04,117425.72,265.7,Air+FixedWing,Red,Allies,Su-33,Red Su-33 #001,xu,[100☭] Coxy_99,0,0,0,9.05999946594238,2.05999946594238,0,0,NaN,NaN,0,0.00989117029631303,NaN,0.999782088229519,-0.00523505615199102,-0.0202040113508701,0,8.88482437626839,8.88482437626839,,,26.6700000762939,7,0.0397394142846708,0.0795498345549521
2011-06-01T04:31:28Z,1306902688,109,56.3838282,27.2326934,9.06,-0.3,-1.2,265.4,14748.04,117425.72,265.7,Air+FixedWing,Red,Allies,Su-33,Red Su-33 #001,xu,[100☭] Coxy_99,0,0,0,9.05999946594238,2.05999946594238,0,0,NaN,NaN,0,0,NaN,0.999782803475409,-0.00523505989715953,-0.0201664716005325,0,8.88482437626839,8.88482437626839,,,27.6700000762939,7,0.0397394142846708,0.0795498345549521
2011-06-01T04:31:29Z,1306902689,109,56.3838282,27.2326934,9.06,-0.3,-1.2,265.4,14748.04,117425.72,265.7,Air+FixedWing,Red,Allies,Su-33,Red Su-33 #001,xu,[100☭] Coxy_99,0,0,0,9.05999946594238,2.05999946594238,0,0,NaN,NaN,0,0,NaN,0.999783578325122,-0.00523506395442541,-0.0201289318501949,0,8.88482437626839,8.88482437626839,,,28.6700000762939,7,0.0397394142846708,0.0795498345549521
2011-06-01T04:31:30Z,1306902690,109,56.3838282,27.2326934,9.06,-0.3,-1.2,265.4,14748.04,117425.72,265.7,Air+FixedWing,Red,Allies,Su-33,Red Su-33 #001,xu,[100☭] Coxy_99,0,0,0,9.05999946594238,2.05999946594238,0,0,NaN,NaN,0,0,NaN,0.999784412778659,-0.00523506832378867,-0.0200913902372122,0,8.88482437626839,8.88482437626839,,,29.6700000762939,7,0.0397394142846708,0.0795498345549521
2011-06-01T04:31:31Z,1306902691,109,56.3838282,27.2326934,9.06,-0.3,-1.1,265.4,14748.04,117425.72,265.7,Air+FixedWing,Red,Allies,Su-33,Red Su-33 #001,xu,[100☭] Coxy_99,0,0,0,9.05999946594238,2.05999946594238,0,0,NaN,NaN,0,0.00989117029631303,NaN,0.999785128024548,-0.00523507206895718,-0.0200538504868746,0,8.88482437626839,8.88482437626839,,,30.6700000762939,7,0.0397394142846708,0.0795498345549521
2011-06-01T04:31:32Z,1306902692,109,56.3838282,27.2326934,9.06,-0.3,-1.1,265.4,14748.04,117425.72,265.7,Air+FixedWing,Red,Allies,Su-33,Red Su-33 #001,xu,[100☭] Coxy_99,0,0,0,9.05999946594238,2.05999946594238,0,0,NaN,NaN,0,0.00989117029631303,NaN,0.999785902874262,-0.00523507612622306,-0.020016310736537,0,8.88482437626839,8.88482437626839,,,31.6700000762939,7,0.0397394142846708,0.0795498345549521
2011-06-01T04:31:33Z,1306902693,109,56.3838282,27.2326934,9.06,-0.3,-1.1,265.4,14748.04,117425.72,265.7,Air+FixedWing,Red,Allies,Su-33,Red Su-33 #001,xu,[100☭] Coxy_99,0,0,0,9.05999946594238,2.05999946594238,0,0,NaN,NaN,0,0.0197823405926261,NaN,0.999786558516327,-0.0052350795592942,-0.0199787691235542,0,8.88482437626839,8.88482437626839,,,32.6700000762939,7,0.0397394142846708,0.0795498345549521
2011-06-01T04:31:34Z,1306902694,109,56.3838282,27.2326934,9.06,-0.3,-1.1,265.4,14748.04,117425.72,265.7,Air+FixedWing,Red,Allies,Su-33,Red Su-33 #001,xu,[100☭] Coxy_99,0,0,0,9.05999946594238,2.05999946594238,0,0,NaN,NaN,0,0.0171320104161963,NaN,0.99978733336604,-0.00523508361656008,-0.0199412293732166,0,8.88482437626839,8.88482437626839,,,33.6700000762939,7,0.0397394142846708,0.0795498345549521
2011-06-01T04:31:35Z,1306902695,109,56.3838282,27.2326934,9.06,-0.3,-1.1,265.4,14748.04,117425.72,265.7,Air+FixedWing,Red,Allies,Su-33,Red Su-33 #001,xu,[100☭] Coxy_99,0,0,0,9.05999946594238,2.05999946594238,0,0,NaN,NaN,0,0.0171320104161963,NaN,0.999788108215753,-0.00523508767382597,-0.019903689622879,0,8.88482437626839,8.88482437626839,,,34.6700000762939,7,0.0397394142846708,0.0795498345549521
2011-06-01T04:31:36Z,1306902696,109,56.3838282,27.2326934,9.06,-0.3,-1.1,265.4,14748.04,117425.72,265.7,Air+FixedWing,Red,Allies,Su-33,Red Su-33 #001,xu,[100☭] Coxy_99,0,0,0,9.05999946594238,2.05999946594238,0,0,NaN,NaN,0,0.0139882274201861,NaN,0.999788823461643,-0.00523509141899448,-0.0198661480098963,0,8.88482437626839,8.88482437626839,,,35.6700000762939,7,0.0397394142846708,0.0795498345549521
2011-06-01T04:31:37Z,1306902697,109,56.3838282,27.2326934,9.06,-0.3,-1.1,265.4,14748.04,117425.72,265.7,Air+FixedWing,Red,Allies,Su-33,Red Su-33 #001,xu,[100☭] Coxy_99,0,0,0,9.05999946594238,2.05999946594238,0,0,NaN,NaN,0,0.0171320104161963,NaN,0.999789598311356,-0.00523509547626036,-0.0198286082595587,0,8.88482437626839,8.88482437626839,,,36.6700000762939,7,0.0397394142846708,0.0795498345549521
2011-06-01T04:31:38Z,1306902698,109,56.3838282,27.2326934,9.06,-0.3,-1.1,265.4,14748.04,117425.72,265.7,Air+FixedWing,Red,Allies,Su-33,Red Su-33 #001,xu,[100☭] Coxy_99,0,0,0,9.05999946594238,2.05999946594238,0,0,NaN,NaN,0,0.0171320104161963,NaN,0.999790313557245,-0.00523509922142887,-0.0197910666465759,0,8.88482437626839,8.88482437626839,,,37.6700000762939,7,0.0397394142846708,0.0795498345549521
2011-06-01T04:31:39Z,1306902699,109,56.3838282,27.2326934,9.06,-0.3,-1.1,265.4,14748.04,117425.72,265.7,Air+FixedWing,Red,Allies,Su-33,Red Su-33 #001,xu,[100☭] Coxy_99,0,0,0,9.05999946594238,2.05999946594238,0,0,NaN,NaN,0,0.0171320104161963,NaN,0.999791088406958,-0.00523510327869475,-0.0197535268962383,0,8.88482437626839,8.88482437626839,,,38.6700000762939,7,0.0397394142846708,0.0795498345549521
2011-06-01T04:31:40Z,1306902700,109,56.3838282,27.2326934,9.06,-0.3,-1.1,265.4,14748.04,117425.72,265.7,Air+FixedWing,Red,Allies,Su-33,Red Su-33 #001,xu,[100☭] Coxy_99,0,0,0,9.05999946594238,2.05999946594238,0,0,NaN,NaN,0,0.0197823405926261,NaN,0.999791863256672,-0.00523510733596064,-0.0197159871459007,0,8.88482437626839,8.88482437626839,,,39.6700000762939,7,0.0397394142846708,0.0795498345549521
2011-06-01T04:31:41Z,1306902701,109,56.3838282,27.2326934,9.06,-0.3,-1.1,265.4,14748.04,117425.72,265.7,Air+FixedWing,Red,Allies,Su-33,Red Su-33 #001,xu,[100☭] Coxy_99,0,0,0,9.05999946594238,2.05999946594238,0,0,NaN,NaN,0,0.0171320104161963,NaN,0.999792578502561,-0.00523511108112915,-0.019678445532918,0,8.88482437626839,8.88482437626839,,,40.6700000762939,7,0.0397394142846708,0.0795498345549521
2011-06-01T04:31:42Z,1306902702,109,56.3838282,27.2326934,9.06,-0.3,-1.1,265.4,14748.04,117425.72,265.7,Air+FixedWing,Red,Allies,Su-33,Red Su-33 #001,xu,[100☭] Coxy_99,0,0,0,9.05999946594238,2.05999946594238,0,0,NaN,NaN,0,0.0171320104161963,NaN,0.999793353352274,-0.00523511513839503,-0.0196409057825804,0,8.88482437626839,8.88482437626839,,,41.6700000762939,7,0.0397394142846708,0.0795498345549521
2011-06-01T04:31:43Z,1306902703,109,56.3838282,27.2326934,9.06,-0.3,-1.1,265.4,14748.04,117425.72,265.7,Air+FixedWing,Red,Allies,Su-33,Red Su-33 #001,xu,[100☭] Coxy_99,0,0,0,9.05999946594238,2.05999946594238,0,0,NaN,NaN,0,0.0139882274201861,NaN,0.999794068598163,-0.00523511888356354,-0.0196033660322428,0,8.88482437626839,8.88482437626839,,,42.6700000762939,7,0.0397394142846708,0.0795498345549521
2011-06-01T04:31:44Z,1306902704,109,56.3838282,27.2326934,9.06,-0.3,-1.1,265.4,14748.04,117425.72,265.7,Air+FixedWing,Red,Allies,Su-33,Red Su-33 #001,xu,[100☭] Coxy_99,0,0,0,9.05999946594238,2.05999946594238,0,0,NaN,NaN,0,0.0171320104161963,NaN,0.999794783844052,-0.00523512262873205,-0.01956582441926,0,8.88482437626839,8.88482437626839,,,43.6700000762939,7,0.0397394142846708,0.0795498345549521
2011-06-01T04:31:45Z,1306902705,109,56.3838282,27.2326934,9.06,-0.3,-1.1,265.4,14748.04,117425.72,265.7,Air+FixedWing,Red,Allies,Su-33,Red Su-33 #001,xu,[100☭] Coxy_99,0,0,0,9.05999946594238,2.05999946594238,0,0,NaN,NaN,0,0.0197823405926261,NaN,0.999795558693766,-0.00523512668599793,-0.0195282846689224,0,8.88482437626839,8.88482437626839,,,44.6700000762939,7,0.0397394142846708,0.0795498345549521
2011-06-01T04:31:46Z,1306902706,109,56.3838282,27.2326934,9.06,-0.3,-1.1,265.4,14748.04,117425.72,265.7,Air+FixedWing,Red,Allies,Su-33,Red Su-33 #001,xu,[100☭] Coxy_99,0,0,0,9.05999946594238,2.05999946594238,0,0,NaN,NaN,0,0.0221173298063182,NaN,0.999796214335831,-0.00523513011906906,-0.0194907430559397,0,8.88482437626839,8.88482437626839,,,45.6700000762939,7,0.0397394142846708,0.0795498345549521
2011-06-01T04:31:47Z,1306902707,109,56.3838282,27.2326934,9.06,-0.3,-1.1,265.4,14748.04,117425.72,265.7,Air+FixedWing,Red,Allies,Su-33,Red Su-33 #001,xu,[100☭] Coxy_99,0,0,0,9.05999946594238,2.05999946594238,0,0,NaN,NaN,0,0.0221173298063182,NaN,0.999796989185544,-0.00523513417633495,-0.0194532014429569,0,8.88482437626839,8.88482437626839,,,46.6700000762939,7,0.0397394142846708,0.0795498345549521
2011-06-01T04:31:48Z,1306902708,109,56.3838282,27.2326934,9.06,-0.3,-1.1,265.4,14748.04,117425.72,265.7,Air+FixedWing,Red,Allies,Su-33,Red Su-33 #001,xu,[100☭] Coxy_99,0,0,0,9.05999946594238,2.05999946594238,0,0,NaN,NaN,0,0.0221173298063182,NaN,0.999797764035257,-0.00523513823360083,-0.0194156616926193,0,8.88482437626839,8.88482437626839,,,47.6700000762939,7,0.0397394142846708,0.0795498345549521
2011-06-01T04:31:49Z,1306902709,109,56.3838282,27.2326934,9.06,-0.3,-1.1,265.4,14748.04,117425.72,265.7,Air+FixedWing,Red,Allies,Su-33,Red Su-33 #001,xu,[100☭] Coxy_99,0,0,0,9.05999946594238,2.05999946594238,0,0,NaN,NaN,0,0.0171320104161963,NaN,0.999798479281147,-0.00523514197876934,-0.0193781219422817,0,8.88482437626839,8.88482437626839,,,48.6700000762939,7,0.0397394142846708,0.0795498345549521
2011-06-01T04:31:50Z,1306902710,109,56.3838282,27.2326934,9.06,-0.3,-1.1,265.4,14748.04,117425.72,265.7,Air+FixedWing,Red,Allies,Su-33,Red Su-33 #001,xu,[100☭] Coxy_99,0,0,0,9.05999946594238,2.05999946594238,0,0,NaN,NaN,0,0.0139882274201861,NaN,0.999799194527036,-0.00523514572393785,-0.019340580329299,0,8.88482437626839,8.88482437626839,,,49.6700000762939,7,0.0397394142846708,0.0795498345549521
2011-06-01T04:31:51Z,1306902711,109,56.3838282,27.2326934,9.06,-0.3,-1.1,265.4,14748.04,117425.72,265.7,Air+FixedWing,Red,Allies,Su-33,Red Su-33 #001,xu,[100☭] Coxy_99,0,0,0,9.05999946594238,2.05999946594238,0,0,NaN,NaN,0,0.0139882274201861,NaN,0.999799909772925,-0.00523514946910636,-0.0193030387163162,0,8.88482437626839,8.88482437626839,,,50.6700000762939,7,0.0397394142846708,0.0795498345549521
2011-06-01T04:31:52Z,1306902712,109,56.3838282,27.2326934,9.06,-0.3,-1.1,265.4,14748.04,117425.72,265.7,Air+FixedWing,Red,Allies,Su-33,Red Su-33 #001,xu,[100☭] Coxy_99,0,0,0,9.05999946594238,2.05999946594238,0,0,NaN,NaN,0,0.0139882274201861,NaN,0.999800625018814,-0.00523515321427487,-0.0192654989659786,0,8.88482437626839,8.88482437626839,,,51.6700000762939,7,0.0397394142846708,0.0795498345549521
2011-06-01T04:31:53Z,1306902713,109,56.3838282,27.2326934,9.06,-0.3,-1.1,265.4,14748.04,117425.72,265.7,Air+FixedWing,Red,Allies,Su-33,Red Su-33 #001,xu,[100☭] Coxy_99,0,0,0,9.05999946594238,2.05999946594238,0,0,NaN,NaN,0,0.00989117029631303,NaN,0.998862199677637,-0.00516303988699016,-0.0201037665678196,0,8.88482437626839,8.88482437626839,,,52.6700000762939,7,0.0397394142846708,0.0795498345549521
2011-06-01T04:31:54Z,1306902714,109,56.3838282,27.2326934,9.05,-0.3,-1.1,265.4,14748.05,117425.72,265.7,Air+FixedWing,Red,Allies,Su-33,Red Su-33 #001,xu,[100☭] Coxy_99,0.01261300000532,0,3.7055770502651e-05,9.05095291137695,2.05095291137695,0.0087890625,-0.00904655456542969,NaN,NaN,0,0.0541761800424684,NaN,1.00166149197328,-0.00530463001123807,-0.0184385981150647,7.95438845671015e-06,8.87595273683548,8.87596069122394,,,53.6700000762939,7,0.0397394142846708,0.0885963892868752
2011-06-01T04:31:55Z,1306902715,109,56.3838282,27.2326934,9.06,-0.3,-1,265.4,14748.05,117425.72,265.7,Air+FixedWing,Red,Allies,Su-33,Red Su-33 #001,xu,[100☭] Coxy_99,0.00909911115558564,0,2.67323086476655e-05,9.05999946594238,2.05999946594238,0.0009765625,0.00904655456542969,NaN,NaN,0,0.0139882274201861,NaN,0.997900542477007,-0.0052625370885666,-0.0169220816672078,4.13969119108515e-06,8.88482437626839,8.88482851595958,,,54.6700000762939,7,0.0397394142846708,0.0976429440187983
2011-06-01T04:31:56Z,1306902716,109,56.3838282,27.2326934,9.05,-0.3,-1.1,265.4,14748.05,117425.72,265.7,Air+FixedWing,Red,Allies,Su-33,Red Su-33 #001,xu,[100☭] Coxy_99,0.0107351895063951,0,3.15389450737326e-05,9.05000019073486,2.05000019073486,0.00390625,-0.00999927520751953,NaN,NaN,0,0.0523391626455858,NaN,1.00184455113961,-0.00526078884703825,-0.0190380264609895,5.76221468691074e-06,8.875018437047,8.87502419926169,,,55.6700000762939,7,0.0397394142846708,0.107642219401494
2011-06-01T04:31:57Z,1306902717,109,56.3838281,27.2326934,9.06,-0.3,-1.2,265.4,14748.04,117425.72,265.7,Air+FixedWing,Red,Allies,Su-33,Red Su-33 #001,xu,[100☭] Coxy_99,0.0115895547829215,0,3.4048991187002e-05,9.05999946594238,2.05999946594238,0.005859375,0.00999927520751953,NaN,NaN,0,0.0523391626455858,NaN,0.997724709824536,-0.00517948361518842,-0.0210807790027632,6.71588900331699e-06,8.88482437626839,8.88483109215739,,,56.6700000762939,7,0.0472807746359657,0.120166506935764
2011-06-01T04:31:58Z,1306902718,109,56.3838282,27.2326934,9.05,-0.3,-1.1,265.4,14748.04,117425.72,265.7,Air+FixedWing,Red,Allies,Su-33,Red Su-33 #001,xu,[100☭] Coxy_99,0.00999927520751953,0,2.93769002735562e-05,9.05000019073486,2.05000019073486,0,-0.00999927520751953,NaN,NaN,0,0.0171320104161963,NaN,1.00081607018946,-0.0060348918090273,-0.0192767391377627,4.99927523378574e-06,8.875018437047,8.87502343632224,,,57.6700000762939,7,0.0548221349872607,0.132690794470034
2011-06-01T04:31:59Z,1306902719,109,56.3838282,27.2326934,9.05,-0.2,-1.1,265.4,14748.04,117425.73,265.7,Air+FixedWing,Red,Allies,Su-33,Red Su-33 #001,xu,[100☭] Coxy_99,0.0078125,0,2.29523669090102e-05,9.05000019073486,2.05000019073486,0.0078125,0,NaN,NaN,0.133361738061173,0.0171320104161963,NaN,0.999816122930834,-0.00248278763602868,-0.01907800127407,3.0517578125e-06,8.875018437047,8.87502148880482,,,58.6700000762939,7,0.0548221349872607,0.132690794470034
2011-06-01T04:32:00Z,1306902720,109,56.3838282,27.2326934,9.05,-0.2,-1.2,265.4,14748.04,117425.72,265.7,Air+FixedWing,Red,Allies,Su-33,Red Su-33 #001,xu,[100☭] Coxy_99,0.0078125,0,2.29523669090102e-05,9.05000019073486,2.05000019073486,0.0078125,0,NaN,NaN,0,0.0139882274201861,NaN,0.999770552795368,-0.00428407700134596,-0.0210021406473541,3.0517578125e-06,8.875018437047,8.87502148880482,,,59.6700000762939,7,0.0548221349872607,0.132690794470034
2011-06-01T04:32:01Z,1306902721,109,56.3838282,27.2326934,9.05,-0.2,-1.2,265.4,14748.04,117425.72,265.7,Air+FixedWing,Red,Allies,Su-33,Red Su-33 #001,xu,[100☭] Coxy_99,0,0,0,9.05000019073486,2.05000019073486,0,0,NaN,NaN,0,0.0171320104161963,NaN,0.999789716054735,-0.00348972824582988,-0.0202077031135559,0,8.875018437047,8.875018437047,,,60.6700000762939,7,0.0548221349872607,0.132690794470034
2011-06-01T04:32:02Z,1306902722,109,56.3838282,27.2326933,9.05,-0.3,-1.2,265.4,14748.04,117425.72,265.7,Air+FixedWing,Red,Allies,Su-33,Red Su-33 #001,xu,[100☭] Coxy_99,0,0,0,9.05000019073486,2.05000019073486,0,0,NaN,NaN,0.0285775114873334,0.0463937064216612,NaN,0.999766889254374,-0.00523497656716021,-0.0209424216300249,0,8.875018437047,8.875018437047,,,61.6700000762939,7,0.0607856790434347,0.138654346687538
2011-06-01T04:32:03Z,1306902723,109,56.3838282,27.2326934,9.05,-0.3,-1.2,265.4,14748.04,117425.72,265.7,Air+FixedWing,Red,Allies,Su-33,Red Su-33 #001,xu,[100☭] Coxy_99,0,0,0,9.05000019073486,2.05000019073486,0,0,NaN,NaN,0.0694591818776215,0.0171320104161963,NaN,0.999766264648445,-0.00518096568328629,-0.0210021406473541,0,8.875018437047,8.875018437047,,,62.6700000762939,7,0.0667492230996087,0.144617898905042
2011-06-01T04:32:04Z,1306902724,109,56.3838282,27.2326934,9.05,-0.2,-1.2,265.4,14748.04,117425.73,265.7,Air+FixedWing,Red,Allies,Su-33,Red Su-33 #001,xu,[100☭] Coxy_99,0.0078125,0,2.29523669090102e-05,9.05000019073486,2.05000019073486,0.0078125,0,NaN,NaN,0.0809565780457215,0.0171320104161963,NaN,0.999783274929044,-0.00148543336280561,-0.0208229835953666,3.0517578125e-06,8.875018437047,8.87502148880482,,,63.6700000762939,7,0.0667492230996087,0.144617898905042
2011-06-01T04:32:05Z,1306902725,109,56.3838282,27.2326934,9.05,-0.2,-1.2,265.4,14748.04,117425.72,265.7,Air+FixedWing,Red,Allies,Su-33,Red Su-33 #001,xu,[100☭] Coxy_99,0.0078125,0,2.29523669090102e-05,9.05000019073486,2.05000019073486,0.0078125,0,NaN,NaN,0.114255404435973,0.0171320104161963,NaN,0.999770552795368,-0.00428407700134596,-0.0210021406473541,3.0517578125e-06,8.875018437047,8.87502148880482,,,64.6700000762939,7,0.0667492230996087,0.144617898905042
2011-06-01T04:32:06Z,1306902726,109,56.3838282,27.2326934,9.05,-0.2,-1.2,265.4,14748.04,117425.72,265.7,Air+FixedWing,Red,Allies,Su-33,Red Su-33 #001,xu,[100☭] Coxy_99,0,0,0,9.05000019073486,2.05000019073486,0,0,NaN,NaN,0,0.0171320104161963,NaN,0.999770552795368,-0.00428407700134596,-0.0210021406473541,0,8.875018437047,8.875018437047,,,65.6700000762939,7,0.0667492230996087,0.144617898905042
2011-06-01T04:32:07Z,1306902727,109,56.3838282,27.2326934,9.05,-0.3,-1.2,265.4,14748.04,117425.73,265.7,Air+FixedWing,Red,Allies,Su-33,Red Su-33 #001,xu,[100☭] Coxy_99,0.0078125,0,2.29523669090102e-05,9.05000019073486,2.05000019073486,0.0078125,0,NaN,NaN,0.0380851348119911,0.0171320104161963,NaN,0.999777710357327,-0.00364619018124635,-0.0208229835953666,3.0517578125e-06,8.875018437047,8.87502148880482,,,66.6700000762939,7,0.0667492230996087,0.144617898905042
2011-06-01T04:32:08Z,1306902728,109,56.3838282,27.2326933,9.05,-0.3,-1.2,265.4,14748.04,117425.72,265.7,Air+FixedWing,Red,Allies,Su-33,Red Su-33 #001,xu,[100☭] Coxy_99,0.0078125,0,2.29523669090102e-05,9.05000019073486,2.05000019073486,0.0078125,0,NaN,NaN,0,0.0171320104161963,NaN,0.999610425057205,-0.00682300033709461,-0.0210588088341424,3.0517578125e-06,8.875018437047,8.87502148880482,,,67.6700000762939,7,0.0734637314514208,0.151332416719153
2011-06-01T04:32:09Z,1306902729,109,56.3838282,27.2326934,9.05,-0.2,-1.2,265.4,14748.04,117425.73,265.7,Air+FixedWing,Red,Allies,Su-33,Red Su-33 #001,xu,[100☭] Coxy_99,0.00794204419521556,0,2.33329548087069e-05,9.04857158660889,2.04857158660889,0.0078125,-0.00142860412597656,NaN,NaN,0.228612247853292,0.0171320104161963,NaN,1.00007429134142,-0.00165255336246164,-0.0208290852564482,3.15380329993786e-06,8.8736174549818,8.8736206087851,,,68.6700000762939,7,0.0801782398032329,0.158197229875505
2011-06-01T04:32:10Z,1306902730,109,56.3838282,27.2326934,9.05,-0.2,-1.2,265.4,14748.04,117425.72,265.7,Air+FixedWing,Red,Allies,Su-33,Red Su-33 #001,xu,[100☭] Coxy_99,0.00794204419521556,0,2.33329551841488e-05,9.05000019073486,2.05000019073486,0.0078125,0.00142860412597656,NaN,NaN,0.199987938897973,0.0171320104161963,NaN,0.999624908560311,-0.0042835686356305,-0.0209990898168133,3.15380329993786e-06,8.875018437047,8.8750215908503,,,69.6700000762939,7,0.0801782398032329,0.159625833572132
2011-06-01T04:32:11Z,1306902731,109,56.3838282,27.2326934,9.05,-0.2,-1.2,265.4,14748.04,117425.72,265.7,Air+FixedWing,Red,Allies,Su-33,Red Su-33 #001,xu,[100☭] Coxy_99,0,0,0,9.05000019073486,2.05000019073486,0,0,NaN,NaN,0.0625098912839567,0.0171320104161963,NaN,0.999772431270458,-0.0040350830636342,-0.0209424216300249,0,8.875018437047,8.875018437047,,,70.6700000762939,7,0.0801782398032329,0.159625833572132
2011-06-01T04:32:12Z,1306902732,109,56.3838282,27.2326934,9.05,-0.3,-1.2,265.4,14748.04,117425.72,265.7,Air+FixedWing,Red,Allies,Su-33,Red Su-33 #001,xu,[100☭] Coxy_99,0,0,0,9.05000019073486,2.05000019073486,0,0,NaN,NaN,0,0.0171320104161963,NaN,0.999772299805851,-0.00444058337420328,-0.0208827026126957,0,8.875018437047,8.875018437047,,,71.6700000762939,7,0.0801782398032329,0.159625833572132
2011-06-01T04:32:13Z,1306902733,109,56.3838282,27.2326933,9.05,-0.3,-1.2,265.4,14748.04,117425.71,265.7,Air+FixedWing,Red,Allies,Su-33,Red Su-33 #001,xu,[100☭] Coxy_99,0.0078125,0,2.29523669090102e-05,9.05000019073486,2.05000019073486,0.0078125,0,NaN,NaN,0,0.0171320104161963,NaN,0.999750657599945,-0.00761815614603099,-0.0211215786820124,3.0517578125e-06,8.875018437047,8.87502148880482,,,72.6700000762939,7,0.0913101892287078,0.170757798965054
2011-06-01T04:32:14Z,1306902734,109,56.3838282,27.2326934,9.05,-0.2,-1.1,265.4,14748.04,117425.73,265.7,Air+FixedWing,Red,Allies,Su-33,Red Su-33 #001,xu,[100☭] Coxy_99,0.015625,0,4.59047338180204e-05,9.05000019073486,2.05000019073486,0.015625,0,NaN,NaN,0.200042580411333,0.0523391626455858,NaN,0.999810161939895,-0.00110655267896762,-0.0196000197929767,1.220703125e-05,8.875018437047,8.87503064407825,,,73.6700000762939,7,0.102442138654183,0.181889764357977
2011-06-01T04:32:15Z,1306902735,109,56.3838282,27.2326934,9.05,-0.2,-1.1,265.4,14748.04,117425.72,265.7,Air+FixedWing,Red,Allies,Su-33,Red Su-33 #001,xu,[100☭] Coxy_99,0.0078125,0,2.29523669090102e-05,9.05000019073486,2.05000019073486,0.0078125,0,NaN,NaN,0,0.0523391626455858,NaN,0.999805704343884,-0.00428419969649942,-0.0192571646132067,3.0517578125e-06,8.875018437047,8.87502148880482,,,74.6700000762939,7,0.102442138654183,0.181889764357977
2011-06-01T04:32:16Z,1306902736,109,56.3838282,27.2326934,9.05,-0.3,-1.1,265.4,14748.04,117425.72,265.7,Air+FixedWing,Red,Allies,Su-33,Red Su-33 #001,xu,[100☭] Coxy_99,0,0,0,9.05000019073486,2.05000019073486,0,0,NaN,NaN,0.0724546467154953,0.0171320104161963,NaN,0.999804379642996,-0.00475455444054584,-0.0191974435001612,0,8.875018437047,8.875018437047,,,75.6700000762939,7,0.102442138654183,0.181889764357977
2011-06-01T04:32:17Z,1306902737,109,56.3838282,27.2326934,9.05,-0.3,-1.1,265.4,14748.04,117425.72,265.7,Air+FixedWing,Red,Allies,Su-33,Red Su-33 #001,xu,[100☭] Coxy_99,0,0,0,9.05000019073486,2.05000019073486,0,0,NaN,NaN,0,0.0171320104161963,NaN,0.999807242624824,-0.0044407663416916,-0.0191377223871156,0,8.875018437047,8.875018437047,,,76.6700000762939,7,0.102442138654183,0.181889764357977
2011-06-01T04:32:18Z,1306902738,109,56.3838282,27.2326933,9.05,-0.3,-1.1,265.4,14748.04,117425.71,265.7,Air+FixedWing,Red,Allies,Su-33,Red Su-33 #001,xu,[100☭] Coxy_99,0.0078125,0,2.29523669090102e-05,9.05000019073486,2.05000019073486,0.0078125,0,NaN,NaN,0,0.0171320104161963,NaN,0.999776681287603,-0.00758095932946414,-0.0198730220600067,3.0517578125e-06,8.875018437047,8.87502148880482,,,77.6700000762939,7,0.113574088079657,0.193021729750899
2011-06-01T04:32:19Z,1306902739,109,56.3838282,27.2326934,9.05,-0.2,-1.1,265.4,14748.04,117425.73,265.7,Air+FixedWing,Red,Allies,Su-33,Red Su-33 #001,xu,[100☭] Coxy_99,0.016370170521719,0,4.80939725027272e-05,9.05000019073486,2.05000019073486,0.016370170521719,0,NaN,NaN,0.200042580411333,0.0171320104161963,NaN,0.999821382508573,-0.00110659184394087,-0.0190182801610245,1.33991241455078e-05,8.875018437047,8.87503183617115,,,78.6700000762939,7,0.124706037505132,0.204153695143822
2011-06-01T04:32:20Z,1306902740,109,56.3838282,27.2326934,9.05,-0.2,-1.1,265.4,14748.05,117425.72,265.7,Air+FixedWing,Red,Allies,Su-33,Red Su-33 #001,xu,[100☭] Coxy_99,0.00921287219927403,0,2.70665245444553e-05,9.05000019073486,2.05000019073486,0.00921287219927403,0,NaN,NaN,0.00683018917001275,0.0171320104161963,NaN,0.999814817875582,-0.00438093179362545,-0.0187607493924979,4.24385070800781e-06,8.875018437047,8.87502268089771,,,79.6700000762939,7,0.124706037505132,0.204153695143822
2011-06-01T04:32:21Z,1306902741,109,56.3838282,27.2326934,9.05,-0.3,-1.1,265.4,14748.05,117425.72,265.7,Air+FixedWing,Red,Allies,Su-33,Red Su-33 #001,xu,[100☭] Coxy_99,0,0,0,9.05000019073486,2.05000019073486,0,0,NaN,NaN,0.068028684133327,0.0171320104161963,NaN,0.999804439236655,-0.00473648638781987,-0.0191974435001612,0,8.875018437047,8.875018437047,,,80.6700000762939,7,0.124706037505132,0.204153695143822
2011-06-01T04:32:22Z,1306902742,109,56.3838282,27.2326934,9.05,-0.3,-1.1,265.4,14748.05,117425.72,265.7,Air+FixedWing,Red,Allies,Su-33,Red Su-33 #001,xu,[100☭] Coxy_99,0,0,0,9.05000019073486,2.05000019073486,0,0,NaN,NaN,0,0.0171320104161963,NaN,0.999796629981065,-0.00602955381914267,-0.0192571646132067,0,8.875018437047,8.875018437047,,,81.6700000762939,7,0.125718032724303,0.205165691605128
2011-06-01T04:32:23Z,1306902743,109,56.3838282,27.2326934,9.05,-0.3,-1.1,265.4,14748.05,117425.73,265.7,Air+FixedWing,Red,Allies,Su-33,Red Su-33 #001,xu,[100☭] Coxy_99,0.0078125,0,2.29523669090102e-05,9.05000019073486,2.05000019073486,0.0078125,0,NaN,NaN,0,0.0171320104161963,NaN,0.999812548946703,-0.00364637260296606,-0.01907800127407,3.0517578125e-06,8.875018437047,8.87502148880482,,,82.6700000762939,7,0.126730027943474,0.206177688066435
2011-06-01T04:32:24Z,1306902744,109,56.3838282,27.2326934,9.05,-0.3,-1.1,265.4,14748.05,117425.72,265.7,Air+FixedWing,Red,Allies,Su-33,Red Su-33 #001,xu,[100☭] Coxy_99,0.0078125,0,2.29523669090102e-05,9.05000019073486,2.05000019073486,0.0078125,0,NaN,NaN,0,0.0171320104161963,NaN,0.999791323659185,-0.00682394755786821,-0.0193168857262523,3.0517578125e-06,8.875018437047,8.87502148880482,,,83.6700000762939,7,0.126730027943474,0.206177688066435
2011-06-01T04:32:25Z,1306902745,109,56.3838282,27.2326934,9.05,-0.3,-1.1,265.4,14748.05,117425.73,265.7,Air+FixedWing,Red,Allies,Su-33,Red Su-33 #001,xu,[100☭] Coxy_99,0.0078125,0,2.29523669090102e-05,9.05000019073486,2.05000019073486,0.0078125,0,NaN,NaN,0,0.0171320104161963,NaN,0.999812548946703,-0.00364637260296606,-0.01907800127407,3.0517578125e-06,8.875018437047,8.87502148880482,,,84.6700000762939,7,0.126730027943474,0.206177688066435
2011-06-01T04:32:26Z,1306902746,109,56.3838282,27.2326934,9.05,-0.3,-1.1,265.4,14748.05,117425.72,265.7,Air+FixedWing,Red,Allies,Su-33,Red Su-33 #001,xu,[100☭] Coxy_99,0.0078125,0,2.29523669090102e-05,9.05000019073486,2.05000019073486,0.0078125,0,NaN,NaN,0,0.0171320104161963,NaN,0.999791323659185,-0.00682394755786821,-0.0193168857262523,3.0517578125e-06,8.875018437047,8.87502148880482,,,85.6700000762939,7,0.126730027943474,0.206177688066435
2011-06-01T04:32:27Z,1306902747,109,56.3838282,27.2326934,9.05,-0.3,-1.1,265.4,14748.05,117425.73,265.7,Air+FixedWing,Red,Allies,Su-33,Red Su-33 #001,xu,[100☭] Coxy_99,0.0078125,0,2.29523669090102e-05,9.05000019073486,2.05000019073486,0.0078125,0,NaN,NaN,0,0.0171320104161963,NaN,0.999812548946703,-0.00364637260296606,-0.01907800127407,3.0517578125e-06,8.875018437047,8.87502148880482,,,86.6700000762939,7,0.126730027943474,0.206177688066435
2011-06-01T04:32:28Z,1306902748,109,56.3838282,27.2326934,9.05,-0.3,-1.1,265.4,14748.05,117425.72,265.7,Air+FixedWing,Red,Allies,Su-33,Red Su-33 #001,xu,[100☭] Coxy_99,0.0078125,0,2.29523669090102e-05,9.05000019073486,2.05000019073486,0.0078125,0,NaN,NaN,0,0.0171320104161963,NaN,0.999791323659185,-0.00682394755786821,-0.0193168857262523,3.0517578125e-06,8.875018437047,8.87502148880482,,,87.6700000762939,7,0.126730027943474,0.206177688066435
2011-06-01T04:32:29Z,1306902749,109,56.3838282,27.2326934,9.05,-0.3,-1.1,265.4,14748.05,117425.73,265.7,Air+FixedWing,Red,Allies,Su-33,Red Su-33 #001,xu,[100☭] Coxy_99,0.0078125,0,2.29523669090102e-05,9.05000019073486,2.05000019073486,0.0078125,0,NaN,NaN,0,0.0171320104161963,NaN,0.999807242624824,-0.0044407663416916,-0.0191377223871156,3.0517578125e-06,8.875018437047,8.87502148880482,,,88.6700000762939,7,0.126730027943474,0.206177688066435
2011-06-01T04:32:30Z,1306902750,109,56.3838282,27.2326934,9.05,-0.3,-1.1,265.4,14748.05,117425.73,265.7,Air+FixedWing,Red,Allies,Su-33,Red Su-33 #001,xu,[100☭] Coxy_99,0,0,0,9.05000019073486,2.05000019073486,0,0,NaN,NaN,0,0.0171320104161963,NaN,0.999801936302944,-0.00523516008041713,-0.0191974435001612,0,8.875018437047,8.875018437047,,,89.6700000762939,7,0.126730027943474,0.206177688066435
2011-06-01T04:32:31Z,1306902751,109,56.3838282,27.2326934,9.05,-0.3,-1.1,265.4,14748.05,117425.73,265.7,Air+FixedWing,Red,Allies,Su-33,Red Su-33 #001,xu,[100☭] Coxy_99,0,0,0,9.05000019073486,2.05000019073486,0,0,NaN,NaN,0,0.0171320104161963,NaN,0.999807242624824,-0.0044407663416916,-0.0191377223871156,0,8.875018437047,8.875018437047,,,90.6700000762939,7,0.126730027943474,0.206177688066435
2011-06-01T04:32:32Z,1306902752,109,56.3838282,27.2326934,9.05,-0.3,-1.1,265.4,14748.05,117425.72,265.7,Air+FixedWing,Red,Allies,Su-33,Red Su-33 #001,xu,[100☭] Coxy_99,0.0078125,0,2.29523669090102e-05,9.05000019073486,2.05000019073486,0.0078125,0,NaN,NaN,0,0.0171320104161963,NaN,0.999796629981065,-0.00602955381914267,-0.0192571646132067,3.0517578125e-06,8.875018437047,8.87502148880482,,,91.6700000762939,7,0.126730027943474,0.206177688066435
2011-06-01T04:32:33Z,1306902753,109,56.3838282,27.2326934,9.05,-0.3,-1.1,265.4,14748.05,117425.72,265.7,Air+FixedWing,Red,Allies,Su-33,Red Su-33 #001,xu,[100☭] Coxy_99,0,0,0,9.05000019073486,2.05000019073486,0,0,NaN,NaN,0,0.0171320104161963,NaN,0.999796629981065,-0.00602955381914267,-0.0192571646132067,0,8.875018437047,8.875018437047,,,92.6700000762939,7,0.126730027943474,0.206177688066435
2011-06-01T04:32:34Z,1306902754,109,56.3838282,27.2326934,9.05,-0.3,-1.1,265.4,14748.05,117425.73,265.7,Air+FixedWing,Red,Allies,Su-33,Red Su-33 #001,xu,[100☭] Coxy_99,0.0078125,0,2.29523669090102e-05,9.05000019073486,2.05000019073486,0.0078125,0,NaN,NaN,0,0.0171320104161963,NaN,0.999812548946703,-0.00364637260296606,-0.01907800127407,3.0517578125e-06,8.875018437047,8.87502148880482,,,93.6700000762939,7,0.126730027943474,0.206177688066435
2011-06-01T04:32:35Z,1306902755,109,56.3838282,27.2326934,9.05,-0.3,-1.1,265.4,14748.05,117425.72,265.7,Air+FixedWing,Red,Allies,Su-33,Red Su-33 #001,xu,[100☭] Coxy_99,0.0078125,0,2.29523669090102e-05,9.05000019073486,2.05000019073486,0.0078125,0,NaN,NaN,0,0.0171320104161963,NaN,0.999796629981065,-0.00602955381914267,-0.0192571646132067,3.0517578125e-06,8.875018437047,8.87502148880482,,,94.6700000762939,7,0.126730027943474,0.206177688066435
2011-06-01T04:32:36Z,1306902756,109,56.3838282,27.2326934,9.05,-0.3,-1.1,265.4,14748.05,117425.72,265.7,Air+FixedWing,Red,Allies,Su-33,Red Su-33 #001,xu,[100☭] Coxy_99,0,0,0,9.05000019073486,2.05000019073486,0,0,NaN,NaN,0,0.0171320104161963,NaN,0.999796629981065,-0.00602955381914267,-0.0192571646132067,0,8.875018437047,8.875018437047,,,95.6700000762939,7,0.126730027943474,0.206177688066435
2011-06-01T04:32:37Z,1306902757,109,56.3838282,27.2326934,9.05,-0.3,-1.1,265.4,14748.05,117425.73,265.7,Air+FixedWing,Red,Allies,Su-33,Red Su-33 #001,xu,[100☭] Coxy_99,0.0078125,0,2.29523669090102e-05,9.05000019073486,2.05000019073486,0.0078125,0,NaN,NaN,0,0.0171320104161963,NaN,0.999812548946703,-0.00364637260296606,-0.01907800127407,3.0517578125e-06,8.875018437047,8.87502148880482,,,96.6700000762939,7,0.126730027943474,0.206177688066435
2011-06-01T04:32:38Z,1306902758,109,56.3838282,27.2326934,9.05,-0.3,-1.1,265.4,14748.05,117425.72,265.7,Air+FixedWing,Red,Allies,Su-33,Red Su-33 #001,xu,[100☭] Coxy_99,0.0078125,0,2.29523669090102e-05,9.05000019073486,2.05000019073486,0.0078125,0,NaN,NaN,0,0.0171320104161963,NaN,0.999791323659185,-0.00682394755786821,-0.0193168857262523,3.0517578125e-06,8.875018437047,8.87502148880482,,,97.6700000762939,7,0.126730027943474,0.206177688066435
2011-06-01T04:32:39Z,1306902759,109,56.3838282,27.2326934,9.05,-0.3,-1.1,265.4,14748.05,117425.73,265.7,Air+FixedWing,Red,Allies,Su-33,Red Su-33 #001,xu,[100☭] Coxy_99,0.0078125,0,2.29523669090102e-05,9.05000019073486,2.05000019073486,0.0078125,0,NaN,NaN,0,0.0171320104161963,NaN,0.999812548946703,-0.00364637260296606,-0.01907800127407,3.0517578125e-06,8.875018437047,8.87502148880482,,,98.6700000762939,7,0.126730027943474,0.206177688066435
2011-06-01T04:32:40Z,1306902760,109,56.3838282,27.2326934,9.05,-0.3,-1.1,265.4,14748.05,117425.72,265.7,Air+FixedWing,Red,Allies,Su-33,Red Su-33 #001,xu,[100☭] Coxy_99,0.0078125,0,2.29523669090102e-05,9.05000019073486,2.05000019073486,0.0078125,0,NaN,NaN,0,0.0171320104161963,NaN,0.999791323659185,-0.00682394755786821,-0.0193168857262523,3.0517578125e-06,8.875018437047,8.87502148880482,,,99.6700000762939,7,0.126730027943474,0.206177688066435
2011-06-01T04:32:41Z,1306902761,109,56.3838282,27.2326934,9.05,-0.3,-1.1,265.4,14748.05,117425.73,265.7,Air+FixedWing,Red,Allies,Su-33,Red Su-33 #001,xu,[100☭] Coxy_99,0.0078125,0,2.29523669090102e-05,9.05000019073486,2.05000019073486,0.0078125,0,NaN,NaN,0,0.0171320104161963,NaN,0.999812548946703,-0.00364637260296606,-0.01907800127407,3.0517578125e-06,8.875018437047,8.87502148880482,,,100.670000076294,7,0.126730027943474,0.206177688066435
2011-06-01T04:32:42Z,1306902762,109,56.3838282,27.2326934,9.05,-0.3,-1.1,265.4,14748.05,117425.72,265.7,Air+FixedWing,Red,Allies,Su-33,Red Su-33 #001,xu,[100☭] Coxy_99,0.0078125,0,2.29523669090102e-05,9.05000019073486,2.05000019073486,0.0078125,0,NaN,NaN,0,0.0171320104161963,NaN,0.999791323659185,-0.00682394755786821,-0.0193168857262523,3.0517578125e-06,8.875018437047,8.87502148880482,,,101.670000076294,7,0.126730027943474,0.206177688066435
2011-06-01T04:32:43Z,1306902763,109,56.3838282,27.2326934,9.05,-0.3,-1.1,265.4,14748.05,117425.73,265.7,Air+FixedWing,Red,Allies,Su-33,Red Su-33 #001,xu,[100☭] Coxy_99,0.0078125,0,2.29523669090102e-05,9.05000019073486,2.05000019073486,0.0078125,0,NaN,NaN,0,0.0171320104161963,NaN,0.999807242624824,-0.0044407663416916,-0.0191377223871156,3.0517578125e-06,8.875018437047,8.87502148880482,,,102.670000076294,7,0.126730027943474,0.206177688066435
2011-06-01T04:32:44Z,1306902764,109,56.3838282,27.2326934,9.05,-0.3,-1.1,265.4,14748.05,117425.73,265.7,Air+FixedWing,Red,Allies,Su-33,Red Su-33 #001,xu,[100☭] Coxy_99,0,0,0,9.05000019073486,2.05000019073486,0,0,NaN,NaN,0,0.0171320104161963,NaN,0.999801936302944,-0.00523516008041713,-0.0191974435001612,0,8.875018437047,8.875018437047,,,103.670000076294,7,0.126730027943474,0.206177688066435
2011-06-01T04:32:45Z,1306902765,109,56.3838282,27.2326934,9.05,-0.3,-1.1,265.4,14748.05,117425.73,265.7,Air+FixedWing,Red,Allies,Su-33,Red Su-33 #001,xu,[100☭] Coxy_99,0,0,0,9.05000019073486,2.05000019073486,0,0,NaN,NaN,0,0.0171320104161963,NaN,0.999807242624824,-0.0044407663416916,-0.0191377223871156,0,8.875018437047,8.875018437047,,,104.670000076294,7,0.126730027943474,0.206177688066435
2011-06-01T04:32:46Z,1306902766,109,56.3838282,27.2326934,9.05,-0.3,-1.1,265.4,14748.05,117425.72,265.7,Air+FixedWing,Red,Allies,Su-33,Red Su-33 #001,xu,[100☭] Coxy_99,0.0078125,0,2.29523669090102e-05,9.05000019073486,2.05000019073486,0.0078125,0,NaN,NaN,0,0.0171320104161963,NaN,0.999791323659185,-0.00682394755786821,-0.0193168857262523,3.0517578125e-06,8.875018437047,8.87502148880482,,,105.670000076294,7,0.126730027943474,0.206177688066435
2011-06-01T04:32:47Z,1306902767,109,56.3838282,27.2326934,9.05,-0.3,-1.1,265.4,14748.05,117425.73,265.7,Air+FixedWing,Red,Allies,Su-33,Red Su-33 #001,xu,[100☭] Coxy_99,0.0078125,0,2.29523669090102e-05,9.05000019073486,2.05000019073486,0.0078125,0,NaN,NaN,0,0.0171320104161963,NaN,0.999812548946703,-0.00364637260296606,-0.01907800127407,3.0517578125e-06,8.875018437047,8.87502148880482,,,106.670000076294,7,0.126730027943474,0.206177688066435
2011-06-01T04:32:48Z,1306902768,109,56.3838282,27.2326934,9.05,-0.3,-1.1,265.4,14748.05,117425.72,265.7,Air+FixedWing,Red,Allies,Su-33,Red Su-33 #001,xu,[100☭] Coxy_99,0.0078125,0,2.29523669090102e-05,9.05000019073486,2.05000019073486,0.0078125,0,NaN,NaN,0,0.0171320104161963,NaN,0.999796629981065,-0.00602955381914267,-0.0192571646132067,3.0517578125e-06,8.875018437047,8.87502148880482,,,107.670000076294,7,0.126730027943474,0.206177688066435
2011-06-01T04:32:49Z,1306902769,109,56.3838282,27.2326934,9.05,-0.3,-1.1,265.4,14748.05,117425.72,265.7,Air+FixedWing,Red,Allies,Su-33,Red Su-33 #001,xu,[100☭] Coxy_99,0,0,0,9.05000019073486,2.05000019073486,0,0,NaN,NaN,0,0.0171320104161963,NaN,0.999801936302944,-0.00523516008041713,-0.0191974435001612,0,8.875018437047,8.875018437047,,,108.670000076294,7,0.126730027943474,0.206177688066435
2011-06-01T04:32:50Z,1306902770,109,56.3838282,27.2326934,9.05,-0.3,-1.1,265.4,14748.05,117425.72,265.7,Air+FixedWing,Red,Allies,Su-33,Red Su-33 #001,xu,[100☭] Coxy_99,0,0,0,9.05000019073486,2.05000019073486,0,0,NaN,NaN,0,0.0171320104161963,NaN,0.999796629981065,-0.00602955381914267,-0.0192571646132067,0,8.875018437047,8.875018437047,,,109.670000076294,7,0.126730027943474,0.206177688066435
2011-06-01T04:32:51Z,1306902771,109,56.3838282,27.2326934,9.05,-0.3,-1.1,265.4,14748.05,117425.73,265.7,Air+FixedWing,Red,Allies,Su-33,Red Su-33 #001,xu,[100☭] Coxy_99,0.0078125,0,2.29523669090102e-05,9.05000019073486,2.05000019073486,0.0078125,0,NaN,NaN,0,0.0171320104161963,NaN,0.999812548946703,-0.00364637260296606,-0.01907800127407,3.0517578125e-06,8.875018437047,8.87502148880482,,,110.670000076294,7,0.126730027943474,0.206177688066435
2011-06-01T04:32:52Z,1306902772,109,56.3838282,27.2326934,9.05,-0.3,-1.1,265.4,14748.05,117425.72,265.7,Air+FixedWing,Red,Allies,Su-33,Red Su-33 #001,xu,[100☭] Coxy_99,0.0078125,0,2.29523669090102e-05,9.05000019073486,2.05000019073486,0.0078125,0,NaN,NaN,0,0.0171320104161963,NaN,0.999791323659185,-0.00682394755786821,-0.0193168857262523,3.0517578125e-06,8.875018437047,8.87502148880482,,,111.670000076294,7,0.126730027943474,0.206177688066435
2011-06-01T04:32:53Z,1306902773,109,56.3838282,27.2326934,9.05,-0.3,-1.1,265.4,14748.05,117425.73,265.7,Air+FixedWing,Red,Allies,Su-33,Red Su-33 #001,xu,[100☭] Coxy_99,0.0078125,0,2.29523669090102e-05,9.05000019073486,2.05000019073486,0.0078125,0,NaN,NaN,0,0.0171320104161963,NaN,0.999812548946703,-0.00364637260296606,-0.01907800127407,3.0517578125e-06,8.875018437047,8.87502148880482,,,112.670000076294,7,0.126730027943474,0.206177688066435
2011-06-01T04:32:54Z,1306902774,109,56.3838282,27.2326934,9.05,-0.3,-1.1,265.4,14748.05,117425.72,265.7,Air+FixedWing,Red,Allies,Su-33,Red Su-33 #001,xu,[100☭] Coxy_99,0.0078125,0,2.29523669090102e-05,9.05000019073486,2.05000019073486,0.0078125,0,NaN,NaN,0,0.0171320104161963,NaN,0.999791323659185,-0.00682394755786821,-0.0193168857262523,3.0517578125e-06,8.875018437047,8.87502148880482,,,113.670000076294,7,0.126730027943474,0.206177688066435
2011-06-01T04:32:55Z,1306902775,109,56.3838282,27.2326934,9.05,-0.3,-1.1,265.4,14748.05,117425.73,265.7,Air+FixedWing,Red,Allies,Su-33,Red Su-33 #001,xu,[100☭] Coxy_99,0.0078125,0,2.29523669090102e-05,9.05000019073486,2.05000019073486,0.0078125,0,NaN,NaN,0,0.0171320104161963,NaN,0.999812548946703,-0.00364637260296606,-0.01907800127407,3.0517578125e-06,8.875018437047,8.87502148880482,,,114.670000076294,7,0.126730027943474,0.206177688066435
2011-06-01T04:32:56Z,1306902776,109,56.3838282,27.2326934,9.05,-0.3,-1.1,265.4,14748.05,117425.72,265.7,Air+FixedWing,Red,Allies,Su-33,Red Su-33 #001,xu,[100☭] Coxy_99,0.0078125,0,2.29523669090102e-05,9.05000019073486,2.05000019073486,0.0078125,0,NaN,NaN,0,0.0171320104161963,NaN,0.999796629981065,-0.00602955381914267,-0.0192571646132067,3.0517578125e-06,8.875018437047,8.87502148880482,,,115.670000076294,7,0.126730027943474,0.206177688066435
2011-06-01T04:32:57Z,1306902777,109,56.3838282,27.2326934,9.05,-0.3,-1.1,265.4,14748.05,117425.72,265.7,Air+FixedWing,Red,Allies,Su-33,Red Su-33 #001,xu,[100☭] Coxy_99,0,0,0,9.05000019073486,2.05000019073486,0,0,NaN,NaN,0,0.0171320104161963,NaN,0.999796629981065,-0.00602955381914267,-0.0192571646132067,0,8.875018437047,8.875018437047,,,116.670000076294,7,0.126730027943474,0.206177688066435
2011-06-01T04:32:58Z,1306902778,109,56.3838282,27.2326934,9.05,-0.3,-1.1,265.4,14748.05,117425.73,265.7,Air+FixedWing,Red,Allies,Su-33,Red Su-33 #001,xu,[100☭] Coxy_99,0.0078125,0,2.29523669090102e-05,9.05000019073486,2.05000019073486,0.0078125,0,NaN,NaN,0,0.0171320104161963,NaN,0.999807242624824,-0.0044407663416916,-0.0191377223871156,3.0517578125e-06,8.875018437047,8.87502148880482,,,117.670000076294,7,0.126730027943474,0.206177688066435
2011-06-01T04:32:59Z,1306902779,109,56.3838282,27.2326934,9.05,-0.3,-1.1,265.4,14748.05,117425.73,265.7,Air+FixedWing,Red,Allies,Su-33,Red Su-33 #001,xu,[100☭] Coxy_99,0,0,0,9.05000019073486,2.05000019073486,0,0,NaN,NaN,0,0.0171320104161963,NaN,0.999801936302944,-0.00523516008041713,-0.0191974435001612,0,8.875018437047,8.875018437047,,,118.670000076294,7,0.126730027943474,0.206177688066435
2011-06-01T04:33:00Z,1306902780,109,56.3838282,27.2326934,9.05,-0.3,-1.1,265.4,14748.05,117425.73,265.7,Air+FixedWing,Red,Allies,Su-33,Red Su-33 #001,xu,[100☭] Coxy_99,0,0,0,9.05000019073486,2.05000019073486,0,0,NaN,NaN,0,0.0171320104161963,NaN,0.999807242624824,-0.0044407663416916,-0.0191377223871156,0,8.875018437047,8.875018437047,,,119.670000076294,7,0.126730027943474,0.206177688066435
2011-06-01T04:33:01Z,1306902781,109,56.3838282,27.2326934,9.05,-0.3,-1.1,265.4,14748.05,117425.72,265.7,Air+FixedWing,Red,Allies,Su-33,Red Su-33 #001,xu,[100☭] Coxy_99,0.0078125,0,2.29523669090102e-05,9.05000019073486,2.05000019073486,0.0078125,0,NaN,NaN,0,0.0171320104161963,NaN,0.999796629981065,-0.00602955381914267,-0.0192571646132067,3.0517578125e-06,8.875018437047,8.87502148880482,,,120.670000076294,7,0.126730027943474,0.206177688066435
2011-06-01T04:33:02Z,1306902782,109,56.3838282,27.2326934,9.05,-0.3,-1.1,265.4,14748.05,117425.72,265.7,Air+FixedWing,Red,Allies,Su-33,Red Su-33 #001,xu,[100☭] Coxy_99,0,0,0,9.05000019073486,2.05000019073486,0,0,NaN,NaN,0,0.0171320104161963,NaN,0.999796629981065,-0.00602955381914267,-0.0192571646132067,0,8.875018437047,8.875018437047,,,121.670000076294,7,0.126730027943474,0.206177688066435
2011-06-01T04:33:03Z,1306902783,109,56.3838282,27.2326934,9.05,-0.3,-1.1,265.4,14748.05,117425.73,265.7,Air+FixedWing,Red,Allies,Su-33,Red Su-33 #001,xu,[100☭] Coxy_99,0.0078125,0,2.29523669090102e-05,9.05000019073486,2.05000019073486,0.0078125,0,NaN,NaN,0,0.0171320104161963,NaN,0.999807242624824,-0.0044407663416916,-0.0191377223871156,3.0517578125e-06,8.875018437047,8.87502148880482,,,122.670000076294,7,0.126730027943474,0.206177688066435
2011-06-01T04:33:04Z,1306902784,109,56.3838282,27.2326934,9.05,-0.3,-1.1,265.4,14748.05,117425.73,265.7,Air+FixedWing,Red,Allies,Su-33,Red Su-33 #001,xu,[100☭] Coxy_99,0,0,0,9.05000019073486,2.05000019073486,0,0,NaN,NaN,0,0.0171320104161963,NaN,0.999807242624824,-0.0044407663416916,-0.0191377223871156,0,8.875018437047,8.875018437047,,,123.670000076294,7,0.126730027943474,0.206177688066435
2011-06-01T04:33:05Z,1306902785,109,56.3838282,27.2326934,9.05,-0.3,-1.1,265.4,14748.05,117425.72,265.7,Air+FixedWing,Red,Allies,Su-33,Red Su-33 #001,xu,[100☭] Coxy_99,0.0078125,0,2.29523669090102e-05,9.05000019073486,2.05000019073486,0.0078125,0,NaN,NaN,0,0.0171320104161963,NaN,0.999791323659185,-0.00682394755786821,-0.0193168857262523,3.0517578125e-06,8.875018437047,8.87502148880482,,,124.670000076294,7,0.126730027943474,0.206177688066435
2011-06-01T04:33:06Z,1306902786,109,56.3838282,27.2326934,9.05,-0.3,-1.1,265.4,14748.05,117425.73,265.7,Air+FixedWing,Red,Allies,Su-33,Red Su-33 #001,xu,[100☭] Coxy_99,0.0078125,0,2.29523669090102e-05,9.05000019073486,2.05000019073486,0.0078125,0,NaN,NaN,0,0.0171320104161963,NaN,0.999807242624824,-0.0044407663416916,-0.0191377223871156,3.0517578125e-06,8.875018437047,8.87502148880482,,,125.670000076294,7,0.126730027943474,0.206177688066435
2011-06-01T04:33:07Z,1306902787,109,56.3838282,27.2326934,9.05,-0.3,-1.1,265.4,14748.05,117425.73,265.7,Air+FixedWing,Red,Allies,Su-33,Red Su-33 #001,xu,[100☭] Coxy_99,0,0,0,9.05000019073486,2.05000019073486,0,0,NaN,NaN,0,0.0171320104161963,NaN,0.999807242624824,-0.0044407663416916,-0.0191377223871156,0,8.875018437047,8.875018437047,,,126.670000076294,7,0.126730027943474,0.206177688066435
2011-06-01T04:33:08Z,1306902788,109,56.3838282,27.2326934,9.05,-0.3,-1.1,265.4,14748.05,117425.72,265.7,Air+FixedWing,Red,Allies,Su-33,Red Su-33 #001,xu,[100☭] Coxy_99,0.0078125,0,2.29523669090102e-05,9.05000019073486,2.05000019073486,0.0078125,0,NaN,NaN,0,0.0171320104161963,NaN,0.999796629981065,-0.00602955381914267,-0.0192571646132067,3.0517578125e-06,8.875018437047,8.87502148880482,,,127.670000076294,7,0.126730027943474,0.206177688066435
2011-06-01T04:33:09Z,1306902789,109,56.3838282,27.2326934,9.05,-0.3,-1.1,265.4,14748.05,117425.72,265.7,Air+FixedWing,Red,Allies,Su-33,Red Su-33 #001,xu,[100☭] Coxy_99,0,0,0,9.05000019073486,2.05000019073486,0,0,NaN,NaN,0,0.0171320104161963,NaN,0.999801936302944,-0.00523516008041713,-0.0191974435001612,0,8.875018437047,8.875018437047,,,128.670000076294,7,0.126730027943474,0.206177688066435
2011-06-01T04:33:10Z,1306902790,109,56.3838282,27.2326934,9.05,-0.3,-1.1,265.4,14748.05,117425.72,265.7,Air+FixedWing,Red,Allies,Su-33,Red Su-33 #001,xu,[100☭] Coxy_99,0,0,0,9.05000019073486,2.05000019073486,0,0,NaN,NaN,0,0.0171320104161963,NaN,0.999801936302944,-0.00523516008041713,-0.0191974435001612,0,8.875018437047,8.875018437047,,,129.670000076294,7,0.126730027943474,0.206177688066435
2011-06-01T04:33:11Z,1306902791,109,56.3838282,27.2326934,9.05,-0.3,-1.1,265.4,14748.05,117425.72,265.7,Air+FixedWing,Red,Allies,Su-33,Red Su-33 #001,xu,[100☭] Coxy_99,0,0,0,9.05000019073486,2.05000019073486,0,0,NaN,NaN,0,0.0171320104161963,NaN,0.999796629981065,-0.00602955381914267,-0.0192571646132067,0,8.875018437047,8.875018437047,,,130.670000076294,7,0.126730027943474,0.206177688066435
2011-06-01T04:33:12Z,1306902792,109,56.3838282,27.2326934,9.05,-0.3,-1.1,265.4,14748.05,117425.73,265.7,Air+FixedWing,Red,Allies,Su-33,Red Su-33 #001,xu,[100☭] Coxy_99,0.0078125,0,2.29523669090102e-05,9.05000019073486,2.05000019073486,0.0078125,0,NaN,NaN,0,0.0171320104161963,NaN,0.999812548946703,-0.00364637260296606,-0.01907800127407,3.0517578125e-06,8.875018437047,8.87502148880482,,,131.670000076294,7,0.126730027943474,0.206177688066435
2011-06-01T04:33:13Z,1306902793,109,56.3838282,27.2326934,9.05,-0.3,-1.1,265.4,14748.05,117425.72,265.7,Air+FixedWing,Red,Allies,Su-33,Red Su-33 #001,xu,[100☭] Coxy_99,0.0078125,0,2.29523669090102e-05,9.05000019073486,2.05000019073486,0.0078125,0,NaN,NaN,0,0.0171320104161963,NaN,0.999796629981065,-0.00602955381914267,-0.0192571646132067,3.0517578125e-06,8.875018437047,8.87502148880482,,,132.670000076294,7,0.126730027943474,0.206177688066435
2011-06-01T04:33:14Z,1306902794,109,56.3838282,27.2326934,9.05,-0.3,-1.1,265.4,14748.05,117425.72,265.7,Air+FixedWing,Red,Allies,Su-33,Red Su-33 #001,xu,[100☭] Coxy_99,0,0,0,9.05000019073486,2.05000019073486,0,0,NaN,NaN,0,0.0171320104161963,NaN,0.999796629981065,-0.00602955381914267,-0.0192571646132067,0,8.875018437047,8.875018437047,,,133.670000076294,7,0.126730027943474,0.206177688066435
2011-06-01T04:33:15Z,1306902795,109,56.3838282,27.2326934,9.05,-0.3,-1.1,265.4,14748.05,117425.73,265.7,Air+FixedWing,Red,Allies,Su-33,Red Su-33 #001,xu,[100☭] Coxy_99,0.0078125,0,2.29523669090102e-05,9.05000019073486,2.05000019073486,0.0078125,0,NaN,NaN,0,0.0171320104161963,NaN,0.999807242624824,-0.0044407663416916,-0.0191377223871156,3.0517578125e-06,8.875018437047,8.87502148880482,,,134.670000076294,7,0.126730027943474,0.206177688066435
2011-06-01T04:33:16Z,1306902796,109,56.3838282,27.2326934,9.05,-0.3,-1.1,265.4,14748.05,117425.73,265.7,Air+FixedWing,Red,Allies,Su-33,Red Su-33 #001,xu,[100☭] Coxy_99,0,0,0,9.05000019073486,2.05000019073486,0,0,NaN,NaN,0,0.0171320104161963,NaN,0.999801936302944,-0.00523516008041713,-0.0191974435001612,0,8.875018437047,8.875018437047,,,135.670000076294,7,0.126730027943474,0.206177688066435
2011-06-01T04:33:17Z,1306902797,109,56.3838282,27.2326934,9.05,-0.3,-1.1,265.4,14748.05,117425.73,265.7,Air+FixedWing,Red,Allies,Su-33,Red Su-33 #001,xu,[100☭] Coxy_99,0,0,0,9.05000019073486,2.05000019073486,0,0,NaN,NaN,0,0.0171320104161963,NaN,0.999807242624824,-0.0044407663416916,-0.0191377223871156,0,8.875018437047,8.875018437047,,,136.670000076294,7,0.126730027943474,0.206177688066435
2011-06-01T04:33:18Z,1306902798,109,56.3838282,27.2326934,9.05,-0.3,-1.1,265.4,14748.05,117425.72,265.7,Air+FixedWing,Red,Allies,Su-33,Red Su-33 #001,xu,[100☭] Coxy_99,0.0078125,0,2.29523669090102e-05,9.05000019073486,2.05000019073486,0.0078125,0,NaN,NaN,0,0.0171320104161963,NaN,0.999791323659185,-0.00682394755786821,-0.0193168857262523,3.0517578125e-06,8.875018437047,8.87502148880482,,,137.670000076294,7,0.126730027943474,0.206177688066435
2011-06-01T04:33:19Z,1306902799,109,56.3838282,27.2326934,9.05,-0.3,-1.1,265.4,14748.05,117425.73,265.7,Air+FixedWing,Red,Allies,Su-33,Red Su-33 #001,xu,[100☭] Coxy_99,0.0078125,0,2.29523669090102e-05,9.05000019073486,2.05000019073486,0.0078125,0,NaN,NaN,0,0.0171320104161963,NaN,0.999812548946703,-0.00364637260296606,-0.01907800127407,3.0517578125e-06,8.875018437047,8.87502148880482,,,138.670000076294,7,0.126730027943474,0.206177688066435
2011-06-01T04:33:20Z,1306902800,109,56.3838282,27.2326934,9.05,-0.3,-1.1,265.4,14748.05,117425.72,265.7,Air+FixedWing,Red,Allies,Su-33,Red Su-33 #001,xu,[100☭] Coxy_99,0.0078125,0,2.29523669090102e-05,9.05000019073486,2.05000019073486,0.0078125,0,NaN,NaN,0,0.0171320104161963,NaN,0.999791323659185,-0.00682394755786821,-0.0193168857262523,3.0517578125e-06,8.875018437047,8.87502148880482,,,139.670000076294,7,0.126730027943474,0.206177688066435
2011-06-01T04:33:21Z,1306902801,109,56.3838282,27.2326934,9.05,-0.3,-1.1,265.4,14748.05,117425.73,265.7,Air+FixedWing,Red,Allies,Su-33,Red Su-33 #001,xu,[100☭] Coxy_99,0.0078125,0,2.29523669090102e-05,9.05000019073486,2.05000019073486,0.0078125,0,NaN,NaN,0,0.0171320104161963,NaN,0.999812548946703,-0.00364637260296606,-0.01907800127407,3.0517578125e-06,8.875018437047,8.87502148880482,,,140.670000076294,7,0.126730027943474,0.206177688066435
