ISOTime,UnixTime,Id,Longitude,Latitude,Altitude,Roll,Pitch,Yaw,U,V,Heading,Type,Color,Coalition,Name,Group,Country,Pilot,TAS,CAS,M,ASL,AGL,GS,VS,AOA,AOS,RRT,TRT,TRD,G,LatG,LonG,Ek,Ep,Em,FFW,FFV,RelativeTime,Elev,GroundDistance,AirDistance
2011-06-01T04:31:37Z,1306902697,10C,56.3833115,27.2331651,9.47,-0.2,-0.1,144.1,14697.14,117478.23,144.3,Air+FixedWing,Red,Allies,J-11A,Red J-11A #005,xu,[51☭] Yambo (P),0.263732339466734,0.262722313404083,0.000774823691408843,9.4704761505127,2.44910764694214,NaN,NaN,NaN,NaN,0.676188727831262,NaN,NaN,NaN,NaN,NaN,NaN,9.28736449414253,NaN,,,0.680000066757202,7.02136850357056,NaN,NaN
2011-06-01T04:31:38Z,1306902698,10C,56.3833118,27.2331647,9.51,-0.3,-0.4,144,14697.17,117478.19,144.3,Air+FixedWing,Red,Allies,J-11A,Red J-11A #005,xu,[51☭] Yambo (P),0.06423848540981,0,0.000188727414522317,9.51000022888184,2.48893880844116,0.0506402037596257,0.0395240783691406,NaN,NaN,0,0.219842791887098,NaN,0.997937369475737,-0.00649943987936846,-0.0108257445837142,0.000206329150387319,9.32612437445641,9.32633070360679,,,1.6800000667572,7.02106142044067,0.0592464701731604,0.0712201335999915
2011-06-01T04:31:39Z,1306902699,10C,56.3833118,27.2331646,9.53,-0.2,-0.5,144,14697.17,117478.17,144.3,Air+FixedWing,Red,Allies,J-11A,Red J-11A #005,xu,[51☭] Yambo (P),0.02537953484247,0,7.45630137603236e-05,9.52999973297119,2.50894069671631,0.015625,0.0199995040893555,NaN,NaN,0,0.26906991290651,NaN,0.998947401192684,-0.00267809667079007,-0.00772144288858193,3.22060394410073e-05,9.34573718813419,9.34576939417363,,,2.6800000667572,7.02105903625488,0.0677279586247159,0.0929437620720514
2011-06-01T04:31:40Z,1306902700,10C,56.3833119,27.2331646,9.54,-0.2,-0.6,144,14697.18,117478.16,144.3,Air+FixedWing,Red,Allies,J-11A,Red J-11A #005,xu,[51☭] Yambo (P),0.0209645566213486,0,6.15921729696438e-05,9.53999996185303,2.51903963088989,0.0184257443985481,0.0100002288818359,NaN,NaN,0,0.0998959722426529,NaN,0.99888680546745,-0.0024357370296631,-0.0138517152583328,2.19756317164865e-05,9.3555440625906,9.35556603822232,,,3.6800000667572,7.02096033096313,0.0779746729127605,0.107261583377885
2011-06-01T04:31:41Z,1306902701,10C,56.3833118,27.2331646,9.54,-0.2,-0.7,144,14697.18,117478.17,144.3,Air+FixedWing,Red,Allies,J-11A,Red J-11A #005,xu,[51☭] Yambo (P),0.015625,0,4.59049871663242e-05,9.53999996185303,2.51894187927246,0.015625,0,NaN,NaN,0,0.0504352774299245,NaN,0.998907180278846,-0.00482075911354115,-0.0112012703525868,1.220703125e-05,9.3555440625906,9.35555626962185,,,4.6800000667572,7.02105808258057,0.0878726628078747,0.117159587868066
2011-06-01T04:31:42Z,1306902702,10C,56.3833118,27.2331646,9.53,-0.1,-0.7,144,14697.17,117478.17,144.3,Air+FixedWing,Red,Allies,J-11A,Red J-11A #005,xu,[51☭] Yambo (P),0.0111286313443865,0,3.26950157761168e-05,9.52999973297119,2.50894165039062,0.0048828125,-0.0100002288818359,NaN,NaN,0,0,NaN,1.00095903049392,-0.00140309238857087,-0.011001502835924,6.1923217799631e-06,9.34573718813419,9.34574338045597,,,5.6800000667572,7.02105808258057,0.0878726628078747,0.127159816757818
2011-06-01T04:31:43Z,1306902703,10C,56.3833118,27.2331646,9.53,-0.1,-0.7,144,14697.18,117478.16,144.3,Air+FixedWing,Red,Allies,J-11A,Red J-11A #005,xu,[51☭] Yambo (P),0.00921287219927403,0,2.70666708759789e-05,9.52999973297119,2.50894165039062,0.00921287219927403,0,NaN,NaN,0,0,NaN,1.00093917211111,-0.0021512086988269,-0.012519988379792,4.24385070800781e-06,9.34573718813419,9.3457414319849,,,6.6800000667572,7.02105808258057,0.0878726628078747,0.127159816757818
2011-06-01T04:31:44Z,1306902704,10C,56.3833118,27.2331646,9.54,-0.1,-0.7,144,14697.18,117478.16,144.3,Air+FixedWing,Red,Allies,J-11A,Red J-11A #005,xu,[51☭] Yambo (P),0.0126901431804021,0,3.72826150294512e-05,9.53999996185303,2.51894187927246,0.0078125,0.0100002288818359,NaN,NaN,0,0,NaN,0.99889701168024,-0.0012784201996467,-0.0128514446827569,8.05198669695528e-06,9.3555440625906,9.3555521145773,,,7.6800000667572,7.02105808258057,0.0878726628078747,0.137160045647571
2011-06-01T04:31:45Z,1306902705,10C,56.3833118,27.2331646,9.54,-0.1,-0.7,144,14697.18,117478.16,144.3,Air+FixedWing,Red,Allies,J-11A,Red J-11A #005,xu,[51☭] Yambo (P),0,0,0,9.53999996185303,2.51894187927246,0,0,NaN,NaN,0,0,NaN,0.999916673328284,-0.00128019973982358,-0.0128639028429217,0,9.3555440625906,9.3555440625906,,,8.6800000667572,7.02105808258057,0.0878726628078747,0.137160045647571
2011-06-01T04:31:46Z,1306902706,10C,56.3833118,27.2331646,9.54,-0.1,-0.7,144,14697.18,117478.16,144.3,Air+FixedWing,Red,Allies,J-11A,Red J-11A #005,xu,[51☭] Yambo (P),0.0078125,0,2.29524935831621e-05,9.53999996185303,2.51894187927246,0.0078125,0,NaN,NaN,0,0,NaN,0.999930858221861,-0.00220998571293523,-0.011570101136046,3.0517578125e-06,9.3555440625906,9.35554711434841,,,9.6800000667572,7.02105808258057,0.0878726628078747,0.137160045647571
2011-06-01T04:31:47Z,1306902707,10C,56.3833118,27.2331646,9.54,-0.1,-0.7,144,14697.18,117478.16,144.3,Air+FixedWing,Red,Allies,J-11A,Red J-11A #005,xu,[51☭] Yambo (P),0,0,0,9.53999996185303,2.51894187927246,0,0,NaN,NaN,0,0,NaN,0.999923765775072,-0.0017450927263794,-0.0122170019894838,0,9.3555440625906,9.3555440625906,,,10.6800000667572,7.02105808258057,0.0878726628078747,0.137160045647571
2011-06-01T04:31:48Z,1306902708,10C,56.3833118,27.2331646,9.54,-0.1,-0.7,144,14697.18,117478.16,144.3,Air+FixedWing,Red,Allies,J-11A,Red J-11A #005,xu,[51☭] Yambo (P),0,0,0,9.53999996185303,2.51894187927246,0,0,NaN,NaN,0,0,NaN,0.999916673328284,-0.00128019973982358,-0.0128639028429217,0,9.3555440625906,9.3555440625906,,,11.6800000667572,7.02105808258057,0.0878726628078747,0.137160045647571
2011-06-01T04:31:49Z,1306902709,10C,56.3833118,27.2331646,9.54,-0.1,-0.7,144,14697.18,117478.17,144.3,Air+FixedWing,Red,Allies,J-11A,Red J-11A #005,xu,[51☭] Yambo (P),0.0078125,0,2.29524935831621e-05,9.53999996185303,2.51894187927246,0.0078125,0,NaN,NaN,0,0,NaN,0.999930858221861,-0.00220998571293523,-0.011570101136046,3.0517578125e-06,9.3555440625906,9.35554711434841,,,12.6800000667572,7.02105808258057,0.0878726628078747,0.137160045647571
2011-06-01T04:31:50Z,1306902710,10C,56.3833118,27.2331646,9.54,-0.1,-0.7,144,14697.18,117478.17,144.3,Air+FixedWing,Red,Allies,J-11A,Red J-11A #005,xu,[51☭] Yambo (P),0,0,0,9.53999996185303,2.51894187927246,0,0,NaN,NaN,0,0,NaN,0.999923765775072,-0.0017450927263794,-0.0122170019894838,0,9.3555440625906,9.3555440625906,,,13.6800000667572,7.02105808258057,0.0878726628078747,0.137160045647571
2011-06-01T04:31:51Z,1306902711,10C,56.3833118,27.2331646,9.54,-0.1,-0.7,144,14697.18,117478.17,144.3,Air+FixedWing,Red,Allies,J-11A,Red J-11A #005,xu,[51☭] Yambo (P),0,0,0,9.53999996185303,2.51894187927246,0,0,NaN,NaN,0,0,NaN,0.999930858221861,-0.00220998571293523,-0.011570101136046,0,9.3555440625906,9.3555440625906,,,14.6800000667572,7.02105808258057,0.0878726628078747,0.137160045647571
2011-06-01T04:31:52Z,1306902712,10C,56.3833118,27.2331646,9.54,-0.1,-0.7,144,14697.18,117478.16,144.3,Air+FixedWing,Red,Allies,J-11A,Red J-11A #005,xu,[51☭] Yambo (P),0.0078125,0,2.29524935831621e-05,9.53999996185303,2.51894187927246,0.0078125,0,NaN,NaN,0,0,NaN,0.999916673328284,-0.00128019973982358,-0.0128639028429217,3.0517578125e-06,9.3555440625906,9.35554711434841,,,15.6800000667572,7.02105808258057,0.0878726628078747,0.137160045647571
2011-06-01T04:31:53Z,1306902713,10C,56.3833118,27.2331646,9.54,-0.1,-0.7,144,14697.18,117478.16,144.3,Air+FixedWing,Red,Allies,J-11A,Red J-11A #005,xu,[51☭] Yambo (P),0,0,0,9.53999996185303,2.51894187927246,0,0,NaN,NaN,0,0,NaN,0.999930858221861,-0.00220998571293523,-0.011570101136046,0,9.3555440625906,9.3555440625906,,,16.6800000667572,7.02105808258057,0.0878726628078747,0.137160045647571
2011-06-01T04:31:54Z,1306902714,10C,56.3833118,27.2331646,9.54,-0.1,-0.7,144,14697.18,117478.16,144.3,Air+FixedWing,Red,Allies,J-11A,Red J-11A #005,xu,[51☭] Yambo (P),0.0078125,0,2.29524935831621e-05,9.53999996185303,2.51894187927246,0.0078125,0,NaN,NaN,0,0,NaN,0.999916673328284,-0.00128019973982358,-0.0128639028429217,3.0517578125e-06,9.3555440625906,9.35554711434841,,,17.6800000667572,7.02105808258057,0.0878726628078747,0.137160045647571
2011-06-01T04:31:55Z,1306902715,10C,56.3833118,27.2331646,9.54,-0.1,-0.7,144,14697.18,117478.16,144.3,Air+FixedWing,Red,Allies,J-11A,Red J-11A #005,xu,[51☭] Yambo (P),0,0,0,9.53999996185303,2.51894187927246,0,0,NaN,NaN,0,0,NaN,0.999916673328284,-0.00128019973982358,-0.0128639028429217,0,9.3555440625906,9.3555440625906,,,18.6800000667572,7.02105808258057,0.0878726628078747,0.137160045647571
2011-06-01T04:31:56Z,1306902716,10C,56.3833118,27.2331646,9.54,-0.1,-0.7,144,14697.18,117478.16,144.3,Air+FixedWing,Red,Allies,J-11A,Red J-11A #005,xu,[51☭] Yambo (P),0.0078125,0,2.29524935831621e-05,9.53999996185303,2.51894187927246,0.0078125,0,NaN,NaN,0,0,NaN,0.999930858221861,-0.00220998571293523,-0.011570101136046,3.0517578125e-06,9.3555440625906,9.35554711434841,,,19.6800000667572,7.02105808258057,0.0878726628078747,0.137160045647571
2011-06-01T04:31:57Z,1306902717,10C,56.3833118,27.2331646,9.54,-0.1,-0.7,144,14697.18,117478.16,144.3,Air+FixedWing,Red,Allies,J-11A,Red J-11A #005,xu,[51☭] Yambo (P),0,0,0,9.53999996185303,2.51894187927246,0,0,NaN,NaN,0,0,NaN,0.999916673328284,-0.00128019973982358,-0.0128639028429217,0,9.3555440625906,9.3555440625906,,,20.6800000667572,7.02105808258057,0.0878726628078747,0.137160045647571
2011-06-01T04:31:58Z,1306902718,10C,56.3833118,27.2331646,9.54,-0.1,-0.7,144,14697.18,117478.17,144.3,Air+FixedWing,Red,Allies,J-11A,Red J-11A #005,xu,[51☭] Yambo (P),0.0078125,0,2.29524935831621e-05,9.53999996185303,2.51894187927246,0.0078125,0,NaN,NaN,0,0,NaN,0.999937950668649,-0.00267487869949106,-0.0109232002826082,3.0517578125e-06,9.3555440625906,9.35554711434841,,,21.6800000667572,7.02105808258057,0.0878726628078747,0.137160045647571
2011-06-01T04:31:59Z,1306902719,10C,56.3833118,27.2331646,9.54,-0.1,-0.7,144,14697.18,117478.16,144.3,Air+FixedWing,Red,Allies,J-11A,Red J-11A #005,xu,[51☭] Yambo (P),0.0078125,0,2.29524935831621e-05,9.53999996185303,2.51894187927246,0.0078125,0,NaN,NaN,0,0,NaN,0.999923765775072,-0.0017450927263794,-0.0122170019894838,3.0517578125e-06,9.3555440625906,9.35554711434841,,,22.6800000667572,7.02105808258057,0.0878726628078747,0.137160045647571
2011-06-01T04:32:00Z,1306902720,10C,56.3833118,27.2331646,9.54,-0.1,-0.7,144,14697.18,117478.16,144.3,Air+FixedWing,Red,Allies,J-11A,Red J-11A #005,xu,[51☭] Yambo (P),0.0078125,0,2.29524935831621e-05,9.53999996185303,2.51894187927246,0.0078125,0,NaN,NaN,0,0,NaN,0.999909580881496,-0.000815306753267746,-0.0135108036963595,3.0517578125e-06,9.3555440625906,9.35554711434841,,,23.6800000667572,7.02105808258057,0.0878726628078747,0.137160045647571
2011-06-01T04:32:01Z,1306902721,10C,56.3833118,27.2331646,9.54,-0.1,-0.7,144,14697.18,117478.16,144.3,Air+FixedWing,Red,Allies,J-11A,Red J-11A #005,xu,[51☭] Yambo (P),0.0078125,0,2.29524935831621e-05,9.53999996185303,2.51894187927246,0.0078125,0,NaN,NaN,0,0,NaN,0.999930858221861,-0.00220998571293523,-0.011570101136046,3.0517578125e-06,9.3555440625906,9.35554711434841,,,24.6800000667572,7.02105808258057,0.0878726628078747,0.137160045647571
2011-06-01T04:32:02Z,1306902722,10C,56.3833118,27.2331646,9.54,-0.1,-0.7,144,14697.18,117478.16,144.3,Air+FixedWing,Red,Allies,J-11A,Red J-11A #005,xu,[51☭] Yambo (P),0,0,0,9.53999996185303,2.51894187927246,0,0,NaN,NaN,0,0,NaN,0.999923765775072,-0.0017450927263794,-0.0122170019894838,0,9.3555440625906,9.3555440625906,,,25.6800000667572,7.02105808258057,0.0878726628078747,0.137160045647571
2011-06-01T04:32:03Z,1306902723,10C,56.3833118,27.2331646,9.54,-0.1,-0.7,144,14697.18,117478.16,144.3,Air+FixedWing,Red,Allies,J-11A,Red J-11A #005,xu,[51☭] Yambo (P),0,0,0,9.53999996185303,2.51894187927246,0,0,NaN,NaN,0,0,NaN,0.999930858221861,-0.00220998571293523,-0.011570101136046,0,9.3555440625906,9.3555440625906,,,26.6800000667572,7.02105808258057,0.0878726628078747,0.137160045647571
2011-06-01T04:32:04Z,1306902724,10C,56.3833118,27.2331646,9.54,-0.1,-0.7,144,14697.18,117478.16,144.3,Air+FixedWing,Red,Allies,J-11A,Red J-11A #005,xu,[51☭] Yambo (P),0.0078125,0,2.29524935831621e-05,9.53999996185303,2.51894187927246,0.0078125,0,NaN,NaN,0,0,NaN,0.999909580881496,-0.000815306753267746,-0.0135108036963595,3.0517578125e-06,9.3555440625906,9.35554711434841,,,27.6800000667572,7.02105808258057,0.0878726628078747,0.137160045647571
2011-06-01T04:32:05Z,1306902725,10C,56.3833118,27.2331646,9.54,-0.1,-0.7,144,14697.18,117478.16,144.3,Air+FixedWing,Red,Allies,J-11A,Red J-11A #005,xu,[51☭] Yambo (P),0.0078125,0,2.29524935831621e-05,9.53999996185303,2.51894187927246,0.0078125,0,NaN,NaN,0,0,NaN,0.999937950668649,-0.00267487869949106,-0.0109232002826082,3.0517578125e-06,9.3555440625906,9.35554711434841,,,28.6800000667572,7.02105808258057,0.0878726628078747,0.137160045647571
2011-06-01T04:32:06Z,1306902726,10C,56.3833118,27.2331646,9.54,-0.1,-0.7,144,14697.18,117478.16,144.3,Air+FixedWing,Red,Allies,J-11A,Red J-11A #005,xu,[51☭] Yambo (P),0.0078125,0,2.29524935831621e-05,9.53999996185303,2.51894187927246,0.0078125,0,NaN,NaN,0,0,NaN,0.999909580881496,-0.000815306753267746,-0.0135108036963595,3.0517578125e-06,9.3555440625906,9.35554711434841,,,29.6800000667572,7.02105808258057,0.0878726628078747,0.137160045647571
2011-06-01T04:32:07Z,1306902727,10C,56.3833118,27.2331646,9.54,-0.1,-0.7,144,14697.18,117478.16,144.3,Air+FixedWing,Red,Allies,J-11A,Red J-11A #005,xu,[51☭] Yambo (P),0.0078125,0,2.29524935831621e-05,9.53999996185303,2.51894187927246,0.0078125,0,NaN,NaN,0,0,NaN,0.999937950668649,-0.00267487869949106,-0.0109232002826082,3.0517578125e-06,9.3555440625906,9.35554711434841,,,30.6800000667572,7.02105808258057,0.0878726628078747,0.137160045647571
2011-06-01T04:32:08Z,1306902728,10C,56.3833118,27.2331646,9.54,-0.1,-0.7,144,14697.18,117478.16,144.3,Air+FixedWing,Red,Allies,J-11A,Red J-11A #005,xu,[51☭] Yambo (P),0.0078125,0,2.29524935831621e-05,9.53999996185303,2.51894187927246,0.0078125,0,NaN,NaN,0,0,NaN,0.999909580881496,-0.000815306753267746,-0.0135108036963595,3.0517578125e-06,9.3555440625906,9.35554711434841,,,31.6800000667572,7.02105808258057,0.0878726628078747,0.137160045647571
2011-06-01T04:32:09Z,1306902729,10C,56.3833118,27.2331646,9.54,-0.1,-0.7,144,14697.18,117478.16,144.3,Air+FixedWing,Red,Allies,J-11A,Red J-11A #005,xu,[51☭] Yambo (P),0.0078125,0,2.29524935831621e-05,9.53999996185303,2.51894187927246,0.0078125,0,NaN,NaN,0,0,NaN,0.999930858221861,-0.00220998571293523,-0.011570101136046,3.0517578125e-06,9.3555440625906,9.35554711434841,,,32.6800000667572,7.02105808258057,0.0878726628078747,0.137160045647571
2011-06-01T04:32:10Z,1306902730,10C,56.3833118,27.2331646,9.54,-0.1,-0.7,144,14697.18,117478.16,144.3,Air+FixedWing,Red,Allies,J-11A,Red J-11A #005,xu,[51☭] Yambo (P),0,0,0,9.53999996185303,2.51894187927246,0,0,NaN,NaN,0,0,NaN,0.999916673328284,-0.00128019973982358,-0.0128639028429217,0,9.3555440625906,9.3555440625906,,,33.6800000667572,7.02105808258057,0.0878726628078747,0.137160045647571
2011-06-01T04:32:11Z,1306902731,10C,56.3833118,27.2331646,9.54,-0.1,-0.7,144,14697.18,117478.17,144.3,Air+FixedWing,Red,Allies,J-11A,Red J-11A #005,xu,[51☭] Yambo (P),0.0078125,0,2.29524935831621e-05,9.53999996185303,2.51894187927246,0.0078125,0,NaN,NaN,0,0,NaN,0.999937950668649,-0.00267487869949106,-0.0109232002826082,3.0517578125e-06,9.3555440625906,9.35554711434841,,,34.6800000667572,7.02105808258057,0.0878726628078747,0.137160045647571
2011-06-01T04:32:12Z,1306902732,10C,56.3833118,27.2331646,9.54,-0.1,-0.7,144,14697.18,117478.16,144.3,Air+FixedWing,Red,Allies,J-11A,Red J-11A #005,xu,[51☭] Yambo (P),0.0078125,0,2.29524935831621e-05,9.53999996185303,2.51894187927246,0.0078125,0,NaN,NaN,0,0,NaN,0.999909580881496,-0.000815306753267746,-0.0135108036963595,3.0517578125e-06,9.3555440625906,9.35554711434841,,,35.6800000667572,7.02105808258057,0.0878726628078747,0.137160045647571
2011-06-01T04:32:13Z,1306902733,10C,56.3833118,27.2331646,9.54,-0.1,-0.7,144,14697.18,117478.17,144.3,Air+FixedWing,Red,Allies,J-11A,Red J-11A #005,xu,[51☭] Yambo (P),0.0078125,0,2.29524935831621e-05,9.53999996185303,2.51894187927246,0.0078125,0,NaN,NaN,0,0,NaN,0.999945043115438,-0.00313977168604689,-0.0102762994291703,3.0517578125e-06,9.3555440625906,9.35554711434841,,,36.6800000667572,7.02105808258057,0.0878726628078747,0.137160045647571
2011-06-01T04:32:14Z,1306902734,10C,56.3833118,27.2331646,9.54,-0.1,-0.7,144,14697.18,117478.16,144.3,Air+FixedWing,Red,Allies,J-11A,Red J-11A #005,xu,[51☭] Yambo (P),0.015625,0,4.59049871663242e-05,9.53999996185303,2.51894187927246,0.015625,0,NaN,NaN,0,0,NaN,0.999895395987919,0.000114479219843912,-0.0148046054032352,1.220703125e-05,9.3555440625906,9.35555626962185,,,37.6800000667572,7.02105808258057,0.0878726628078747,0.137160045647571
2011-06-01T04:32:15Z,1306902735,10C,56.3833118,27.2331646,9.54,-0.1,-0.7,144,14697.18,117478.17,144.3,Air+FixedWing,Red,Allies,J-11A,Red J-11A #005,xu,[51☭] Yambo (P),0.015625,0,4.59049871663242e-05,9.53999996185303,2.51894187927246,0.015625,0,NaN,NaN,0,0,NaN,0.999945043115438,-0.00313977168604689,-0.0102762994291703,1.220703125e-05,9.3555440625906,9.35555626962185,,,38.6800000667572,7.02105808258057,0.0878726628078747,0.137160045647571
2011-06-01T04:32:16Z,1306902736,10C,56.3833118,27.2331646,9.54,-0.1,-0.7,144,14697.18,117478.16,144.3,Air+FixedWing,Red,Allies,J-11A,Red J-11A #005,xu,[51☭] Yambo (P),0.0078125,0,2.29524935831621e-05,9.53999996185303,2.51894187927246,0.0078125,0,NaN,NaN,0,0,NaN,0.999923765775072,-0.0017450927263794,-0.0122170019894838,3.0517578125e-06,9.3555440625906,9.35554711434841,,,39.6800000667572,7.02105808258057,0.0878726628078747,0.137160045647571
2011-06-01T04:32:17Z,1306902737,10C,56.3833118,27.2331646,9.54,-0.1,-0.7,144,14697.18,117478.16,144.3,Air+FixedWing,Red,Allies,J-11A,Red J-11A #005,xu,[51☭] Yambo (P),0.0078125,0,2.29524935831621e-05,9.53999996185303,2.51894187927246,0.0078125,0,NaN,NaN,0,0,NaN,0.999902488434707,-0.000350413766711917,-0.0141577045497973,3.0517578125e-06,9.3555440625906,9.35554711434841,,,40.6800000667572,7.02105808258057,0.0878726628078747,0.137160045647571
2011-06-01T04:32:18Z,1306902738,10C,56.3833118,27.2331646,9.54,-0.1,-0.7,144,14697.18,117478.17,144.3,Air+FixedWing,Red,Allies,J-11A,Red J-11A #005,xu,[51☭] Yambo (P),0.015625,0,4.59049871663242e-05,9.53999996185303,2.51894187927246,0.015625,0,NaN,NaN,0,0,NaN,0.999952135562226,-0.00360466467260272,-0.00962939857573252,1.220703125e-05,9.3555440625906,9.35555626962185,,,41.6800000667572,7.02105808258057,0.0878726628078747,0.137160045647571
2011-06-01T04:32:19Z,1306902739,10C,56.3833118,27.2331646,9.54,-0.1,-0.7,144,14697.18,117478.16,144.3,Air+FixedWing,Red,Allies,J-11A,Red J-11A #005,xu,[51☭] Yambo (P),0.015625,0,4.59049871663242e-05,9.53999996185303,2.51894187927246,0.015625,0,NaN,NaN,0,0,NaN,0.999895395987919,0.000114479219843912,-0.0148046054032352,1.220703125e-05,9.3555440625906,9.35555626962185,,,42.6800000667572,7.02105808258057,0.0878726628078747,0.137160045647571
2011-06-01T04:32:20Z,1306902740,10C,56.3833118,27.2331646,9.54,-0.1,-0.7,144,14697.18,117478.17,144.3,Air+FixedWing,Red,Allies,J-11A,Red J-11A #005,xu,[51☭] Yambo (P),0.015625,0,4.59049871663242e-05,9.53999996185303,2.51894187927246,0.015625,0,NaN,NaN,0,0,NaN,0.999952135562226,-0.00360466467260272,-0.00962939857573252,1.220703125e-05,9.3555440625906,9.35555626962185,,,43.6800000667572,7.02105808258057,0.0878726628078747,0.137160045647571
2011-06-01T04:32:21Z,1306902741,10C,56.3833118,27.2331646,9.54,-0.1,-0.7,144,14697.18,117478.16,144.3,Air+FixedWing,Red,Allies,J-11A,Red J-11A #005,xu,[51☭] Yambo (P),0.015625,0,4.59049871663242e-05,9.53999996185303,2.51894187927246,0.015625,0,NaN,NaN,0,0,NaN,0.999902488434707,-0.000350413766711917,-0.0141577045497973,1.220703125e-05,9.3555440625906,9.35555626962185,,,44.6800000667572,7.02105808258057,0.0878726628078747,0.137160045647571
2011-06-01T04:32:22Z,1306902742,10C,56.3833118,27.2331646,9.54,-0.1,-0.7,144,14697.18,117478.16,144.3,Air+FixedWing,Red,Allies,J-11A,Red J-11A #005,xu,[51☭] Yambo (P),0.0078125,0,2.29524935831621e-05,9.53999996185303,2.51894187927246,0.0078125,0,NaN,NaN,0,0,NaN,0.999930858221861,-0.00220998571293523,-0.011570101136046,3.0517578125e-06,9.3555440625906,9.35554711434841,,,45.6800000667572,7.02105808258057,0.0878726628078747,0.137160045647571
2011-06-01T04:32:23Z,1306902743,10C,56.3833118,27.2331646,9.54,-0.1,-0.7,144,14697.18,117478.16,144.3,Air+FixedWing,Red,Allies,J-11A,Red J-11A #005,xu,[51☭] Yambo (P),0,0,0,9.53999996185303,2.51894187927246,0,0,NaN,NaN,0,0,NaN,0.999916673328284,-0.00128019973982358,-0.0128639028429217,0,9.3555440625906,9.3555440625906,,,46.6800000667572,7.02105808258057,0.0878726628078747,0.137160045647571
2011-06-01T04:32:24Z,1306902744,10C,56.3833118,27.2331646,9.54,-0.1,-0.7,144,14697.18,117478.17,144.3,Air+FixedWing,Red,Allies,J-11A,Red J-11A #005,xu,[51☭] Yambo (P),0.0078125,0,2.29524935831621e-05,9.53999996185303,2.51894187927246,0.0078125,0,NaN,NaN,0,0,NaN,0.999945043115438,-0.00313977168604689,-0.0102762994291703,3.0517578125e-06,9.3555440625906,9.35554711434841,,,47.6800000667572,7.02105808258057,0.0878726628078747,0.137160045647571
2011-06-01T04:32:25Z,1306902745,10C,56.3833118,27.2331646,9.54,-0.1,-0.7,144,14697.18,117478.16,144.3,Air+FixedWing,Red,Allies,J-11A,Red J-11A #005,xu,[51☭] Yambo (P),0.015625,0,4.59049871663242e-05,9.53999996185303,2.51894187927246,0.015625,0,NaN,NaN,0,0,NaN,0.999902488434707,-0.000350413766711917,-0.0141577045497973,1.220703125e-05,9.3555440625906,9.35555626962185,,,48.6800000667572,7.02105808258057,0.0878726628078747,0.137160045647571
2011-06-01T04:32:26Z,1306902746,10C,56.3833118,27.2331646,9.54,-0.1,-0.7,144,14697.18,117478.16,144.3,Air+FixedWing,Red,Allies,J-11A,Red J-11A #005,xu,[51☭] Yambo (P),0.0078125,0,2.29524935831621e-05,9.53999996185303,2.51894187927246,0.0078125,0,NaN,NaN,0,0,NaN,0.999937950668649,-0.00267487869949106,-0.0109232002826082,3.0517578125e-06,9.3555440625906,9.35554711434841,,,49.6800000667572,7.02105808258057,0.0878726628078747,0.137160045647571
2011-06-01T04:32:27Z,1306902747,10C,56.3833118,27.2331646,9.54,-0.1,-0.7,144,14697.18,117478.16,144.3,Air+FixedWing,Red,Allies,J-11A,Red J-11A #005,xu,[51☭] Yambo (P),0.0078125,0,2.29524935831621e-05,9.53999996185303,2.51894187927246,0.0078125,0,NaN,NaN,0,0,NaN,0.999909580881496,-0.000815306753267746,-0.0135108036963595,3.0517578125e-06,9.3555440625906,9.35554711434841,,,50.6800000667572,7.02105808258057,0.0878726628078747,0.137160045647571
2011-06-01T04:32:28Z,1306902748,10C,56.3833118,27.2331646,9.54,-0.1,-0.7,144,14697.18,117478.16,144.3,Air+FixedWing,Red,Allies,J-11A,Red J-11A #005,xu,[51☭] Yambo (P),0.0078125,0,2.29524935831621e-05,9.53999996185303,2.51894187927246,0.0078125,0,NaN,NaN,0,0,NaN,0.999930858221861,-0.00220998571293523,-0.011570101136046,3.0517578125e-06,9.3555440625906,9.35554711434841,,,51.6800000667572,7.02105808258057,0.0878726628078747,0.137160045647571
2011-06-01T04:32:29Z,1306902749,10C,56.3833118,27.2331646,9.54,-0.1,-0.7,144,14697.18,117478.16,144.3,Air+FixedWing,Red,Allies,J-11A,Red J-11A #005,xu,[51☭] Yambo (P),0,0,0,9.53999996185303,2.51894187927246,0,0,NaN,NaN,0,0,NaN,0.999923765775072,-0.0017450927263794,-0.0122170019894838,0,9.3555440625906,9.3555440625906,,,52.6800000667572,7.02105808258057,0.0878726628078747,0.137160045647571
2011-06-01T04:32:30Z,1306902750,10C,56.3833118,27.2331646,9.54,-0.1,-0.7,144,14697.18,117478.16,144.3,Air+FixedWing,Red,Allies,J-11A,Red J-11A #005,xu,[51☭] Yambo (P),0,0,0,9.53999996185303,2.51894187927246,0,0,NaN,NaN,0,0,NaN,0.999930858221861,-0.00220998571293523,-0.011570101136046,0,9.3555440625906,9.3555440625906,,,53.6800000667572,7.02105808258057,0.0878726628078747,0.137160045647571
2011-06-01T04:32:31Z,1306902751,10C,56.3833118,27.2331646,9.54,-0.1,-0.7,144,14697.18,117478.16,144.3,Air+FixedWing,Red,Allies,J-11A,Red J-11A #005,xu,[51☭] Yambo (P),0.0078125,0,2.29524935831621e-05,9.53999996185303,2.51894187927246,0.0078125,0,NaN,NaN,0,0,NaN,0.999909580881496,-0.000815306753267746,-0.0135108036963595,3.0517578125e-06,9.3555440625906,9.35554711434841,,,54.6800000667572,7.02105808258057,0.0878726628078747,0.137160045647571
2011-06-01T04:32:32Z,1306902752,10C,56.3833118,27.2331646,9.54,-0.1,-0.7,144,14697.18,117478.16,144.3,Air+FixedWing,Red,Allies,J-11A,Red J-11A #005,xu,[51☭] Yambo (P),0.0078125,0,2.29524935831621e-05,9.53999996185303,2.51894187927246,0.0078125,0,NaN,NaN,0,0,NaN,0.999923765775072,-0.0017450927263794,-0.0122170019894838,3.0517578125e-06,9.3555440625906,9.35554711434841,,,55.6800000667572,7.02105808258057,0.0878726628078747,0.137160045647571
2011-06-01T04:32:33Z,1306902753,10C,56.3833118,27.2331646,9.54,-0.1,-0.7,144,14697.18,117478.17,144.3,Air+FixedWing,Red,Allies,J-11A,Red J-11A #005,xu,[51☭] Yambo (P),0.0078125,0,2.29524935831621e-05,9.53999996185303,2.51894187927246,0.0078125,0,NaN,NaN,0,0,NaN,0.999937950668649,-0.00267487869949106,-0.0109232002826082,3.0517578125e-06,9.3555440625906,9.35554711434841,,,56.6800000667572,7.02105808258057,0.0878726628078747,0.137160045647571
2011-06-01T04:32:34Z,1306902754,10C,56.3833118,27.2331646,9.54,-0.1,-0.7,144,14697.18,117478.16,144.3,Air+FixedWing,Red,Allies,J-11A,Red J-11A #005,xu,[51☭] Yambo (P),0.0078125,0,2.29524935831621e-05,9.53999996185303,2.51894187927246,0.0078125,0,NaN,NaN,0,0,NaN,0.999916673328284,-0.00128019973982358,-0.0128639028429217,3.0517578125e-06,9.3555440625906,9.35554711434841,,,57.6800000667572,7.02105808258057,0.0878726628078747,0.137160045647571
2011-06-01T04:32:35Z,1306902755,10C,56.3833118,27.2331646,9.54,-0.1,-0.7,144,14697.18,117478.16,144.3,Air+FixedWing,Red,Allies,J-11A,Red J-11A #005,xu,[51☭] Yambo (P),0,0,0,9.53999996185303,2.51894187927246,0,0,NaN,NaN,0,0,NaN,0.999916673328284,-0.00128019973982358,-0.0128639028429217,0,9.3555440625906,9.3555440625906,,,58.6800000667572,7.02105808258057,0.0878726628078747,0.137160045647571
2011-06-01T04:32:36Z,1306902756,10C,56.3833118,27.2331646,9.54,-0.1,-0.7,144,14697.18,117478.17,144.3,Air+FixedWing,Red,Allies,J-11A,Red J-11A #005,xu,[51☭] Yambo (P),0.0078125,0,2.29524935831621e-05,9.53999996185303,2.51894187927246,0.0078125,0,NaN,NaN,0,0,NaN,0.999945043115438,-0.00313977168604689,-0.0102762994291703,3.0517578125e-06,9.3555440625906,9.35554711434841,,,59.6800000667572,7.02105808258057,0.0878726628078747,0.137160045647571
2011-06-01T04:32:37Z,1306902757,10C,56.3833118,27.2331646,9.54,-0.1,-0.7,144,14697.18,117478.16,144.3,Air+FixedWing,Red,Allies,J-11A,Red J-11A #005,xu,[51☭] Yambo (P),0.015625,0,4.59049871663242e-05,9.53999996185303,2.51894187927246,0.015625,0,NaN,NaN,0,0,NaN,0.999902488434707,-0.000350413766711917,-0.0141577045497973,1.220703125e-05,9.3555440625906,9.35555626962185,,,60.6800000667572,7.02105808258057,0.0878726628078747,0.137160045647571
2011-06-01T04:32:38Z,1306902758,10C,56.3833118,27.2331646,9.54,-0.1,-0.7,144,14697.18,117478.16,144.3,Air+FixedWing,Red,Allies,J-11A,Red J-11A #005,xu,[51☭] Yambo (P),0.0078125,0,2.29524935831621e-05,9.53999996185303,2.51894187927246,0.0078125,0,NaN,NaN,0,0,NaN,0.999923765775072,-0.0017450927263794,-0.0122170019894838,3.0517578125e-06,9.3555440625906,9.35554711434841,,,61.6800000667572,7.02105808258057,0.0878726628078747,0.137160045647571
2011-06-01T04:32:39Z,1306902759,10C,56.3833118,27.2331646,9.54,-0.1,-0.7,144,14697.18,117478.17,144.3,Air+FixedWing,Red,Allies,J-11A,Red J-11A #005,xu,[51☭] Yambo (P),0.0078125,0,2.29524935831621e-05,9.53999996185303,2.51894187927246,0.0078125,0,NaN,NaN,0,0,NaN,0.999945043115438,-0.00313977168604689,-0.0102762994291703,3.0517578125e-06,9.3555440625906,9.35554711434841,,,62.6800000667572,7.02105808258057,0.0878726628078747,0.137160045647571
2011-06-01T04:32:40Z,1306902760,10C,56.3833118,27.2331646,9.54,-0.1,-0.7,144,14697.18,117478.16,144.3,Air+FixedWing,Red,Allies,J-11A,Red J-11A #005,xu,[51☭] Yambo (P),0.015625,0,4.59049871663242e-05,9.53999996185303,2.51894187927246,0.015625,0,NaN,NaN,0,0,NaN,0.999902488434707,-0.000350413766711917,-0.0141577045497973,1.220703125e-05,9.3555440625906,9.35555626962185,,,63.6800000667572,7.02105808258057,0.0878726628078747,0.137160045647571
2011-06-01T04:32:41Z,1306902761,10C,56.3833118,27.2331646,9.54,-0.1,-0.7,144,14697.18,117478.16,144.3,Air+FixedWing,Red,Allies,J-11A,Red J-11A #005,xu,[51☭] Yambo (P),0.0078125,0,2.29524935831621e-05,9.53999996185303,2.51894187927246,0.0078125,0,NaN,NaN,0,0,NaN,0.999930858221861,-0.00220998571293523,-0.011570101136046,3.0517578125e-06,9.3555440625906,9.35554711434841,,,64.6800000667572,7.02105808258057,0.0878726628078747,0.137160045647571
2011-06-01T04:32:42Z,1306902762,10C,56.3833118,27.2331646,9.54,-0.1,-0.7,144,14697.18,117478.16,144.3,Air+FixedWing,Red,Allies,J-11A,Red J-11A #005,xu,[51☭] Yambo (P),0,0,0,9.53999996185303,2.51894187927246,0,0,NaN,NaN,0,0,NaN,0.999923765775072,-0.0017450927263794,-0.0122170019894838,0,9.3555440625906,9.3555440625906,,,65.6800000667572,7.02105808258057,0.0878726628078747,0.137160045647571
2011-06-01T04:32:43Z,1306902763,10C,56.3833118,27.2331646,9.54,-0.1,-0.7,144,14697.18,117478.16,144.3,Air+FixedWing,Red,Allies,J-11A,Red J-11A #005,xu,[51☭] Yambo (P),0,0,0,9.53999996185303,2.51894187927246,0,0,NaN,NaN,0,0,NaN,0.999923765775072,-0.0017450927263794,-0.0122170019894838,0,9.3555440625906,9.3555440625906,,,66.6800000667572,7.02105808258057,0.0878726628078747,0.137160045647571
2011-06-01T04:32:44Z,1306902764,10C,56.3833118,27.2331646,9.54,-0.1,-0.7,144,14697.18,117478.16,144.3,Air+FixedWing,Red,Allies,J-11A,Red J-11A #005,xu,[51☭] Yambo (P),0,0,0,9.53999996185303,2.51894187927246,0,0,NaN,NaN,0,0,NaN,0.999930858221861,-0.00220998571293523,-0.011570101136046,0,9.3555440625906,9.3555440625906,,,67.6800000667572,7.02105808258057,0.0878726628078747,0.137160045647571
2011-06-01T04:32:45Z,1306902765,10C,56.3833118,27.2331646,9.54,-0.1,-0.7,144,14697.18,117478.16,144.3,Air+FixedWing,Red,Allies,J-11A,Red J-11A #005,xu,[51☭] Yambo (P),0.0078125,0,2.29524935831621e-05,9.53999996185303,2.51894187927246,0.0078125,0,NaN,NaN,0,0,NaN,0.999909580881496,-0.000815306753267746,-0.0135108036963595,3.0517578125e-06,9.3555440625906,9.35554711434841,,,68.6800000667572,7.02105808258057,0.0878726628078747,0.137160045647571
2011-06-01T04:32:46Z,1306902766,10C,56.3833118,27.2331646,9.54,-0.1,-0.7,144,14697.18,117478.16,144.3,Air+FixedWing,Red,Allies,J-11A,Red J-11A #005,xu,[51☭] Yambo (P),0.0078125,0,2.29524935831621e-05,9.53999996185303,2.51894187927246,0.0078125,0,NaN,NaN,0,0,NaN,0.999923765775072,-0.0017450927263794,-0.0122170019894838,3.0517578125e-06,9.3555440625906,9.35554711434841,,,69.6800000667572,7.02105808258057,0.0878726628078747,0.137160045647571
2011-06-01T04:32:47Z,1306902767,10C,56.3833119,27.2331646,9.54,-0.1,-0.7,144,14697.18,117478.17,144.3,Air+FixedWing,Red,Allies,J-11A,Red J-11A #005,xu,[51☭] Yambo (P),0.0078125,0,2.29524935831621e-05,9.53999996185303,2.51903963088989,0.0078125,0,NaN,NaN,0,0,NaN,0.999937950668649,-0.00267487869949106,-0.0109232002826082,3.0517578125e-06,9.3555440625906,9.35554711434841,,,70.6800000667572,7.02096033096313,0.0975644439103473,0.146851841472938
2011-06-01T04:32:48Z,1306902768,10C,56.3833119,27.2331646,9.54,-0.1,-0.7,144,14697.18,117478.16,144.3,Air+FixedWing,Red,Allies,J-11A,Red J-11A #005,xu,[51☭] Yambo (P),0.0078125,0,2.29524935831621e-05,9.53999996185303,2.51903963088989,0.0078125,0,NaN,NaN,0,0,NaN,0.999916673328284,-0.00128019973982358,-0.0128639028429217,3.0517578125e-06,9.3555440625906,9.35554711434841,,,71.6800000667572,7.02096033096313,0.0977706527029888,0.147058050137754
2011-06-01T04:32:49Z,1306902769,10C,56.3833119,27.2331646,9.54,-0.1,-0.7,144,14697.18,117478.16,144.3,Air+FixedWing,Red,Allies,J-11A,Red J-11A #005,xu,[51☭] Yambo (P),0,0,0,9.53999996185303,2.51903963088989,0,0,NaN,NaN,0,0,NaN,0.999916673328284,-0.00128019973982358,-0.0128639028429217,0,9.3555440625906,9.3555440625906,,,72.6800000667572,7.02096033096313,0.0977706527029888,0.147058050137754
2011-06-01T04:32:50Z,1306902770,10C,56.3833119,27.2331646,9.54,-0.1,-0.7,144,14697.18,117478.17,144.3,Air+FixedWing,Red,Allies,J-11A,Red J-11A #005,xu,[51☭] Yambo (P),0.0078125,0,2.29524935831621e-05,9.53999996185303,2.51903963088989,0.0078125,0,NaN,NaN,0,0,NaN,0.999945043115438,-0.00313977168604689,-0.0102762994291703,3.0517578125e-06,9.3555440625906,9.35554711434841,,,73.6800000667572,7.02096033096313,0.0977706527029888,0.147058050137754
2011-06-01T04:32:51Z,1306902771,10C,56.3833119,27.2331646,9.54,-0.1,-0.7,144,14697.18,117478.16,144.3,Air+FixedWing,Red,Allies,J-11A,Red J-11A #005,xu,[51☭] Yambo (P),0.015625,0,4.59049871663242e-05,9.53999996185303,2.51903963088989,0.015625,0,NaN,NaN,0,0,NaN,0.999902488434707,-0.000350413766711917,-0.0141577045497973,1.220703125e-05,9.3555440625906,9.35555626962185,,,74.6800000667572,7.02096033096313,0.0977706527029888,0.147058050137754
2011-06-01T04:32:52Z,1306902772,10C,56.3833119,27.2331646,9.54,-0.1,-0.7,144,14697.18,117478.16,144.3,Air+FixedWing,Red,Allies,J-11A,Red J-11A #005,xu,[51☭] Yambo (P),0.0078125,0,2.29524935831621e-05,9.53999996185303,2.51903963088989,0.0078125,0,NaN,NaN,0,0,NaN,0.999930858221861,-0.00220998571293523,-0.011570101136046,3.0517578125e-06,9.3555440625906,9.35554711434841,,,75.6800000667572,7.02096033096313,0.0977706527029888,0.147058050137754
2011-06-01T04:32:53Z,1306902773,10C,56.3833119,27.2331646,9.54,-0.1,-0.7,144,14697.18,117478.16,144.3,Air+FixedWing,Red,Allies,J-11A,Red J-11A #005,xu,[51☭] Yambo (P),0,0,0,9.53999996185303,2.51903963088989,0,0,NaN,NaN,0,0,NaN,0.999923765775072,-0.0017450927263794,-0.0122170019894838,0,9.3555440625906,9.3555440625906,,,76.6800000667572,7.02096033096313,0.0977706527029888,0.147058050137754
2011-06-01T04:32:54Z,1306902774,10C,56.3833119,27.2331646,9.54,-0.1,-0.7,144,14697.18,117478.16,144.3,Air+FixedWing,Red,Allies,J-11A,Red J-11A #005,xu,[51☭] Yambo (P),0,0,0,9.53999996185303,2.51903963088989,0,0,NaN,NaN,0,0,NaN,0.999923765775072,-0.0017450927263794,-0.0122170019894838,0,9.3555440625906,9.3555440625906,,,77.6800000667572,7.02096033096313,0.0977706527029888,0.147058050137754
2011-06-01T04:32:55Z,1306902775,10C,56.3833119,27.2331646,9.54,-0.1,-0.7,144,14697.18,117478.16,144.3,Air+FixedWing,Red,Allies,J-11A,Red J-11A #005,xu,[51☭] Yambo (P),0,0,0,9.53999996185303,2.51903963088989,0,0,NaN,NaN,0,0,NaN,0.999923765775072,-0.0017450927263794,-0.0122170019894838,0,9.3555440625906,9.3555440625906,,,78.6800000667572,7.02096033096313,0.0977706527029888,0.147058050137754
2011-06-01T04:32:56Z,1306902776,10C,56.3833119,27.2331646,9.54,-0.1,-0.7,144,14697.18,117478.16,144.3,Air+FixedWing,Red,Allies,J-11A,Red J-11A #005,xu,[51☭] Yambo (P),0,0,0,9.53999996185303,2.51903963088989,0,0,NaN,NaN,0,0,NaN,0.999930858221861,-0.00220998571293523,-0.011570101136046,0,9.3555440625906,9.3555440625906,,,79.6800000667572,7.02096033096313,0.0977706527029888,0.147058050137754
2011-06-01T04:32:57Z,1306902777,10C,56.3833119,27.2331646,9.54,-0.1,-0.7,144,14697.18,117478.16,144.3,Air+FixedWing,Red,Allies,J-11A,Red J-11A #005,xu,[51☭] Yambo (P),0.0078125,0,2.29524935831621e-05,9.53999996185303,2.51903963088989,0.0078125,0,NaN,NaN,0,0,NaN,0.999902488434707,-0.000350413766711917,-0.0141577045497973,3.0517578125e-06,9.3555440625906,9.35554711434841,,,80.6800000667572,7.02096033096313,0.0977706527029888,0.147058050137754
2011-06-01T04:32:58Z,1306902778,10C,56.3833119,27.2331646,9.54,-0.1,-0.7,144,14697.18,117478.17,144.3,Air+FixedWing,Red,Allies,J-11A,Red J-11A #005,xu,[51☭] Yambo (P),0.015625,0,4.59049871663242e-05,9.53999996185303,2.51903963088989,0.015625,0,NaN,NaN,0,0,NaN,0.999952135562226,-0.00360466467260272,-0.00962939857573252,1.220703125e-05,9.3555440625906,9.35555626962185,,,81.6800000667572,7.02096033096313,0.0977706527029888,0.147058050137754
2011-06-01T04:32:59Z,1306902779,10C,56.3833119,27.2331646,9.54,-0.1,-0.7,144,14697.18,117478.16,144.3,Air+FixedWing,Red,Allies,J-11A,Red J-11A #005,xu,[51☭] Yambo (P),0.015625,0,4.59049871663242e-05,9.53999996185303,2.51903963088989,0.015625,0,NaN,NaN,0,0,NaN,0.999895395987919,0.000114479219843912,-0.0148046054032352,1.220703125e-05,9.3555440625906,9.35555626962185,,,82.6800000667572,7.02096033096313,0.0977706527029888,0.147058050137754
2011-06-01T04:33:00Z,1306902780,10C,56.3833119,27.2331646,9.54,-0.1,-0.7,144,14697.18,117478.17,144.3,Air+FixedWing,Red,Allies,J-11A,Red J-11A #005,xu,[51☭] Yambo (P),0.015625,0,4.59049871663242e-05,9.53999996185303,2.51903963088989,0.015625,0,NaN,NaN,0,0,NaN,0.999952135562226,-0.00360466467260272,-0.00962939857573252,1.220703125e-05,9.3555440625906,9.35555626962185,,,83.6800000667572,7.02096033096313,0.0977706527029888,0.147058050137754
2011-06-01T04:33:01Z,1306902781,10C,56.3833119,27.2331646,9.54,-0.1,-0.7,144,14697.18,117478.16,144.3,Air+FixedWing,Red,Allies,J-11A,Red J-11A #005,xu,[51☭] Yambo (P),0.015625,0,4.59049871663242e-05,9.53999996185303,2.51903963088989,0.015625,0,NaN,NaN,0,0,NaN,0.999909580881496,-0.000815306753267746,-0.0135108036963595,1.220703125e-05,9.3555440625906,9.35555626962185,,,84.6800000667572,7.02096033096313,0.0977706527029888,0.147058050137754
2011-06-01T04:33:02Z,1306902782,10C,56.3833119,27.2331646,9.54,-0.1,-0.7,144,14697.18,117478.16,144.3,Air+FixedWing,Red,Allies,J-11A,Red J-11A #005,xu,[51☭] Yambo (P),0,0,0,9.53999996185303,2.51903963088989,0,0,NaN,NaN,0,0,NaN,0.999916673328284,-0.00128019973982358,-0.0128639028429217,0,9.3555440625906,9.3555440625906,,,85.6800000667572,7.02096033096313,0.0977706527029888,0.147058050137754
2011-06-01T04:33:03Z,1306902783,10C,56.3833119,27.2331646,9.54,-0.1,-0.7,144,14697.18,117478.16,144.3,Air+FixedWing,Red,Allies,J-11A,Red J-11A #005,xu,[51☭] Yambo (P),0.0078125,0,2.29524935831621e-05,9.53999996185303,2.51903963088989,0.0078125,0,NaN,NaN,0,0,NaN,0.999930858221861,-0.00220998571293523,-0.011570101136046,3.0517578125e-06,9.3555440625906,9.35554711434841,,,86.6800000667572,7.02096033096313,0.0977706527029888,0.147058050137754
2011-06-01T04:33:04Z,1306902784,10C,56.3833119,27.2331646,9.54,-0.1,-0.7,144,14697.18,117478.16,144.3,Air+FixedWing,Red,Allies,J-11A,Red J-11A #005,xu,[51☭] Yambo (P),0,0,0,9.53999996185303,2.51903963088989,0,0,NaN,NaN,0,0,NaN,0.999923765775072,-0.0017450927263794,-0.0122170019894838,0,9.3555440625906,9.3555440625906,,,87.6800000667572,7.02096033096313,0.0977706527029888,0.147058050137754
2011-06-01T04:33:05Z,1306902785,10C,56.3833119,27.2331646,9.54,-0.1,-0.7,144,14697.18,117478.16,144.3,Air+FixedWing,Red,Allies,J-11A,Red J-11A #005,xu,[51☭] Yambo (P),0,0,0,9.53999996185303,2.51903963088989,0,0,NaN,NaN,0,0,NaN,0.999916673328284,-0.00128019973982358,-0.0128639028429217,0,9.3555440625906,9.3555440625906,,,88.6800000667572,7.02096033096313,0.0977706527029888,0.147058050137754
2011-06-01T04:33:06Z,1306902786,10C,56.3833119,27.2331646,9.54,-0.1,-0.7,144,14697.18,117478.17,144.3,Air+FixedWing,Red,Allies,J-11A,Red J-11A #005,xu,[51☭] Yambo (P),0.0078125,0,2.29524935831621e-05,9.53999996185303,2.51903963088989,0.0078125,0,NaN,NaN,0,0,NaN,0.999945043115438,-0.00313977168604689,-0.0102762994291703,3.0517578125e-06,9.3555440625906,9.35554711434841,,,89.6800000667572,7.02096033096313,0.0977706527029888,0.147058050137754
2011-06-01T04:33:07Z,1306902787,10C,56.3833119,27.2331646,9.54,-0.1,-0.7,144,14697.18,117478.16,144.3,Air+FixedWing,Red,Allies,J-11A,Red J-11A #005,xu,[51☭] Yambo (P),0.015625,0,4.59049871663242e-05,9.53999996185303,2.51903963088989,0.015625,0,NaN,NaN,0,0,NaN,0.999902488434707,-0.000350413766711917,-0.0141577045497973,1.220703125e-05,9.3555440625906,9.35555626962185,,,90.6800000667572,7.02096033096313,0.0977706527029888,0.147058050137754
2011-06-01T04:33:08Z,1306902788,10C,56.3833119,27.2331646,9.54,-0.1,-0.7,144,14697.18,117478.16,144.3,Air+FixedWing,Red,Allies,J-11A,Red J-11A #005,xu,[51☭] Yambo (P),0.0078125,0,2.29524935831621e-05,9.53999996185303,2.51903963088989,0.0078125,0,NaN,NaN,0,0,NaN,0.999930858221861,-0.00220998571293523,-0.011570101136046,3.0517578125e-06,9.3555440625906,9.35554711434841,,,91.6800000667572,7.02096033096313,0.0977706527029888,0.147058050137754
2011-06-01T04:33:09Z,1306902789,10C,56.3833119,27.2331646,9.54,-0.1,-0.7,144,14697.18,117478.16,144.3,Air+FixedWing,Red,Allies,J-11A,Red J-11A #005,xu,[51☭] Yambo (P),0,0,0,9.53999996185303,2.51903963088989,0,0,NaN,NaN,0,0,NaN,0.999916673328284,-0.00128019973982358,-0.0128639028429217,0,9.3555440625906,9.3555440625906,,,92.6800000667572,7.02096033096313,0.0977706527029888,0.147058050137754
2011-06-01T04:33:10Z,1306902790,10C,56.3833119,27.2331646,9.54,-0.1,-0.7,144,14697.18,117478.17,144.3,Air+FixedWing,Red,Allies,J-11A,Red J-11A #005,xu,[51☭] Yambo (P),0.0078125,0,2.29524935831621e-05,9.53999996185303,2.51903963088989,0.0078125,0,NaN,NaN,0,0,NaN,0.999930858221861,-0.00220998571293523,-0.011570101136046,3.0517578125e-06,9.3555440625906,9.35554711434841,,,93.6800000667572,7.02096033096313,0.0977706527029888,0.147058050137754
2011-06-01T04:33:11Z,1306902791,10C,56.3833119,27.2331646,9.54,-0.1,-0.7,144,14697.18,117478.17,144.3,Air+FixedWing,Red,Allies,J-11A,Red J-11A #005,xu,[51☭] Yambo (P),0,0,0,9.53999996185303,2.51903963088989,0,0,NaN,NaN,0,0,NaN,0.999930858221861,-0.00220998571293523,-0.011570101136046,0,9.3555440625906,9.3555440625906,,,94.6800000667572,7.02096033096313,0.0977706527029888,0.147058050137754
2011-06-01T04:33:12Z,1306902792,10C,56.3833119,27.2331646,9.54,-0.1,-0.7,144,14697.18,117478.16,144.3,Air+FixedWing,Red,Allies,J-11A,Red J-11A #005,xu,[51☭] Yambo (P),0.0078125,0,2.29524935831621e-05,9.53999996185303,2.51903963088989,0.0078125,0,NaN,NaN,0,0,NaN,0.999916673328284,-0.00128019973982358,-0.0128639028429217,3.0517578125e-06,9.3555440625906,9.35554711434841,,,95.6800000667572,7.02096033096313,0.0977706527029888,0.147058050137754
2011-06-01T04:33:13Z,1306902793,10C,56.3833119,27.2331646,9.54,-0.1,-0.7,144,14697.18,117478.16,144.3,Air+FixedWing,Red,Allies,J-11A,Red J-11A #005,xu,[51☭] Yambo (P),0,0,0,9.53999996185303,2.51903963088989,0,0,NaN,NaN,0,0,NaN,0.999923765775072,-0.0017450927263794,-0.0122170019894838,0,9.3555440625906,9.3555440625906,,,96.6800000667572,7.02096033096313,0.0977706527029888,0.147058050137754
2011-06-01T04:33:14Z,1306902794,10C,56.3833119,27.2331646,9.54,-0.1,-0.7,144,14697.18,117478.16,144.3,Air+FixedWing,Red,Allies,J-11A,Red J-11A #005,xu,[51☭] Yambo (P),0,0,0,9.53999996185303,2.51903963088989,0,0,NaN,NaN,0,0,NaN,0.999916673328284,-0.00128019973982358,-0.0128639028429217,0,9.3555440625906,9.3555440625906,,,97.6800000667572,7.02096033096313,0.0977706527029888,0.147058050137754
2011-06-01T04:33:15Z,1306902795,10C,56.3833119,27.2331646,9.54,-0.1,-0.7,144,14697.18,117478.17,144.3,Air+FixedWing,Red,Allies,J-11A,Red J-11A #005,xu,[51☭] Yambo (P),0.0078125,0,2.29524935831621e-05,9.53999996185303,2.51903963088989,0.0078125,0,NaN,NaN,0,0,NaN,0.999945043115438,-0.00313977168604689,-0.0102762994291703,3.0517578125e-06,9.3555440625906,9.35554711434841,,,98.6800000667572,7.02096033096313,0.0977706527029888,0.147058050137754
2011-06-01T04:33:16Z,1306902796,10C,56.3833119,27.2331646,9.54,-0.1,-0.7,144,14697.18,117478.16,144.3,Air+FixedWing,Red,Allies,J-11A,Red J-11A #005,xu,[51☭] Yambo (P),0.015625,0,4.59049871663242e-05,9.53999996185303,2.51903963088989,0.015625,0,NaN,NaN,0,0,NaN,0.999895395987919,0.000114479219843912,-0.0148046054032352,1.220703125e-05,9.3555440625906,9.35555626962185,,,99.6800000667572,7.02096033096313,0.0977706527029888,0.147058050137754
2011-06-01T04:33:17Z,1306902797,10C,56.3833119,27.2331646,9.54,-0.1,-0.7,144,14697.18,117478.17,144.3,Air+FixedWing,Red,Allies,J-11A,Red J-11A #005,xu,[51☭] Yambo (P),0.015625,0,4.59049871663242e-05,9.53999996185303,2.51903963088989,0.015625,0,NaN,NaN,0,0,NaN,0.999945043115438,-0.00313977168604689,-0.0102762994291703,1.220703125e-05,9.3555440625906,9.35555626962185,,,100.680000066757,7.02096033096313,0.0977706527029888,0.147058050137754
2011-06-01T04:33:18Z,1306902798,10C,56.3833119,27.2331646,9.54,-0.1,-0.7,144,14697.18,117478.16,144.3,Air+FixedWing,Red,Allies,J-11A,Red J-11A #005,xu,[51☭] Yambo (P),0.0078125,0,2.29524935831621e-05,9.53999996185303,2.51903963088989,0.0078125,0,NaN,NaN,0,0,NaN,0.999923765775072,-0.0017450927263794,-0.0122170019894838,3.0517578125e-06,9.3555440625906,9.35554711434841,,,101.680000066757,7.02096033096313,0.0977706527029888,0.147058050137754
2011-06-01T04:33:19Z,1306902799,10C,56.3833119,27.2331646,9.54,-0.1,-0.7,144,14697.18,117478.16,144.3,Air+FixedWing,Red,Allies,J-11A,Red J-11A #005,xu,[51☭] Yambo (P),0.0078125,0,2.29524935831621e-05,9.53999996185303,2.51903963088989,0.0078125,0,NaN,NaN,0,0,NaN,0.999902488434707,-0.000350413766711917,-0.0141577045497973,3.0517578125e-06,9.3555440625906,9.35554711434841,,,102.680000066757,7.02096033096313,0.0977706527029888,0.147058050137754
2011-06-01T04:33:20Z,1306902800,10C,56.3833119,27.2331646,9.54,-0.1,-0.7,144,14697.18,117478.17,144.3,Air+FixedWing,Red,Allies,J-11A,Red J-11A #005,xu,[51☭] Yambo (P),0.015625,0,4.59049871663242e-05,9.53999996185303,2.51903963088989,0.015625,0,NaN,NaN,0,0,NaN,0.999945043115438,-0.00313977168604689,-0.0102762994291703,1.220703125e-05,9.3555440625906,9.35555626962185,,,103.680000066757,7.02096033096313,0.0977706527029888,0.147058050137754
2011-06-01T04:33:21Z,1306902801,10C,56.3833119,27.2331646,9.54,-0.1,-0.7,144,14697.18,117478.16,144.3,Air+FixedWing,Red,Allies,J-11A,Red J-11A #005,xu,[51☭] Yambo (P),0.0078125,0,2.29524935831621e-05,9.53999996185303,2.51903963088989,0.0078125,0,NaN,NaN,0,0,NaN,0.999916673328284,-0.00128019973982358,-0.0128639028429217,3.0517578125e-06,9.3555440625906,9.35554711434841,,,104.680000066757,7.02096033096313,0.0977706527029888,0.147058050137754
2011-06-01T04:33:22Z,1306902802,10C,56.3833119,27.2331646,9.54,-0.1,-0.7,144,14697.18,117478.16,144.3,Air+FixedWing,Red,Allies,J-11A,Red J-11A #005,xu,[51☭] Yambo (P),0,0,0,9.53999996185303,2.51903963088989,0,0,NaN,NaN,0,0,NaN,0.999923765775072,-0.0017450927263794,-0.0122170019894838,0,9.3555440625906,9.3555440625906,,,105.680000066757,7.02096033096313,0.0977706527029888,0.147058050137754
2011-06-01T04:33:23Z,1306902803,10C,56.3833119,27.2331646,9.54,-0.1,-0.7,144,14697.18,117478.16,144.3,Air+FixedWing,Red,Allies,J-11A,Red J-11A #005,xu,[51☭] Yambo (P),0,0,0,9.53999996185303,2.51903963088989,0,0,NaN,NaN,0,0,NaN,0.999916673328284,-0.00128019973982358,-0.0128639028429217,0,9.3555440625906,9.3555440625906,,,106.680000066757,7.02096033096313,0.0977706527029888,0.147058050137754
2011-06-01T04:33:24Z,1306902804,10C,56.3833119,27.2331646,9.54,-0.1,-0.7,144,14697.18,117478.17,144.3,Air+FixedWing,Red,Allies,J-11A,Red J-11A #005,xu,[51☭] Yambo (P),0.0078125,0,2.29524935831621e-05,9.53999996185303,2.51903963088989,0.0078125,0,NaN,NaN,0,0,NaN,0.999937950668649,-0.00267487869949106,-0.0109232002826082,3.0517578125e-06,9.3555440625906,9.35554711434841,,,107.680000066757,7.02096033096313,0.0977706527029888,0.147058050137754
2011-06-01T04:33:25Z,1306902805,10C,56.3833119,27.2331646,9.54,-0.1,-0.7,144,14697.18,117478.16,144.3,Air+FixedWing,Red,Allies,J-11A,Red J-11A #005,xu,[51☭] Yambo (P),0.0078125,0,2.29524935831621e-05,9.53999996185303,2.51903963088989,0.0078125,0,NaN,NaN,0,0,NaN,0.999909580881496,-0.000815306753267746,-0.0135108036963595,3.0517578125e-06,9.3555440625906,9.35554711434841,,,108.680000066757,7.02096033096313,0.0977706527029888,0.147058050137754
2011-06-01T04:33:26Z,1306902806,10C,56.3833119,27.2331646,9.54,-0.1,-0.7,144,14697.18,117478.17,144.3,Air+FixedWing,Red,Allies,J-11A,Red J-11A #005,xu,[51☭] Yambo (P),0.0078125,0,2.29524935831621e-05,9.53999996185303,2.51903963088989,0.0078125,0,NaN,NaN,0,0,NaN,0.999945043115438,-0.00313977168604689,-0.0102762994291703,3.0517578125e-06,9.3555440625906,9.35554711434841,,,109.680000066757,7.02096033096313,0.0977706527029888,0.147058050137754
2011-06-01T04:33:27Z,1306902807,10C,56.3833119,27.2331646,9.54,-0.1,-0.7,144,14697.18,117478.16,144.3,Air+FixedWing,Red,Allies,J-11A,Red J-11A #005,xu,[51☭] Yambo (P),0.015625,0,4.59049871663242e-05,9.53999996185303,2.51903963088989,0.015625,0,NaN,NaN,0,0,NaN,0.999895395987919,0.000114479219843912,-0.0148046054032352,1.220703125e-05,9.3555440625906,9.35555626962185,,,110.680000066757,7.02096033096313,0.0977706527029888,0.147058050137754
2011-06-01T04:33:28Z,1306902808,10C,56.3833119,27.2331646,9.54,-0.1,-0.7,144,14697.18,117478.17,144.3,Air+FixedWing,Red,Allies,J-11A,Red J-11A #005,xu,[51☭] Yambo (P),0.015625,0,4.59049871663242e-05,9.53999996185303,2.51903963088989,0.015625,0,NaN,NaN,0,0.0513960362511687,NaN,0.999945043115438,-0.00313977168604689,-0.0102762994291703,1.220703125e-05,9.3555440625906,9.35555626962185,,,111.680000066757,7.02096033096313,0.0977706527029888,0.147058050137754
2011-06-01T04:33:29Z,1306902809,10C,56.3833119,27.2331646,9.54,-0.1,-0.7,143.9,14697.18,117478.16,144.2,Air+FixedWing,Red,Allies,J-11A,Red J-11A #005,xu,[51☭] Yambo (P),0.0078125,0,2.29524935831621e-05,9.53999996185303,2.51903963088989,0.0078125,0,NaN,NaN,0,0.0513960362511687,NaN,0.999916685224118,-0.00127907133566377,-0.012863090279963,3.0517578125e-06,9.3555440625906,9.35554711434841,,,112.680000066757,7.02096033096313,0.0977706527029888,0.147058050137754
2011-06-01T04:33:30Z,1306902810,10C,56.3833119,27.2331646,9.54,-0.1,-0.7,143.9,14697.18,117478.16,144.2,Air+FixedWing,Red,Allies,J-11A,Red J-11A #005,xu,[51☭] Yambo (P),0,0,0,9.53999996185303,2.51903963088989,0,0,NaN,NaN,0,0.0171320104161963,NaN,0.999916685224118,-0.00127907133566377,-0.012863090279963,0,9.3555440625906,9.3555440625906,,,113.680000066757,7.02096033096313,0.0977706527029888,0.147058050137754
2011-06-01T04:33:31Z,1306902811,10C,56.3833119,27.2331646,9.54,-0.1,-0.7,143.9,14697.18,117478.17,144.2,Air+FixedWing,Red,Allies,J-11A,Red J-11A #005,xu,[51☭] Yambo (P),0.0078125,0,2.29524935831621e-05,9.53999996185303,2.51903772354126,0.0078125,0,NaN,NaN,0,0.0171320104161963,NaN,0.999930846326028,-0.00221111411709504,-0.0115709136990047,3.0517578125e-06,9.3555440625906,9.35554711434841,,,114.680000066757,7.02096223831177,0.101376776872051,0.150664179452154
2011-06-01T04:33:32Z,1306902812,10C,56.3833119,27.2331647,9.54,-0.1,-0.7,143.9,14697.18,117478.17,144.2,Air+FixedWing,Red,Allies,J-11A,Red J-11A #005,xu,[51☭] Yambo (P),0,0,0,9.53999996185303,2.51903629302979,0,0,NaN,NaN,0,0.0171320104161963,NaN,0.999923765775072,-0.0017450927263794,-0.0122170019894838,0,9.3555440625906,9.3555440625906,,,115.680000066757,7.02096366882324,0.106603043512325,0.155890453425668
2011-06-01T04:33:33Z,1306902813,10C,56.3833119,27.2331646,9.54,-0.1,-0.7,143.9,14697.18,117478.17,144.2,Air+FixedWing,Red,Allies,J-11A,Red J-11A #005,xu,[51☭] Yambo (P),0,0,0,9.53999996185303,2.51903963088989,0,0,NaN,NaN,0,0.0171320104161963,NaN,0.999923765775072,-0.0017450927263794,-0.0122170019894838,0,9.3555440625906,9.3555440625906,,,116.680000066757,7.02096033096313,0.115435434321661,0.164722856713583
2011-06-01T04:33:34Z,1306902814,10C,56.3833119,27.2331646,9.54,-0.1,-0.7,143.9,14697.18,117478.17,144.2,Air+FixedWing,Red,Allies,J-11A,Red J-11A #005,xu,[51☭] Yambo (P),0,0,0,9.53999996185303,2.51903963088989,0,0,NaN,NaN,0,0.0171320104161963,NaN,0.999923765775072,-0.0017450927263794,-0.0122170019894838,0,9.3555440625906,9.3555440625906,,,117.680000066757,7.02096033096313,0.115435434321661,0.164722856713583
2011-06-01T04:33:35Z,1306902815,10C,56.3833119,27.2331646,9.54,-0.1,-0.7,143.9,14697.18,117478.17,144.2,Air+FixedWing,Red,Allies,J-11A,Red J-11A #005,xu,[51☭] Yambo (P),0,0,0,9.53999996185303,2.51903963088989,0,0,NaN,NaN,0,0.0171320104161963,NaN,0.999930846326028,-0.00221111411709504,-0.0115709136990047,0,9.3555440625906,9.3555440625906,,,118.680000066757,7.02096033096313,0.115435434321661,0.164722856713583
2011-06-01T04:33:36Z,1306902816,10C,56.3833119,27.2331646,9.54,-0.1,-0.7,143.9,14697.18,117478.16,144.2,Air+FixedWing,Red,Allies,J-11A,Red J-11A #005,xu,[51☭] Yambo (P),0.0078125,0,2.29524935831621e-05,9.53999996185303,2.51903963088989,0.0078125,0,NaN,NaN,0,0.0171320104161963,NaN,0.999916685224118,-0.00127907133566377,-0.012863090279963,3.0517578125e-06,9.3555440625906,9.35554711434841,,,119.680000066757,7.02096033096313,0.115435434321661,0.164722856713583
2011-06-01T04:33:37Z,1306902817,10C,56.3833119,27.2331646,9.54,-0.1,-0.7,143.9,14697.18,117478.16,144.2,Air+FixedWing,Red,Allies,J-11A,Red J-11A #005,xu,[51☭] Yambo (P),0,0,0,9.53999996185303,2.51903963088989,0,0,NaN,NaN,0,0.0171320104161963,NaN,0.999923765775072,-0.0017450927263794,-0.0122170019894838,0,9.3555440625906,9.3555440625906,,,120.680000066757,7.02096033096313,0.115435434321661,0.164722856713583
2011-06-01T04:33:38Z,1306902818,10C,56.3833119,27.2331646,9.54,-0.1,-0.7,143.9,14697.18,117478.16,144.2,Air+FixedWing,Red,Allies,J-11A,Red J-11A #005,xu,[51☭] Yambo (P),0,0,0,9.53999996185303,2.51903963088989,0,0,NaN,NaN,0,0.0171320104161963,NaN,0.999923765775072,-0.0017450927263794,-0.0122170019894838,0,9.3555440625906,9.3555440625906,,,121.680000066757,7.02096033096313,0.115435434321661,0.164722856713583
2011-06-01T04:33:39Z,1306902819,10C,56.3833119,27.2331646,9.54,-0.1,-0.7,143.9,14697.18,117478.16,144.2,Air+FixedWing,Red,Allies,J-11A,Red J-11A #005,xu,[51☭] Yambo (P),0,0,0,9.53999996185303,2.51903963088989,0,0,NaN,NaN,0,0.0171320104161963,NaN,0.999923765775072,-0.0017450927263794,-0.0122170019894838,0,9.3555440625906,9.3555440625906,,,122.680000066757,7.02096033096313,0.115435434321661,0.164722856713583
2011-06-01T04:33:40Z,1306902820,10C,56.3833119,27.2331646,9.54,-0.1,-0.7,143.9,14697.18,117478.16,144.2,Air+FixedWing,Red,Allies,J-11A,Red J-11A #005,xu,[51☭] Yambo (P),0,0,0,9.53999996185303,2.51903963088989,0,0,NaN,NaN,0,0.0171320104161963,NaN,0.999923765775072,-0.0017450927263794,-0.0122170019894838,0,9.3555440625906,9.3555440625906,,,123.680000066757,7.02096033096313,0.115435434321661,0.164722856713583
2011-06-01T04:33:41Z,1306902821,10C,56.3833119,27.2331646,9.54,-0.1,-0.7,143.9,14697.18,117478.16,144.2,Air+FixedWing,Red,Allies,J-11A,Red J-11A #005,xu,[51☭] Yambo (P),0,0,0,9.53999996185303,2.51903963088989,0,0,NaN,NaN,0,0.0171320104161963,NaN,0.999930846326028,-0.00221111411709504,-0.0115709136990047,0,9.3555440625906,9.3555440625906,,,124.680000066757,7.02096033096313,0.115435434321661,0.164722856713583
2011-06-01T04:33:42Z,1306902822,10C,56.3833119,27.2331646,9.54,-0.1,-0.7,143.9,14697.18,117478.16,144.2,Air+FixedWing,Red,Allies,J-11A,Red J-11A #005,xu,[51☭] Yambo (P),0.0078125,0,2.29524935831621e-05,9.53999996185303,2.51903963088989,0.0078125,0,NaN,NaN,0,0.0171320104161963,NaN,0.999916685224118,-0.00127907133566377,-0.012863090279963,3.0517578125e-06,9.3555440625906,9.35554711434841,,,125.680000066757,7.02096033096313,0.115435434321661,0.164722856713583
2011-06-01T04:33:43Z,1306902823,10C,56.3833119,27.2331646,9.54,-0.1,-0.7,143.9,14697.18,117478.16,144.2,Air+FixedWing,Red,Allies,J-11A,Red J-11A #005,xu,[51☭] Yambo (P),0,0,0,9.53999996185303,2.51903963088989,0,0,NaN,NaN,0,0.0171320104161963,NaN,0.999923765775072,-0.0017450927263794,-0.0122170019894838,0,9.3555440625906,9.3555440625906,,,126.680000066757,7.02096033096313,0.115435434321661,0.164722856713583
2011-06-01T04:33:44Z,1306902824,10C,56.3833119,27.2331646,9.54,-0.1,-0.7,143.9,14697.18,117478.16,144.2,Air+FixedWing,Red,Allies,J-11A,Red J-11A #005,xu,[51☭] Yambo (P),0,0,0,9.53999996185303,2.51903963088989,0,0,NaN,NaN,0,0.0171320104161963,NaN,0.999923765775072,-0.0017450927263794,-0.0122170019894838,0,9.3555440625906,9.3555440625906,,,127.680000066757,7.02096033096313,0.115435434321661,0.164722856713583
2011-06-01T04:33:45Z,1306902825,10C,56.3833119,27.2331646,9.54,-0.1,-0.8,143.9,14697.18,117478.16,144.2,Air+FixedWing,Red,Allies,J-11A,Red J-11A #005,xu,[51☭] Yambo (P),0,0,0,9.53999996185303,2.51903963088989,0,0,NaN,NaN,0,0.0171320104161963,NaN,0.999888622928018,-0.000813013327068645,-0.0149858461110242,0,9.3555440625906,9.3555440625906,,,128.680000066757,7.02096033096313,0.115435434321661,0.164722856713583
2011-06-01T04:33:46Z,1306902826,10C,56.3833119,27.2331646,9.54,-0.1,-0.7,143.9,14697.18,117478.17,144.2,Air+FixedWing,Red,Allies,J-11A,Red J-11A #005,xu,[51☭] Yambo (P),0.015625,0,4.59049871663242e-05,9.53999996185303,2.51903867721558,0.015625,0,NaN,NaN,0,0.0171320104161963,NaN,0.999937926876983,-0.00267713550781067,-0.0109248254085256,1.220703125e-05,9.3555440625906,9.35555626962185,,,129.680000066757,7.02096128463745,0.11623057264977,0.165517995810939
2011-06-01T04:33:47Z,1306902827,10C,56.3833119,27.2331647,9.54,-0.1,-0.7,143.9,14697.18,117478.17,144.2,Air+FixedWing,Red,Allies,J-11A,Red J-11A #005,xu,[51☭] Yambo (P),0,0,0,9.53999996185303,2.5190372467041,0,0,NaN,NaN,0,0.0171320104161963,NaN,0.999042096600048,-0.00247045875727464,-0.0127305437640147,0,9.3555440625906,9.3555440625906,,,130.680000066757,7.02096271514893,0.121910139621957,0.17119757112127
2011-06-01T04:33:48Z,1306902828,10C,56.3833118,27.2331647,9.53,-0.1,-0.6,143.9,14697.17,117478.17,144.2,Air+FixedWing,Red,Allies,J-11A,Red J-11A #005,xu,[51☭] Yambo (P),0.0122768224954248,0,3.60683087799173e-05,9.53142833709717,2.51039123535156,0.0087890625,-0.00857162475585938,NaN,NaN,0,0.0171320104161963,NaN,1.00170273189629,-0.000294387938519837,-0.00969147626666482,7.53601852920838e-06,9.34713817019939,9.34714570621792,,,131.680000066757,7.02103710174561,0.131588364923124,0.184125876064736
2011-06-01T04:33:49Z,1306902829,10C,56.3833118,27.2331646,9.54,-0.1,-0.7,143.9,14697.18,117478.17,144.2,Air+FixedWing,Red,Allies,J-11A,Red J-11A #005,xu,[51☭] Yambo (P),0.0122768224954248,0,3.60683122621257e-05,9.53999996185303,2.5189905166626,0.0087890625,0.00857162475585938,NaN,NaN,0,0.0171320104161963,NaN,0.99837619511563,-0.00246929660880515,-0.0127224078242047,7.53601852920838e-06,9.3555440625906,9.35555159860913,,,132.680000066757,7.02100944519043,0.142945805707315,0.198354881051511
2011-06-01T04:33:50Z,1306902830,10C,56.3833119,27.2331646,9.53,-0.1,-0.7,143.9,14697.18,117478.17,144.2,Air+FixedWing,Red,Allies,J-11A,Red J-11A #005,xu,[51☭] Yambo (P),0.00653076171875,0,1.91868486933291e-05,9.53346920013428,2.51250886917114,0,-0.00653076171875,NaN,NaN,0,0.0171320104161963,NaN,1.00022993883622,-0.00231099742295561,-0.0126285425300165,2.13254243135452e-06,9.34913957314968,9.34914170569211,,,133.680000066757,7.02096033096313,0.14917787196925,0.207382040598769
2011-06-01T04:33:51Z,1306902831,10C,56.3833118,27.2331646,9.53,-0.1,-0.7,143.9,14697.17,117478.17,144.2,Air+FixedWing,Red,Allies,J-11A,Red J-11A #005,xu,[51☭] Yambo (P),0.00766597964383143,0,2.25220260819302e-05,9.52999973297119,2.50894165039062,0.0068359375,-0.00346946716308594,NaN,NaN,0,0.0171320104161963,NaN,1.00028946245802,-0.000614990238791571,-0.0114058705700144,2.93836219498189e-06,9.34573718813419,9.34574012649639,,,134.680000066757,7.02105808258057,0.159075861864364,0.217870496355256
2011-06-01T04:33:52Z,1306902832,10C,56.3833118,27.2331646,9.53,-0.1,-0.7,143.9,14697.18,117478.17,144.2,Air+FixedWing,Red,Allies,J-11A,Red J-11A #005,xu,[51☭] Yambo (P),0.0068359375,0,2.00834296231572e-05,9.52999973297119,2.50896596908569,0.0068359375,0,NaN,NaN,0,0.0171320104161963,NaN,0.999917797515397,-0.00231045266586053,-0.0126247288082306,2.33650207519531e-06,9.34573718813419,9.34573952463627,,,135.680000066757,7.0210337638855,0.161285645680553,0.220080284432769
2011-06-01T04:33:53Z,1306902833,10C,56.3833119,27.2331646,9.53,-0.1,-0.7,143.9,14697.18,117478.17,144.2,Air+FixedWing,Red,Allies,J-11A,Red J-11A #005,xu,[51☭] Yambo (P),0,0,0,9.52999973297119,2.50901460647583,0,0,NaN,NaN,0,0.0171320104161963,NaN,0.999923765775072,-0.0017450927263794,-0.0122170019894838,0,9.34573718813419,9.34573718813419,,,136.680000066757,7.02098512649536,0.165889361511863,0.224684006592153
2011-06-01T04:33:54Z,1306902834,10C,56.3833119,27.2331646,9.53,-0.2,-0.7,143.9,14697.18,117478.17,144.2,Air+FixedWing,Red,Allies,J-11A,Red J-11A #005,xu,[51☭] Yambo (P),0,0,0,9.52999973297119,2.50903940200806,0,0,NaN,NaN,0.169989748063277,0.0171320104161963,NaN,0.999920070563093,-0.00322841791191512,-0.0122170019894838,0,9.34573718813419,9.34573718813419,,,137.680000066757,7.02096033096313,0.168973851759479,0.227768501361049
