ISOTime,UnixTime,Id,Longitude,Latitude,Altitude,Roll,Pitch,Yaw,U,V,Heading,Type,Color,Coalition,Name,Group,Country,Pilot,TAS,CAS,M,ASL,AGL,GS,VS,AOA,AOS,RRT,TRT,TRD,G,LatG,LonG,Ek,Ep,Em,FFW,FFV,RelativeTime,Elev,GroundDistance,AirDistance
2011-06-01T04:39:27Z,1306903167,10F,56.3841727,27.23328,9.23,0.4,-0.5,265.4,14782.47,117490.53,265.7,Air+FixedWing,Red,Allies,J-11A,Red J-11A #003,xu,[51☭] Rich (P),0.150162935387922,0,0.000441165041613019,9.23285675048828,2.23327875137329,NaN,NaN,NaN,NaN,NaN,NaN,NaN,NaN,NaN,NaN,NaN,9.05433946521759,NaN,,,0.190000057220459,6.99957799911499,NaN,NaN
2011-06-01T04:39:28Z,1306903168,10F,56.3841744,27.2332796,8.94,-3,0.2,265.4,14782.64,117490.49,265.7,Air+FixedWing,Red,Allies,J-11A,Red J-11A #003,xu,[51☭] Rich (P),0.341317267257443,0.37154546380043,0.00100275576889034,8.9399995803833,1.94055461883545,0.175305889365393,-0.29285717010498,NaN,NaN,4.25712030588555,NaN,NaN,1.05805861836626,-0.0651596107128638,0.0376413999593032,0.00582487384640444,8.76714468849659,8.77296956234299,,,1.19000005722046,6.99944496154785,0.175880888294982,0.34161308241179
2011-06-01T04:39:29Z,1306903169,10F,56.3841727,27.2332799,9.24,-2.1,0.4,265.4,14782.48,117490.52,265.7,Air+FixedWing,Red,Allies,J-11A,Red J-11A #003,xu,[51☭] Rich (P),0.339927243329952,0.37154546380043,0.000998675360882731,9.23714351654053,2.23756790161133,0.16509394889847,0.297143936157227,NaN,NaN,1.81906805995022,0.245692336492099,NaN,0.970203159968037,-0.0315110746916435,-0.00893241247145121,0.00577752653789503,9.05854334664822,9.06432087318611,,,2.19000005722046,6.9995756149292,0.347042134408602,0.684528196099435
2011-06-01T04:39:30Z,1306903170,10F,56.3841726,27.23328,9.25,-1.1,0.2,265.4,14782.47,117490.53,265.7,Air+FixedWing,Red,Allies,J-11A,Red J-11A #003,xu,[51☭] Rich (P),0.0133119337868666,0,3.91092561543932e-05,9.24619007110596,2.24660682678223,0.009765625,0.00904655456542969,NaN,NaN,0.514319647804307,0.129343945982979,NaN,0.994220380920745,-0.0173139939308415,0.00110772567734001,8.86037905729609e-06,9.06741498608112,9.06742384646018,,,3.19000005722046,6.99958324432373,0.357378763396755,0.698264511353907
2011-06-01T04:39:31Z,1306903171,10F,56.3841729,27.2332799,9.2,-1.2,0.1,265.4,14782.49,117490.52,265.7,Air+FixedWing,Red,Allies,J-11A,Red J-11A #003,xu,[51☭] Rich (P),0.0503870208823284,0,0.0001480324281121,9.19999980926514,2.20043802261353,0.0201323516875862,-0.0461902618408203,NaN,NaN,0,0.0617703498835309,NaN,1.00499936778273,-0.0219883857106235,0.00358136604319874,0.00012694259366981,9.022117812953,9.02224475554667,,,4.19000005722046,6.99956178665161,0.386611066432305,0.752927756066736
2011-06-01T04:39:32Z,1306903172,10F,56.3841729,27.2332799,9.21,-1,0.1,265.4,14782.49,117490.52,265.7,Air+FixedWing,Red,Allies,J-11A,Red J-11A #003,xu,[51☭] Rich (P),0.00523853302001953,0,1.5390328598012e-05,9.20523834228516,2.20567655563354,0,0.00523853302001953,NaN,NaN,0.170202551144606,0.0242283218322616,NaN,0.983488145490819,-0.0149728092954435,-0.00620735272926801,1.37211141009175e-06,9.02725505893707,9.02725643104848,,,5.19000005722046,6.99956178665161,0.386611066432305,0.758166289576277
2011-06-01T04:39:33Z,1306903173,10F,56.3841736,27.2332798,9.05,-0.5,0,265.4,14782.57,117490.51,265.7,Air+FixedWing,Red,Allies,J-11A,Red J-11A #003,xu,[51☭] Rich (P),0.17535124328492,0,0.00051516493468854,9.04952430725098,2.05001735687256,0.0806300056737032,-0.15571403503418,NaN,NaN,0.752369562904117,0.132704092229722,NaN,0.977169228487115,-0.00601758643545984,-0.00966093482451193,0.00153740292607836,8.87455175477028,8.87608915769636,,,6.19000005722046,6.99950695037842,0.458641767727999,0.929733470466213
2011-06-01T04:39:34Z,1306903174,10F,56.3841755,27.2332794,8.67,0.1,-0.2,265.4,14782.75,117490.47,265.7,Air+FixedWing,Red,Allies,J-11A,Red J-11A #003,xu,[51☭] Rich (P),0.422142184896013,0.455048412084579,0.00124020746829559,8.67000007629395,1.67064046859741,0.184838801081521,-0.379524230957031,NaN,NaN,0.599981639218786,0.0827554991286935,NaN,1.07199184668112,-0.0078471577574321,0.0298802416143314,0.008910201213439,8.5023656248188,8.51127582603224,,,7.19000005722046,6.99935960769653,0.649929664717495,1.35473912162465
2011-06-01T04:39:35Z,1306903175,10F,56.3841739,27.2332797,9,-0.4,0,265.4,14782.59,117490.5,265.7,Air+FixedWing,Red,Allies,J-11A,Red J-11A #003,xu,[51☭] Rich (P),0.361754485451566,0.37154546380043,0.0010627989196495,8.99523830413818,1.99575567245483,0.158386877275444,0.325238227844238,NaN,NaN,0.123817669273991,0.0370093733476075,NaN,0.960682076872217,-0.00131616699104356,-0.0185685920067108,0.00654331538721635,8.82131537152767,8.82785868691489,,,8.19000005722046,6.99948263168335,0.809475031706759,1.71700242328952
2011-06-01T04:39:36Z,1306903176,10F,56.3841742,27.2332797,8.93,-0.2,-0.1,265.4,14782.62,117490.49,265.7,Air+FixedWing,Red,Allies,J-11A,Red J-11A #003,xu,[51☭] Rich (P),0.068080942717723,0,0.000200014943815277,8.93476104736328,1.93529939651489,0.0312652550655901,-0.0604772567749023,NaN,NaN,0.104784066491281,0.0242283218322616,NaN,1.01863713914722,-0.00745008777572447,0.00688073717217401,0.000231750738066694,8.76200744251251,8.76223919325058,,,9.19000005722046,6.99946165084839,0.83681231417373,1.78337130025968
2011-06-01T04:39:37Z,1306903177,10F,56.3841736,27.2332798,9.06,-0.2,-0.1,265.4,14782.57,117490.51,265.7,Air+FixedWing,Red,Allies,J-11A,Red J-11A #003,xu,[51☭] Rich (P),0.135755153370059,0,0.000398835499595418,9.05714225769043,2.05763530731201,0.0587562849862942,0.122381210327148,NaN,NaN,0.0571550229746667,0.0139882274201861,NaN,1.00509360743176,-0.00424849034688066,0.00142341085681701,0.000921473083326418,8.88202241213799,8.88294388522131,,,10.1900000572205,6.99950695037842,0.895845277911502,1.91924646956444
2011-06-01T04:39:38Z,1306903178,10F,56.3841728,27.2332799,9.23,-0.3,-0.1,265.4,14782.48,117490.52,265.7,Air+FixedWing,Red,Allies,J-11A,Red J-11A #003,xu,[51☭] Rich (P),0.194124315890598,0.262722313404083,0.000570319556298364,9.22952365875244,2.2299542427063,0.0892687100158316,0.172381401062012,NaN,NaN,0,0.0139882274201861,NaN,0.977543838351523,-0.00264870851177671,-0.0133042500519238,0.00188421250099964,9.05107081881046,9.05295503131146,,,11.1900000572205,6.99956941604614,0.977208253592724,2.1098646748517
2011-06-01T04:39:39Z,1306903179,10F,56.384173,27.2332799,9.18,-0.3,-0.1,265.4,14782.51,117490.52,265.7,Air+FixedWing,Red,Allies,J-11A,Red J-11A #003,xu,[51☭] Rich (P),0.0549120012994851,0,0.000161326371071779,9.18190383911133,2.18234968185425,0.02734375,-0.0476198196411133,NaN,NaN,0,0.0139882274201861,NaN,1.00449913115836,-0.00545388754442229,0.000828629233320473,0.000150766394335733,9.00437172838211,9.00452249477645,,,12.1900000572205,6.99955415725708,0.997004213876017,2.16143529066279
2011-06-01T04:39:40Z,1306903180,10F,56.384173,27.2332799,9.18,-0.3,-0.1,265.4,14782.51,117490.52,265.7,Air+FixedWing,Red,Allies,J-11A,Red J-11A #003,xu,[51☭] Rich (P),0.00390522587657913,0,1.14731912874802e-05,9.17852210998535,2.17896795272827,0.001953125,-0.00338172912597656,NaN,NaN,0,0.0139882274201861,NaN,1.00073936686089,-0.00532966804791033,-0.000555028551893711,7.6253945735516e-07,9.00105538498878,9.00105614752824,,,13.1900000572205,6.99955415725708,0.997004213876017,2.16481701981064
2011-06-01T04:39:41Z,1306903181,10F,56.384173,27.2332799,9.18,-0.3,-0.1,265.4,14782.5,117490.52,265.7,Air+FixedWing,Red,Allies,J-11A,Red J-11A #003,xu,[51☭] Rich (P),0.0105544134042062,0,3.10078887114366e-05,9.18252563476562,2.18297147750854,0.009765625,0.00400352478027344,NaN,NaN,0,0.0139882274201861,NaN,1.00009283870525,-0.00516201713930281,-0.0027385314173949,5.56978211534442e-06,9.00498150161743,9.00498707139955,,,14.1900000572205,6.99955415725708,0.997004213876017,2.16882054521929
2011-06-01T04:39:42Z,1306903182,10F,56.384173,27.2332799,9.19,-0.3,-0.1,265.4,14782.5,117490.52,265.7,Air+FixedWing,Red,Allies,J-11A,Red J-11A #003,xu,[51☭] Rich (P),0.00507736206054688,0,1.49168201675569e-05,9.18760299682617,2.18804883956909,0,0.00507736206054688,NaN,NaN,0,0.0139882274201861,NaN,0.998691598777342,-0.00522934613404292,-0.00174307153454077,1.28898027469404e-06,9.00996069288254,9.00996198186281,,,15.1900000572205,6.99955415725708,0.997004213876017,2.17389790683154
2011-06-01T04:39:43Z,1306903183,10F,56.384173,27.2332799,9.18,-0.3,-0.1,265.4,14782.5,117490.52,265.7,Air+FixedWing,Red,Allies,J-11A,Red J-11A #003,xu,[51☭] Rich (P),0.00760364532470703,0,2.23388048479404e-05,9.17999935150146,2.18044519424438,0,-0.00760364532470703,NaN,NaN,0,0.0139882274201861,NaN,1.00076002565751,-0.00524017682528623,-0.00174668167439114,2.89077111119695e-06,9.00250406404018,9.0025069548113,,,16.1900000572205,6.99955415725708,0.997004213876017,2.18150155197626
2011-06-01T04:39:44Z,1306903184,10F,56.384173,27.2332799,9.18,-0.3,-0.1,265.4,14782.5,117490.52,265.7,Air+FixedWing,Red,Allies,J-11A,Red J-11A #003,xu,[51☭] Rich (P),0,0,0,9.17999935150146,2.18044519424438,0,0,NaN,NaN,0,0.0139882274201861,NaN,0.99998454741218,-0.00522864965184592,-0.00184462961144321,0,9.00250406404018,9.00250406404018,,,17.1900000572205,6.99955415725708,0.997004213876017,2.18150155197626
2011-06-01T04:39:45Z,1306903185,10F,56.384173,27.2332799,9.18,-0.3,-0.1,265.4,14782.5,117490.52,265.7,Air+FixedWing,Red,Allies,J-11A,Red J-11A #003,xu,[51☭] Rich (P),0.0009765625,0,2.86905006450407e-06,9.17999935150146,2.18044519424438,0.0009765625,0,NaN,NaN,0,0.0139882274201861,NaN,0.99998481584308,-0.00524358429009627,-0.00164602723569102,4.76837158203125e-08,9.00250406404018,9.0025041117239,,,18.1900000572205,6.99955415725708,0.997004213876017,2.18150155197626
2011-06-01T04:39:46Z,1306903186,10F,56.384173,27.2332799,9.18,-0.3,-0.1,265.4,14782.5,117490.52,265.7,Air+FixedWing,Red,Allies,J-11A,Red J-11A #003,xu,[51☭] Rich (P),0,0,0,9.17999935150146,2.18044519424438,0,0,NaN,NaN,0,0.0139882274201861,NaN,0.99998468162763,-0.00523611697097109,-0.00174532842356712,0,9.00250406404018,9.00250406404018,,,19.1900000572205,6.99955415725708,0.997004213876017,2.18150155197626
2011-06-01T04:39:47Z,1306903187,10F,56.384173,27.2332799,9.18,-0.3,-0.1,265.4,14782.5,117490.52,265.7,Air+FixedWing,Red,Allies,J-11A,Red J-11A #003,xu,[51☭] Rich (P),0,0,0,9.17999935150146,2.18044519424438,0,0,NaN,NaN,0,0.0139882274201861,NaN,0.99998454741218,-0.00522864965184592,-0.00184462961144321,0,9.00250406404018,9.00250406404018,,,20.1900000572205,6.99955415725708,0.997004213876017,2.18150155197626
2011-06-01T04:39:48Z,1306903188,10F,56.384173,27.2332799,9.18,-0.3,-0.1,265.4,14782.5,117490.52,265.7,Air+FixedWing,Red,Allies,J-11A,Red J-11A #003,xu,[51☭] Rich (P),0.0009765625,0,2.86905006450407e-06,9.17999935150146,2.18044519424438,0.0009765625,0,NaN,NaN,0,0.0139882274201861,NaN,0.99998481584308,-0.00524358429009627,-0.00164602723569102,4.76837158203125e-08,9.00250406404018,9.0025041117239,,,21.1900000572205,6.99955415725708,0.997004213876017,2.18150155197626
2011-06-01T04:39:49Z,1306903189,10F,56.384173,27.2332799,9.18,-0.3,-0.1,265.4,14782.5,117490.52,265.7,Air+FixedWing,Red,Allies,J-11A,Red J-11A #003,xu,[51☭] Rich (P),0,0,0,9.17999935150146,2.18044519424438,0,0,NaN,NaN,0,0.0139882274201861,NaN,0.99998454741218,-0.00522864965184592,-0.00184462961144321,0,9.00250406404018,9.00250406404018,,,22.1900000572205,6.99955415725708,0.997004213876017,2.18150155197626
2011-06-01T04:39:50Z,1306903190,10F,56.384173,27.2332799,9.18,-0.3,-0.1,265.4,14782.5,117490.52,265.7,Air+FixedWing,Red,Allies,J-11A,Red J-11A #003,xu,[51☭] Rich (P),0.0009765625,0,2.86905006450407e-06,9.17999935150146,2.18044519424438,0.0009765625,0,NaN,NaN,0,0.0139882274201861,NaN,0.99998481584308,-0.00524358429009627,-0.00164602723569102,4.76837158203125e-08,9.00250406404018,9.0025041117239,,,23.1900000572205,6.99955415725708,0.997004213876017,2.18150155197626
2011-06-01T04:39:51Z,1306903191,10F,56.384173,27.2332799,9.18,-0.3,-0.1,265.4,14782.5,117490.52,265.7,Air+FixedWing,Red,Allies,J-11A,Red J-11A #003,xu,[51☭] Rich (P),0,0,0,9.17999935150146,2.18044519424438,0,0,NaN,NaN,0,0.0139882274201861,NaN,0.99998468162763,-0.00523611697097109,-0.00174532842356712,0,9.00250406404018,9.00250406404018,,,24.1900000572205,6.99955415725708,0.997004213876017,2.18150155197626
2011-06-01T04:39:52Z,1306903192,10F,56.384173,27.2332799,9.18,-0.3,-0.1,265.4,14782.5,117490.52,265.7,Air+FixedWing,Red,Allies,J-11A,Red J-11A #003,xu,[51☭] Rich (P),0,0,0,9.17999935150146,2.18044519424438,0,0,NaN,NaN,0,0.0139882274201861,NaN,0.99998454741218,-0.00522864965184592,-0.00184462961144321,0,9.00250406404018,9.00250406404018,,,25.1900000572205,6.99955415725708,0.997004213876017,2.18150155197626
2011-06-01T04:39:53Z,1306903193,10F,56.384173,27.2332799,9.18,-0.3,-0.1,265.4,14782.5,117490.52,265.7,Air+FixedWing,Red,Allies,J-11A,Red J-11A #003,xu,[51☭] Rich (P),0.0009765625,0,2.86905006450407e-06,9.17999935150146,2.18044519424438,0.0009765625,0,NaN,NaN,0,0.0139882274201861,NaN,0.99998481584308,-0.00524358429009627,-0.00164602723569102,4.76837158203125e-08,9.00250406404018,9.0025041117239,,,26.1900000572205,6.99955415725708,0.997004213876017,2.18150155197626
2011-06-01T04:39:54Z,1306903194,10F,56.384173,27.2332799,9.18,-0.3,-0.1,265.4,14782.5,117490.52,265.7,Air+FixedWing,Red,Allies,J-11A,Red J-11A #003,xu,[51☭] Rich (P),0,0,0,9.17999935150146,2.18044519424438,0,0,NaN,NaN,0,0.0139882274201861,NaN,0.99998468162763,-0.00523611697097109,-0.00174532842356712,0,9.00250406404018,9.00250406404018,,,27.1900000572205,6.99955415725708,0.997004213876017,2.18150155197626
2011-06-01T04:39:55Z,1306903195,10F,56.384173,27.2332799,9.18,-0.3,-0.1,265.4,14782.5,117490.52,265.7,Air+FixedWing,Red,Allies,J-11A,Red J-11A #003,xu,[51☭] Rich (P),0,0,0,9.17999935150146,2.18044519424438,0,0,NaN,NaN,0,0.0139882274201861,NaN,0.99998454741218,-0.00522864965184592,-0.00184462961144321,0,9.00250406404018,9.00250406404018,,,28.1900000572205,6.99955415725708,0.997004213876017,2.18150155197626
2011-06-01T04:39:56Z,1306903196,10F,56.384173,27.2332799,9.18,-0.3,-0.1,265.4,14782.5,117490.52,265.7,Air+FixedWing,Red,Allies,J-11A,Red J-11A #003,xu,[51☭] Rich (P),0.0009765625,0,2.86905006450407e-06,9.17999935150146,2.18044519424438,0.0009765625,0,NaN,NaN,0,0.0139882274201861,NaN,0.99998481584308,-0.00524358429009627,-0.00164602723569102,4.76837158203125e-08,9.00250406404018,9.0025041117239,,,29.1900000572205,6.99955415725708,0.997004213876017,2.18150155197626
2011-06-01T04:39:57Z,1306903197,10F,56.384173,27.2332799,9.18,-0.3,-0.1,265.4,14782.5,117490.52,265.7,Air+FixedWing,Red,Allies,J-11A,Red J-11A #003,xu,[51☭] Rich (P),0,0,0,9.17999935150146,2.18044519424438,0,0,NaN,NaN,0,0.0139882274201861,NaN,0.99998468162763,-0.00523611697097109,-0.00174532842356712,0,9.00250406404018,9.00250406404018,,,30.1900000572205,6.99955415725708,0.997004213876017,2.18150155197626
2011-06-01T04:39:58Z,1306903198,10F,56.384173,27.2332799,9.18,-0.3,-0.1,265.4,14782.5,117490.52,265.7,Air+FixedWing,Red,Allies,J-11A,Red J-11A #003,xu,[51☭] Rich (P),0,0,0,9.17999935150146,2.18044519424438,0,0,NaN,NaN,0,0.0139882274201861,NaN,0.99998454741218,-0.00522864965184592,-0.00184462961144321,0,9.00250406404018,9.00250406404018,,,31.1900000572205,6.99955415725708,0.997004213876017,2.18150155197626
2011-06-01T04:39:59Z,1306903199,10F,56.384173,27.2332799,9.18,-0.3,-0.1,265.4,14782.51,117490.52,265.7,Air+FixedWing,Red,Allies,J-11A,Red J-11A #003,xu,[51☭] Rich (P),0.0009765625,0,2.86905006450407e-06,9.17999935150146,2.18044519424438,0.0009765625,0,NaN,NaN,0,0.0139882274201861,NaN,0.99998481584308,-0.00524358429009627,-0.00164602723569102,4.76837158203125e-08,9.00250406404018,9.0025041117239,,,32.1900000572205,6.99955415725708,0.997004213876017,2.18150155197626
2011-06-01T04:40:00Z,1306903200,10F,56.384173,27.2332799,9.18,-0.3,-0.1,265.4,14782.51,117490.52,265.7,Air+FixedWing,Red,Allies,J-11A,Red J-11A #003,xu,[51☭] Rich (P),0,0,0,9.17999935150146,2.18044519424438,0,0,NaN,NaN,0,0.0139882274201861,NaN,0.99998468162763,-0.00523611697097109,-0.00174532842356712,0,9.00250406404018,9.00250406404018,,,33.1900000572205,6.99955415725708,0.997004213876017,2.18150155197626
2011-06-01T04:40:01Z,1306903201,10F,56.384173,27.2332799,9.18,-0.3,-0.1,265.4,14782.51,117490.52,265.7,Air+FixedWing,Red,Allies,J-11A,Red J-11A #003,xu,[51☭] Rich (P),0,0,0,9.17999935150146,2.18044519424438,0,0,NaN,NaN,0,0.0139882274201861,NaN,0.99998454741218,-0.00522864965184592,-0.00184462961144321,0,9.00250406404018,9.00250406404018,,,34.1900000572205,6.99955415725708,0.997004213876017,2.18150155197626
2011-06-01T04:40:02Z,1306903202,10F,56.384173,27.2332799,9.18,-0.3,-0.1,265.4,14782.51,117490.52,265.7,Air+FixedWing,Red,Allies,J-11A,Red J-11A #003,xu,[51☭] Rich (P),0.0009765625,0,2.86905006450407e-06,9.17999935150146,2.18044519424438,0.0009765625,0,NaN,NaN,0,0.0139882274201861,NaN,0.99998481584308,-0.00524358429009627,-0.00164602723569102,4.76837158203125e-08,9.00250406404018,9.0025041117239,,,35.1900000572205,6.99955415725708,0.997004213876017,2.18150155197626
2011-06-01T04:40:03Z,1306903203,10F,56.384173,27.2332799,9.18,-0.3,-0.1,265.4,14782.51,117490.52,265.7,Air+FixedWing,Red,Allies,J-11A,Red J-11A #003,xu,[51☭] Rich (P),0,0,0,9.17999935150146,2.18044519424438,0,0,NaN,NaN,0,0.0139882274201861,NaN,0.99998454741218,-0.00522864965184592,-0.00184462961144321,0,9.00250406404018,9.00250406404018,,,36.1900000572205,6.99955415725708,0.997004213876017,2.18150155197626
2011-06-01T04:40:04Z,1306903204,10F,56.384173,27.2332799,9.18,-0.3,-0.1,265.4,14782.51,117490.52,265.7,Air+FixedWing,Red,Allies,J-11A,Red J-11A #003,xu,[51☭] Rich (P),0.0009765625,0,2.86905006450407e-06,9.17999935150146,2.18044519424438,0.0009765625,0,NaN,NaN,0,0.0139882274201861,NaN,0.99998481584308,-0.00524358429009627,-0.00164602723569102,4.76837158203125e-08,9.00250406404018,9.0025041117239,,,37.1900000572205,6.99955415725708,0.997004213876017,2.18150155197626
2011-06-01T04:40:05Z,1306903205,10F,56.384173,27.2332799,9.18,-0.3,-0.1,265.4,14782.51,117490.52,265.7,Air+FixedWing,Red,Allies,J-11A,Red J-11A #003,xu,[51☭] Rich (P),0,0,0,9.17999935150146,2.18044519424438,0,0,NaN,NaN,0,0.0139882274201861,NaN,0.99998468162763,-0.00523611697097109,-0.00174532842356712,0,9.00250406404018,9.00250406404018,,,38.1900000572205,6.99955415725708,0.997004213876017,2.18150155197626
2011-06-01T04:40:06Z,1306903206,10F,56.384173,27.2332799,9.18,-0.3,-0.1,265.4,14782.51,117490.52,265.7,Air+FixedWing,Red,Allies,J-11A,Red J-11A #003,xu,[51☭] Rich (P),0,0,0,9.17999935150146,2.18044519424438,0,0,NaN,NaN,0,0.0139882274201861,NaN,0.99998454741218,-0.00522864965184592,-0.00184462961144321,0,9.00250406404018,9.00250406404018,,,39.1900000572205,6.99955415725708,0.997004213876017,2.18150155197626
2011-06-01T04:40:07Z,1306903207,10F,56.384173,27.2332799,9.18,-0.3,-0.1,265.4,14782.51,117490.52,265.7,Air+FixedWing,Red,Allies,J-11A,Red J-11A #003,xu,[51☭] Rich (P),0.0009765625,0,2.86905006450407e-06,9.17999935150146,2.18044519424438,0.0009765625,0,NaN,NaN,0,0.0139882274201861,NaN,0.99998481584308,-0.00524358429009627,-0.00164602723569102,4.76837158203125e-08,9.00250406404018,9.0025041117239,,,40.1900000572205,6.99955415725708,0.997004213876017,2.18150155197626
2011-06-01T04:40:08Z,1306903208,10F,56.384173,27.2332799,9.18,-0.3,-0.1,265.4,14782.51,117490.52,265.7,Air+FixedWing,Red,Allies,J-11A,Red J-11A #003,xu,[51☭] Rich (P),0,0,0,9.17999935150146,2.18044519424438,0,0,NaN,NaN,0,0.0139882274201861,NaN,0.99998468162763,-0.00523611697097109,-0.00174532842356712,0,9.00250406404018,9.00250406404018,,,41.1900000572205,6.99955415725708,0.997004213876017,2.18150155197626
2011-06-01T04:40:09Z,1306903209,10F,56.384173,27.2332799,9.18,-0.3,-0.1,265.4,14782.51,117490.52,265.7,Air+FixedWing,Red,Allies,J-11A,Red J-11A #003,xu,[51☭] Rich (P),0,0,0,9.17999935150146,2.18044519424438,0,0,NaN,NaN,0,0.0139882274201861,NaN,0.99998454741218,-0.00522864965184592,-0.00184462961144321,0,9.00250406404018,9.00250406404018,,,42.1900000572205,6.99955415725708,0.997004213876017,2.18150155197626
2011-06-01T04:40:10Z,1306903210,10F,56.384173,27.2332799,9.18,-0.3,-0.1,265.4,14782.51,117490.52,265.7,Air+FixedWing,Red,Allies,J-11A,Red J-11A #003,xu,[51☭] Rich (P),0.0009765625,0,2.86905006450407e-06,9.17999935150146,2.18044519424438,0.0009765625,0,NaN,NaN,0,0.0139882274201861,NaN,0.99998481584308,-0.00524358429009627,-0.00164602723569102,4.76837158203125e-08,9.00250406404018,9.0025041117239,,,43.1900000572205,6.99955415725708,0.997004213876017,2.18150155197626
2011-06-01T04:40:11Z,1306903211,10F,56.384173,27.2332799,9.18,-0.3,-0,265.4,14782.51,117490.52,265.7,Air+FixedWing,Red,Allies,J-11A,Red J-11A #003,xu,[51☭] Rich (P),0,0,0,9.17999935150146,2.18044519424438,0,0,NaN,NaN,0,0.0523391626455858,NaN,1.00049580853758,-0.00531345949588433,0.000826611538102582,0,9.00250406404018,9.00250406404018,,,44.1900000572205,6.99955415725708,0.997004213876017,2.18150155197626
2011-06-01T04:40:12Z,1306903212,10F,56.384173,27.2332799,9.18,-0.3,0,265.4,14782.5,117490.52,265.7,Air+FixedWing,Red,Allies,J-11A,Red J-11A #003,xu,[51☭] Rich (P),0.0109712613706402,0,3.22325503138134e-05,9.18499946594238,2.1854453086853,0.009765625,0.00500011444091797,NaN,NaN,0,0.0523391626455858,NaN,0.998966837472123,-0.00515612117433518,-0.000993013292985404,6.01842880314507e-06,9.00740750126839,9.00741351969719,,,45.1900000572205,6.99955415725708,0.997004213876017,2.18650166641211
2011-06-01T04:40:13Z,1306903213,10F,56.384173,27.2332799,9.18,-0.3,0,265.4,14782.5,117490.52,265.7,Air+FixedWing,Red,Allies,J-11A,Red J-11A #003,xu,[51☭] Rich (P),0.00500011444091797,0,1.46898725470653e-05,9.17999935150146,2.18044519424438,0,-0.00500011444091797,NaN,NaN,0,0.0171320104161963,NaN,1.00049603432679,-0.00523879451476916,0,1.25005722111382e-06,9.00250406404018,9.00250531409741,,,46.1900000572205,6.99955415725708,0.997004213876017,2.19150178084795
2011-06-01T04:40:14Z,1306903214,10F,56.384173,27.2332799,9.18,-0.2,0,265.4,14782.5,117490.52,265.7,Air+FixedWing,Red,Allies,J-11A,Red J-11A #003,xu,[51☭] Rich (P),0,0,0,9.17999935150146,2.18044519424438,0,0,NaN,NaN,0.199315165264727,0.0171320104161963,NaN,0.999993801117309,-0.00349678846654065,0,0,9.00250406404018,9.00250406404018,,,47.1900000572205,6.99955415725708,0.997004213876017,2.19150178084795
2011-06-01T04:40:15Z,1306903215,10F,56.384173,27.2332799,9.18,-0.2,0,265.4,14782.5,117490.52,265.7,Air+FixedWing,Red,Allies,J-11A,Red J-11A #003,xu,[51☭] Rich (P),0,0,0,9.17999935150146,2.18044519424438,0,0,NaN,NaN,0.0363912478978279,0.0171320104161963,NaN,0.999991357327019,-0.00413158464765043,0,0,9.00250406404018,9.00250406404018,,,48.1900000572205,6.99955415725708,0.997004213876017,2.19150178084795
2011-06-01T04:40:16Z,1306903216,10F,56.384173,27.2332799,9.18,-0.3,0,265.4,14782.5,117490.52,265.7,Air+FixedWing,Red,Allies,J-11A,Red J-11A #003,xu,[51☭] Rich (P),0,0,0,9.17999935150146,2.18044519424438,0,0,NaN,NaN,0.0363912478978279,0.0171320104161963,NaN,0.999988911791218,-0.00469171396806284,-0.000993013292985404,0,9.00250406404018,9.00250406404018,,,49.1900000572205,6.99955415725708,0.997004213876017,2.19150178084795
2011-06-01T04:40:17Z,1306903217,10F,56.384173,27.2332799,9.18,-0.3,0,265.4,14782.51,117490.52,265.7,Air+FixedWing,Red,Allies,J-11A,Red J-11A #003,xu,[51☭] Rich (P),0.009765625,0,2.86905006450407e-05,9.17999935150146,2.18044710159302,0.009765625,0,NaN,NaN,0.0174852842752326,0.0171320104161963,NaN,0.999985585289231,-0.00534812094791992,0.00148951993947811,4.76837158203125e-06,9.00250406404018,9.00250883241177,,,50.1900000572205,6.99955224990845,0.998600661769588,2.19309823132388
2011-06-01T04:40:18Z,1306903218,10F,56.384173,27.2332799,9.18,-0.3,0,265.4,14782.5,117490.52,265.7,Air+FixedWing,Red,Allies,J-11A,Red J-11A #003,xu,[51☭] Rich (P),0.0048828125,0,1.43452503225204e-05,9.17999935150146,2.18044519424438,0.0048828125,0,NaN,NaN,0,0.0171320104161963,NaN,0.999986562679234,-0.00516146065706253,-0.000993013292985404,1.19209289550781e-06,9.00250406404018,9.00250525613308,,,51.1900000572205,6.99955415725708,1.00019710966316,2.1946946817998
2011-06-01T04:40:19Z,1306903219,10F,56.384173,27.2332799,9.18,-0.2,0,265.4,14782.51,117490.52,265.7,Air+FixedWing,Red,Allies,J-11A,Red J-11A #003,xu,[51☭] Rich (P),0.0048828125,0,1.43452503225204e-05,9.17999935150146,2.18044519424438,0.0048828125,0,NaN,NaN,0.0704374997545201,0.0171320104161963,NaN,0.999990541078057,-0.00433914913279358,0.000496506646492702,1.19209289550781e-06,9.00250406404018,9.00250525613308,,,52.1900000572205,6.99955415725708,1.00019710966316,2.1946946817998
2011-06-01T04:40:20Z,1306903220,10F,56.384173,27.2332799,9.18,-0.1,0,265.4,14782.51,117490.52,265.7,Air+FixedWing,Red,Allies,J-11A,Red J-11A #003,xu,[51☭] Rich (P),0,0,0,9.17999935150146,2.18044519424438,0,0,NaN,NaN,0.222527936684986,0.0171320104161963,NaN,0.99958294917132,-0.00174449792439474,0,0,9.00250406404018,9.00250406404018,,,53.1900000572205,6.99955415725708,1.00337766245459,2.19787523926339
2011-06-01T04:40:21Z,1306903221,10F,56.384173,27.2332799,9.18,-0.2,0,265.4,14782.51,117490.52,265.7,Air+FixedWing,Red,Allies,J-11A,Red J-11A #003,xu,[51☭] Rich (P),0.0040740966796875,0,1.19693176886118e-05,9.17592525482178,2.1763710975647,0,-0.0040740966796875,NaN,NaN,0.199987938897973,0.0171320104161963,NaN,1.00074207998576,-0.00349305243639528,0,8.29913187772036e-07,8.9985087400198,8.99850956993299,,,54.1900000572205,6.99955415725708,1.00655821524601,2.20304381930884
2011-06-01T04:40:22Z,1306903222,10F,56.384173,27.2332799,9.18,-0.2,0,265.4,14782.51,117490.52,265.7,Air+FixedWing,Red,Allies,J-11A,Red J-11A #003,xu,[51☭] Rich (P),0.00326347351074219,0,9.58778245223968e-06,9.17918872833252,2.17963457107544,0,0.00326347351074219,NaN,NaN,0,0.0171320104161963,NaN,0.999743741155206,-0.00348956777210211,0,5.32512967765797e-07,9.00170911427021,9.00170964678318,,,55.1900000572205,6.99955415725708,1.00655821524601,2.20630729293101
2011-06-01T04:40:23Z,1306903223,10F,56.384173,27.2332798,9.18,-0.3,0,265.4,14782.51,117490.52,265.7,Air+FixedWing,Red,Allies,J-11A,Red J-11A #003,xu,[51☭] Rich (P),0.000810623168945312,0,2.38153569807467e-06,9.17999935150146,2.18044567108154,0,0.000810623168945312,NaN,NaN,0.089994572504088,0.0171320104161963,NaN,0.999903512327272,-0.00523569195247107,0,3.2855496101547e-08,9.00250406404018,9.00250409689568,,,56.1900000572205,6.99955368041992,1.01397951502725,2.2137727431187
2011-06-01T04:40:24Z,1306903224,10F,56.384173,27.2332799,9.18,-0.3,0,265.4,14782.51,117490.52,265.7,Air+FixedWing,Red,Allies,J-11A,Red J-11A #003,xu,[51☭] Rich (P),0,0,0,9.17999935150146,2.18044519424438,0,0,NaN,NaN,0.0751320808701403,0.0171320104161963,NaN,0.999986588955721,-0.00515299725365653,0,0,9.00250406404018,9.00250406404018,,,57.1900000572205,6.99955415725708,1.02140081480848,2.22119405319032
2011-06-01T04:40:25Z,1306903225,10F,56.384173,27.2332799,9.18,-0.2,0,265.4,14782.51,117490.52,265.7,Air+FixedWing,Red,Allies,J-11A,Red J-11A #003,xu,[51☭] Rich (P),0,0,0,9.17999935150146,2.18044519424438,0,0,NaN,NaN,0.0571550229746667,0.0171320104161963,NaN,0.999990880489889,-0.00424856806927512,0,0,9.00250406404018,9.00250406404018,,,58.1900000572205,6.99955415725708,1.02140081480848,2.22119405319032
2011-06-01T04:40:26Z,1306903226,10F,56.384173,27.2332799,9.18,-0.2,0,265.4,14782.51,117490.52,265.7,Air+FixedWing,Red,Allies,J-11A,Red J-11A #003,xu,[51☭] Rich (P),0,0,0,9.17999935150146,2.18044519424438,0,0,NaN,NaN,0.0139277695738609,0.0171320104161963,NaN,0.99999332428018,-0.00362825837711939,0,0,9.00250406404018,9.00250406404018,,,59.1900000572205,6.99955415725708,1.02140081480848,2.22119405319032
2011-06-01T04:40:27Z,1306903227,10F,56.384173,27.2332799,9.18,-0.2,0,265.4,14782.51,117490.52,265.7,Air+FixedWing,Red,Allies,J-11A,Red J-11A #003,xu,[51☭] Rich (P),0,0,0,9.17999935150146,2.18044519424438,0,0,NaN,NaN,0.0328941910427814,0.0171320104161963,NaN,0.999991059303813,-0.00420249740690007,0,0,9.00250406404018,9.00250406404018,,,60.1900000572205,6.99955415725708,1.02140081480848,2.22119405319032
2011-06-01T04:40:28Z,1306903228,10F,56.384173,27.2332799,9.18,-0.3,0,265.4,14782.51,117490.52,265.7,Air+FixedWing,Red,Allies,J-11A,Red J-11A #003,xu,[51☭] Rich (P),0,0,0,9.17999935150146,2.18044519424438,0,0,NaN,NaN,0.0328941910427814,0.0171320104161963,NaN,0.99998849630424,-0.00477673550535823,0,0,9.00250406404018,9.00250406404018,,,61.1900000572205,6.99955415725708,1.02140081480848,2.22119405319032
2011-06-01T04:40:29Z,1306903229,10F,56.384173,27.2332799,9.18,-0.3,0,265.4,14782.51,117490.52,265.7,Air+FixedWing,Red,Allies,J-11A,Red J-11A #003,xu,[51☭] Rich (P),0,0,0,9.17999935150146,2.18044519424438,0,0,NaN,NaN,0.00606520798297132,0.0171320104161963,NaN,0.999986827374286,-0.00511655739745154,0,0,9.00250406404018,9.00250406404018,,,62.1900000572205,6.99955415725708,1.02140081480848,2.22119405319032
2011-06-01T04:40:30Z,1306903230,10F,56.384173,27.2332799,9.18,-0.3,0,265.4,14782.51,117490.52,265.7,Air+FixedWing,Red,Allies,J-11A,Red J-11A #003,xu,[51☭] Rich (P),0,0,0,9.17999935150146,2.18044519424438,0,0,NaN,NaN,0.03425387893529,0.0171320104161963,NaN,0.999989688397065,-0.00451872191466557,0,0,9.00250406404018,9.00250406404018,,,63.1900000572205,6.99955415725708,1.02140081480848,2.22119405319032
2011-06-01T04:40:31Z,1306903231,10F,56.384173,27.2332799,9.18,-0.2,0,265.4,14782.51,117490.52,265.7,Air+FixedWing,Red,Allies,J-11A,Red J-11A #003,xu,[51☭] Rich (P),0,0,0,9.17999935150146,2.18044519424438,0,0,NaN,NaN,0.0342538255744371,0.0171320104161963,NaN,0.999992251396638,-0.00392088456923456,0,0,9.00250406404018,9.00250406404018,,,64.1900000572205,6.99955415725708,1.02140081480848,2.22119405319032
2011-06-01T04:40:32Z,1306903232,10F,56.384173,27.2332799,9.18,-0.2,0,265.4,14782.51,117490.52,265.7,Air+FixedWing,Red,Allies,J-11A,Red J-11A #003,xu,[51☭] Rich (P),0,0,0,9.17999935150146,2.18044519424438,0,0,NaN,NaN,0.00311456626152581,0.0171320104161963,NaN,0.999993264675538,-0.00364913979215085,0,0,9.00250406404018,9.00250406404018,,,65.1900000572205,6.99955415725708,1.02140081480848,2.22119405319032
2011-06-01T04:40:33Z,1306903233,10F,56.384173,27.2332799,9.18,-0.2,0,265.4,14782.51,117490.52,265.7,Air+FixedWing,Red,Allies,J-11A,Red J-11A #003,xu,[51☭] Rich (P),0,0,0,9.17999935150146,2.18044519424438,0,0,NaN,NaN,0.0324570589359006,0.0171320104161963,NaN,0.999990999699172,-0.00421592148969044,0,0,9.00250406404018,9.00250406404018,,,66.1900000572205,6.99955415725708,1.02140081480848,2.22119405319032
2011-06-01T04:40:34Z,1306903234,10F,56.384173,27.2332799,9.18,-0.3,0,265.4,14782.51,117490.52,265.7,Air+FixedWing,Red,Allies,J-11A,Red J-11A #003,xu,[51☭] Rich (P),0,0,0,9.17999935150146,2.18044519424438,0,0,NaN,NaN,0.0324570589359006,0.0171320104161963,NaN,0.99998849630424,-0.00478270155741561,0,0,9.00250406404018,9.00250406404018,,,67.1900000572205,6.99955415725708,1.02140081480848,2.22119405319032
2011-06-01T04:40:35Z,1306903235,10F,56.384173,27.2332799,9.18,-0.3,0.1,265.4,14782.51,117490.52,265.7,Air+FixedWing,Red,Allies,J-11A,Red J-11A #003,xu,[51☭] Rich (P),0,0,0,9.17999935150146,2.18044519424438,0,0,NaN,NaN,0.0195070202695564,0.0171320104161963,NaN,0.999985218062047,-0.00523611977984748,0.00145435309968889,0,9.00250406404018,9.00250406404018,,,68.1900000572205,6.99955415725708,1.02140081480848,2.22119405319032
2011-06-01T04:40:36Z,1306903236,10F,56.384173,27.2332799,9.18,-0.3,0,265.4,14782.51,117490.52,265.7,Air+FixedWing,Red,Allies,J-11A,Red J-11A #003,xu,[51☭] Rich (P),0,0,0,9.17999935150146,2.18044519424438,0,0,NaN,NaN,0,0.0171320104161963,NaN,0.999986231327057,-0.00523612508550286,1.29477730297367e-05,0,9.00250406404018,9.00250406404018,,,69.1900000572205,6.99955415725708,1.02140081480848,2.22119405319032
2011-06-01T04:40:37Z,1306903237,10F,56.384173,27.2332799,9.18,-0.3,0,265.4,14782.51,117490.52,265.7,Air+FixedWing,Red,Allies,J-11A,Red J-11A #003,xu,[51☭] Rich (P),0,0,0,9.17999935150146,2.18044519424438,0,0,NaN,NaN,0,0.0171320104161963,NaN,0.999986231327057,-0.00523612508550286,4.70208688057028e-05,0,9.00250406404018,9.00250406404018,,,70.1900000572205,6.99955415725708,1.02140081480848,2.22119405319032
2011-06-01T04:40:38Z,1306903238,10F,56.384173,27.2332799,9.18,-0.3,0,265.4,14782.51,117490.52,265.7,Air+FixedWing,Red,Allies,J-11A,Red J-11A #003,xu,[51☭] Rich (P),0,0,0,9.17999935150146,2.18044519424438,0,0,NaN,NaN,0,0.0139882274201861,NaN,0.999986171723233,-0.00523612477340549,8.10939600341953e-05,0,9.00250406404018,9.00250406404018,,,71.1900000572205,6.99955415725708,1.02140081480848,2.22119405319032
2011-06-01T04:40:39Z,1306903239,10F,56.384173,27.2332799,9.18,-0.3,0,265.4,14782.51,117490.52,265.7,Air+FixedWing,Red,Allies,J-11A,Red J-11A #003,xu,[51☭] Rich (P),0,0,0,9.17999935150146,2.18044519424438,0,0,NaN,NaN,0,0.0139882274201861,NaN,0.999986171723233,-0.00523612477340549,0.000115167058538646,0,9.00250406404018,9.00250406404018,,,72.1900000572205,6.99955415725708,1.02140081480848,2.22119405319032
2011-06-01T04:40:40Z,1306903240,10F,56.384173,27.2332799,9.18,-0.3,0,265.4,14782.51,117490.52,265.7,Air+FixedWing,Red,Allies,J-11A,Red J-11A #003,xu,[51☭] Rich (P),0,0,0,9.17999935150146,2.18044519424438,0,0,NaN,NaN,0,0.0139882274201861,NaN,0.999986171723233,-0.00523612477340549,0.000149240164319053,0,9.00250406404018,9.00250406404018,,,73.1900000572205,6.99955415725708,1.02140081480848,2.22119405319032
2011-06-01T04:40:41Z,1306903241,10F,56.384173,27.2332799,9.18,-0.3,0,265.4,14782.51,117490.52,265.7,Air+FixedWing,Red,Allies,J-11A,Red J-11A #003,xu,[51☭] Rich (P),0,0,0,9.17999935150146,2.18044519424438,0,0,NaN,NaN,0,0.0139882274201861,NaN,0.999986171723233,-0.00523612477340549,0.000183313255547546,0,9.00250406404018,9.00250406404018,,,74.1900000572205,6.99955415725708,1.02140081480848,2.22119405319032
2011-06-01T04:40:42Z,1306903242,10F,56.384173,27.2332799,9.18,-0.3,0,265.4,14782.51,117490.52,265.7,Air+FixedWing,Red,Allies,J-11A,Red J-11A #003,xu,[51☭] Rich (P),0,0,0,9.17999935150146,2.18044519424438,0,0,NaN,NaN,0,0.0139882274201861,NaN,0.999986171723233,-0.00523612477340549,0.000217386346776038,0,9.00250406404018,9.00250406404018,,,75.1900000572205,6.99955415725708,1.02140081480848,2.22119405319032
2011-06-01T04:40:43Z,1306903243,10F,56.384173,27.2332799,9.18,-0.3,0,265.4,14782.51,117490.52,265.7,Air+FixedWing,Red,Allies,J-11A,Red J-11A #003,xu,[51☭] Rich (P),0,0,0,9.17999935150146,2.18044519424438,0,0,NaN,NaN,0,0.0139882274201861,NaN,0.999986171723233,-0.00523612477340549,0.000251459452556446,0,9.00250406404018,9.00250406404018,,,76.1900000572205,6.99955415725708,1.02140081480848,2.22119405319032
2011-06-01T04:40:44Z,1306903244,10F,56.384173,27.2332799,9.18,-0.3,0,265.4,14782.51,117490.52,265.7,Air+FixedWing,Red,Allies,J-11A,Red J-11A #003,xu,[51☭] Rich (P),0,0,0,9.17999935150146,2.18044519424438,0,0,NaN,NaN,0,0.0171320104161963,NaN,0.999986112119409,-0.00523612446130811,0.000285532558336854,0,9.00250406404018,9.00250406404018,,,77.1900000572205,6.99955415725708,1.02140081480848,2.22119405319032
2011-06-01T04:40:45Z,1306903245,10F,56.384173,27.2332799,9.18,-0.3,0,265.4,14782.51,117490.52,265.7,Air+FixedWing,Red,Allies,J-11A,Red J-11A #003,xu,[51☭] Rich (P),0,0,0,9.17999935150146,2.18044519424438,0,0,NaN,NaN,0,0.00989117029631303,NaN,0.999986171723233,-0.00523612477340549,0.000319605635013431,0,9.00250406404018,9.00250406404018,,,78.1900000572205,6.99955415725708,1.02140081480848,2.22119405319032
2011-06-01T04:40:46Z,1306903246,10F,56.384173,27.2332799,9.18,-0.3,0,265.4,14782.51,117490.52,265.7,Air+FixedWing,Red,Allies,J-11A,Red J-11A #003,xu,[51☭] Rich (P),0,0,0,9.17999935150146,2.18044519424438,0,0,NaN,NaN,0,0.0139882274201861,NaN,0.999986171723233,-0.00523612477340549,0.000353678740793839,0,9.00250406404018,9.00250406404018,,,79.1900000572205,6.99955415725708,1.02140081480848,2.22119405319032
2011-06-01T04:40:47Z,1306903247,10F,56.384173,27.2332799,9.18,-0.3,0,265.4,14782.51,117490.52,265.7,Air+FixedWing,Red,Allies,J-11A,Red J-11A #003,xu,[51☭] Rich (P),0,0,0,9.17999935150146,2.18044519424438,0,0,NaN,NaN,0,0.0139882274201861,NaN,0.999986171723233,-0.00523612477340549,0.000387751817470416,0,9.00250406404018,9.00250406404018,,,80.1900000572205,6.99955415725708,1.02140081480848,2.22119405319032
2011-06-01T04:40:48Z,1306903248,10F,56.384173,27.2332799,9.18,-0.3,0,265.4,14782.51,117490.52,265.7,Air+FixedWing,Red,Allies,J-11A,Red J-11A #003,xu,[51☭] Rich (P),0,0,0,9.17999935150146,2.18044519424438,0,0,NaN,NaN,0,0.0139882274201861,NaN,0.999986171723233,-0.00523612477340549,0.000421824923250824,0,9.00250406404018,9.00250406404018,,,81.1900000572205,6.99955415725708,1.02140081480848,2.22119405319032
2011-06-01T04:40:49Z,1306903249,10F,56.384173,27.2332799,9.18,-0.3,0,265.4,14782.51,117490.52,265.7,Air+FixedWing,Red,Allies,J-11A,Red J-11A #003,xu,[51☭] Rich (P),0,0,0,9.17999935150146,2.18044519424438,0,0,NaN,NaN,0,0.0139882274201861,NaN,0.999986112119409,-0.00523612446130811,0.000455897999927402,0,9.00250406404018,9.00250406404018,,,82.1900000572205,6.99955415725708,1.02140081480848,2.22119405319032
2011-06-01T04:40:50Z,1306903250,10F,56.384173,27.2332799,9.18,-0.3,0,265.4,14782.51,117490.52,265.7,Air+FixedWing,Red,Allies,J-11A,Red J-11A #003,xu,[51☭] Rich (P),0,0,0,9.17999935150146,2.18044519424438,0,0,NaN,NaN,0,0.0171320104161963,NaN,0.999986112119409,-0.00523612446130811,0.00048997113481164,0,9.00250406404018,9.00250406404018,,,83.1900000572205,6.99955415725708,1.02140081480848,2.22119405319032
2011-06-01T04:40:51Z,1306903251,10F,56.384173,27.2332799,9.18,-0.3,0,265.4,14782.51,117490.52,265.7,Air+FixedWing,Red,Allies,J-11A,Red J-11A #003,xu,[51☭] Rich (P),0,0,0,9.17999935150146,2.18044519424438,0,0,NaN,NaN,0,0.00989117029631303,NaN,0.999986052515585,-0.00523612414921074,0.000524044211488217,0,9.00250406404018,9.00250406404018,,,84.1900000572205,6.99955415725708,1.02140081480848,2.22119405319032
2011-06-01T04:40:52Z,1306903252,10F,56.384173,27.2332799,9.18,-0.3,0,265.4,14782.51,117490.52,265.7,Air+FixedWing,Red,Allies,J-11A,Red J-11A #003,xu,[51☭] Rich (P),0,0,0,9.17999935150146,2.18044519424438,0,0,NaN,NaN,0,0.0139882274201861,NaN,0.999986052515585,-0.00523612414921074,0.000558117288164794,0,9.00250406404018,9.00250406404018,,,85.1900000572205,6.99955415725708,1.02140081480848,2.22119405319032
2011-06-01T04:40:53Z,1306903253,10F,56.384173,27.2332799,9.18,-0.3,0,265.4,14782.51,117490.52,265.7,Air+FixedWing,Red,Allies,J-11A,Red J-11A #003,xu,[51☭] Rich (P),0,0,0,9.17999935150146,2.18044519424438,0,0,NaN,NaN,0,0.00989117029631303,NaN,0.999986052515585,-0.00523612414921074,0.000592190364841372,0,9.00250406404018,9.00250406404018,,,86.1900000572205,6.99955415725708,1.02140081480848,2.22119405319032
2011-06-01T04:40:54Z,1306903254,10F,56.384173,27.2332799,9.18,-0.3,0,265.4,14782.51,117490.52,265.7,Air+FixedWing,Red,Allies,J-11A,Red J-11A #003,xu,[51☭] Rich (P),0,0,0,9.17999935150146,2.18044519424438,0,0,NaN,NaN,0,0.0139882274201861,NaN,0.99998599291176,-0.00523612383711336,0.000626263441517949,0,9.00250406404018,9.00250406404018,,,87.1900000572205,6.99955415725708,1.02140081480848,2.22119405319032
2011-06-01T04:40:55Z,1306903255,10F,56.384173,27.2332799,9.18,-0.3,0,265.4,14782.51,117490.52,265.7,Air+FixedWing,Red,Allies,J-11A,Red J-11A #003,xu,[51☭] Rich (P),0,0,0,9.17999935150146,2.18044519424438,0,0,NaN,NaN,0,0.0171320104161963,NaN,0.999986052515585,-0.00523612414921074,0.000660336518194526,0,9.00250406404018,9.00250406404018,,,88.1900000572205,6.99955415725708,1.02140081480848,2.22119405319032
2011-06-01T04:40:56Z,1306903256,10F,56.384173,27.2332799,9.18,-0.3,0,265.4,14782.51,117490.52,265.7,Air+FixedWing,Red,Allies,J-11A,Red J-11A #003,xu,[51☭] Rich (P),0,0,0,9.17999935150146,2.18044519424438,0,0,NaN,NaN,0,0.00989117029631303,NaN,0.99998599291176,-0.00523612383711336,0.000694409653078765,0,9.00250406404018,9.00250406404018,,,89.1900000572205,6.99955415725708,1.02140081480848,2.22119405319032
2011-06-01T04:40:57Z,1306903257,10F,56.384173,27.2332799,9.18,-0.3,0,265.4,14782.51,117490.52,265.7,Air+FixedWing,Red,Allies,J-11A,Red J-11A #003,xu,[51☭] Rich (P),0,0,0,9.17999935150146,2.18044519424438,0,0,NaN,NaN,0,0.0139882274201861,NaN,0.999985933307936,-0.00523612352501598,0.000728482787963003,0,9.00250406404018,9.00250406404018,,,90.1900000572205,6.99955415725708,1.02140081480848,2.22119405319032
2011-06-01T04:40:58Z,1306903258,10F,56.384173,27.2332799,9.18,-0.3,0,265.4,14782.51,117490.52,265.7,Air+FixedWing,Red,Allies,J-11A,Red J-11A #003,xu,[51☭] Rich (P),0,0,0,9.17999935150146,2.18044519424438,0,0,NaN,NaN,0,0.0139882274201861,NaN,0.999985933307936,-0.00523612352501598,0.00076255586463958,0,9.00250406404018,9.00250406404018,,,91.1900000572205,6.99955415725708,1.02140081480848,2.22119405319032
2011-06-01T04:40:59Z,1306903259,10F,56.384173,27.2332799,9.18,-0.3,0,265.4,14782.51,117490.52,265.7,Air+FixedWing,Red,Allies,J-11A,Red J-11A #003,xu,[51☭] Rich (P),0,0,0,9.17999935150146,2.18044519424438,0,0,NaN,NaN,0,0.00989117029631303,NaN,0.999985933307936,-0.00523612352501598,0.000796628941316158,0,9.00250406404018,9.00250406404018,,,92.1900000572205,6.99955415725708,1.02140081480848,2.22119405319032
2011-06-01T04:41:00Z,1306903260,10F,56.384173,27.2332799,9.18,-0.3,0,265.4,14782.51,117490.52,265.7,Air+FixedWing,Red,Allies,J-11A,Red J-11A #003,xu,[51☭] Rich (P),0,0,0,9.17999935150146,2.18044519424438,0,0,NaN,NaN,0,0.0171320104161963,NaN,0.999985873704112,-0.00523612321291861,0.000830701959785074,0,9.00250406404018,9.00250406404018,,,93.1900000572205,6.99955415725708,1.02140081480848,2.22119405319032
2011-06-01T04:41:01Z,1306903261,10F,56.384173,27.2332799,9.18,-0.3,0,265.4,14782.51,117490.52,265.7,Air+FixedWing,Red,Allies,J-11A,Red J-11A #003,xu,[51☭] Rich (P),0,0,0,9.17999935150146,2.18044519424438,0,0,NaN,NaN,0,0.0171320104161963,NaN,0.999985814100288,-0.00523612290082123,0.000864775094669312,0,9.00250406404018,9.00250406404018,,,94.1900000572205,6.99955415725708,1.02140081480848,2.22119405319032
2011-06-01T04:41:02Z,1306903262,10F,56.384173,27.2332799,9.18,-0.3,0.1,265.4,14782.51,117490.52,265.7,Air+FixedWing,Red,Allies,J-11A,Red J-11A #003,xu,[51☭] Rich (P),0,0,0,9.17999935150146,2.18044519424438,0,0,NaN,NaN,0,0.0171320104161963,NaN,0.999985754496464,-0.00523612258872386,0.00089884817134589,0,9.00250406404018,9.00250406404018,,,95.1900000572205,6.99955415725708,1.02140081480848,2.22119405319032
2011-06-01T04:41:03Z,1306903263,10F,56.384173,27.2332799,9.18,-0.3,0.1,265.4,14782.51,117490.52,265.7,Air+FixedWing,Red,Allies,J-11A,Red J-11A #003,xu,[51☭] Rich (P),0,0,0,9.17999935150146,2.18044519424438,0,0,NaN,NaN,0,0.0171320104161963,NaN,0.999985754496464,-0.00523612258872386,0.000932921248022467,0,9.00250406404018,9.00250406404018,,,96.1900000572205,6.99955415725708,1.02140081480848,2.22119405319032
2011-06-01T04:41:04Z,1306903264,10F,56.384173,27.2332799,9.18,-0.3,0.1,265.4,14782.51,117490.52,265.7,Air+FixedWing,Red,Allies,J-11A,Red J-11A #003,xu,[51☭] Rich (P),0,0,0,9.17999935150146,2.18044519424438,0,0,NaN,NaN,0,0.0197823405926261,NaN,0.999985754496464,-0.00523612258872386,0.000966994266491383,0,9.00250406404018,9.00250406404018,,,97.1900000572205,6.99955415725708,1.02140081480848,2.22119405319032
2011-06-01T04:41:05Z,1306903265,10F,56.384173,27.2332799,9.18,-0.3,0.1,265.4,14782.51,117490.52,265.7,Air+FixedWing,Red,Allies,J-11A,Red J-11A #003,xu,[51☭] Rich (P),0,0,0,9.17999935150146,2.18044519424438,0,0,NaN,NaN,0,0.0139882274201861,NaN,0.99998569489264,-0.00523612227662648,0.00100106745958328,0,9.00250406404018,9.00250406404018,,,98.1900000572205,6.99955415725708,1.02140081480848,2.22119405319032
2011-06-01T04:41:06Z,1306903266,10F,56.384173,27.2332799,9.18,-0.3,0.1,265.4,14782.51,117490.52,265.7,Air+FixedWing,Red,Allies,J-11A,Red J-11A #003,xu,[51☭] Rich (P),0,0,0,9.17999935150146,2.18044519424438,0,0,NaN,NaN,0,0.0197823405926261,NaN,0.999985635288816,-0.00523612196452911,0.00103514036163688,0,9.00250406404018,9.00250406404018,,,99.1900000572205,6.99955415725708,1.02140081480848,2.22119405319032
2011-06-01T04:41:07Z,1306903267,10F,56.384173,27.2332799,9.18,-0.3,0.1,265.4,14782.51,117490.52,265.7,Air+FixedWing,Red,Allies,J-11A,Red J-11A #003,xu,[51☭] Rich (P),0,0,0,9.17999935150146,2.18044519424438,0,0,NaN,NaN,0,0.00989117029631303,NaN,0.999985635288816,-0.00523612196452911,0.00106921349652112,0,9.00250406404018,9.00250406404018,,,100.19000005722,6.99955415725708,1.02140081480848,2.22119405319032
2011-06-01T04:41:08Z,1306903268,10F,56.384173,27.2332799,9.18,-0.3,0.1,265.4,14782.51,117490.52,265.7,Air+FixedWing,Red,Allies,J-11A,Red J-11A #003,xu,[51☭] Rich (P),0,0,0,9.17999935150146,2.18044519424438,0,0,NaN,NaN,0,0.0139882274201861,NaN,0.999985575684992,-0.00523612165243173,0.00110328663140535,0,9.00250406404018,9.00250406404018,,,101.19000005722,6.99955415725708,1.02140081480848,2.22119405319032
2011-06-01T04:41:09Z,1306903269,10F,56.384173,27.2332799,9.18,-0.3,0.1,265.4,14782.51,117490.52,265.7,Air+FixedWing,Red,Allies,J-11A,Red J-11A #003,xu,[51☭] Rich (P),0,0,0,9.17999935150146,2.18044519424438,0,0,NaN,NaN,0,0.0139882274201861,NaN,0.999985516081168,-0.00523612134033435,0.00113735964987427,0,9.00250406404018,9.00250406404018,,,102.19000005722,6.99955415725708,1.02140081480848,2.22119405319032
2011-06-01T04:41:10Z,1306903270,10F,56.384173,27.2332799,9.18,-0.3,0.1,265.4,14782.51,117490.52,265.7,Air+FixedWing,Red,Allies,J-11A,Red J-11A #003,xu,[51☭] Rich (P),0,0,0,9.17999935150146,2.18044519424438,0,0,NaN,NaN,0,0.0139882274201861,NaN,0.999985516081168,-0.00523612134033435,0.00117143278475851,0,9.00250406404018,9.00250406404018,,,103.19000005722,6.99955415725708,1.02140081480848,2.22119405319032
2011-06-01T04:41:11Z,1306903271,10F,56.384173,27.2332799,9.18,-0.3,0.1,265.4,14782.51,117490.52,265.7,Air+FixedWing,Red,Allies,J-11A,Red J-11A #003,xu,[51☭] Rich (P),0,0,0,9.17999935150146,2.18044519424438,0,0,NaN,NaN,0,0.0139882274201861,NaN,0.999985456477344,-0.00523612102823698,0.00120550580322742,0,9.00250406404018,9.00250406404018,,,104.19000005722,6.99955415725708,1.02140081480848,2.22119405319032
2011-06-01T04:41:12Z,1306903272,10F,56.384173,27.2332799,9.18,-0.3,0.1,265.4,14782.51,117490.52,265.7,Air+FixedWing,Red,Allies,J-11A,Red J-11A #003,xu,[51☭] Rich (P),0,0,0,9.17999935150146,2.18044519424438,0,0,NaN,NaN,0,0.0139882274201861,NaN,0.99998539687352,-0.0052361207161396,0.00123957893811166,0,9.00250406404018,9.00250406404018,,,105.19000005722,6.99955415725708,1.02140081480848,2.22119405319032
2011-06-01T04:41:13Z,1306903273,10F,56.384173,27.2332799,9.18,-0.3,0.1,265.4,14782.51,117490.52,265.7,Air+FixedWing,Red,Allies,J-11A,Red J-11A #003,xu,[51☭] Rich (P),0,0,0,9.17999935150146,2.18044519424438,0,0,NaN,NaN,0,0.0171320104161963,NaN,0.99998539687352,-0.0052361207161396,0.0012736520729959,0,9.00250406404018,9.00250406404018,,,106.19000005722,6.99955415725708,1.02140081480848,2.22119405319032
2011-06-01T04:41:14Z,1306903274,10F,56.384173,27.2332799,9.18,-0.3,0.1,265.4,14782.51,117490.52,265.7,Air+FixedWing,Red,Allies,J-11A,Red J-11A #003,xu,[51☭] Rich (P),0,0,0,9.17999935150146,2.18044519424438,0,0,NaN,NaN,0,0.0139882274201861,NaN,0.999985337269695,-0.00523612040404223,0.00130772509146482,0,9.00250406404018,9.00250406404018,,,107.19000005722,6.99955415725708,1.02140081480848,2.22119405319032
2011-06-01T04:41:15Z,1306903275,10F,56.384173,27.2332799,9.18,-0.3,0.1,265.4,14782.51,117490.52,265.7,Air+FixedWing,Red,Allies,J-11A,Red J-11A #003,xu,[51☭] Rich (P),0,0,0,9.17999935150146,2.18044519424438,0,0,NaN,NaN,0,0.0171320104161963,NaN,0.999985277665871,-0.00523612009194485,0.00134179822634906,0,9.00250406404018,9.00250406404018,,,108.19000005722,6.99955415725708,1.02140081480848,2.22119405319032
2011-06-01T04:41:16Z,1306903276,10F,56.384173,27.2332799,9.18,-0.3,0.1,265.4,14782.51,117490.52,265.7,Air+FixedWing,Red,Allies,J-11A,Red J-11A #003,xu,[51☭] Rich (P),0,0,0,9.17999935150146,2.18044519424438,0,0,NaN,NaN,0,0.0139882274201861,NaN,0.999985277665871,-0.00523612009194485,0.00137587124481797,0,9.00250406404018,9.00250406404018,,,109.19000005722,6.99955415725708,1.02140081480848,2.22119405319032
2011-06-01T04:41:17Z,1306903277,10F,56.384173,27.2332799,9.18,-0.3,0.1,265.4,14782.51,117490.52,265.7,Air+FixedWing,Red,Allies,J-11A,Red J-11A #003,xu,[51☭] Rich (P),0,0,0,9.17999935150146,2.18044519424438,0,0,NaN,NaN,0,0.00989117029631303,NaN,0.999985158458223,-0.0052361194677501,0.00140994426328689,0,9.00250406404018,9.00250406404018,,,110.19000005722,6.99955415725708,1.02140081480848,2.22119405319032
2011-06-01T04:41:18Z,1306903278,10F,56.384173,27.2332799,9.18,-0.3,0.1,265.4,14782.51,117490.52,265.7,Air+FixedWing,Red,Allies,J-11A,Red J-11A #003,xu,[51☭] Rich (P),0,0,0,9.17999935150146,2.18044519424438,0,0,NaN,NaN,0,0.0139882274201861,NaN,0.999985158458223,-0.0052361194677501,0.00144401739817113,0,9.00250406404018,9.00250406404018,,,111.19000005722,6.99955415725708,1.02140081480848,2.22119405319032
2011-06-01T04:41:19Z,1306903279,10F,56.384173,27.2332799,9.18,-0.3,0.1,265.4,14782.51,117490.52,265.7,Air+FixedWing,Red,Allies,J-11A,Red J-11A #003,xu,[51☭] Rich (P),0,0,0,9.17999935150146,2.18044519424438,0,0,NaN,NaN,0,0.0139882274201861,NaN,0.999985158458223,-0.0052361194677501,0.00147809030022472,0,9.00250406404018,9.00250406404018,,,112.19000005722,6.99955415725708,1.02140081480848,2.22119405319032
2011-06-01T04:41:20Z,1306903280,10F,56.384173,27.2332799,9.18,-0.3,0.1,265.4,14782.51,117490.52,265.7,Air+FixedWing,Red,Allies,J-11A,Red J-11A #003,xu,[51☭] Rich (P),0,0,0,9.17999935150146,2.18044519424438,0,0,NaN,NaN,0,0.0171320104161963,NaN,0.999985098854399,-0.00523611915565272,0.00151216343510896,0,9.00250406404018,9.00250406404018,,,113.19000005722,6.99955415725708,1.02140081480848,2.22119405319032
2011-06-01T04:41:21Z,1306903281,10F,56.384173,27.2332799,9.18,-0.3,0.1,265.4,14782.51,117490.52,265.7,Air+FixedWing,Red,Allies,J-11A,Red J-11A #003,xu,[51☭] Rich (P),0,0,0,9.17999935150146,2.18044519424438,0,0,NaN,NaN,0,0.0171320104161963,NaN,0.999984979646751,-0.00523611853145797,0.0015462365699932,0,9.00250406404018,9.00250406404018,,,114.19000005722,6.99955415725708,1.02140081480848,2.22119405319032
2011-06-01T04:41:22Z,1306903282,10F,56.384173,27.2332799,9.18,-0.3,0.1,265.4,14782.51,117490.52,265.7,Air+FixedWing,Red,Allies,J-11A,Red J-11A #003,xu,[51☭] Rich (P),0,0,0,9.17999935150146,2.18044519424438,0,0,NaN,NaN,0,0.0171320104161963,NaN,0.999984920042927,-0.0052361182193606,0.00158030947204679,0,9.00250406404018,9.00250406404018,,,115.19000005722,6.99955415725708,1.02140081480848,2.22119405319032
2011-06-01T04:41:23Z,1306903283,10F,56.384173,27.2332799,9.18,-0.3,0.1,265.4,14782.51,117490.52,265.7,Air+FixedWing,Red,Allies,J-11A,Red J-11A #003,xu,[51☭] Rich (P),0,0,0,9.17999935150146,2.18044519424438,0,0,NaN,NaN,0,0.0139882274201861,NaN,0.999984860439103,-0.00523611790726322,0.00161438260693103,0,9.00250406404018,9.00250406404018,,,116.19000005722,6.99955415725708,1.02140081480848,2.22119405319032
2011-06-01T04:41:24Z,1306903284,10F,56.384173,27.2332799,9.18,-0.3,0.1,265.4,14782.51,117490.52,265.7,Air+FixedWing,Red,Allies,J-11A,Red J-11A #003,xu,[51☭] Rich (P),0,0,0,9.17999935150146,2.18044519424438,0,0,NaN,NaN,0,0.0139882274201861,NaN,0.999984800835279,-0.00523611759516585,0.00164845574181527,0,9.00250406404018,9.00250406404018,,,117.19000005722,6.99955415725708,1.02140081480848,2.22119405319032
2011-06-01T04:41:25Z,1306903285,10F,56.384173,27.2332799,9.18,-0.3,0.1,265.4,14782.51,117490.52,265.7,Air+FixedWing,Red,Allies,J-11A,Red J-11A #003,xu,[51☭] Rich (P),0,0,0,9.17999935150146,2.18044519424438,0,0,NaN,NaN,0,0.0139882274201861,NaN,0.999984800835279,-0.00523611759516585,0.00168252864386886,0,9.00250406404018,9.00250406404018,,,118.19000005722,6.99955415725708,1.02140081480848,2.22119405319032
2011-06-01T04:41:26Z,1306903286,10F,56.384173,27.2332799,9.18,-0.3,0.1,265.4,14782.51,117490.52,265.7,Air+FixedWing,Red,Allies,J-11A,Red J-11A #003,xu,[51☭] Rich (P),0,0,0,9.17999935150146,2.18044519424438,0,0,NaN,NaN,0,0.0171320104161963,NaN,0.999984741231454,-0.00523611728306847,0.0017166017787531,0,9.00250406404018,9.00250406404018,,,119.19000005722,6.99955415725708,1.02140081480848,2.22119405319032
2011-06-01T04:41:27Z,1306903287,10F,56.384173,27.2332799,9.18,-0.3,0.1,265.4,14782.51,117490.52,265.7,Air+FixedWing,Red,Allies,J-11A,Red J-11A #003,xu,[51☭] Rich (P),0,0,0,9.17999935150146,2.18044519424438,0,0,NaN,NaN,0,0.00989117029631303,NaN,0.99998468162763,-0.00523611697097109,0.00173629052005708,0,9.00250406404018,9.00250406404018,,,120.19000005722,6.99955415725708,1.02140081480848,2.22119405319032
2011-06-01T04:41:28Z,1306903288,10F,56.384173,27.2332799,9.18,-0.3,0.1,265.4,14782.51,117490.52,265.7,Air+FixedWing,Red,Allies,J-11A,Red J-11A #003,xu,[51☭] Rich (P),0,0,0,9.17999935150146,2.18044519424438,0,0,NaN,NaN,0,0.0139882274201861,NaN,0.999984741231454,-0.00523611728306847,0.00168046122416854,0,9.00250406404018,9.00250406404018,,,121.19000005722,6.99955415725708,1.02140081480848,2.22119405319032
2011-06-01T04:41:29Z,1306903289,10F,56.384173,27.2332799,9.18,-0.3,0.1,265.4,14782.51,117490.52,265.7,Air+FixedWing,Red,Allies,J-11A,Red J-11A #003,xu,[51☭] Rich (P),0,0,0,9.17999935150146,2.18044519424438,0,0,NaN,NaN,0,0.00989117029631303,NaN,0.999984860439103,-0.00523611790726322,0.00162463204469532,0,9.00250406404018,9.00250406404018,,,122.19000005722,6.99955415725708,1.02140081480848,2.22119405319032
2011-06-01T04:41:30Z,1306903290,10F,56.384173,27.2332799,9.18,-0.3,0.1,265.4,14782.51,117490.52,265.7,Air+FixedWing,Red,Allies,J-11A,Red J-11A #003,xu,[51☭] Rich (P),0,0,0,9.17999935150146,2.18044519424438,0,0,NaN,NaN,0,0.0139882274201861,NaN,0.999984920042927,-0.0052361182193606,0.00156880274880677,0,9.00250406404018,9.00250406404018,,,123.19000005722,6.99955415725708,1.02140081480848,2.22119405319032
2011-06-01T04:41:31Z,1306903291,10F,56.384173,27.2332799,9.18,-0.3,0.1,265.4,14782.51,117490.52,265.7,Air+FixedWing,Red,Allies,J-11A,Red J-11A #003,xu,[51☭] Rich (P),0,0,0,9.17999935150146,2.18044519424438,0,0,NaN,NaN,0,0.0139882274201861,NaN,0.999985039250575,-0.00523611884355535,0.00151297356933355,0,9.00250406404018,9.00250406404018,,,124.19000005722,6.99955415725708,1.02140081480848,2.22119405319032
2011-06-01T04:41:32Z,1306903292,10F,56.384173,27.2332799,9.18,-0.3,0.1,265.4,14782.51,117490.52,265.7,Air+FixedWing,Red,Allies,J-11A,Red J-11A #003,xu,[51☭] Rich (P),0,0,0,9.17999935150146,2.18044519424438,0,0,NaN,NaN,0,0.0171320104161963,NaN,0.999985158458223,-0.0052361194677501,0.00145714427344501,0,9.00250406404018,9.00250406404018,,,125.19000005722,6.99955415725708,1.02140081480848,2.22119405319032
2011-06-01T04:41:33Z,1306903293,10F,56.384173,27.2332799,9.18,-0.3,0.1,265.4,14782.51,117490.52,265.7,Air+FixedWing,Red,Allies,J-11A,Red J-11A #003,xu,[51☭] Rich (P),0,0,0,9.17999935150146,2.18044519424438,0,0,NaN,NaN,0,0.0171320104161963,NaN,0.999985218062047,-0.00523611977984748,0.00140131497755647,0,9.00250406404018,9.00250406404018,,,126.19000005722,6.99955415725708,1.02140081480848,2.22119405319032
2011-06-01T04:41:34Z,1306903294,10F,56.384173,27.2332799,9.18,-0.3,0.1,265.4,14782.51,117490.52,265.7,Air+FixedWing,Red,Allies,J-11A,Red J-11A #003,xu,[51☭] Rich (P),0,0,0,9.17999935150146,2.18044519424438,0,0,NaN,NaN,0,0.0171320104161963,NaN,0.999985277665871,-0.00523612009194485,0.00134548579808325,0,9.00250406404018,9.00250406404018,,,127.19000005722,6.99955415725708,1.02140081480848,2.22119405319032
2011-06-01T04:41:35Z,1306903295,10F,56.384173,27.2332799,9.18,-0.3,0.1,265.4,14782.51,117490.52,265.7,Air+FixedWing,Red,Allies,J-11A,Red J-11A #003,xu,[51☭] Rich (P),0,0,0,9.17999935150146,2.18044519424438,0,0,NaN,NaN,0,0.0171320104161963,NaN,0.99998539687352,-0.0052361207161396,0.0012896565021947,0,9.00250406404018,9.00250406404018,,,128.19000005722,6.99955415725708,1.02140081480848,2.22119405319032
2011-06-01T04:41:36Z,1306903296,10F,56.384173,27.2332799,9.18,-0.3,0.1,265.4,14782.51,117490.52,265.7,Air+FixedWing,Red,Allies,J-11A,Red J-11A #003,xu,[51☭] Rich (P),0,0,0,9.17999935150146,2.18044519424438,0,0,NaN,NaN,0,0.0197823405926261,NaN,0.999985456477344,-0.00523612102823698,0.00123382720630616,0,9.00250406404018,9.00250406404018,,,129.19000005722,6.99955415725708,1.02140081480848,2.22119405319032
2011-06-01T04:41:37Z,1306903297,10F,56.384173,27.2332799,9.18,-0.3,0.1,265.4,14782.51,117490.52,265.7,Air+FixedWing,Red,Allies,J-11A,Red J-11A #003,xu,[51☭] Rich (P),0,0,0,9.17999935150146,2.18044519424438,0,0,NaN,NaN,0,0.0139882274201861,NaN,0.999985456477344,-0.00523612102823698,0.00117799802683294,0,9.00250406404018,9.00250406404018,,,130.19000005722,6.99955415725708,1.02140081480848,2.22119405319032
2011-06-01T04:41:38Z,1306903298,10F,56.384173,27.2332799,9.18,-0.3,0.1,265.4,14782.51,117490.52,265.7,Air+FixedWing,Red,Allies,J-11A,Red J-11A #003,xu,[51☭] Rich (P),0,0,0,9.17999935150146,2.18044519424438,0,0,NaN,NaN,0,0.0197823405926261,NaN,0.999985575684992,-0.00523612165243173,0.0011221687309444,0,9.00250406404018,9.00250406404018,,,131.19000005722,6.99955415725708,1.02140081480848,2.22119405319032
2011-06-01T04:41:39Z,1306903299,10F,56.384173,27.2332799,9.18,-0.3,0.1,265.4,14782.51,117490.52,265.7,Air+FixedWing,Red,Allies,J-11A,Red J-11A #003,xu,[51☭] Rich (P),0,0,0,9.17999935150146,2.18044519424438,0,0,NaN,NaN,0,0.00989117029631303,NaN,0.999985635288816,-0.00523612196452911,0.00106633943505585,0,9.00250406404018,9.00250406404018,,,132.19000005722,6.99955415725708,1.02140081480848,2.22119405319032
2011-06-01T04:41:40Z,1306903300,10F,56.384173,27.2332799,9.18,-0.3,0.1,265.4,14782.51,117490.52,265.7,Air+FixedWing,Red,Allies,J-11A,Red J-11A #003,xu,[51☭] Rich (P),0,0,0,9.17999935150146,2.18044519424438,0,0,NaN,NaN,0,0.0139882274201861,NaN,0.999985635288816,-0.00523612196452911,0.00101051025558263,0,9.00250406404018,9.00250406404018,,,133.19000005722,6.99955415725708,1.02140081480848,2.22119405319032
2011-06-01T04:41:41Z,1306903301,10F,56.384173,27.2332799,9.18,-0.3,0.1,265.4,14782.51,117490.52,265.7,Air+FixedWing,Red,Allies,J-11A,Red J-11A #003,xu,[51☭] Rich (P),0,0,0,9.17999935150146,2.18044519424438,0,0,NaN,NaN,0,0.00989117029631303,NaN,0.99998569489264,-0.00523612227662648,0.000954680959694088,0,9.00250406404018,9.00250406404018,,,134.19000005722,6.99955415725708,1.02140081480848,2.22119405319032
2011-06-01T04:41:42Z,1306903302,10F,56.384173,27.2332799,9.18,-0.3,0.1,265.4,14782.51,117490.52,265.7,Air+FixedWing,Red,Allies,J-11A,Red J-11A #003,xu,[51☭] Rich (P),0,0,0,9.17999935150146,2.18044519424438,0,0,NaN,NaN,0,0.0139882274201861,NaN,0.999985754496464,-0.00523612258872386,0.000898851663805544,0,9.00250406404018,9.00250406404018,,,135.19000005722,6.99955415725708,1.02140081480848,2.22119405319032
2011-06-01T04:41:43Z,1306903303,10F,56.384173,27.2332799,9.18,-0.3,0,265.4,14782.51,117490.52,265.7,Air+FixedWing,Red,Allies,J-11A,Red J-11A #003,xu,[51☭] Rich (P),0,0,0,9.17999935150146,2.18044519424438,0,0,NaN,NaN,0,0.0139882274201861,NaN,0.999985814100288,-0.00523612290082123,0.00084302230970934,0,9.00250406404018,9.00250406404018,,,136.19000005722,6.99955415725708,1.02140081480848,2.22119405319032
2011-06-01T04:41:44Z,1306903304,10F,56.384173,27.2332799,9.18,-0.3,0,265.4,14782.51,117490.52,265.7,Air+FixedWing,Red,Allies,J-11A,Red J-11A #003,xu,[51☭] Rich (P),0,0,0,9.17999935150146,2.18044519424438,0,0,NaN,NaN,0,0.0171320104161963,NaN,0.999985933307936,-0.00523612352501598,0.000787193072028458,0,9.00250406404018,9.00250406404018,,,137.19000005722,6.99955415725708,1.02140081480848,2.22119405319032
2011-06-01T04:41:45Z,1306903305,10F,56.384173,27.2332799,9.18,-0.3,0,265.4,14782.51,117490.52,265.7,Air+FixedWing,Red,Allies,J-11A,Red J-11A #003,xu,[51☭] Rich (P),0,0,0,9.17999935150146,2.18044519424438,0,0,NaN,NaN,0,0.0171320104161963,NaN,0.999985933307936,-0.00523612352501598,0.000731363834347576,0,9.00250406404018,9.00250406404018,,,138.19000005722,6.99955415725708,1.02140081480848,2.22119405319032
2011-06-01T04:41:46Z,1306903306,10F,56.384173,27.2332799,9.18,-0.3,0,265.4,14782.51,117490.52,265.7,Air+FixedWing,Red,Allies,J-11A,Red J-11A #003,xu,[51☭] Rich (P),0,0,0,9.17999935150146,2.18044519424438,0,0,NaN,NaN,0,0.0171320104161963,NaN,0.999985933307936,-0.00523612352501598,0.000675534538459033,0,9.00250406404018,9.00250406404018,,,139.19000005722,6.99955415725708,1.02140081480848,2.22119405319032
