ISOTime,UnixTime,Id,Longitude,Latitude,Altitude,Roll,Pitch,Yaw,U,V,Heading,Type,Color,Coalition,Name,Group,Country,Pilot,TAS,CAS,M,ASL,AGL,GS,VS,AOA,AOS,RRT,TRT,TRD,G,LatG,LonG,Ek,Ep,Em,FFW,FFV,RelativeTime,Elev,GroundDistance,AirDistance
2011-06-01T05:01:04Z,1306904464,1C505,55.766066,25.7859897,184.51,34,2,48.5,-47962.11,-42369.51,49.1,Weapon+Missile,Blue,Enemies,R-27ER,,ru,,370.135037689723,367.58837890625,1.08957627482679,184.514617919922,184.514617919922,NaN,NaN,0.899964666160064,NaN,7.86154773468468,2.59532112928309,NaN,NaN,NaN,NaN,NaN,180.94702778244,NaN,,,0.529999971389771,0,NaN,NaN
2011-06-01T05:01:05Z,1306904465,1C505,55.7700806,25.7891767,209.53,27.5,3.8,48.2,-47556.26,-42020.3,48.7,Weapon+Missile,Blue,Enemies,R-27ER,,ru,,535.988200446441,527.806823730469,1.57824916389465,209.533065795898,209.533065795898,535.403986055102,25.0184478759766,0.861692249413458,NaN,6.32306128451764,2.96971908012759,5000,7.64818477630615,7.64818477630615,7.64818477630615,14364.1675508907,205.481743968735,14569.6492948595,,,1.52999997138977,0,536.456507253319,537.056130086331
2011-06-01T05:01:06Z,1306904466,1C505,55.7752288,25.7941494,261.5,21.8,4,37.5,-47034.93,-41474.35,38,Weapon+Missile,Blue,Enemies,R-27ER,,ru,,756.663583067721,738.4482421875,2.2293521189484,261.499206542969,261.499206542969,754.877008629047,51.9661407470703,0.345325070858615,NaN,5.49229171539065,8.94914949207707,3473.40507971547,18.7078170776367,18.7078170776367,18.7078170776367,28626.9888970441,256.44311938446,28883.4320164286,,,2.52999997138977,0,1293.21342915901,1295.62307671521
2011-06-01T05:01:07Z,1306904467,1C505,55.7798984,25.8012784,311.98,17.5,1.8,23.6,-46559.41,-40689.12,24.1,Weapon+Missile,Blue,Enemies,R-27ER,,ru,,919.380100183787,893.484680175781,2.71031269926523,311.976135253906,311.976135253906,917.993381393276,50.4769287109375,0.258638048944295,NaN,3.69229098228217,13.4950493422971,3764.07417039812,22.0667057037354,22.0667057037354,22.0667057037354,42262.9884306975,305.944076678772,42568.9325073762,,,3.52999997138977,0,2214.53323833164,2218.36596257159
2011-06-01T05:01:08Z,1306904468,1C505,55.7824473,25.8088094,311.38,15.1,-2.4,10.2,-46296.14,-39857.38,10.8,Weapon+Missile,Blue,Enemies,R-27ER,,ru,,872.41150134062,848.212890625,2.57183287428937,311.379241943359,311.379241943359,872.411297147034,-0.596893310546875,0.488857324926515,NaN,1.93840768644962,12.6585688812503,4686.07826625395,15.8906841278076,15.8906841278076,15.8906841278076,38055.0913835697,305.358724300384,38360.4501078701,,,4.52999997138977,0,3090.93819308779,3094.81394748677
2011-06-01T05:01:09Z,1306904469,1C505,55.7834827,25.8162111,250.26,12.8,-5.2,7.1,-46184.76,-39038.55,7.7,Weapon+Missile,Blue,Enemies,R-27ER,,ru,,828.629889397819,808.214721679688,2.44107515606378,250.260772705078,250.260772705078,826.37281315482,-61.1184692382812,0.122538082512458,NaN,3.01539191477723,4.86408720091285,5000,2.31995153427124,2.31995153427124,2.31995153427124,34331.3746801721,245.421980664825,34576.7966608369,,,5.52999997138977,0,3921.40105933826,3927.55926930617
2011-06-01T05:01:10Z,1306904470,1C505,55.7847369,25.823586,174.01,9.8,-5.2,10.8,-46051.48,-38222.9,11.4,Weapon+Missile,Blue,Enemies,R-27ER,,ru,,829.974634475537,812.228881835938,2.4429281459219,174.013076782227,174.013076782227,826.464870844041,-76.2476959228516,0.363831234632049,NaN,2.87693031992273,2.56081272999185,5000,4.65437793731689,4.65437793731689,4.65437793731689,34442.8946936401,170.648533942642,34613.5432275827,,,6.52999997138977,0,4751.93339157243,4761.61175638809
2011-06-01T05:01:11Z,1306904471,1C505,55.7863658,25.8309418,113.96,7.5,-2.8,11,-45880.68,-37409.7,11.6,Weapon+Missile,Blue,Enemies,R-27ER,,ru,,833.111008258755,817.422424316406,2.45049648493706,113.956924438477,113.956924438477,830.943566463802,-60.05615234375,0.0561272545876938,NaN,2.10768709483921,2.41346996822563,5000,5.14476013183594,5.14476013183594,5.14476013183594,34703.6976040959,111.753567304459,34815.4511714004,,,7.52999997138977,0,5586.88947652658,5598.74369441112
2011-06-01T05:01:12Z,1306904472,1C505,55.7879398,25.8382819,94.49,5.8,-0.4,11,-45715.42,-36598.19,11.6,Weapon+Missile,Blue,Enemies,R-27ER,,ru,,828.392494704651,813.52734375,2.43608213716049,94.4876937866211,94.4876937866211,828.163676057348,-19.4692306518555,0.058299240166782,NaN,1.53848645016703,2.0747239615745,5000,2.90047693252563,2.90047693252563,2.90047693252563,34311.7062641498,92.6607742272568,34404.367038377,,,8.52999997138977,0,6419.0656744461,6431.16120248165
2011-06-01T05:01:13Z,1306904473,1C505,55.7895274,25.8456627,93.62,4.5,0.4,10.9,-45548.77,-35782.18,11.5,Weapon+Missile,Blue,Enemies,R-27ER,,ru,,832.852816511576,817.901123046875,2.44917469110861,93.6169204711914,93.6169204711914,832.852361301268,-0.870773315429688,0.0311899488038391,NaN,1.13845593085773,0.955758722565345,5000,2.29052209854126,2.29052209854126,2.29052209854126,34682.1906985632,91.8068373138809,34773.9975358771,,,9.52999997138977,0,7255.94323481786,7268.05155650296
2011-06-01T05:01:14Z,1306904474,1C505,55.7910619,25.852954,105.08,3.6,1.2,10.4,-45387.55,-34976.04,10.9,Weapon+Missile,Blue,Enemies,R-27ER,,ru,,822.186495370101,807.112121582031,2.41812100534613,105.07999420166,105.07999420166,822.106581356468,11.4630737304688,0.119708177540214,NaN,0.769243225083516,0.846058360614683,5000,1.95156967639923,1.95156967639923,1.95156967639923,33799.5316584485,103.048272513771,33902.5799309622,,,10.5299999713898,0,8082.03619004408,8094.23690646996
2011-06-01T05:01:15Z,1306904475,1C505,55.7923581,25.8597369,119.19,2.9,0.8,9.2,-45250.74,-34225.98,9.7,Weapon+Missile,Blue,Enemies,R-27ER,,ru,,762.563861418183,748.710998535156,2.2431230695633,119.192306518555,119.192306518555,762.433266182739,14.1123123168945,0.036958248742796,NaN,0.569255286185543,1.20108140174904,5000,1.80086028575897,1.80086028575897,1.80086028575897,29075.1821370505,116.887723272018,29192.0698603225,,,11.5299999713898,0,8848.19083933056,8860.53498450536
2011-06-01T05:01:16Z,1306904476,1C505,55.793398,25.8660387,127.81,2.3,0.8,7.8,-45140.12,-33528.98,8.4,Weapon+Missile,Blue,Enemies,R-27ER,,ru,,705.780797622505,693.419250488281,2.07629455083323,127.80615234375,127.80615234375,705.728230945,8.61384582519531,0.0859180965665776,NaN,0.692307974272492,1.11527522931005,5000,1.79066061973572,1.79066061973572,1.79066061973572,24906.326714633,125.335020388184,25031.6617350211,,,12.5299999713898,0,9557.38775286125,9569.79793872488
2011-06-01T05:01:17Z,1306904477,1C505,55.7942617,25.871877,139.91,1.8,1.1,7.6,-45047.63,-32883.13,8.1,Weapon+Missile,Blue,Enemies,R-27ER,,ru,,652.544771382748,641.617065429688,1.91994506328681,139.907684326172,139.907684326172,652.432549450624,12.1015319824219,0.0423545662677372,NaN,0.553846379417994,0.51349106048062,5000,1.06298422813416,1.06298422813416,1.06298422813416,21290.7339329482,137.202569249725,21427.9365021979,,,13.5299999713898,0,10213.044621211,10225.580235048
2011-06-01T05:01:18Z,1306904478,1C505,55.7950528,25.8772844,151.65,1.5,1,7.5,-44962.86,-32284.95,8,Weapon+Missile,Blue,Enemies,R-27ER,,ru,,604.271841570244,594.758850097656,1.77815034870113,151.653839111328,151.653839111328,604.157666807645,11.7461547851562,0.0658345259225373,NaN,0.215396845665522,0.0513960362511687,5000,0.969906210899353,0.969906210899353,0.969906210899353,18257.2229257347,148.721612132111,18405.9445378668,,,14.5299999713898,0,10820.1873305679,10832.8504323813
2011-06-01T05:01:19Z,1306904479,1C505,55.7957819,25.8823407,162.35,1.2,1.1,7.4,-44884.67,-31725.6,7.9,Weapon+Missile,Blue,Enemies,R-27ER,,ru,,564.89164719553,556.592102050781,1.66246991021332,162.354614257812,162.354614257812,564.790285400293,10.7007751464844,0.0351697463086347,NaN,0.276923189708997,0.1721748216283,5000,1.1154637336731,1.1154637336731,1.1154637336731,15955.128653564,159.215487791138,16114.3441413551,,,15.5299999713898,0,11387.7697035333,11400.5476377315
2011-06-01T05:01:20Z,1306904480,1C505,55.7964426,25.8870442,173.25,1,1.2,7.1,-44813.71,-31205.27,7.6,Weapon+Missile,Blue,Enemies,R-27ER,,ru,,525.261941933241,518.237426757812,1.54603048912063,173.248458862305,173.248458862305,525.148961527311,10.8938446044922,0.0591361006908479,NaN,0.169224766876236,0.31651907698803,5000,1.12002348899841,1.12002348899841,1.12002348899841,13795.005382174,169.898699910202,13964.9040820842,,,16.5299999713898,0,11915.5208985994,11928.425137816
2011-06-01T05:01:21Z,1306904481,1C505,55.7970306,25.8914457,184.16,0.7,1.3,6.5,-44750.32,-30718.31,7.1,Weapon+Missile,Blue,Enemies,R-27ER,,ru,,491.183108459828,485.238220214844,1.44590292625391,184.163070678711,184.163070678711,491.061826336721,10.9146118164062,0.0699566435521981,NaN,0.169224766876236,0.604263794302413,5000,1.21511685848236,1.21511685848236,1.21511685848236,12063.042301813,180.602277707138,12243.6445795201,,,17.5299999713898,0,12409.0175781951,12422.0563249409
2011-06-01T05:01:22Z,1306904482,1C505,55.7975084,25.8955403,194.06,0.6,1.1,5.3,-44698.3,-30265.24,5.8,Weapon+Missile,Blue,Enemies,R-27ER,,ru,,456.156144504299,451.304962158203,1.34294381529119,194.058456420898,194.058456420898,456.048801675917,9.8953857421875,0.0790923223956044,NaN,0.0615263440434749,1.00491847550798,5000,1.21904754638672,1.21904754638672,1.21904754638672,10403.9214084513,190.306336166,10594.2277446174,,,18.5299999713898,0,12867.3303912993,12880.4895364733
2011-06-01T05:01:23Z,1306904483,1C505,55.7978779,25.8994057,202.08,0.5,1,4.8,-44657.36,-29837.45,5.4,Weapon+Missile,Blue,Enemies,R-27ER,,ru,,429.820110868213,425.702301025391,1.26552414761947,202.076919555664,202.076919555664,429.745310568619,8.01846313476562,0.0699568755836607,NaN,0.0461720787892862,0.592573391929408,5000,0.984666228294373,0.984666228294373,0.984666228294373,9237.26638533813,198.169762316055,9435.43614765419,,,19.5299999713898,0,13299.2207420814,13312.4677257941
2011-06-01T05:01:24Z,1306904484,1C505,55.7982124,25.9029891,209.36,0.4,1,4.8,-44620.2,-29440.88,5.3,Weapon+Missile,Blue,Enemies,R-27ER,,ru,,398.375734217745,394.996490478516,1.1730387985824,209.3623046875,209.3623046875,398.309112093871,7.28538513183594,0.0744943283828165,NaN,0,0.0733549043347213,5000,0.997022688388824,0.997022688388824,0.997022688388824,7935.16128067636,205.314284526367,8140.47556520273,,,20.5299999713898,0,13699.5276764279,13712.8538591382
2011-06-01T05:01:25Z,1306904485,1C505,55.7985266,25.9063557,216.2,0.3,1,4.8,-44585.32,-29068.3,5.3,Weapon+Missile,Blue,Enemies,R-27ER,,ru,,374.27386259373,371.251281738281,1.10215479996482,216.199234008789,216.199234008789,374.211411662293,6.83692932128906,0.0744970292140203,NaN,0,0.0550717152262136,5000,0.998036980628967,0.998036980628967,0.998036980628967,7004.04621104152,212.019021819229,7216.06523286075,,,21.5299999713898,0,14075.6080329841,14089.0089006544
2011-06-01T05:01:26Z,1306904486,1C505,55.7988201,25.9095009,222.59,0.2,1,4.8,-44552.72,-28720.2,5.3,Weapon+Missile,Blue,Enemies,R-27ER,,ru,,349.683273527034,346.825988769531,1.02981535244495,222.589233398438,222.589233398438,349.624884257947,6.38999938964844,0.0734943314475546,NaN,0.199987938897973,0.0197823405926261,5000,0.997120082378387,0.997120082378387,0.997120082378387,6113.91958922913,218.285470570679,6332.2050597998,,,22.5299999713898,0,14426.9677687149,14440.4388214253
2011-06-01T05:01:27Z,1306904487,1C505,55.7990934,25.9124287,228.53,0.2,1,4.8,-44522.38,-28396.19,5.3,Weapon+Missile,Blue,Enemies,R-27ER,,ru,,325.477488809007,322.700958251953,0.958593900695911,228.529998779297,228.529998779297,325.423267496512,5.94076538085938,0.0740775984007718,NaN,0,0.0197823405926261,5000,0.999121963977814,0.999121963977814,0.999121963977814,5296.77978607086,224.111371252899,5520.89115732376,,,23.5299999713898,0,14754.0302815892,14767.5668483929
2011-06-01T05:01:28Z,1306904488,1C505,55.799349,25.915168,234.1,0.2,1,4.8,-44493.99,-28093.01,5.3,Weapon+Missile,Blue,Enemies,R-27ER,,ru,,304.553098112912,301.816955566406,0.897024080763123,234.098449707031,234.098449707031,304.502187060189,5.56845092773438,0.0739654021541831,NaN,0,0.0197823405926261,5000,0.997882843017578,0.997882843017578,0.997882843017578,4637.62947850865,229.572156181946,4867.2016346906,,,24.5299999713898,0,15060.0410575835,15073.6393806735
2011-06-01T05:01:29Z,1306904489,1C505,55.7995903,25.9177529,239.35,0.1,1,4.8,-44467.2,-27806.95,5.3,Weapon+Missile,Blue,Enemies,R-27ER,,ru,,287.367543958184,284.669525146484,0.846456424424413,239.347686767578,239.347686767578,287.319597018444,5.24923706054688,0.0727690043021822,NaN,0,0.0197823405926261,5000,0.998468995094299,0.998468995094299,0.998468995094299,4129.00526602794,234.719899243927,4363.72516527187,,,25.5299999713898,0,15348.7980387359,15362.4547855103
2011-06-01T05:01:30Z,1306904490,1C505,55.7998183,25.9201949,244.31,0.1,1,4.8,-44441.89,-27536.69,5.3,Weapon+Missile,Blue,Enemies,R-27ER,,ru,,271.481647891448,268.828735351562,0.799708566819378,244.30615234375,244.30615234375,271.43636226745,4.95846557617188,0.0753286988505374,NaN,0,0.0197823405926261,5000,0.998753309249878,0.998753309249878,0.998753309249878,3685.11425709282,239.582492888184,3924.696749981,,,26.5299999713898,0,15621.5960458963,15635.3081937154
2011-06-01T05:01:31Z,1306904491,1C505,55.8000342,25.9225078,249,0.1,1,4.8,-44417.92,-27280.7,5.3,Weapon+Missile,Blue,Enemies,R-27ER,,ru,,257.155121720387,254.55012512207,0.757546947934379,249.003845214844,249.003845214844,257.112209567566,4.69769287109375,0.0733738039799961,NaN,0,0.0197823405926261,5000,0.998857140541077,0.998857140541077,0.998857140541077,3306.43783135135,244.189355867615,3550.62718721896,,,27.5299999713898,0,15879.9810944083,15893.7459336276
2011-06-01T05:01:32Z,1306904492,1C505,55.8002411,25.9247241,253.5,0.1,1,4.8,-44394.96,-27035.43,5.3,Weapon+Missile,Blue,Enemies,R-27ER,,ru,,246.384974579204,243.812530517578,0.725856426796143,253.503845214844,253.503845214844,246.343876924909,4.5,0.0744020468939938,NaN,0,0.0197823405926261,5000,0.999263048171997,0.999263048171997,0.999263048171997,3035.27778491974,248.602348367615,3283.88013328735,,,28.5299999713898,0,16127.5612382147,16141.376721215
2011-06-01T05:01:33Z,1306904493,1C505,55.8004377,25.9268302,257.78,0.1,1,4.8,-44373.12,-26802.34,5.3,Weapon+Missile,Blue,Enemies,R-27ER,,ru,,234.151486986124,231.631698608398,0.689849706033851,257.784606933594,257.784606933594,234.11235323434,4.28076171875,0.073614690977761,NaN,0,0.0197823405926261,5000,0.998074471950531,0.998074471950531,0.998074471950531,2741.34594289064,252.800341558533,2994.14628444918,,,29.5299999713898,0,16362.8361107867,16376.6999627767
2011-06-01T05:01:34Z,1306904494,1C505,55.8006267,25.9288549,261.89,0,1,4.8,-44352.14,-26578.25,5.3,Weapon+Missile,Blue,Enemies,R-27ER,,ru,,225.09951337137,222.614654541016,0.663211907804413,261.889984130859,261.889984130859,225.062073211138,4.10537719726562,0.074621746634326,NaN,0,0.0197823405926261,5000,0.999771058559418,0.999771058559418,0.999771058559418,2533.48954600138,256.826341287689,2790.31588728907,,,30.5299999713898,0,16589.0209609625,16602.9312802605
2011-06-01T05:01:35Z,1306904495,1C505,55.8008061,25.9307763,265.79,0,1,4.8,-44332.23,-26365.62,5.3,Weapon+Missile,Blue,Enemies,R-27ER,,ru,,213.596668697173,211.175308227539,0.629348846219411,265.793853759766,265.793853759766,213.560990540057,3.90386962890625,0.0736869923311372,NaN,0,0.0197823405926261,5000,0.998809635639191,0.998809635639191,0.998809635639191,2281.1768439265,260.654729597321,2541.83157352382,,,31.5299999713898,0,16803.6568656094,16817.6115617068
2011-06-01T05:01:36Z,1306904496,1C505,55.8009787,25.9326259,269.55,0,1,4.8,-44313.06,-26160.93,5.3,Weapon+Missile,Blue,Enemies,R-27ER,,ru,,205.627401937971,203.244537353516,0.605893686413773,269.548461914062,269.548461914062,205.593120861004,3.75460815429688,0.0748425122398336,NaN,0,0.0197823405926261,5000,0.999349653720856,0.999349653720856,0.999349653720856,2114.13142138799,264.336742402954,2378.46816379094,,,32.5299999713898,0,17010.2785341207,17024.2760105312
2011-06-01T05:01:37Z,1306904497,1C505,55.8011441,25.9343963,273.14,0,1,4.8,-44294.72,-25964.99,5.3,Weapon+Missile,Blue,Enemies,R-27ER,,ru,,196.829100562198,194.498107910156,0.579992585861686,273.144622802734,273.144622802734,196.796246038858,3.59616088867188,0.0726795348357927,NaN,0,0.0197823405926261,5000,0.998853862285614,0.998853862285614,0.998853862285614,1937.08474140619,267.863371520843,2204.94811292703,,,33.5299999713898,0,17208.0557048631,17222.0942855627
2011-06-01T05:01:38Z,1306904498,1C505,55.801302,25.9360881,276.58,0,1,4.8,-44277.19,-25777.75,5.3,Weapon+Missile,Blue,Enemies,R-27ER,,ru,,188.086625093211,185.812866210938,0.554252863796282,276.578460693359,276.578460693359,188.055277235964,3.433837890625,0.0733985498578374,NaN,0,0.0197823405926261,5000,0.999615728855133,0.999615728855133,0.999615728855133,1768.82892694771,271.230816155853,2040.05974310357,,,34.5299999713898,0,17397.0531345628,17411.1310502501
2011-06-01T05:01:39Z,1306904499,1C505,55.8014545,25.9377212,279.9,0,1,4.8,-44260.26,-25597.01,5.3,Weapon+Missile,Blue,Enemies,R-27ER,,ru,,181.561707676385,179.327560424805,0.535045380033863,279.896148681641,279.896148681641,181.531392989691,3.31768798828125,0.0737667777974514,NaN,0,0.0197823405926261,5000,0.999128520488739,0.999128520488739,0.999128520488739,1648.23268471826,274.484356646881,1922.71704136514,,,35.5299999713898,0,17579.4824393811,17593.5984774796
2011-06-01T05:01:40Z,1306904500,1C505,55.8015999,25.9392787,283.06,0,1,4.8,-44244.12,-25424.64,5.3,Weapon+Missile,Blue,Enemies,R-27ER,,ru,,173.151737708675,170.981369018555,0.510280280498271,283.059997558594,283.059997558594,173.122830186598,3.16384887695312,0.0741933832285524,NaN,0,0.0197823405926261,5000,0.99897426366806,0.99897426366806,0.99897426366806,1499.07621357669,277.587032505798,1776.66324608249,,,36.5299999713898,0,17753.4742742071,17767.6267527601
2011-06-01T05:01:41Z,1306904501,1C505,55.8017407,25.940787,286.12,0,1,4.8,-44228.49,-25257.71,5.3,Weapon+Missile,Blue,Enemies,R-27ER,,ru,,167.691899428711,165.557586669922,0.49420720965922,286.119995117188,286.119995117188,167.663978089959,3.05999755859375,0.200234871010501,NaN,0,0.657981791381536,5000,0.622065484523773,0.622065484523773,0.622065484523773,1406.02865670044,280.587865011597,1686.61652171204,,,37.5299999713898,0,17921.9724749386,17936.1602537017
2011-06-01T05:01:42Z,1306904502,1C505,55.8018754,25.9422295,285.35,0.2,-2.1,4.8,-44213.54,-25098.06,5.4,Weapon+Missile,Blue,Enemies,R-27ER,,ru,,160.348683738423,158.301254272461,0.472561772505544,285.346923828125,285.346923828125,160.346820166247,-0.7730712890625,0.0786461039751617,NaN,0.20000001179094,2.40828991007041,2607.07233747503,0.0115294074639678,0.0115294074639678,0.0115294074639678,1285.58501883224,279.829741055908,1565.41475988814,,,38.5299999713898,0,18083.1117051668,18097.3085571132
2011-06-01T05:01:43Z,1306904503,1C505,55.8020051,25.9436181,275.09,0.4,-5.7,4.8,-44199.14,-24944.38,5.4,Weapon+Missile,Blue,Enemies,R-27ER,,ru,,154.68700819655,152.774322509766,0.45582335105067,275.094604492188,275.094604492188,154.346883522258,-10.2523193359375,0.135884396197269,NaN,0.199999998450727,3.57733548345627,2418.29286676882,0.00277677597478032,0.00277677597478032,0.00277677597478032,1196.40352523997,269.775650314331,1466.17917555431,,,39.5299999713898,0,18238.2339045433,18252.7759852911
2011-06-01T05:01:44Z,1306904504,1C505,55.8021298,25.9449513,255.68,0.6,-9.3,4.8,-44185.31,-24796.85,5.4,Weapon+Missile,Blue,Enemies,R-27ER,,ru,,149.4488676472,147.724243164062,0.440291020497213,255.677688598633,255.677688598633,148.18214271029,-19.4169158935547,0.0531978834996977,NaN,0.199999998450727,3.72699175836042,2295.39658456373,0.00692411419004202,0.00692411419004202,0.00692411419004202,1116.74820205151,250.734160489578,1367.48236254109,,,40.5299999713898,0,18387.1651248188,18402.9737577089
2011-06-01T05:01:45Z,1306904505,1C505,55.8022507,25.9462416,227.29,0.7,-13.1,4.8,-44171.88,-24654.03,5.4,Weapon+Missile,Blue,Enemies,R-27ER,,ru,,146.228783315234,144.725189208984,0.430665871213445,227.286148071289,227.286148071289,143.446078706732,-28.3915405273438,0.0343684418022547,NaN,0,3.7923780130586,2226.39281819596,0.00707769626751542,0.00707769626751542,0.00707769626751542,1069.14285349268,222.891570398331,1292.03442389102,,,41.5299999713898,0,18531.3147763555,18549.8981432724
2011-06-01T05:01:46Z,1306904506,1C505,55.8023675,25.9474834,190.41,0.8,-16.9,4.9,-44158.93,-24516.6,5.4,Weapon+Missile,Blue,Enemies,R-27ER,,ru,,142.880696697536,141.64680480957,0.420629696068103,190.405380249023,190.405380249023,138.038771559346,-36.8807678222656,0.0431049411522804,NaN,0.0307691484372612,3.76545212668994,2164.45450754115,0.00771427992731333,0.00771427992731333,0.00771427992731333,1020.74467443866,186.723892221909,1207.46856666057,,,42.5299999713898,0,18670.0457630051,18693.4520986817
2011-06-01T05:01:47Z,1306904507,1C505,55.802482,25.9486935,144.76,0.9,-20.6,4.9,-44146.23,-24382.68,5.4,Weapon+Missile,Blue,Enemies,R-27ER,,ru,,142.055775236188,141.122482299805,0.417985495716015,144.764602661133,144.764602661133,134.524208598777,-45.6407775878906,0.0444423648966329,NaN,0,3.73082007939021,2175.02722222617,0.00695258239284158,0.00695258239284158,0.00695258239284158,1008.99216389772,141.96557906868,1150.9577429664,,,43.5299999713898,0,18805.2364981881,18836.1425885507
2011-06-01T05:01:48Z,1306904508,1C505,55.8025924,25.949852,91.46,1,-24.4,4.9,-44134.01,-24254.47,5.5,Weapon+Missile,Blue,Enemies,R-27ER,,ru,,139.388504237602,138.809158325195,0.409890543529444,91.461540222168,91.461540222168,128.794171639185,-53.3030624389648,0.0660356225034661,NaN,0,3.69650222079231,2188.50083804022,0.013759053312242,0.013759053312242,0.013759053312242,971.457755679803,89.6931313419723,1061.15088702178,,,44.5299999713898,0,18934.6796738715,18976.1332052872
2011-06-01T05:01:49Z,1306904509,1C505,55.8026999,25.9509697,30.5,1,-27.9,5,-44122.12,-24130.78,5.5,Weapon+Missile,Blue,Enemies,R-27ER,,ru,,138.409415791406,138.218658447266,0.406731712791806,30.5007705688477,30.5007705688477,124.261622969415,-60.9607696533203,0.0243082943338544,NaN,0,3.61188300716502,2246.66175393316,0.0164762996137142,0.0164762996137142,0.0164762996137142,957.858318985917,29.911038169899,987.769357155816,,,45.5299999713898,0,19059.5576056171,19115.0972706852
