ISOTime,UnixTime,Id,Longitude,Latitude,Altitude,Roll,Pitch,Yaw,U,V,Heading,Type,Color,Coalition,Name,Group,Country,Pilot,TAS,CAS,M,ASL,AGL,GS,VS,AOA,AOS,RRT,TRT,TRD,G,LatG,LonG,Ek,Ep,Em,FFW,FFV,RelativeTime,Elev,GroundDistance,AirDistance
2011-06-01T04:56:51Z,1306904211,2306,55.786011,25.6867462,5874.3,-54.1,-4.5,8.1,-46063.32,-53379.84,8.6,Weapon+Missile,Blue,Enemies,R-27ER,,cn,,315.037569192522,246.164215087891,0.993506295877642,5874.296875,5870.37179923058,NaN,NaN,5.96869051086982,NaN,12.0769424149306,3.37082018786139,NaN,NaN,NaN,NaN,NaN,5760.71734492188,NaN,,,0.690000057220459,3.92507576942444,NaN,NaN
2011-06-01T04:56:52Z,1306904212,2306,55.7868664,25.6903306,5813.7,-43.6,-4.5,7.4,-45973.84,-52983.64,7.9,Weapon+Missile,Blue,Enemies,R-27ER,,cn,,410.672488658249,327.100158691406,1.29408444164296,5813.69970703125,5812.97393357754,406.177148760152,-60.59716796875,3.25084237347189,NaN,9.83080738561524,1.21368534192354,3213.71152914497,6.58160781860352,6.58160781860352,6.58160781860352,8432.59464703798,5701.2918231958,14133.8864702338,,,1.69000005722046,0.725773453712463,408.130834527889,412.974790060628
2011-06-01T04:56:53Z,1306904213,2306,55.787649,25.6961754,5775.13,-35.5,-0.4,5.1,-45889.36,-52337.02,5.6,Weapon+Missile,Blue,Enemies,R-27ER,,cn,,653.25545118567,503.902435302734,2.05746812638482,5775.130859375,5773.99251389503,652.115885785849,-38.56884765625,0.235775957939742,NaN,7.49228721758628,4.13091121662841,5000,9.69522571563721,9.69522571563721,9.69522571563721,21337.1342251897,5663.46870420898,27000.6029293987,,,2.69000005722046,1.13834547996521,1063.48813300845,1070.06037948054
2011-06-01T04:56:54Z,1306904214,2306,55.7883292,25.7043595,5814.02,-29.1,4.2,4.1,-45812.79,-51431.22,4.6,Weapon+Missile,Blue,Enemies,R-27ER,,cn,,909.863377374372,683.476196289062,2.86711408232927,5814.0166015625,5812.0166015625,909.032048137812,38.8857421875,0.255482255510634,NaN,6.32306128451764,3.60727647145667,5000,3.65955519676208,3.65955519676208,3.65955519676208,41392.5682743549,5701.60259057129,47094.1708649262,,,3.69000005722046,2,1977.09523203216,1985.3239155973
2011-06-01T04:56:55Z,1306904215,2306,55.7891372,25.7139525,5890.65,-23.4,3.7,4.7,-45721.97,-50369.5,5.2,Weapon+Missile,Blue,Enemies,R-27ER,,cn,,1068.35166552374,792.986022949219,3.36988201509143,5890.64990234375,5890.64990234375,1065.59965204514,76.63330078125,0.0358047654728811,NaN,5.33845194961987,0.520399316578412,5000,1.67788755893707,1.67788755893707,1.67788755893707,57068.7640613675,5776.75418648193,62845.5182478495,,,4.69000005722046,0,3048.0467591417,3059.99389875033
2011-06-01T04:56:56Z,1306904216,2306,55.7900918,25.7236576,5949.11,-18.8,2.5,5.5,-45616.35,-49295.48,6,Weapon+Missile,Blue,Enemies,R-27ER,,cn,,1080.77505789209,799.432434082031,3.4116594139625,5949.111328125,5949.111328125,1079.19274805628,58.46142578125,0.0257356223405631,NaN,4.44614920626024,1.35756178268598,5000,1.93106472492218,1.93106472492218,1.93106472492218,58403.7362880826,5834.0852605957,64237.8215486783,,,5.69000005722046,0,4132.65153589568,4147.17832154789
2011-06-01T04:56:57Z,1306904217,2306,55.7912035,25.7335268,5985.83,-15,1.3,6.1,-45494.79,-48203.45,6.7,Weapon+Missile,Blue,Enemies,R-27ER,,cn,,1099.3967574344,811.099426269531,3.4721003756109,5985.83154296875,5985.83154296875,1098.78335265834,36.72021484375,0.068498113921697,NaN,3.6769093962713,1.42103569113826,5000,1.99894285202026,1.99894285202026,1.99894285202026,60433.6615128636,5870.09549008545,66303.7570029491,,,6.69000005722046,0,5236.92944168891,5253.09918885671
2011-06-01T04:56:58Z,1306904218,2306,55.7924466,25.7434653,5997.64,-12.1,-0.1,6.7,-45360.01,-47103.84,7.3,Weapon+Missile,Blue,Enemies,R-27ER,,cn,,1107.89439264072,816.614929199219,3.49947521085914,5997.63623046875,5997.63623046875,1107.83150099543,11.8046875,0.0563826034426655,NaN,2.84613641204973,1.4829176319054,5000,2.06123042106628,2.06123042106628,2.06123042106628,61371.4992622376,5881.67193395264,67253.1711961902,,,7.69000005722046,0,6350.27135244297,6367.54951420344
2011-06-01T04:56:59Z,1306904219,2306,55.7938147,25.7535451,5982.37,-9.6,-1.5,7.3,-45212.58,-45988.71,7.8,Weapon+Missile,Blue,Enemies,R-27ER,,cn,,1124.93990341831,829.310974121094,3.55261030844961,5982.369140625,5982.369140625,1124.83630021017,-15.26708984375,0.0255771527385795,NaN,2.30770918468304,1.48785980737843,5000,2.02699828147888,2.02699828147888,2.02699828147888,63274.4893151403,5866.70003329102,69141.1893484313,,,8.69000005722046,0,7480.70890963383,7499.15171064164
2011-06-01T04:57:00Z,1306904220,2306,55.7952795,25.7636122,5940,-7.7,-2.8,7.8,-45055.46,-44875.07,8.3,Weapon+Missile,Blue,Enemies,R-27ER,,cn,,1125.46673685159,831.483825683594,3.55231572689258,5939.99755859375,5939.99755859375,1124.66885117155,-42.37158203125,0.0237273077485399,NaN,1.80000073310848,1.42869468107537,5000,1.90956461429596,1.90956461429596,1.90956461429596,63333.7687879682,5825.14770579834,69158.9164937665,,,9.69000005722046,0,8610.95267902118,8631.24504917537
2011-06-01T04:57:01Z,1306904221,2306,55.7968536,25.7738002,5870.67,-6.2,-4.1,8.2,-44887.3,-43748.13,8.7,Weapon+Missile,Blue,Enemies,R-27ER,,cn,,1141.52595183332,845.880981445312,3.59976050110542,5870.6669921875,5870.6669921875,1139.41861107793,-69.33056640625,0.0174830723749503,NaN,1.33844728485028,1.46899140979627,5000,1.91957318782806,1.91957318782806,1.91957318782806,65154.0749354482,5757.15764589356,70911.2325813417,,,10.6900000572205,0,9756.00028841766,9779.44788890548
2011-06-01T04:57:02Z,1306904222,2306,55.7984786,25.7837269,5777.07,-4.9,-5.5,8.7,-44714.31,-42650.19,9.2,Weapon+Missile,Blue,Enemies,R-27ER,,cn,,1115.41979861101,831.230407714844,3.51317145219095,5777.07373046875,5777.07373046875,1111.48622505826,-93.59326171875,0.0676630301445973,NaN,1.15383154045307,1.50766105939082,5000,2.60579919815063,2.60579919815063,2.60579919815063,62208.0663566709,5665.37400989014,67873.440366561,,,11.6900000572205,0,10872.9771082056,10901.355366044
2011-06-01T04:57:03Z,1306904223,2306,55.8000855,25.7928554,5659.2,-3.8,-8.3,9.7,-44543.97,-41640.62,10.2,Weapon+Missile,Blue,Enemies,R-27ER,,cn,,1030.59566523338,775.158264160156,3.24106396197371,5659.1953125,5659.1953125,1023.83206815133,-117.87841796875,0.0369161772600125,NaN,0.969218357376796,2.55372576839773,5000,4.99308586120605,4.99308586120605,4.99308586120605,53106.371259892,5549.77477113281,58656.1460310248,,,12.6900000572205,0,11901.8423501564,11937.867743032
2011-06-01T04:57:04Z,1306904224,2306,55.8017331,25.8011479,5499.34,-3,-10.8,10.6,-44370.4,-40723.68,11.1,Weapon+Missile,Blue,Enemies,R-27ER,,cn,,946.820784898107,720.728393554688,2.97148082698474,5499.33837890625,5499.33837890625,933.228460505288,-159.85693359375,0.139312879120444,NaN,0.769230418478822,3.21740137622611,5000,3.18342161178589,3.18342161178589,3.18342161178589,44823.4799357533,5393.0086713501,50216.4886071034,,,13.6900000572205,0,12839.6174555647,12889.9788746912
2011-06-01T04:57:05Z,1306904225,2306,55.8033696,25.8087765,5314.29,-2.3,-13.4,11.4,-44198.65,-39880.27,11.9,Weapon+Missile,Blue,Enemies,R-27ER,,cn,,880.387973598408,678.850402832031,2.75644150842541,5314.2900390625,5314.2900390625,860.720684065268,-185.04833984375,0.333704102400748,NaN,0.60001845820728,3.30450528460741,5000,2.74435329437256,2.74435329437256,2.74435329437256,38754.1492028356,5211.53824115723,43965.6874439928,,,14.6900000572205,0,13704.5185437358,13775.1712742289
2011-06-01T04:57:06Z,1306904226,2306,55.8049578,25.8156968,5112.6,-1.8,-12.1,10.8,-44032.47,-39115.25,11.3,Weapon+Missile,Blue,Enemies,R-27ER,,cn,,808.419597565384,632.539794921875,2.52460786105668,5112.60302734375,5112.60302734375,782.856688693236,-201.68701171875,0.170072805847019,NaN,0.369216974642441,2.40297623633955,5000,10.0453672409058,10.0453672409058,10.0453672409058,32677.1122863889,5013.75084781006,37690.8631341989,,,15.6900000572205,0,14491.1461048453,14587.8659043998
2011-06-01T04:57:07Z,1306904227,2306,55.8061279,25.822151,5009.08,-1.8,-4,7.8,-43908.68,-38401.47,8.3,Weapon+Missile,Blue,Enemies,R-27ER,,cn,,731.795153347192,579.132080078125,2.28231295052137,5009.07666015625,5009.07666015625,724.435254359835,-103.5263671875,0.178037159894549,NaN,0.0769352508110236,8.44155629994476,5000,11.3751382827759,11.3751382827759,11.3751382827759,26776.207323122,4912.22616293213,31688.4334860542,,,16.6900000572205,0,15219.1386664192,15323.7546488795
2011-06-01T04:57:08Z,1306904228,2306,55.8068863,25.8281788,5005.74,-2.1,3.6,5.2,-43826.6,-37734.54,5.7,Weapon+Missile,Blue,Enemies,R-27ER,,cn,,671.970565531776,535.216430664062,2.09564407935634,5005.740234375,5005.740234375,671.962282575519,-3.33642578125,0.19652068563308,NaN,0.215451487178882,7.91143116751422,5000,9.24240779876709,9.24240779876709,9.24240779876709,22577.2220470548,4908.95424694336,27486.1762939981,,,17.6900000572205,0,15894.438616629,15999.5930055486
2011-06-01T04:57:09Z,1306904229,2306,55.8073222,25.8336913,5075.52,-2.3,8.3,3.5,-43777.37,-37124.4,4,Weapon+Missile,Blue,Enemies,R-27ER,,cn,,616.088253916974,492.627563476562,1.92307044772507,5075.52490234375,5075.52490234375,612.123220218738,69.78466796875,0.219484882099883,NaN,0.184604218452989,4.54498460487126,5000,3.08790373802185,3.08790373802185,3.08790373802185,18978.2368307233,4977.38962835693,23955.6264590802,,,18.6900000572205,0,16509.6363400702,16619.2191678416
2011-06-01T04:57:10Z,1306904230,2306,55.8076664,25.838885,5160.08,-1.9,8.4,3.4,-43737.64,-36549.48,3.9,Weapon+Missile,Blue,Enemies,R-27ER,,cn,,582.458258247571,466.254150390625,1.82005469258051,5160.0751953125,5160.0751953125,576.288877699104,84.55029296875,0.0462112081000666,NaN,0.492332841979213,0.775456135907289,5000,1.03136479854584,1.03136479854584,1.03136479854584,16962.8811300397,5060.30514141113,22023.1862714508,,,19.6900000572205,0,17088.8225054127,17205.0040439771
2011-06-01T04:57:11Z,1306904231,2306,55.8079951,25.8438656,5241.55,-1.5,8.4,3.4,-43699.71,-35998.15,3.9,Weapon+Missile,Blue,Enemies,R-27ER,,cn,,558.609108293367,447.226470947266,1.74734617953217,5241.54833984375,5241.54833984375,552.635741323796,81.47314453125,0.04141953850629,NaN,0.400030519309307,0.00989117029631303,5000,0.990977942943573,0.990977942943573,0.990977942943573,15602.2067934155,5140.20300269287,20742.4097961084,,,20.6900000572205,0,17644.2401563008,17766.8135636616
2011-06-01T04:57:12Z,1306904232,2306,55.8083108,25.8486513,5319.85,-1.2,8.4,3.4,-43663.25,-35468.39,3.9,Weapon+Missile,Blue,Enemies,R-27ER,,cn,,536.759724004335,429.794342041016,1.68068169480369,5319.84619140625,5319.84619140625,531.018312070221,78.2978515625,0.0402743584522355,NaN,0.369208436905978,0.00989117029631303,5000,0.990045130252838,0.990045130252838,0.990045130252838,14405.5500656605,5216.98696529541,19622.5370309559,,,21.6900000572205,0,18177.9164269998,18306.6401292445
2011-06-01T04:57:13Z,1306904233,2306,55.8086134,25.8532392,5394.91,-1,8.4,3.4,-43628.32,-34960.52,3.9,Weapon+Missile,Blue,Enemies,R-27ER,,cn,,514.571435299387,412.200958251953,1.61275611851229,5394.91015625,5394.91015625,509.066953561128,75.06396484375,0.0391591595157431,NaN,0.199987938897973,0.00989117029631303,5000,0.989413857460022,0.989413857460022,0.989413857460022,13239.1881013036,5290.59956837891,18529.7876696825,,,22.6900000572205,0,18689.5412813546,18824.1674336266
2011-06-01T04:57:14Z,1306904234,2306,55.8089016,25.8576108,5466.43,-0.8,8.4,3.4,-43595.05,-34476.6,3.9,Weapon+Missile,Blue,Enemies,R-27ER,,cn,,490.309102090522,393.103302001953,1.53812452934582,5466.43115234375,5466.43115234375,485.06469950984,71.52099609375,0.0393181224664322,NaN,0.199987938897973,0.00989117029631303,5000,0.99128931760788,0.99128931760788,0.99128931760788,12020.1507796407,5360.73770601318,17380.8884856539,,,23.6900000572205,0,19177.0430311864,19317.2983385925
2011-06-01T04:57:15Z,1306904235,2306,55.8091807,25.8618434,5535.7,-0.6,8.4,3.4,-43562.83,-34008.05,3.9,Weapon+Missile,Blue,Enemies,R-27ER,,cn,,474.729557685001,380.402770996094,1.49057715118976,5535.69580078125,5535.69580078125,469.649402657585,69.2646484375,0.0380718194603072,NaN,0.184654697819824,0.00989117029631303,5000,0.988850891590118,0.988850891590118,0.988850891590118,11268.4076469898,5428.66312247314,16697.070769463,,,24.6900000572205,0,19649.0454362515,19794.7586284389
2011-06-01T04:57:16Z,1306904236,2306,55.8094481,25.8659,5602.07,-0.5,8.4,3.4,-43531.96,-33559.01,3.9,Weapon+Missile,Blue,Enemies,R-27ER,,cn,,454.970199062813,364.522583007812,1.42975720456496,5602.06982421875,5602.06982421875,450.10262279615,66.3740234375,0.0374124703087297,NaN,0.199987938897973,0.00989117029631303,5000,0.990299701690674,0.990299701690674,0.990299701690674,10349.8941017628,5493.75380416748,15843.6479059303,,,25.6900000572205,0,20101.4176234065,20252.3650253988
2011-06-01T04:57:17Z,1306904237,2306,55.8097045,25.8697898,5665.72,-0.4,8.4,3.4,-43502.36,-33128.43,3.9,Weapon+Missile,Blue,Enemies,R-27ER,,cn,,436.270964215508,349.284759521484,1.3721202875752,5665.72216796875,5665.72216796875,431.602517778408,63.65234375,0.0370158491431049,NaN,0.199987938897973,0.00989117029631303,5000,0.989345252513885,0.989345252513885,0.989345252513885,9516.61771087647,5556.17542985107,15072.7931407275,,,26.6900000572205,0,20535.1883774532,20691.1602375165
2011-06-01T04:57:18Z,1306904238,2306,55.8099517,25.8735401,5727.09,-0.3,8.4,3.4,-43473.82,-32713.28,3.9,Weapon+Missile,Blue,Enemies,R-27ER,,cn,,420.626735077463,336.209106445312,1.32396663405074,5727.08984375,5727.08984375,416.126012922929,61.36767578125,0.0382978992499253,NaN,0.199987938897973,0.00989117029631303,5000,0.989672183990479,0.989672183990479,0.989672183990479,8846.34251309633,5616.35656162109,14462.6990747174,,,27.6900000572205,0,20953.3989582302,21114.2189008102
2011-06-01T04:57:19Z,1306904239,2306,55.8101877,25.8771199,5785.67,-0.3,8.4,3.4,-43446.59,-32317,3.9,Weapon+Missile,Blue,Enemies,R-27ER,,cn,,401.508014280979,320.142730712891,1.26474665556311,5785.66845703125,5785.66845703125,397.211822077214,58.57861328125,0.0364439105701497,NaN,0,0.00989117029631303,5000,0.989588797092438,0.989588797092438,0.989588797092438,8060.43427659273,5673.80255741455,13734.2368340073,,,28.6900000572205,0,21352.6042290218,21518.055614149
2011-06-01T04:57:20Z,1306904240,2306,55.8104154,25.8805752,5842.21,-0.2,8.4,3.4,-43420.3,-31934.52,3.9,Weapon+Missile,Blue,Enemies,R-27ER,,cn,,387.535465786015,307.995727539062,1.22162792228787,5842.208984375,5842.208984375,383.388713983177,56.54052734375,0.0361694426532801,NaN,0.0923273489099118,0.00989117029631303,5000,0.989770352840424,0.989770352840424,0.989770352840424,7509.18686209917,5729.24987366211,13238.4367357613,,,29.6900000572205,0,21737.9145740198,21907.839758208
2011-06-01T04:57:21Z,1306904241,2306,55.8106344,25.8838971,5896.57,-0.2,8.4,3.4,-43395.03,-31566.79,3.9,Weapon+Missile,Blue,Enemies,R-27ER,,cn,,372.574904485387,294.892547607422,1.17529649320809,5896.56884765625,5896.56884765625,368.587933492592,54.35986328125,0.0367834507547562,NaN,0,0.00989117029631303,5000,0.989701271057129,0.989701271057129,0.989701271057129,6940.60297261477,5782.55868898682,12723.1616616016,,,30.6900000572205,0,22108.3614076193,22282.591058294
2011-06-01T04:57:22Z,1306904242,2306,55.8108436,25.8870717,5948.52,-0.1,8.4,3.4,-43370.88,-31215.37,3.9,Weapon+Missile,Blue,Enemies,R-27ER,,cn,,356.061293782579,280.344177246094,1.12396240432408,5948.5205078125,5948.5205078125,352.250862223407,51.95166015625,0.0364300125726553,NaN,0.153836884284726,0.00989117029631303,5000,0.989941835403442,0.989941835403442,0.989941835403442,6338.98224650621,5833.50586379395,12172.4881103002,,,31.6900000572205,0,22462.3778321145,22640.7243613258
2011-06-01T04:57:23Z,1306904243,2306,55.8110452,25.8901303,5998.58,-0.1,8.4,3.4,-43347.62,-30876.79,3.9,Weapon+Missile,Blue,Enemies,R-27ER,,cn,,343.048058502095,268.663726806641,1.08358964454467,5998.57763671875,5998.57763671875,339.376272428878,50.05712890625,0.0368117861470803,NaN,0,0.00989117029631303,5000,0.989314019680023,0.989314019680023,0.989314019680023,5884.09852210283,5882.59513811279,11766.6936602156,,,32.6900000572205,0,22803.4610816758,22985.7772811178
2011-06-01T04:57:24Z,1306904244,2306,55.8112384,25.8930623,6046.56,-0.1,8.4,3.4,-43325.31,-30552.23,3.9,Weapon+Missile,Blue,Enemies,R-27ER,,cn,,328.849759180457,255.958419799805,1.03939087003676,6046.56103515625,6046.56103515625,325.330228517783,47.9833984375,0.0350086849077665,NaN,0,0.00989117029631303,5000,0.988858997821808,0.988858997821808,0.988858997821808,5407.10820565224,5929.6507775415,11336.7589831937,,,33.6900000572205,0,23130.4187394103,23316.5425987757
2011-06-01T04:57:25Z,1306904245,2306,55.811424,25.8958768,6092.61,-0.1,8.4,3.4,-43303.91,-30240.68,3.9,Weapon+Missile,Blue,Enemies,R-27ER,,cn,,315.664483164576,244.207138061523,0.998315876160752,6092.6142578125,6092.6142578125,312.286993988755,46.05322265625,0.0369102527207939,NaN,0,0.00989117029631303,5000,0.990070641040802,0.990070641040802,0.990070641040802,4982.20329657793,5974.8135611377,10957.0168577156,,,34.6900000572205,0,23444.2789998057,23634.059113646
2011-06-01T04:57:26Z,1306904246,2306,55.8116015,25.8985703,6136.69,-0.1,8.4,3.4,-43283.41,-29942.51,3.9,Weapon+Missile,Blue,Enemies,R-27ER,,cn,,302.104486270135,232.252334594727,0.955981386394146,6136.6943359375,6136.6943359375,298.871322373084,44.080078125,0.0352883676430504,NaN,0,0.00989117029631303,5000,0.989780485630035,0.989780485630035,0.989780485630035,4563.35603122711,6018.04135095215,10581.3973821793,,,35.6900000572205,0,23744.6434597965,23937.9257434655
2011-06-01T04:57:27Z,1306904247,2306,55.8117724,25.9011637,6179.14,-0.1,8.4,3.4,-43263.68,-29655.43,3.9,Weapon+Missile,Blue,Enemies,R-27ER,,cn,,290.866736858195,222.390365600586,0.920931470589493,6179.1376953125,6179.1376953125,287.753401118908,42.443359375,0.0361161876614099,NaN,0,0.00989117029631303,5000,0.989148437976837,0.989148437976837,0.989148437976837,4230.17293052673,6059.66406797363,10289.8369985004,,,36.6900000572205,0,24033.8490014398,24230.5054180502
2011-06-01T04:57:28Z,1306904248,2306,55.8119358,25.9036421,6219.7,0,8.4,3.4,-43244.84,-29381.08,3.9,Weapon+Missile,Blue,Enemies,R-27ER,,cn,,277.973044591175,211.286422729492,0.880575263663313,6219.6962890625,6219.6962890625,274.998207252901,40.55859375,0.0369073111532813,NaN,0,0.00989117029631303,5000,0.989132285118103,0.989132285118103,0.989132285118103,3863.45067596436,6099.43846131348,9962.88913727783,,,37.6900000572205,0,24310.2268809041,24510.1092318666
2011-06-01T04:57:29Z,1306904249,2306,55.8120943,25.9060466,6259.04,0,8.4,3.4,-43226.55,-29114.91,3.9,Weapon+Missile,Blue,Enemies,R-27ER,,cn,,269.682956503016,204.082489013672,0.85475408118457,6259.04248046875,6259.04248046875,266.79725307812,39.34619140625,0.0360180643882289,NaN,0,0.00989117029631303,5000,0.989810347557068,0.989810347557068,0.989810347557068,3636.44485141039,6138.02389410889,9774.46874551928,,,38.6900000572205,0,24578.3605417676,24781.3738896335
2011-06-01T04:57:30Z,1306904250,2306,55.8122466,25.9083578,6296.87,0,8.4,3.4,-43208.97,-28859.06,3.9,Weapon+Missile,Blue,Enemies,R-27ER,,cn,,259.225356819249,195.197021484375,0.822016628676489,6296.8662109375,6296.8662109375,256.451069468416,37.82373046875,0.0367363610952241,NaN,0,0.00989117029631303,5000,0.989486932754517,0.989486932754517,0.989486932754517,3359.88928090334,6175.11630274902,9535.00558365236,,,39.6900000572205,0,24836.09889592,25042.1238262311
2011-06-01T04:57:31Z,1306904251,2306,55.8123938,25.9105908,6333.41,0,8.4,3.4,-43191.98,-28611.88,3.9,Weapon+Missile,Blue,Enemies,R-27ER,,cn,,250.447110126647,187.761932373047,0.794561462827327,6333.40966796875,6333.40966796875,247.76668605564,36.54345703125,0.0347163557940422,NaN,0,0.00989117029631303,5000,0.989213407039642,0.989213407039642,0.989213407039642,3136.18774853945,6210.95319203857,9347.14094057802,,,40.6900000572205,0,25085.1084911181,25294.0445482672
2011-06-01T04:57:32Z,1306904252,2306,55.8125361,25.9127492,6368.73,0,8.4,3.4,-43175.57,-28372.95,3.9,Weapon+Missile,Blue,Enemies,R-27ER,,cn,,242.081479401364,180.73291015625,0.768377443457906,6368.73046875,6368.73046875,239.490884380438,35.32080078125,0.0368421429018311,NaN,0,0.00989117029631303,5000,0.989833772182465,0.989833772182465,0.989833772182465,2930.17213345766,6245.59106513672,9175.76319859438,,,41.6900000572205,0,25325.8000560012,25537.5510553205
2011-06-01T04:57:33Z,1306904253,2306,55.8126729,25.9148244,6402.69,0,8.4,3.4,-43159.79,-28143.23,3.9,Weapon+Missile,Blue,Enemies,R-27ER,,cn,,232.755431559498,173.015365600586,0.739106241133983,6402.6943359375,6402.6943359375,230.264080234235,33.9638671875,0.0350830059257329,NaN,0,0.00989117029631303,5000,0.977863729000092,0.977863729000092,0.977863729000092,2708.75454602242,6278.89824095215,8987.65278697456,,,42.6900000572205,0,25557.2185499659,25771.6778448133
2011-06-01T04:57:34Z,1306904254,2306,55.8128056,25.9168383,6435.54,0,8,3.4,-43144.47,-27920.29,3.9,Weapon+Missile,Blue,Enemies,R-27ER,,cn,,225.862176228704,167.289566040039,0.717527147109025,6435.54052734375,6435.54052734375,223.461071242555,32.84619140625,0.119366802431362,NaN,0,0.838565536373473,5000,0.365250289440155,0.365250289440155,0.365250289440155,2550.68613253832,6311.10935124756,8861.79548378588,,,43.6900000572205,0,25781.7975244212,25998.8697431896
2011-06-01T04:57:35Z,1306904255,2306,55.8129341,25.9187872,6461.19,0.1,5.5,3.4,-43129.64,-27704.56,3.9,Weapon+Missile,Blue,Enemies,R-27ER,,cn,,217.76238318225,160.722930908203,0.692029198919681,6461.18603515625,6461.18603515625,216.246996414406,25.6455078125,0.034665096734617,NaN,0,2.14234304780104,4779.75427285163,0.00229941727593541,0.00229941727593541,0.00229941727593541,2371.02277646065,6336.2590031665,8707.28177962715,,,44.6900000572205,0,25999.1306313405,26217.9289297171
2011-06-01T04:57:36Z,1306904256,2306,55.8130593,25.920689,6476.51,0.2,2.8,3.4,-43115.19,-27494.03,3.9,Weapon+Missile,Blue,Enemies,R-27ER,,cn,,211.576474930361,155.776382446289,0.672506751142052,6476.50830078125,6476.50830078125,211.02093005215,15.322265625,0.0707225870911101,NaN,0,2.65774058483374,4513.48341352499,0.00473824050277472,0.00473824050277472,0.00473824050277472,2238.23023719788,6351.28501278564,8589.51524998352,,,45.6900000572205,0,26211.2082384547,26430.7738560811
2011-06-01T04:57:37Z,1306904257,2306,55.8131804,25.9225288,6481.74,0.3,0.1,3.4,-43101.22,-27290.37,3.9,Weapon+Missile,Blue,Enemies,R-27ER,,cn,,204.209752098977,150.023406982422,0.649135990227631,6481.73681640625,6481.73681640625,204.142806575898,5.228515625,0.0497569236601544,NaN,0,2.75770381843146,4222.70072346086,0.0036686712410301,0.0036686712410301,0.0036686712410301,2085.08114261627,6356.41243506104,8441.49357767731,,,46.6900000572205,0,26416.3715940363,26636.2121684321
2011-06-01T04:57:38Z,1306904258,2306,55.813299,25.9243295,6477.19,0.4,-2.7,3.4,-43087.54,-27091.04,3.9,Weapon+Missile,Blue,Enemies,R-27ER,,cn,,199.848983550571,146.691543579102,0.635236022896895,6477.18994140625,6477.18994140625,199.797252618575,-4.546875,0.0300669617268236,NaN,0,2.79236126549716,4024.82069147407,0.00266274786554277,0.00266274786554277,0.00266274786554277,1996.98081130981,6351.95347388916,8348.93428519897,,,47.6900000572205,0,26617.1741857218,26837.2701725417
2011-06-01T04:57:39Z,1306904259,2306,55.8134149,25.9260891,6463.03,0.5,-5.6,3.4,-43074.16,-26896.26,3.9,Weapon+Missile,Blue,Enemies,R-27ER,,cn,,195.75284797051,143.644485473633,0.622099986543747,6463.0283203125,6463.0283203125,195.239919013921,-14.16162109375,0.0460319315613048,NaN,0.20000005181158,2.85773001783559,3885.95757766007,0.00169984833337367,0.00169984833337367,0.00169984833337367,1915.95887442827,6338.06566773926,8254.02454216753,,,48.6900000572205,0,26813.3944501301,27034.1993437771
2011-06-01T04:57:40Z,1306904260,2306,55.8135279,25.9278016,6439.58,0.5,-8.5,3.4,-43061.12,-26706.69,3.9,Weapon+Missile,Blue,Enemies,R-27ER,,cn,,191.459294996105,140.51887512207,0.608267183743773,6439.57958984375,6439.57958984375,190.017943046991,-23.44873046875,0.039441338290637,NaN,0,2.8808356940241,3753.01158234304,0.00256249448284507,0.00256249448284507,0.00256249448284507,1832.83308202028,6315.07031847412,8147.9034004944,,,49.6900000572205,0,27004.3653542209,27226.7961843108
2011-06-01T04:57:41Z,1306904261,2306,55.8136385,25.9294743,6406.99,0.6,-11.5,3.4,-43048.37,-26521.52,3.9,Weapon+Missile,Blue,Enemies,R-27ER,,cn,,188.441861442841,138.441452026367,0.598423997460349,6406.99365234375,6406.99365234375,185.603049062479,-32.5859375,0.0650027609168022,NaN,0.184615424232096,2.89662794515881,3659.57684534449,0.00299610081128776,0.00299610081128776,0.00299610081128776,1775.51675720215,6283.11443007568,8058.63118727783,,,50.6900000572205,0,27190.8999290588,27416.3406622943
2011-06-01T04:57:42Z,1306904262,2306,55.8137467,25.9311049,6365.53,0.6,-14.4,3.4,-43035.91,-26341.02,4,Weapon+Missile,Blue,Enemies,R-27ER,,cn,,185.624324600198,136.578964233398,0.589155100049482,6365.52734375,6365.52734375,180.933510259674,-41.46630859375,0.0948243551446688,NaN,0,2.97351196955106,3629.48367510153,0.00913550611585379,0.00913550611585379,0.00913550611585379,1722.81949416399,6242.44987255859,7965.26936672258,,,51.6900000572205,0,27372.7396493705,27603.0259251746
2011-06-01T04:57:43Z,1306904263,2306,55.8138526,25.9326942,6315.5,0.6,-17.3,3.4,-43023.7,-26165.09,4,Weapon+Missile,Blue,Enemies,R-27ER,,cn,,183.310007192841,135.160339355469,0.581427403969383,6315.49755859375,6315.49755859375,176.350728193163,-50.02978515625,0.0361899253377589,NaN,0,2.92698685535905,3596.67713440713,0.00663427170366049,0.00663427170366049,0.00663427170366049,1680.12793685198,6193.38741329834,7873.51535015032,,,52.6900000572205,0,27549.9747486081,27787.3564565756
2011-06-01T04:57:44Z,1306904264,2306,55.8139568,25.9342493,6256.89,0.7,-20.3,3.5,-43011.71,-25992.94,4,Weapon+Missile,Blue,Enemies,R-27ER,,cn,,182.249925867832,134.76220703125,0.577620751081435,6256.8896484375,6256.8896484375,172.569256665106,-58.60791015625,0.0762295623019084,NaN,0.199999998450727,2.92697020677295,3598.50930838402,0.00787298567593098,0.00787298567593098,0.00787298567593098,1660.75177394152,6135.91268708496,7796.66446102648,,,53.6900000572205,0,27723.4057356791,27970.5844922539
2011-06-01T04:57:45Z,1306904265,2306,55.8140591,25.9357668,6190.02,0.7,-23.1,3.5,-42999.94,-25824.96,4,Weapon+Missile,Blue,Enemies,R-27ER,,cn,,181.182062295096,134.413223266602,0.573733566782296,6190.01513671875,6190.01513671875,168.388655733938,-66.87451171875,0.030082744950709,NaN,0,2.87697194138799,3644.56005187272,0.00801439676433802,0.00801439676433802,0.00801439676433802,1641.3469848752,6070.33119405029,7711.6781789255,,,54.6900000572205,0,27892.6383597367,28152.7047789729
2011-06-01T04:57:46Z,1306904266,2306,55.8141603,25.937254,6114.77,0.7,-26,3.5,-42988.32,-25660.34,4,Weapon+Missile,Blue,Enemies,R-27ER,,cn,,181.378496758755,135.09880065918,0.573790961836864,6114.7744140625,6114.7744140625,165.036337636992,-75.24072265625,0.0583248468237705,NaN,0,2.77735427267358,3734.33198733945,0.00972864404320717,0.00972864404320717,0.00972864404320717,1644.90795432329,5996.5452507666,7641.45320508989,,,55.6900000572205,0,28058.5114140893,28334.9906595069
2011-06-01T04:57:47Z,1306904267,2306,55.8142592,25.9386965,6032.18,0.7,-28.7,3.6,-42976.96,-25500.66,4.1,Weapon+Missile,Blue,Enemies,R-27ER,,cn,,180.134052332402,134.718154907227,0.569240496917832,6032.1806640625,6032.1806640625,160.08294497113,-82.59375,0.0617403983192891,NaN,0,2.77731905451068,3784.08512899321,0.00923984218388796,0.00923984218388796,0.00923984218388796,1622.41384048462,5915.54845092285,7537.96229140747,,,56.6900000572205,0,28219.3904693842,28515.9688709113
2011-06-01T04:57:48Z,1306904268,2306,55.8143574,25.9401154,5941.2,0.7,-31.3,3.6,-42965.71,-25343.59,4.1,Weapon+Missile,Blue,Enemies,R-27ER,,cn,,181.859321846599,136.70930480957,0.574012370386491,5941.2001953125,5941.2001953125,157.465447792635,-90.98046875,0.0255542009784051,NaN,0,2.69618921377562,3946.0604716161,0.0106493532657623,0.0106493532657623,0.0106493532657623,1653.64064712524,5826.32708953613,7479.96773666138,,,57.6900000572205,0,28377.6473505134,28698.6426907423
2011-06-01T04:57:49Z,1306904269,2306,55.8144537,25.941492,5843.27,0.7,-33.9,3.6,-42954.68,-25191.21,4.2,Weapon+Missile,Blue,Enemies,R-27ER,,cn,,181.479219568524,137.111846923828,0.572084737570599,5843.267578125,5843.267578125,152.787138287249,-97.9326171875,0.0325017863729697,NaN,0,2.56192199540174,4072.87261082417,0.0113789672031999,0.0113789672031999,0.0113789672031999,1646.73535676003,5730.28799950195,7377.02335626198,,,58.6900000572205,0,28531.1970419206,28880.8839813008
2011-06-01T04:57:50Z,1306904270,2306,55.8145492,25.9428402,5737.67,0.6,-36.4,3.7,-42943.77,-25041.98,4.2,Weapon+Missile,Blue,Enemies,R-27ER,,cn,,183.135047335569,139.17414855957,0.576515593834507,5737.67236328125,5737.67236328125,149.626522263613,-105.59521484375,0,NaN,0,2.50805165308762,4251.64876125306,0.0115102417767048,0.0115102417767048,0.0115102417767048,1676.92227813005,5626.73446813721,7303.65674626726,,,59.6900000572205,0,28681.5800817116,29064.7493924298
2011-06-01T04:57:51Z,1306904271,2306,55.8146431,25.944152,5625.23,0.6,-38.9,3.7,-42933.05,-24896.77,4.2,Weapon+Missile,Blue,Enemies,R-27ER,,cn,,183.965514195897,140.646759033203,0.578289613766318,5625.22509765625,5625.22509765625,145.598498848104,-112.447265625,0.0383723639005319,NaN,0,2.44263722385911,4455.60872439521,0.0114962756633759,0.0114962756633759,0.0114962756633759,1692.16552066803,5516.46137039307,7208.6268910611,,,60.6900000572205,0,28827.906116538,29249.3946146134
2011-06-01T04:57:52Z,1306904272,2306,55.8147356,25.9454271,5506.28,0.6,-41.3,3.8,-42922.52,-24755.63,4.3,Weapon+Missile,Blue,Enemies,R-27ER,,cn,,184.879598719626,142.242950439453,0.580273676354338,5506.2763671875,5506.2763671875,141.533266558087,-118.94873046875,0.0754136900624002,NaN,0,2.33881834847492,4683.9792632903,0.013750565238297,0.013750565238297,0.013750565238297,1709.02330113649,5399.81251362793,7108.83581476442,,,61.6900000572205,0,28970.1497211722,29434.9138082187
2011-06-01T04:57:53Z,1306904273,2306,55.8148268,25.9466691,5380.79,0.6,-43.5,3.8,-42912.13,-24618.15,4.3,Weapon+Missile,Blue,Enemies,R-27ER,,cn,,186.42939837632,144.408630371094,0.584196360219983,5380.79296875,5380.79296875,137.876166524647,-125.4833984375,0.0726060821299125,NaN,0,2.22345410551588,4928.04051515783,0.0122039839625359,0.0122039839625359,0.0122039839625359,1737.79602894783,5276.75533669922,7014.55136564705,,,62.6900000572205,0,29108.7184314983,29621.9436457083
2011-06-01T04:57:54Z,1306904274,2306,55.8149169,25.94788,5248.83,0.5,-45.6,3.9,-42901.89,-24484.12,4.4,Weapon+Missile,Blue,Enemies,R-27ER,,cn,,188.366067322074,146.95361328125,0.589269532047938,5248.82861328125,5248.82861328125,134.414226196863,-131.96435546875,0.0471346827077441,NaN,0.184579032130425,2.08883534584316,5000,0.0125064207240939,0.0125064207240939,0.0125064207240939,1774.08876591921,5147.34251204346,6921.43127796267,,,63.6900000572205,0,29243.8080930844,29810.8728231175
2011-06-01T04:57:55Z,1306904275,2306,55.8150064,25.9490639,5110.07,0.5,-47.6,3.9,-42891.75,-24353.07,4.5,Weapon+Missile,Blue,Enemies,R-27ER,,cn,,191.131834398827,150.248916625977,0.596865049823158,5110.07421875,5110.07421875,131.448073850198,-138.75439453125,0.0339244165822292,NaN,0,2.00807497565351,5000,0.0120468530803919,0.0120468530803919,0.0120468530803919,1826.56890603304,5011.27093373047,6837.83983976351,,,64.6900000572205,0,29375.9107531798,30002.5294147888
2011-06-01T04:57:56Z,1306904276,2306,55.8150946,25.9502166,4965.32,0.5,-49.5,4,-42881.77,-24225.48,4.5,Weapon+Missile,Blue,Enemies,R-27ER,,cn,,193.215577474156,153.064331054688,0.602263745006342,4965.31787109375,4965.31787109375,127.976010220254,-144.75634765625,0.023529758640818,NaN,0,1.93878697539197,5000,0.0133995525538921,0.0133995525538921,0.0133995525538921,1866.61296893358,4869.31345005615,6735.92641898973,,,65.6900000572205,0,29504.5275955832,30196.2375305752
2011-06-01T04:57:57Z,1306904277,2306,55.8151818,25.9513415,4814.34,0.5,-51.3,4,-42871.89,-24100.96,4.6,Weapon+Missile,Blue,Enemies,R-27ER,,cn,,195.952750520536,156.496063232422,0.609629822876262,4814.33984375,4814.33984375,124.912432111273,-150.97802734375,0.0256328518409216,NaN,0,1.81573108565384,5000,0.0111276432871819,0.0111276432871819,0.0111276432871819,1919.87402182817,4721.25458287109,6641.12860469927,,,66.6900000572205,0,29630.0557800968,30392.6449132336
2011-06-01T04:57:58Z,1306904278,2306,55.8152677,25.9524323,4658.27,0.4,-53,4.1,-42862.21,-23980.22,4.6,Weapon+Missile,Blue,Enemies,R-27ER,,cn,,197.555018304139,159.057479858398,0.613406697776686,4658.2724609375,4658.2724609375,121.123727152054,-156.0673828125,0,NaN,0.199987938897973,1.73877897281331,5000,0.0126914205029607,0.0126914205029607,0.0126914205029607,1951.39926285744,4568.20476290527,6519.60402576271,,,67.6900000572205,0,29751.7895088756,30590.6301291994
2011-06-01T04:57:59Z,1306904279,2306,55.8153528,25.9534999,4495.86,0.4,-54.7,4.1,-42852.62,-23862.06,4.7,Weapon+Missile,Blue,Enemies,R-27ER,,cn,,201.076283360424,163.306381225586,0.623068429035696,4495.8642578125,4495.8642578125,118.554828192488,-162.408203125,0.0113696957480068,NaN,0,1.68879799634468,5000,0.0116397775709629,0.0116397775709629,0.0116397775709629,2021.58358650208,4408.9367223877,6430.52030888977,,,68.6900000572205,0,29870.9339893226,30792.105221312
2011-06-01T04:58:00Z,1306904280,2306,55.8154365,25.9545361,4328.58,0.4,-56.2,4.2,-42843.2,-23747.37,4.7,Weapon+Missile,Blue,Enemies,R-27ER,,cn,,203.043052703118,166.326263427734,0.627848188472984,4328.57861328125,4328.57861328125,115.07386490757,-167.28564453125,0.0335834790174962,NaN,0,1.53943061709808,5000,0.0117003433406353,0.0117003433406353,0.0117003433406353,2061.32406255007,4244.88554579346,6306.20960834352,,,69.6900000572205,0,29986.5883783673,30995.5233551855
2011-06-01T04:58:01Z,1306904281,2306,55.8155195,25.9555489,4155.36,0.4,-57.8,4.3,-42833.87,-23635.27,4.8,Weapon+Missile,Blue,Enemies,R-27ER,,cn,,206.539357769507,170.73210144043,0.637283552241096,4155.3583984375,4155.3583984375,112.486725782758,-173.22021484375,0.0285186484173308,NaN,0,1.45798968259067,5000,0.0103875705972314,0.0103875705972314,0.0103875705972314,2132.92531539202,4075.01454380371,6207.93985919573,,,70.6900000572205,0,30099.6346083431,31202.4090658921
2011-06-01T04:58:02Z,1306904282,2306,55.8156008,25.9565297,3977.96,0.3,-59.1,4.3,-42824.74,-23526.71,4.8,Weapon+Missile,Blue,Enemies,R-27ER,,cn,,208.177349489166,173.622085571289,0.640926653786533,3977.96313476562,3977.96313476562,108.943697693443,-177.395263671875,0.0207416626141435,NaN,0,1.43876408745926,5000,0.0102347265928984,0.0102347265928984,0.0102347265928984,2166.89044201672,3901.04921755493,6067.93965957165,,,71.6900000572205,0,30209.1223760324,31410.9083275708
2011-06-01T04:58:03Z,1306904283,2306,55.8156815,25.9574897,3794.65,0.3,-60.5,4.4,-42815.71,-23420.46,4.9,Weapon+Missile,Blue,Enemies,R-27ER,,cn,,212.076897521694,178.555328369141,0.651456921955435,3794.64624023438,3794.64624023438,106.637360441103,-183.31689453125,0.0429137608697276,NaN,0,1.31954089434087,5000,0.0110123082995415,0.0110123082995415,0.0110123082995415,2248.83052312136,3721.27675517944,5970.1072783008,,,72.6900000572205,0,30316.2942300895,31623.2874493541
2011-06-01T04:58:04Z,1306904284,2306,55.8157602,25.9584157,3608.13,0.3,-61.8,4.4,-42806.89,-23317.96,4.9,Weapon+Missile,Blue,Enemies,R-27ER,,cn,,213.009561078415,180.973159790039,0.652824301165372,3608.12915039062,3608.12915039062,102.88074799027,-186.51708984375,0.0258349663204625,NaN,0,1.2540570960036,5000,0.00846943818032742,0.00846943818032742,0.00846943818032742,2268.65365554094,3538.36597326782,5807.01962880877,,,73.6900000572205,0,30419.683169145,31836.5720189078
2011-06-01T04:58:05Z,1306904285,2306,55.8158366,25.9593023,3420,0.3,-63,4.5,-42798.36,-23219.83,5,Weapon+Missile,Blue,Enemies,R-27ER,,cn,,212.348015834578,182.013671875,0.64930136836945,3420.00463867188,3420.00463867188,98.492882582774,-188.12451171875,0.0403782525058769,NaN,0,1.23870645928741,5000,0.0100376131013036,0.0100376131013036,0.0100376131013036,2254.58399144411,3353.87884898315,5608.46284042726,,,74.6900000572205,0,30518.6726302718,32049.1762188142
2011-06-01T04:58:06Z,1306904286,2306,55.8159115,25.9601627,3227.85,0.2,-64.1,4.5,-42789.99,-23124.62,5,Weapon+Missile,Blue,Enemies,R-27ER,,cn,,214.610895719303,185.689117431641,0.654687597639796,3227.85375976562,3227.85375976562,95.5817780594035,-192.15087890625,0.0196025237972246,NaN,0.199987938897973,1.16941664475686,5000,0.00782851595431566,0.00782851595431566,0.00782851595431566,2302.89182807207,3165.44320732056,5468.33503539263,,,75.6900000572205,0,30614.73757918,32264.0251329594
2011-06-01T04:58:07Z,1306904287,2306,55.815984,25.9609854,3034.52,0.2,-65.3,4.6,-42781.91,-23033.57,5.1,Weapon+Missile,Blue,Enemies,R-27ER,,cn,,213.85465528877,186.702239990234,0.650854341275018,3034.51904296875,3034.51904296875,91.4084288769421,-193.334716796875,0.0304530625060367,NaN,0,1.10021306136459,5000,0.00936386454850435,0.00936386454850435,0.00936386454850435,2286.69067943394,2975.84661727295,5262.53729670689,,,76.6900000572205,0,30706.6079388722,32478.0970010632
2011-06-01T04:58:08Z,1306904288,2306,55.816055,25.9617813,2837.81,0.2,-66.4,4.6,-42774.01,-22945.47,5.2,Weapon+Missile,Blue,Enemies,R-27ER,,cn,,215.675555908523,190.070098876953,0.65484106081431,2837.81298828125,2837.81298828125,88.4458787379534,-196.7060546875,0.0409604943089606,NaN,0,1.06940698721713,5000,0.00715945847332478,0.00715945847332478,0.00715945847332478,2325.79727082253,2782.94387415283,5108.74114497536,,,77.6900000572205,0,30795.4946222157,32693.9705528969
2011-06-01T04:58:09Z,1306904289,2306,55.8161235,25.9625428,2640.01,0.2,-67.3,4.7,-42766.38,-22861.19,5.2,Weapon+Missile,Blue,Enemies,R-27ER,,cn,,215.147977065312,191.338882446289,0.651690333223892,2640.00903320312,2640.00903320312,84.6300619800498,-197.803955078125,0.0134448264338578,NaN,0,1.02711861802293,5000,0.0070815859362483,0.0070815859362483,0.0070815859362483,2314.4326017648,2588.96445854614,4903.39706031094,,,78.6900000572205,0,30880.5401142832,32909.2967089653
2011-06-01T04:58:10Z,1306904290,2306,55.8161899,25.963271,2441.32,0.2,-68.3,4.7,-42759.01,-22780.6,5.3,Weapon+Missile,Blue,Enemies,R-27ER,,cn,,214.537508592909,192.537811279297,0.648300818651586,2441.31982421875,2441.31982421875,80.9255264203824,-198.689208984375,0.038824934988586,NaN,0,0.969532332635205,5000,0.00828724075108767,0.00828724075108767,0.00828724075108767,2301.31712966263,2394.11690541748,4695.43403508011,,,79.6900000572205,0,30961.8771659831,33124.0020638036
2011-06-01T04:58:11Z,1306904291,2306,55.8162545,25.9639737,2239.92,0.2,-69.3,4.8,-42751.83,-22702.82,5.3,Weapon+Missile,Blue,Enemies,R-27ER,,cn,,216.012170172962,195.685974121094,0.651196122788825,2239.92309570312,2239.92309570312,78.1064363931448,-201.396728515625,0,NaN,0,0.96183118762431,5000,0.00663884542882442,0.00663884542882442,0.00663884542882442,2333.06288314164,2196.61418264771,4529.67706578934,,,80.6900000572205,0,31040.3701345575,33340.1647598984
2011-06-01T04:58:12Z,1306904292,2306,55.8163169,25.9646442,2038.18,0.2,-70.2,4.8,-42744.91,-22628.62,5.3,Weapon+Missile,Blue,Enemies,R-27ER,,cn,,215.070886744719,196.612670898438,0.64681283850327,2038.17834472656,2038.17834472656,74.5287983169221,-201.744750976562,0,NaN,0,0.919546020081289,5000,0.00493911001831293,0.00493911001831293,0.00493911001831293,2312.77431625798,1998.77016643127,4311.54448268926,,,81.6900000572205,0,31115.2663403233,33555.3719840267
2011-06-01T04:58:13Z,1306904293,2306,55.8163773,25.9652877,1834.94,0.1,-71,4.9,-42738.22,-22557.39,5.4,Weapon+Missile,Blue,Enemies,R-27ER,,cn,,215.458177249353,198.792266845703,0.646428846426408,1834.94311523438,1834.94311523438,71.5378755406626,-203.235229492188,0.0221571876269497,NaN,0.153870501622047,0.869500476980666,5000,0.00700126308947802,0.00700126308947802,0.00700126308947802,2321.11130718067,1799.46449010132,4120.57579728199,,,82.6900000572205,0,31187.1581950855,33770.9552308166
2011-06-01T04:58:14Z,1306904294,2306,55.8164353,25.9658982,1632.59,0.1,-71.9,4.9,-42731.81,-22489.83,5.4,Weapon+Missile,Blue,Enemies,R-27ER,,cn,,213.433393971308,198.695388793945,0.638837308768019,1632.5869140625,1632.5869140625,67.8659083001135,-202.356201171875,0.0111826804344928,NaN,0,0.819504079225554,5000,0.00561216380447149,0.00561216380447149,0.00561216380447149,2277.69068310559,1601.0208460791,3878.71152918469,,,83.6900000572205,0,31255.3693512645,33984.5045783608
2011-06-01T04:58:15Z,1306904295,2306,55.8164914,25.9664849,1428.58,0.1,-72.6,5,-42725.6,-22424.9,5.5,Weapon+Missile,Blue,Enemies,R-27ER,,cn,,214.181972364434,201.230895996094,0.639554374751896,1428.5771484375,1428.5771484375,65.222180395566,-204.009765625,0.0260117941470249,NaN,0,0.76567861338871,5000,0.00477397674694657,0.00477397674694657,0.00477397674694657,2293.69586429596,1400.95560927246,3694.65147356842,,,84.6900000572205,0,31320.9170182578,34198.7907035631
2011-06-01T04:58:16Z,1306904296,2306,55.8165456,25.9670463,1223.76,0.1,-73.4,5,-42719.61,-22362.78,5.5,Weapon+Missile,Blue,Enemies,R-27ER,,cn,,214.119775499167,203.012451171875,0.637850372073007,1223.75610351562,1223.75610351562,62.4148845783203,-204.821044921875,0.0304362150688504,NaN,0,0.765550814146037,5000,0.00575155299156904,0.00575155299156904,0.00575155299156904,2292.36391299069,1200.09477925415,3492.45869224484,,,85.6900000572205,0,31383.6422711817,34413.0049750322
2011-06-01T04:58:17Z,1306904297,2306,55.8165977,25.9675796,1019.58,0.1,-74.2,5.1,-42713.87,-22303.75,5.6,Weapon+Missile,Blue,Enemies,R-27ER,,cn,,212.613006257809,203.397644042969,0.631869594364928,1019.58148193359,1019.58148193359,59.3044208454785,-204.174621582031,0.00633884426535869,NaN,0,0.769439219496184,5000,0.00425768783316016,0.00425768783316016,0.00425768783316016,2260.21452149916,999.867873980408,3260.08239547957,,,86.6900000572205,0,31443.2368287009,34625.7020287047
2011-06-01T04:58:18Z,1306904298,2306,55.8166478,25.9680899,814.61,0.1,-74.8,5.1,-42708.33,-22247.29,5.6,Weapon+Missile,Blue,Enemies,R-27ER,,cn,,212.678457403639,205.303833007812,0.630576193190829,814.610778808594,814.610778808594,56.7374400553499,-204.970703125,0.0278162876995167,NaN,0,0.730762472908193,5000,0.00551590975373983,0.00551590975373983,0.00551590975373983,2261.60631217957,798.86027940033,3060.4665915799,,,87.6900000572205,0,31500.2644931482,34838.4602928353
