ISOTime,UnixTime,Id,Longitude,Latitude,Altitude,Roll,Pitch,Yaw,U,V,Heading,Type,Color,Coalition,Name,Group,Country,Pilot,TAS,CAS,M,ASL,AGL,GS,VS,AOA,AOS,RRT,TRT,TRD,G,LatG,LonG,Ek,Ep,Em,FFW,FFV,RelativeTime,Elev,GroundDistance,AirDistance
2011-06-01T05:02:13Z,1306904533,2B406,55.8365401,25.7716021,154.99,-27.2,0,332.5,-40909.61,-44027.32,333,Weapon+Missile,Blue,Enemies,R-27ER,,cn,,299.444977326744,297.653259277344,0.881189933581464,154.989990234375,154.989990234375,NaN,NaN,2.56314464536699,NaN,6.1692351791252,3.31206642104679,NaN,NaN,NaN,NaN,NaN,151.993258773193,NaN,,,0.920000076293945,0,NaN,NaN
2011-06-01T05:02:14Z,1306904534,2B406,55.8345717,25.7750559,142.65,-22.3,0.2,329.8,-41103.62,-43643.05,330.3,Weapon+Missile,Blue,Enemies,R-27ER,,cn,,430.649512209799,427.431427001953,1.26711457585738,142.646926879883,142.646926879883,430.472590478842,-12.3430633544922,1.35751650868339,NaN,4.32308285779495,1.63334305014311,5000,2.52728223800659,2.52728223800659,2.52728223800659,9272.95011832687,139.88884854866,9412.83896687553,,,1.92000007629395,0,432.156119792212,432.342431790531
2011-06-01T05:02:15Z,1306904535,2B406,55.8312756,25.7801868,133.13,-18.6,-0.7,331.7,-41429.11,-43071.86,332.2,Weapon+Missile,Blue,Enemies,R-27ER,,cn,,657.48779423869,646.571838378906,1.93434062498271,133.133850097656,133.133850097656,657.418969107975,-9.51307678222656,0.0393179381485253,NaN,4.13844918415116,0.679489683551936,5000,5.3615984916687,5.3615984916687,5.3615984916687,21614.5099786429,130.559707106018,21745.0696857489,,,2.92000007629395,0,1091.9996609906,1092.26880907559
2011-06-01T05:02:16Z,1306904536,2B406,55.8273537,25.787301,130.24,-16,0.3,334.3,-41815.37,-42280.44,334.8,Weapon+Missile,Blue,Enemies,R-27ER,,cn,,880.65254214079,863.072509765625,2.59081050283632,130.23844909668,130.23844909668,880.647782392075,-2.89540100097656,0.223061958383385,NaN,1.76923414599216,2.51565642839819,5000,3.50560259819031,3.50560259819031,3.50560259819031,38777.4449989518,127.720288683395,38905.1652876352,,,3.92000007629395,0,1976.15135309806,1976.44349660112
2011-06-01T05:02:17Z,1306904537,2B406,55.8230684,25.795002,152.06,-14.6,1.3,331.2,-42237.43,-41423.68,331.7,Weapon+Missile,Blue,Enemies,R-27ER,,cn,,955.329023235767,934.897705078125,2.81119572369294,152.059219360352,152.059219360352,955.079785474336,21.8207702636719,0.143790063720067,NaN,0.60001845820728,2.34279330512845,5000,7.03664207458496,7.03664207458496,7.03664207458496,45632.6771318302,149.119154354019,45781.7962861842,,,4.92000007629395,0,2935.00399303146,2935.56560787368
2011-06-01T05:02:18Z,1306904538,2B406,55.8182572,25.8022836,155.66,-14.4,-0.8,327.2,-42712.58,-40612.88,327.7,Weapon+Missile,Blue,Enemies,R-27ER,,cn,,939.77156687824,919.600219726562,2.7655282474593,155.663070678711,155.663070678711,939.764656798955,3.60385131835938,0.126344565613791,NaN,0.307672701352394,4.32643861511154,5000,6.27126216888428,6.27126216888428,6.27126216888428,44158.5298956391,152.653325207138,44311.1832208462,,,5.92000007629395,0,3878.17128724845,3878.7625392978
2011-06-01T05:02:19Z,1306904539,2B406,55.8130269,25.8091417,139.65,-13.5,-1.2,323.6,-43230.11,-39848.59,324.1,Weapon+Missile,Blue,Enemies,R-27ER,,cn,,923.171070393937,904.092590332031,2.71618530352798,139.646911621094,139.646911621094,923.032127209735,-16.0161590576172,0.103713095588121,NaN,0.923076160665128,3.65713301041636,5000,5.22622537612915,5.22622537612915,5.22622537612915,42612.2412606144,136.9468385849,42749.1880991993,,,6.92000007629395,0,4804.23853992687,4804.98971526497
2011-06-01T05:02:20Z,1306904540,2B406,55.8074791,25.8156111,110.36,-12.8,-2.1,321,-43779.8,-39127.04,321.5,Weapon+Missile,Blue,Enemies,R-27ER,,cn,,907.546034439886,890.041870117188,2.66932975478029,110.357688903809,110.357688903809,907.073285936798,-29.2892227172852,0.114111199980625,NaN,1.15387679045632,2.46582656986495,5000,2.61361384391785,2.61361384391785,2.61361384391785,41181.9902313782,108.223922988853,41290.214154367,,,7.92000007629395,0,5714.03326679405,5715.27359868238
2011-06-01T05:02:21Z,1306904541,2B406,55.8017772,25.8219061,80.19,-11.6,-1.6,321.1,-44345.05,-38424.63,321.6,Weapon+Missile,Blue,Enemies,R-27ER,,cn,,902.106735028885,885.928344726562,2.65242821799738,80.1907730102539,80.1907730102539,901.602195300093,-30.1669158935547,0.233319119229562,NaN,1.21539971940521,0.555149238002174,5000,1.92149472236633,1.92149472236633,1.92149472236633,40689.8280692238,78.6402844141006,40768.4683536379,,,8.92000007629395,0,6618.20934410308,6619.96627899889
2011-06-01T05:02:22Z,1306904542,2B406,55.7962252,25.8280378,59.74,-10.6,-1.5,318.8,-44895.38,-37740.41,319.3,Weapon+Missile,Blue,Enemies,R-27ER,,cn,,878.316003749588,863.49169921875,2.58188159786007,59.7369232177734,59.7369232177734,878.077811171261,-20.4538497924805,0.285266323093514,NaN,0.63074918683046,0.875612215627358,5000,3.05336904525757,3.05336904525757,3.05336904525757,38571.9501221323,58.5819098073578,38630.5320319397,,,9.92000007629395,0,7498.78516009439,7500.78926876488
2011-06-01T05:02:23Z,1306904543,2B406,55.7905807,25.8338678,37.68,-9.8,-1.5,318.8,-45455.22,-37089.52,319.3,Weapon+Missile,Blue,Enemies,R-27ER,,cn,,858.816904570487,845.2744140625,2.52393474132167,37.6800003051758,37.6800003051758,858.533614791908,-22.0569229125977,0.0343703789491508,NaN,0.769231272252469,1.27057099931281,5000,0.99863588809967,0.99863588809967,0.99863588809967,36878.3237788017,36.9514574992752,36915.2752363009,,,10.9200000762939,0,8359.6237327917,8361.91694484175
2011-06-01T05:02:24Z,1306904544,2B406,55.7851878,25.8394371,16.62,-9.1,-1.5,318.8,-45990.06,-36467.7,319.3,Weapon+Missile,Blue,Enemies,R-27ER,,cn,,820.467457727516,808.560974121094,2.4106592397008,16.61692237854,16.61692237854,820.197047018648,-21.0630779266357,0.0344533837184045,NaN,0.569250163543665,0.00989117029631303,5000,0.994971036911011,0.994971036911011,0.994971036911011,33658.3424594927,16.295634184351,33674.6380936771,,,11.9200000762939,0,9182.01168394141,9184.57808587761
2011-06-01T05:02:25Z,1306904545,2B406,55.7802459,25.8445399,-2.69,-8.5,-1.5,318.8,-46480.12,-35897.93,319.3,Weapon+Missile,Blue,Enemies,R-27ER,,cn,,751.770408599108,742.112060546875,2.20833642782405,-2.69384622573853,-2.69384622573853,751.522349275909,-19.3107686042786,0.0344342639509569,NaN,0.569195522030305,0.00989117029631303,5000,0.996887147426605,0.996887147426605,0.996887147426605,28257.9373622635,-2.64176070896387,28255.2956015545,,,12.9200000762939,0,9935.54033549556,9938.35495868528
2011-06-01T05:02:26Z,1306904546,2B406,55.775668,25.8492664,-20.58,-7.8,-1.5,318.8,-46934.05,-35370.19,319.3,Weapon+Missile,Blue,Enemies,R-27ER,,cn,,696.339028529728,688.57177734375,2.04509408700281,-20.5807685852051,-20.5807685852051,696.109259141287,-17.8869223594666,0.0346855549705024,NaN,0.615401751765441,0.00989117029631303,5000,0.997831463813782,0.997831463813782,0.997831463813782,24244.4021326863,-20.1828394246101,24224.2192932616,,,13.9200000762939,0,10633.5153091687,10636.5578146857
2011-06-01T05:02:27Z,1306904547,2B406,55.7714372,25.8536341,-37.1,-7.2,-1.5,318.8,-47353.55,-34882.46,319.3,Weapon+Missile,Blue,Enemies,R-27ER,,cn,,643.524163310333,637.543701171875,1.88962951523715,-37.1030769348145,-37.1030769348145,643.31202545193,-16.5223083496094,0.0342368848999721,NaN,0.569250163543665,0.00989117029631303,5000,0.997150123119354,0.997150123119354,0.997150123119354,20706.1674382132,-36.3856889422798,20669.7817492709,,,14.9200000762939,0,11278.5359552265,11281.7871210198
2011-06-01T05:02:28Z,1306904548,2B406,55.7675064,25.8576917,-52.45,-6.7,-1.5,318.8,-47743.26,-34429.38,319.3,Weapon+Missile,Blue,Enemies,R-27ER,,cn,,597.829965215547,593.416564941406,1.75515100400334,-52.4538421630859,-52.4538421630859,597.632848257631,-15.3507652282715,0.034687406952349,NaN,0.476894053134045,0.00989117029631303,5000,0.997488260269165,0.997488260269165,0.997488260269165,17870.0333654811,-51.4396471248627,17818.5937183562,,,15.9200000762939,0,11877.7608433258,11881.2043969921
2011-06-01T05:02:29Z,1306904549,2B406,55.7638335,25.8614826,-66.8,-6.2,-1.5,318.8,-48107.38,-34006.03,319.3,Weapon+Missile,Blue,Enemies,R-27ER,,cn,,558.580982852856,555.520202636719,1.63965657285608,-66.7984619140625,-66.7984619140625,558.396764217937,-14.3446197509766,0.0339685749431295,NaN,0.569204913540414,0.00989117029631303,5000,0.997262299060822,0.997262299060822,0.997262299060822,15600.6357202431,-65.5069136529541,15535.1288065902,,,16.9200000762939,0,12437.6401856572,12441.2622379749
2011-06-01T05:02:30Z,1306904550,2B406,55.7604307,25.8649945,-80.09,-5.7,-1.5,318.8,-48444.69,-33613.85,319.3,Weapon+Missile,Blue,Enemies,R-27ER,,cn,,517.454016887047,515.728454589844,1.51870567446179,-80.0899963378906,-80.0899963378906,517.28328283949,-13.2915344238281,0.0345184775734314,NaN,0.569196375803951,0.00989117029631303,5000,0.998305201530457,0.998305201530457,0.998305201530457,13387.932979627,-78.5414562586975,13309.3915233683,,,17.9200000762939,0,12956.3031311466,12960.0894930595
2011-06-01T05:02:31Z,1306904551,2B406,55.7572375,25.8682898,-92.56,-5.3,-1.5,318.7,-48761.22,-33245.85,319.3,Weapon+Missile,Blue,Enemies,R-27ER,,cn,,485.563109345229,484.855377197266,1.42490749250212,-92.5599975585938,-92.5599975585938,485.402958609198,-12.4700012207031,0.0350220920132631,NaN,0.461510759575884,0.00989117029631303,5000,0.998209178447723,0.998209178447723,0.998209178447723,11788.5766578503,-90.7703500057983,11697.8063078445,,,18.9200000762939,0,13442.9981861297,13446.9376887231
2011-06-01T05:02:32Z,1306904552,2B406,55.7542564,25.871366,-104.2,-4.9,-1.5,318.7,-49056.7,-32902.31,319.3,Weapon+Missile,Blue,Enemies,R-27ER,,cn,,453.28352103052,453.491729736328,1.33000759417543,-104.199226379395,-104.199226379395,453.134062712442,-11.6392288208008,0.0338511499784942,NaN,0.399975877795947,0.00989117029631303,5000,0.997570335865021,0.997570335865021,0.997570335865021,10273.2975218913,-102.184534337349,10171.112987554,,,19.9200000762939,0,13897.3392376047,13901.4207959124
2011-06-01T05:02:33Z,1306904553,2B406,55.7514573,25.8742541,-115.13,-4.5,-1.5,318.7,-49334.13,-32579.76,319.3,Weapon+Missile,Blue,Enemies,R-27ER,,cn,,425.58433237457,426.473999023438,1.24858029571599,-115.133842468262,-115.133842468262,425.443836638513,-10.9346160888672,0.0348413230512105,NaN,0.384592584237785,0.00989117029631303,5000,0.998937845230103,0.998937845230103,0.998937845230103,9056.10119813542,-112.907729624138,8943.19346851128,,,20.9200000762939,0,14323.9164743909,14328.1308230479
2011-06-01T05:02:34Z,1306904554,2B406,55.7488576,25.8769363,-125.28,-4.2,-1.5,318.7,-49591.79,-32280.21,319.3,Weapon+Missile,Blue,Enemies,R-27ER,,cn,,395.253172051852,396.673492431641,1.15946252365383,-125.281539916992,-125.281539916992,395.122885003564,-10.1476974487305,0.0348589071880994,NaN,0.400030519309307,0.00989117029631303,5000,0.998166680335999,0.998166680335999,0.998166680335999,7811.25350085255,-122.859221342697,7688.39427950985,,,21.9200000762939,0,14720.0845125547,14724.42134059
2011-06-01T05:02:35Z,1306904555,2B406,55.7464306,25.8794402,-134.76,-3.9,-1.5,318.7,-49832.32,-32000.55,319.3,Weapon+Missile,Blue,Enemies,R-27ER,,cn,,368.981723518868,370.667510986328,1.08228093040349,-134.756149291992,-134.756149291992,368.860060277805,-9.474609375,0.033689879887319,NaN,0.307673555126041,0.00989117029631303,5000,0.998348653316498,0.998348653316498,0.998348653316498,6807.37561454773,-132.150639145432,6675.2249754023,,,22.9200000762939,0,15089.917131528,15094.3677663728
2011-06-01T05:02:36Z,1306904556,2B406,55.7441678,25.8817746,-143.59,-3.6,-1.5,318.7,-50056.57,-31739.83,319.3,Weapon+Missile,Blue,Enemies,R-27ER,,cn,,344.013332962198,345.781066894531,1.00894468950003,-143.589996337891,-143.589996337891,343.899892995229,-8.83384704589844,0.0351240574919916,NaN,0.369208436905978,0.00989117029631303,5000,0.998140811920166,0.998140811920166,0.998140811920166,5917.25866278802,-140.813683758697,5776.44497902933,,,23.9200000762939,0,15434.7282813033,15439.2845349917
2011-06-01T05:02:37Z,1306904557,2B406,55.7420582,25.8839508,-151.83,-3.3,-1.5,318.7,-50265.63,-31496.78,319.3,Weapon+Missile,Blue,Enemies,R-27ER,,cn,,320.700715670213,322.539123535156,0.940484962667783,-151.828460693359,-151.828460693359,320.594879460746,-8.23846435546875,0.033576889991387,NaN,0.338478988943268,0.00989117029631303,5000,0.998985230922699,0.998985230922699,0.998985230922699,5142.44745156933,-148.892857405853,4993.55459416347,,,24.9200000762939,0,15756.1760247231,15760.8303920478
2011-06-01T05:02:38Z,1306904558,2B406,55.7400823,25.8859889,-159.54,-3.1,-1.5,318.7,-50461.42,-31269.14,319.3,Weapon+Missile,Blue,Enemies,R-27ER,,cn,,300.349020406304,302.207427978516,0.880725480469616,-159.540771484375,-159.540771484375,300.249986380165,-7.71231079101562,0.0355358504931955,NaN,0.199987938897973,0.00989117029631303,5000,0.999048411846161,0.999048411846161,0.999048411846161,4510.47670295131,-156.456050667725,4354.02065228359,,,25.9200000762939,0,16057.228914692,16061.9747059855
2011-06-01T05:02:39Z,1306904559,2B406,55.7382039,25.8879265,-166.87,-2.9,-1.5,318.7,-50647.56,-31052.73,319.3,Weapon+Missile,Blue,Enemies,R-27ER,,cn,,285.545157560401,287.428161621094,0.837246654437585,-166.871536254883,-166.871536254883,285.451041150796,-7.33076477050781,0.0341384222514247,NaN,0.215426300856318,0.00989117029631303,5000,0.998576760292053,0.998576760292053,0.998576760292053,4076.8018503097,-163.645075101395,3913.15677520831,,,26.9200000762939,0,16343.4281587309,16348.260499497
2011-06-01T05:02:40Z,1306904560,2B406,55.7364399,25.8897458,-173.76,-2.6,-1.5,318.7,-50822.34,-30849.52,319.3,Weapon+Missile,Blue,Enemies,R-27ER,,cn,,268.125665817484,270.006713867188,0.786110260286508,-173.756912231445,-173.756912231445,268.037244180227,-6.8853759765625,0.034298622563063,NaN,0.353824716460994,0.00989117029631303,5000,0.998948633670807,0.998948633670807,0.998948633670807,3594.56863350347,-170.39732233345,3424.17131117002,,,27.9200000762939,0,16612.1799376324,16617.0932909491
2011-06-01T05:02:41Z,1306904561,2B406,55.7347509,25.8914878,-180.35,-2.5,-1.5,318.7,-50989.69,-30654.95,319.3,Weapon+Missile,Blue,Enemies,R-27ER,,cn,,256.723749486612,258.618591308594,0.752625631039611,-180.350769042969,-180.350769042969,256.639055100376,-6.59385681152344,0.0337510296636538,NaN,0.169246111217392,0.00989117029631303,5000,0.998452842235565,0.998452842235565,0.998452842235565,3295.35417752323,-176.863686923523,3118.49049059971,,,28.9200000762939,0,16869.5000914246,16874.4907742917
2011-06-01T05:02:42Z,1306904562,2B406,55.7331386,25.8931507,-186.65,-2.3,-1.5,318.7,-51149.45,-30469.21,319.3,Weapon+Missile,Blue,Enemies,R-27ER,,cn,,245.075938336945,246.973236083984,0.718427493646538,-186.65153503418,-186.65153503418,244.994930355014,-6.30076599121094,0.0356954277012439,NaN,0.138453057118036,0.00989117029631303,5000,0.9997518658638,0.9997518658638,0.9997518658638,3003.11077758671,-183.042627604294,2820.06814998242,,,29.9200000762939,0,17115.1415507922,17120.2059636347
2011-06-01T05:02:43Z,1306904563,2B406,55.731603,25.8947343,-192.65,-2.1,-1.5,318.7,-51301.59,-30292.33,319.3,Weapon+Missile,Blue,Enemies,R-27ER,,cn,,233.386024888636,235.275421142578,0.684113134328795,-192.645370483398,-192.645370483398,233.309045152405,-5.99383544921875,0.0335700267753451,NaN,0.199987938897973,0.00989117029631303,5000,0.999233901500702,0.999233901500702,0.999233901500702,2723.45183066595,-188.920572245102,2534.53125842085,,,30.9200000762939,0,17349.0709190787,17354.2051541853
2011-06-01T05:02:44Z,1306904564,2B406,55.7301366,25.8962466,-198.37,-1.9,-1.5,318.7,-51446.88,-30123.41,319.3,Weapon+Missile,Blue,Enemies,R-27ER,,cn,,222.884275592531,224.76335144043,0.653287946793489,-198.368453979492,-198.368453979492,222.810786591906,-5.72308349609375,0.0349271909867091,NaN,0.107685616228067,0.00989117029631303,5000,0.999613225460052,0.999613225460052,0.999613225460052,2483.87001532037,-194.532999921799,2289.33701539857,,,31.9200000762939,0,17572.4688015441,17577.6694870885
2011-06-01T05:02:45Z,1306904565,2B406,55.7287389,25.897688,-203.82,-1.8,-1.5,318.7,-51585.36,-29962.4,319.3,Weapon+Missile,Blue,Enemies,R-27ER,,cn,,212.435403169327,214.29557800293,0.622623598659668,-203.818450927734,-203.818450927734,212.365482254011,-5.44999694824219,0.0353901581786518,NaN,0.199987938897973,0.00989117029631303,5000,0.998284757137299,0.998284757137299,0.998284757137299,2256.44002598572,-199.877621179047,2056.56240480667,,,32.9200000762939,0,17785.3927735114,17790.656485644
2011-06-01T05:02:46Z,1306904566,2B406,55.7273848,25.8990842,-209.11,-1.7,-1.5,318.7,-51719.51,-29806.45,319.3,Weapon+Missile,Blue,Enemies,R-27ER,,cn,,205.779801774265,207.641082763672,0.603081045520178,-209.107681274414,-209.107681274414,205.711815072921,-5.28923034667969,0.0330110676021282,NaN,0,0.00989117029631303,5000,0.999783098697662,0.999783098697662,0.999783098697662,2117.2663409128,-205.064584256973,1912.20175665582,,,33.9200000762939,0,17991.6567512951,17996.9815935306
2011-06-01T05:02:47Z,1306904567,2B406,55.7260957,25.9004135,-214.14,-1.5,-1.5,318.7,-51847.23,-29657.96,319.3,Weapon+Missile,Blue,Enemies,R-27ER,,cn,,195.923836369803,197.756088256836,0.574163694713468,-214.137680053711,-214.137680053711,195.859257555372,-5.02999877929688,0.0356453461295229,NaN,0.123103060732079,0.00989117029631303,5000,0.999421298503876,0.999421298503876,0.999421298503876,1919.30748289307,-209.997328009872,1709.31015488319,,,34.9200000762939,0,18188.0284109342,18193.4111501767
2011-06-01T05:02:48Z,1306904568,2B406,55.7248533,25.9016946,-218.98,-1.4,-1.5,318.7,-51970.31,-29514.86,319.3,Weapon+Missile,Blue,Enemies,R-27ER,,cn,,188.812525790167,190.630340576172,0.553293627668387,-218.983840942383,-218.983840942383,188.750323496156,-4.84616088867188,0.0345997694566507,NaN,0.199987938897973,0.00989117029631303,5000,0.998379230499268,0.998379230499268,0.998379230499268,1782.50849476312,-214.749788377762,1567.75870638536,,,35.9200000762939,0,18377.2776004254,18382.7159544616
2011-06-01T05:02:49Z,1306904569,2B406,55.7236567,25.9029283,-223.66,-1.3,-1.5,318.7,-52088.84,-29377.04,319.3,Weapon+Missile,Blue,Enemies,R-27ER,,cn,,181.839005063423,183.638580322266,0.532830599351372,-223.65998840332,-223.65998840332,181.778869529379,-4.6761474609375,0.0343408673777056,NaN,0.199987938897973,0.00989117029631303,5000,1.000044465065,1.000044465065,1.000044465065,1653.27118812278,-219.335522527542,1433.93566559524,,,36.9200000762939,0,18559.5351514567,18565.0271608662
2011-06-01T05:02:50Z,1306904570,2B406,55.7225048,25.9041159,-228.15,-1.2,-1.5,318.7,-52202.95,-29244.37,319.3,Weapon+Missile,Blue,Enemies,R-27ER,,cn,,175.049462576894,176.827331542969,0.512909830518119,-228.15461730957,-228.15461730957,174.991750261132,-4.49462890625,0.03353199190132,NaN,0.199987938897973,0.00989117029631303,5000,0.999090313911438,0.999090313911438,0.999090313911438,1532.11571742296,-223.74324778389,1308.37246963907,,,37.9200000762939,0,18734.9841790154,18740.5275381801
2011-06-01T05:02:51Z,1306904571,2B406,55.7214064,25.9052483,-232.44,-1.1,-1.5,318.7,-52311.75,-29117.88,319.3,Weapon+Missile,Blue,Enemies,R-27ER,,cn,,166.901950573262,168.640914916992,0.489013441010322,-232.441528320312,-232.441528320312,166.84688639332,-4.28691101074219,0.0343960970730083,NaN,0.200042580411333,0.00989117029631303,5000,0.948633968830109,0.948633968830109,0.948633968830109,1392.81305525798,-227.947271370239,1164.86578388774,,,38.9200000762939,0,18902.2808109134,18907.8730476096
2011-06-01T05:02:52Z,1306904572,2B406,55.7203427,25.906345,-237.09,-1.7,-2.6,318.7,-52417.13,-28995.37,319.3,Weapon+Missile,Blue,Enemies,R-27ER,,cn,,161.665059859219,163.390899658203,0.473644970441545,-237.091537475586,-237.091537475586,161.598171382416,-4.65000915527344,0.0402285510813286,NaN,1.24620899520385,1.47696533548714,3377.66332305521,0.225525349378586,0.225525349378586,0.225525349378586,1306.77957896424,-232.507372598495,1074.27220636574,,,39.9200000762939,0,19064.2967697987,19069.9497615283
2011-06-01T05:02:53Z,1306904573,2B406,55.719314,25.9074055,-249.09,-3.7,-6.2,318.7,-52519.02,-28876.9,319.3,Weapon+Missile,Blue,Enemies,R-27ER,,cn,,156.709359024634,158.474044799805,0.459064114516342,-249.088455200195,-249.088455200195,156.24947094637,-11.9969177246094,0.0279039951691878,NaN,1.90769915594124,3.25385366893965,2463.41411940388,0.00116681517101824,0.00116681517101824,0.00116681517101824,1227.89116029558,-244.2723299189,983.618830376678,,,40.9200000762939,0,19220.9710924955,19227.0767749758
2011-06-01T05:02:54Z,1306904574,2B406,55.7183348,25.9084152,-270.09,-5.5,-9.9,318.7,-52616.03,-28764.12,319.3,Weapon+Missile,Blue,Enemies,R-27ER,,cn,,150.241103603915,152.085144042969,0.440012550219112,-270.089996337891,-270.089996337891,148.766005800936,-21.0015411376953,0.0265118328605195,NaN,1.83081854664358,3.64615860396744,2416.61360167649,0.00260781054385006,0.00260781054385006,0.00260781054385006,1128.61946060612,-264.867806258697,863.751654347423,,,41.9200000762939,0,19370.1235758403,19377.6945601123
