ISOTime,UnixTime,Id,Longitude,Latitude,Altitude,Roll,Pitch,Yaw,U,V,Heading,Type,Color,Coalition,Name,Group,Country,Pilot,TAS,CAS,M,ASL,AGL,GS,VS,AOA,AOS,RRT,TRT,TRD,G,LatG,LonG,Ek,Ep,Em,FFW,FFV,RelativeTime,Elev,GroundDistance,AirDistance
2011-06-01T04:55:30Z,1306904130,50B,55.4817429,25.7594123,9693.59,-12.4,1.1,15.7,-76506.96,-45015.41,16.4,Weapon+Missile,Blue,Enemies,R-27ER,,cn,,361.507628865966,237.95637512207,1.20114456409839,9693.5927734375,9693.5927734375,NaN,NaN,4.00967608728934,NaN,2.90772422779573,1.78741076394735,NaN,NaN,NaN,NaN,NaN,9506.16715716308,NaN,,,0.879999876022339,0,NaN,NaN
2011-06-01T04:55:31Z,1306904131,50B,55.4831641,25.7637629,9672.48,-9.9,0.4,16.5,-76358.86,-44535.16,17.2,Weapon+Missile,Blue,Enemies,R-27ER,,cn,,503.010840797773,333.701843261719,1.67079476217955,9672.4794921875,9672.4794921875,502.567543037691,-21.11328125,1.46497290069105,NaN,2.50769712358101,0.708187150236567,5000,3.46020674705505,3.46020674705505,3.46020674705505,12650.9952980042,9485.46210120605,22136.4573992102,,,1.87999987602234,0,504.832478590422,506.039537615376
2011-06-01T04:55:32Z,1306904132,50B,55.4853674,25.7702957,9676.66,-8.1,0.7,17,-76129.55,-43814.1,17.7,Weapon+Missile,Blue,Enemies,R-27ER,,cn,,756.649168175248,478.039947509766,2.51342799806897,9676.658203125,9676.658203125,756.637629301633,4.1787109375,0.0583782841284533,NaN,1.87691037071012,0.652081575155702,5000,2.15517973899841,2.15517973899841,2.15517973899841,28625.8981850147,9489.56001676758,38115.4582017823,,,2.87999987602234,0,1264.8644869149,1267.23585753357
2011-06-01T04:55:33Z,1306904133,50B,55.4883559,25.7791517,9695.53,-6.7,1.3,16.9,-75818.57,-42836.62,17.6,Weapon+Missile,Blue,Enemies,R-27ER,,cn,,1025.92773592785,626.251770019531,3.40884051089444,9695.5263671875,9695.5263671875,1025.75421604347,18.8681640625,0.0471768631836831,NaN,1.33843533201924,0.356633525035456,5000,1.51376354694366,1.51376354694366,1.51376354694366,52626.3859673023,9508.06336487793,62134.4493321803,,,3.87999987602234,0,2295.21795769012,2299.32654759637
2011-06-01T04:55:34Z,1306904134,50B,55.4917117,25.7891971,9722.19,-5.5,1.4,16.7,-75469.28,-41727.8,17.4,Weapon+Missile,Blue,Enemies,R-27ER,,cn,,1162.8472093109,701.599609375,3.86526666523359,9722.1904296875,9722.1904296875,1162.54146591558,26.6640625,0.0180373055641025,NaN,1.13846361482054,0.250425230700094,5000,1.12971031665802,1.12971031665802,1.12971031665802,67610.6816101074,9534.21187772949,77144.8934878369,,,4.87999987602234,0,3462.97267516047,3469.16274826716
2011-06-01T04:55:35Z,1306904135,50B,55.4951377,25.7995302,9750.61,-4.5,1.3,16.7,-75112.65,-40587.19,17.4,Weapon+Missile,Blue,Enemies,R-27ER,,cn,,1195.40142537162,718.6826171875,3.97510514575132,9750.61328125,9750.61328125,1195.06347500438,28.4228515625,0.0270439022814136,NaN,1.01539043616608,0.0576749511149141,5000,0.670979261398315,0.670979261398315,0.670979261398315,71449.2283890247,9562.08517345703,81011.3135624818,,,5.87999987602234,0,4663.40022871344,4671.75871556028
2011-06-01T04:55:36Z,1306904136,50B,55.4986276,25.8099627,9775.42,-3.5,1,17,-74749.55,-39435.64,17.6,Weapon+Missile,Blue,Enemies,R-27ER,,cn,,1207.69500247761,724.558044433594,4.01742354177596,9775.41796875,9775.41796875,1207.44024551421,24.8046875,0.068560574193104,NaN,0.969227322000081,0.483966073689359,5000,0.916920363903046,0.916920363903046,0.916920363903046,72926.36095047,9586.41026232422,82512.7712127942,,,6.87999987602234,0,5876.26373603694,5886.73198383179
2011-06-01T04:55:37Z,1306904137,50B,55.5023014,25.8206924,9786.95,-2.6,-0.2,17.5,-74367.67,-38251.36,18.1,Weapon+Missile,Blue,Enemies,R-27ER,,cn,,1244.37340567586,744.578857421875,4.14012476936269,9786.9541015625,9786.9541015625,1244.31993088316,11.5361328125,0.0184582034128371,NaN,1.09229665867313,1.23221094938673,5000,2.84221696853638,2.84221696853638,2.84221696853638,77423.2586376667,9597.72334400879,87020.9819816755,,,7.87999987602234,0,7126.14282504442,7138.58097919528
2011-06-01T04:55:38Z,1306904138,50B,55.5061159,25.8315644,9762.13,-1.7,-2.1,17.7,-73971.59,-37051.49,18.4,Weapon+Missile,Blue,Enemies,R-27ER,,cn,,1263.80022227581,756.495422363281,4.20325226752829,9762.12890625,9762.12890625,1263.55637448516,-24.8251953125,0.0490497101379076,NaN,0.876899599564199,1.85319574046842,5000,3.3786952495575,3.3786952495575,3.3786952495575,79859.550091219,9573.37814384766,89432.9282350666,,,8.87999987602234,0,8395.32523460394,8409.95081572411
2011-06-01T04:55:39Z,1306904139,50B,55.5100263,25.8426437,9693.5,-0.9,-4.1,17.7,-73565.7,-35828.74,18.3,Weapon+Missile,Blue,Enemies,R-27ER,,cn,,1290.18521906958,774.27294921875,4.28676124007441,9693.5,9693.5,1288.35863513718,-68.62890625,0.116056142267585,NaN,0.769239169658696,1.90842614420102,5000,3.27260184288025,3.27260184288025,3.27260184288025,83228.8949752808,9506.0761775,92734.9711527808,,,9.87999987602234,0,9689.40239172255,9707.81743307765
2011-06-01T04:55:40Z,1306904140,50B,55.5139826,25.8538016,9582.24,-0.4,-5.7,18,-73155.16,-34597.32,18.6,Weapon+Missile,Blue,Enemies,R-27ER,,cn,,1302.81276813632,786.29296875,4.3217959707873,9582.2392578125,9582.2392578125,1298.05321773296,-111.2607421875,0.03571362940578,NaN,0.430751642978966,1.77229343041009,5000,2.88450884819031,2.88450884819031,2.88450884819031,84866.0554409504,9396.9666617627,94263.0221027131,,,10.8799998760223,0,10993.2033287361,11018.3200369747
2011-06-01T04:55:41Z,1306904141,50B,55.5179506,25.8647287,9436.6,0,-7.4,18.4,-72743.83,-33391.48,19.1,Weapon+Missile,Blue,Enemies,R-27ER,,cn,,1282.3601738567,781.003112792969,4.24508039011719,9436.6025390625,9436.6025390625,1274.06340566139,-145.63671875,0.0354954784375972,NaN,0.399975877795947,1.68618747669956,5000,3.00708961486816,3.00708961486816,3.00708961486816,82222.3807746887,9254.14582896973,91476.5266036585,,,11.8799998760223,0,12272.8903166709,12308.1632850852
2011-06-01T04:55:42Z,1306904142,50B,55.5218443,25.8750908,9262.33,0.2,-9,19.1,-72340.7,-32248.12,19.7,Weapon+Missile,Blue,Enemies,R-27ER,,cn,,1224.8035539243,755.287170410156,4.04447998818395,9262.326171875,9262.326171875,1212.34132716225,-174.2763671875,0.0410341649714819,NaN,0.215384612689997,1.72422063804084,5000,2.74431943893433,2.74431943893433,2.74431943893433,75007.1872852802,9083.2390953418,84090.426380622,,,12.8799998760223,0,13490.5445367263,13539.9928387281
2011-06-01T04:55:43Z,1306904143,50B,55.5256556,25.8848682,9064.69,0.4,-10.6,19.8,-71946.62,-31169.43,20.5,Weapon+Missile,Blue,Enemies,R-27ER,,cn,,1165.30365360756,728.740539550781,3.83722677093265,9064.6904296875,9064.6904296875,1148.42183822893,-197.6357421875,0.0631987888236654,NaN,0.199999998450727,1.68351484502167,5000,2.51660680770874,2.51660680770874,2.51660680770874,67896.6302555561,8889.42464022949,76786.0548957856,,,13.8799998760223,0,14643.9615663149,14711.8529755478
2011-06-01T04:55:44Z,1306904144,50B,55.5294567,25.8942024,8846.49,0.4,-11.9,20.6,-71554.19,-30139.81,21.3,Weapon+Missile,Blue,Enemies,R-27ER,,cn,,1123.27097673015,712.551635742188,3.68745023184013,8846.4912109375,8846.4912109375,1101.87421609782,-218.19921875,0.0446229865742499,NaN,0,1.61632392627873,5000,2.37359237670898,2.37359237670898,2.37359237670898,63086.8843582153,8675.44430337402,71762.3286615894,,,14.8799998760223,0,15750.5704012119,15841.2932437551
2011-06-01T04:55:45Z,1306904145,50B,55.5332651,25.9031115,8611.76,0.3,-13.1,21.6,-71161.6,-29157.27,22.3,Weapon+Missile,Blue,Enemies,R-27ER,,cn,,1083.79470514756,697.918701171875,3.5461720770483,8611.7646484375,8611.7646484375,1058.07107689551,-234.7265625,0.06874701077903,NaN,0.199987938897973,1.57021545362609,5000,2.19612288475037,2.19612288475037,2.19612288475037,58730.5481452942,8445.25617895996,67175.8043242541,,,15.8799998760223,0,16813.1251721367,16930.8856808152
2011-06-01T04:55:46Z,1306904146,50B,55.5370426,25.9115582,8363.78,0.4,-14.6,22.4,-70772.73,-28225.89,23.1,Weapon+Missile,Blue,Enemies,R-27ER,,cn,,1039.31644334297,680.125671386719,3.38891904097406,8363.7841796875,8363.7841796875,1009.29894308951,-247.98046875,0.0914038338047764,NaN,0,1.54047937130079,5000,2.01648497581482,2.01648497581482,2.01648497581482,54008.9334701538,8202.07041257324,62211.0038827271,,,16.8799998760223,0,17826.6367595308,17975.6037286862
2011-06-01T04:55:47Z,1306904147,50B,55.5407588,25.9195548,8103.49,0.3,-15.8,23.3,-70390.6,-27344.3,23.9,Weapon+Missile,Blue,Enemies,R-27ER,,cn,,995.48079453455,662.428833007812,3.23432388475309,8103.4912109375,8103.4912109375,960.84836613612,-260.29296875,0.0543444043814552,NaN,0.107698422832761,1.53197322446319,5000,2.02211356163025,2.02211356163025,2.02211356163025,49549.100614357,7946.81020837402,57495.910822731,,,17.8799998760223,0,18791.4570159561,18976.121333829
2011-06-01T04:55:48Z,1306904148,50B,55.5444558,25.9271247,7834.97,0.1,-16.8,24.4,-70010.98,-26509.94,25.1,Weapon+Missile,Blue,Enemies,R-27ER,,cn,,955.18467013791,646.459716796875,3.0919857912125,7834.9697265625,7834.9697265625,916.664587783074,-268.521484375,0.0266453680322878,NaN,0.24616001768726,1.55565434408927,5000,2.28518271446228,2.28518271446228,2.28518271446228,45618.8877033234,7683.48058689941,53302.3682902228,,,18.8799998760223,0,19711.8421416791,19935.9810877993
2011-06-01T04:55:49Z,1306904149,50B,55.5481854,25.9342853,7562.96,-0.5,-17.5,26.2,-69628.64,-25720.95,26.8,Weapon+Missile,Blue,Enemies,R-27ER,,cn,,917.97497916263,631.83642578125,2.96054478000485,7562.95556640625,7562.95556640625,876.747602815726,-272.01416015625,0.0407972191454058,NaN,0.769243225083516,1.67900243785782,5000,2.89977955818176,2.89977955818176,2.89977955818176,42133.9031184316,7416.72582052979,49550.6289389614,,,19.8799998760223,0,20592.0671430354,20858.2930613294
2011-06-01T04:55:50Z,1306904150,50B,55.5520227,25.9410671,7295.77,-1.4,-17.6,28.1,-69236.01,-24974.01,28.8,Weapon+Missile,Blue,Enemies,R-27ER,,cn,,885.131432395682,619.193237304688,2.84432555236302,7295.771484375,7295.771484375,843.842591318991,-267.18408203125,0.0943612233977277,NaN,0.969231163981489,1.86952736310416,5000,3.34831762313843,3.34831762313843,3.34831762313843,39172.8826307416,7154.70774272461,46327.5903734662,,,20.8799998760223,0,21439.1272042703,21747.4334281546
2011-06-01T04:55:51Z,1306904151,50B,55.555969,25.9474668,7044.03,-2.3,-16.8,30.3,-68832.98,-24269.52,30.9,Weapon+Missile,Blue,Enemies,R-27ER,,cn,,849.773815227717,603.847595214844,2.72148939724927,7044.03173828125,7044.03173828125,811.629618288616,-251.73974609375,0.0488580564574688,NaN,1.07692958681425,2.13982740375236,5000,3.93142414093018,3.93142414093018,3.93142414093018,36105.7768523335,6907.83538462158,43013.6122369551,,,21.8799998760223,0,22253.7270870489,22600.9195740917
2011-06-01T04:55:52Z,1306904152,50B,55.5599869,25.953443,6819.16,-3.4,-15.5,32.4,-68423.34,-23612,33,Weapon+Missile,Blue,Enemies,R-27ER,,cn,,806.661177447127,581.985961914062,2.5756761995692,6819.15966796875,6819.15966796875,774.683682023674,-224.8720703125,0.0634332577302475,NaN,0.96928580549485,2.35542680721545,5000,3.82370185852051,3.82370185852051,3.82370185852051,32535.1127600193,6687.31121578857,39222.4239758079,,,22.8799998760223,0,23031.1072980738,23410.9823327698
2011-06-01T04:55:53Z,1306904153,50B,55.5641097,25.9591007,6617.39,-3.9,-14.6,34.3,-68003.62,-22989.86,34.9,Weapon+Missile,Blue,Enemies,R-27ER,,cn,,777.129788880383,567.90087890625,2.47474802493344,6617.3916015625,6617.3916015625,750.48008377568,-201.76806640625,0.0293423063804952,NaN,0.430793691331044,2.07368534593383,5000,3.08700466156006,3.08700466156006,3.08700466156006,30196.5354382634,6489.44433494629,36685.9797732097,,,23.8799998760223,0,23784.0645837084,24191.2707498601
2011-06-01T04:55:54Z,1306904154,50B,55.5682768,25.9644408,6432.52,-4.2,-13.8,36.1,-67579.88,-22402.94,36.8,Weapon+Missile,Blue,Enemies,R-27ER,,cn,,747.137794793697,552.632995605469,2.37343998203276,6432.51904296875,6432.51904296875,723.904014001987,-184.87255859375,0.0763851368637493,NaN,0.47691112860697,1.99513624948798,5000,3.31508684158325,3.31508684158325,3.31508684158325,27910.7442204595,6308.14628727295,34218.8905077324,,,24.8799998760223,0,24510.2341935677,24941.323840273
2011-06-01T04:55:55Z,1306904155,50B,55.5724445,25.969426,6269.09,-4.6,-12.9,38,-67156.56,-21855.3,38.6,Weapon+Missile,Blue,Enemies,R-27ER,,cn,,711.205670289654,532.369140625,2.25444732443608,6269.08837890625,6269.08837890625,692.173333418911,-163.4306640625,0.0878973601211312,NaN,0.138461594854498,1.86360046645188,5000,2.36821579933167,2.36821579933167,2.36821579933167,25290.6752726078,6147.8755551001,31438.5508277079,,,25.8799998760223,0,25204.4663262324,25655.20625315
2011-06-01T04:55:56Z,1306904156,50B,55.5766246,25.9741408,6114.2,-4.1,-13.3,39.5,-66732.37,-21337.65,40.1,Weapon+Missile,Blue,Enemies,R-27ER,,cn,,686.94989408707,519.490966796875,2.17315001063906,6114.19970703125,6114.19970703125,669.260529473415,-154.888671875,0.0180166250877737,NaN,0.55386772375915,1.50444393357004,5000,1.72816681861877,1.72816681861877,1.72816681861877,23595.0078493118,5995.9816556958,29590.9895050076,,,26.8799998760223,0,25875.6276984859,26344.6430418852
2011-06-01T04:55:57Z,1306904157,50B,55.5807456,25.9785534,5959.7,-3.6,-14,40.9,-66314.47,-20853.36,41.5,Weapon+Missile,Blue,Enemies,R-27ER,,cn,,658.056278846066,503.087585449219,2.07755831613911,5959.70458984375,5959.70458984375,639.663446582616,-154.4951171875,0.0285467049451597,NaN,0.569217720145108,1.61329292311283,5000,1.70736539363861,1.70736539363861,1.70736539363861,21651.9033064365,5844.47370159912,27496.3770080357,,,27.8799998760223,0,26517.0108443464,27004.9612857742
2011-06-01T04:55:58Z,1306904158,50B,55.5848589,25.9827268,5800.74,-3.2,-14.7,42.5,-65897.66,-20395.56,43.1,Weapon+Missile,Blue,Enemies,R-27ER,,cn,,639.199720342525,493.461212158203,2.01386653893045,5800.74365234375,5800.74365234375,619.118488526294,-158.9609375,0.119341048136672,NaN,0.230755379787942,1.39423136079248,5000,1.31377184391022,1.31377184391022,1.31377184391022,20428.8141242981,5688.58627382568,26117.4003981238,,,28.8799998760223,0,27137.7023541549,27646.2390902667
2011-06-01T04:55:59Z,1306904159,50B,55.5888839,25.9866584,5644.62,-2.8,-14.7,42.9,-65490.01,-19964.44,43.5,Weapon+Missile,Blue,Enemies,R-27ER,,cn,,613.533697370467,478.703247070312,1.9291056203975,5644.615234375,5644.615234375,593.335920800057,-156.12841796875,0.0401807549220266,NaN,0.369263078419338,0.601504824764551,5000,1.1833872795105,1.1833872795105,1.1833872795105,18821.1798904538,5535.47659881836,24356.6564892722,,,29.8799998760223,0,27732.4887762287,28261.6918389375
2011-06-01T04:56:00Z,1306904160,50B,55.5927605,25.9904202,5496.79,-2.5,-14.4,43,-65097.45,-19551.95,43.7,Weapon+Missile,Blue,Enemies,R-27ER,,cn,,588.310423043821,463.745788574219,1.84627956370114,5496.7890625,5496.7890625,569.435313947759,-147.826171875,0.0321600872231958,NaN,0.307673555126041,0.315280224746893,5000,1.26467704772949,1.26467704772949,1.26467704772949,17305.4576931,5390.50864597656,22695.9663390765,,,30.8799998760223,0,28303.3118222835,28851.8282255512
2011-06-01T04:56:01Z,1306904161,50B,55.5965467,25.9940714,5355.73,-2.4,-14.1,43.2,-64714.09,-19151.61,43.9,Weapon+Missile,Blue,Enemies,R-27ER,,cn,,571.954569686609,454.742584228516,1.79170513237906,5355.72705078125,5355.72705078125,554.286513127691,-141.06201171875,0.0495548106724871,NaN,0,0.581657895862081,5000,1.93157386779785,1.93157386779785,1.93157386779785,16356.6014892697,5252.17406825439,21608.7755575241,,,31.8799998760223,0,28858.9392463307,29425.5405617722
2011-06-01T04:56:02Z,1306904162,50B,55.6002065,25.9975494,5229.64,-3.3,-12.1,44,-64343.61,-18770.3,44.6,Weapon+Missile,Blue,Enemies,R-27ER,,cn,,546.395752798494,438.507049560547,1.70888263635419,5229.640625,5229.640625,531.64888028655,-126.08642578125,0.0677313421134535,NaN,1.3384438697557,1.78511753746361,5000,3.32132434844971,3.32132434844971,3.32132434844971,14927.4159338117,5128.52552351563,20055.9414573273,,,32.8799998760223,0,29391.8491011506,29973.5936793766
2011-06-01T04:56:03Z,1306904163,50B,55.6038216,26.0008725,5129.18,-4.3,-9.9,45.1,-63977.82,-18406.08,45.7,Weapon+Missile,Blue,Enemies,R-27ER,,cn,,525.88155412228,425.203094482422,1.64261844021165,5129.18359375,5129.18359375,516.197436877113,-100.45703125,0.0869091793642843,NaN,0.969231163981489,2.40234444384133,5000,2.88669753074646,2.88669753074646,2.88669753074646,13827.5704483032,5030.01082896484,18857.5812772681,,,33.8799998760223,0,29909.2190117433,30501.038601006
2011-06-01T04:56:04Z,1306904164,50B,55.6073386,26.0039911,5050.15,-4.7,-8.2,46.1,-63622.11,-18064.41,46.7,Weapon+Missile,Blue,Enemies,R-27ER,,cn,,499.515677663558,406.883972167969,1.5586956958306,5050.15283203125,5050.15283203125,493.224138636622,-79.03076171875,0.0419884483834211,NaN,0.461502221839422,2.13941545796804,5000,2.76120901107788,2.76120901107788,2.76120901107788,12475.7956115842,4952.50812702393,17428.3037386081,,,34.8799998760223,0,30403.5276999176,31002.0147061513
2011-06-01T04:56:05Z,1306904165,50B,55.6108234,26.006958,4988.83,-5.2,-6.3,47.4,-63269.81,-17739.5,48,Weapon+Missile,Blue,Enemies,R-27ER,,cn,,483.157786959834,395.525177001953,1.50647895895152,4988.830078125,4988.830078125,479.250421964632,-61.32275390625,0.101894358848546,NaN,0.399975877795947,2.09604226263458,5000,2.55353164672852,2.55353164672852,2.55353164672852,11672.0723549962,4892.37104856445,16564.4434035607,,,35.8799998760223,0,30883.7775214232,31486.5387342738
2011-06-01T04:56:06Z,1306904166,50B,55.6141762,26.0097067,4944.16,-5.3,-5,48,-62931,-17438.61,48.6,Weapon+Missile,Blue,Enemies,R-27ER,,cn,,455.326734300971,374.840515136719,1.41889822459136,4944.15673828125,4944.15673828125,453.129923616165,-44.67333984375,0.0450915278093002,NaN,0,1.6134749903429,5000,1.99081003665924,1.99081003665924,1.99081003665924,10366.1217484593,4848.56146774658,15214.6832162059,,,36.8799998760223,0,31337.8057590518,31943.1112995605
2011-06-01T04:56:07Z,1306904167,50B,55.6174447,26.0123561,4910.3,-5.1,-3.9,48.1,-62600.76,-17148.62,48.7,Weapon+Missile,Blue,Enemies,R-27ER,,cn,,440.79777669096,363.977996826172,1.37303379748389,4910.296875,4910.296875,439.495380629045,-33.85986328125,0.0322279301525737,NaN,0.169220498008005,1.17075482822566,5000,1.88084900379181,1.88084900379181,1.88084900379181,9715.13399678469,4815.35628492188,14530.4902817066,,,37.8799998760223,0,31778.1520245828,32385.0966269708
2011-06-01T04:56:08Z,1306904168,50B,55.6205706,26.0149054,4886.29,-5,-2.5,47.6,-62284.92,-16869.56,48.2,Weapon+Missile,Blue,Enemies,R-27ER,,cn,,422.135028942792,349.451049804688,1.31450203277997,4886.29052734375,4886.29052734375,421.451869058306,-24.00634765625,0.0867572658409403,NaN,0.0307631720217374,1.44178815371428,5000,2.18986868858337,2.18986868858337,2.18986868858337,8909.8991330266,4791.81409999756,13701.7132330242,,,38.8799998760223,0,32200.4426938049,32808.3928905151
2011-06-01T04:56:09Z,1306904169,50B,55.623507,26.0173727,4873.96,-5,-0.9,46.6,-61988.15,-16599.37,47.2,Weapon+Missile,Blue,Enemies,R-27ER,,cn,,401.53417339236,332.774475097656,1.25015722878753,4873.96044921875,4873.96044921875,401.344816305527,-12.330078125,0.0591762817745207,NaN,0.0154089067675488,1.80889769483266,5000,2.2225923538208,2.2225923538208,2.2225923538208,8061.4846200943,4779.72242393311,12841.2070440274,,,39.8799998760223,0,32602.6021682214,33211.0488998402
2011-06-01T04:56:10Z,1306904170,50B,55.626258,26.0197861,4872.22,-4.9,0.4,44.6,-61710.01,-16334.95,45.2,Weapon+Missile,Blue,Enemies,R-27ER,,cn,,383.775532218224,317.870880126953,1.19484020506225,4872.216796875,4872.216796875,383.771571127781,-1.74365234375,0.120490561533246,NaN,0.199987938897973,2.40216088250738,5000,2.51600456237793,2.51600456237793,2.51600456237793,7364.18295646906,4778.01248510742,12142.1954415765,,,40.8799998760223,0,32987.198974291,33595.9434990182
2011-06-01T04:56:11Z,1306904171,50B,55.6287468,26.0221957,4876.94,-4.5,1.1,41.2,-61458.13,-16070.66,41.9,Weapon+Missile,Blue,Enemies,R-27ER,,cn,,365.121057952384,301.76318359375,1.13682960155897,4876.93994140625,4876.93994140625,365.090507773079,4.72314453125,0.032536599682637,NaN,0.399975877795947,3.30963454323067,5000,2.60585498809814,2.60585498809814,2.60585498809814,6665.6693480134,4782.64430763916,11448.3136556526,,,41.8799998760223,0,33353.1779135634,33962.2325954484
2011-06-01T04:56:12Z,1306904172,50B,55.6309579,26.0246062,4886.17,-4.4,2.1,37.9,-61234.05,-15806.01,38.5,Weapon+Missile,Blue,Enemies,R-27ER,,cn,,346.902471519547,285.683319091797,1.0802308604951,4886.166015625,4886.166015625,346.779763395848,9.22607421875,0.08314606423249,NaN,0.0307759786264312,3.47346303377578,5000,2.59716820716858,2.59716820716858,2.59716820716858,6017.06623731852,4791.69199571289,10808.7582330314,,,42.8799998760223,0,33700.9180123721,34310.3611154542
2011-06-01T04:56:13Z,1306904173,50B,55.6328902,26.0269709,4901.85,-4.4,3.5,35.2,-61037.95,-15546.1,35.8,Weapon+Missile,Blue,Enemies,R-27ER,,cn,,325.964926491988,266.955352783203,1.01523428391452,4901.85205078125,4901.85205078125,325.587287227256,15.68603515625,0.140681884366105,NaN,0.0922895160652123,2.83768490672548,5000,1.88978624343872,1.88978624343872,1.88978624343872,5312.65666514635,4807.07474137939,10119.7314065257,,,43.8799998760223,0,34027.4981968587,34637.5680923443
2011-06-01T04:56:14Z,1306904174,50B,55.6346371,26.0292981,4920.36,-3.7,3,32.3,-60860.43,-15290.17,32.9,Weapon+Missile,Blue,Enemies,R-27ER,,cn,,312.015324427156,254.455474853516,0.972015326129362,4920.36279296875,4920.36279296875,311.465752693697,18.5107421875,0.0773551720953889,NaN,0.892307866001513,2.98409043847153,4637.25827543056,2.08970355987549,2.08970355987549,2.08970355987549,4867.67813386917,4825.2275783667,9692.90571223587,,,44.8799998760223,0,34339.9801190297,34950.8379897164
2011-06-01T04:56:15Z,1306904175,50B,55.6361267,26.0315928,4933.27,-2.9,2.1,28.4,-60708.71,-15037.56,29,Weapon+Missile,Blue,Enemies,R-27ER,,cn,,294.957422696313,239.386734008789,0.919025433252447,4933.27197265625,4933.27197265625,294.674794109451,12.9091796875,0.0348415336140703,NaN,0.769234687347054,3.93171045703228,4649.23375373317,1.94326210021973,1.94326210021973,1.94326210021973,4349.99406018257,4837.88715906494,9187.88121924751,,,45.8799998760223,0,34635.7032838071,35247.0709974557
2011-06-01T04:56:16Z,1306904176,50B,55.6373954,26.0338599,4942.19,-2.4,1.8,26,-60579.12,-14787.76,26.6,Weapon+Missile,Blue,Enemies,R-27ER,,cn,,281.548359438561,227.664154052734,0.877344687590083,4942.18603515625,4942.18603515625,281.407210625974,8.9140625,0.132517899719874,NaN,0.369242160965005,2.07368534593383,5000,1.08528888225555,1.08528888225555,1.08528888225555,3963.47393512726,4846.6288681665,8810.10280329376,,,46.8799998760223,0,34918.1953096164,35529.9222169748
2011-06-01T04:56:17Z,1306904177,50B,55.6385893,26.0360496,4951.17,-2.1,2.1,26.5,-60457.13,-14546.46,27.1,Weapon+Missile,Blue,Enemies,R-27ER,,cn,,270.531063130003,218.086883544922,0.843109251620946,4951.173828125,4951.173828125,270.381722192534,8.98779296875,0.0362423081399523,NaN,0.36922508549208,0.330728031576199,5000,1.2219785451889,1.2219785451889,1.2219785451889,3659.35280591249,4855.4428821582,8514.7956880707,,,47.8799998760223,0,35189.6305711598,35801.7166414493
2011-06-01T04:56:18Z,1306904178,50B,55.6397651,26.0381445,4961.57,-1.8,2.5,27.2,-60337.06,-14315.66,27.8,Weapon+Missile,Blue,Enemies,R-27ER,,cn,,260.377991610614,209.2978515625,0.811574175082821,4961.56982421875,4961.56982421875,260.170370681205,10.39599609375,0.0260108984452903,NaN,0.199987938897973,0.701872586988037,5000,1.21513998508453,1.21513998508453,1.21513998508453,3389.83492575884,4865.63787166748,8255.47279742632,,,48.8799998760223,0,35450.8068397151,36063.3025283325
2011-06-01T04:56:19Z,1306904179,50B,55.640922,26.0401601,4973.48,-1.6,2.9,27.6,-60218.97,-14093.61,28.2,Weapon+Missile,Blue,Enemies,R-27ER,,cn,,251.779090076191,201.868560791016,0.784890698335087,4973.478515625,4973.478515625,251.497302706381,11.90869140625,0.0494301132422982,NaN,0.199987938897973,0.489394046367109,5000,1.13608360290527,1.13608360290527,1.13608360290527,3169.63550997973,4877.31630852539,8046.95181850511,,,49.8799998760223,0,35703.2642776124,36316.2370878896
2011-06-01T04:56:20Z,1306904180,50B,55.6420354,26.042088,4986.18,-1.4,3.1,27.5,-60105.34,-13881.23,28.1,Weapon+Missile,Blue,Enemies,R-27ER,,cn,,241.199450694751,192.804000854492,0.752031096817028,4986.1796875,4986.1796875,240.864806994403,12.701171875,0.0143303932801921,NaN,0.199987938897973,0.26943327363427,5000,1.09638810157776,1.09638810157776,1.09638810157776,2908.85875077248,4889.77190324219,7798.63065401466,,,50.8799998760223,0,35945.0468497026,36558.5415509377
2011-06-01T04:56:21Z,1306904181,50B,55.6431037,26.0439596,4999.37,-1.3,3.3,27,-59996.3,-13675.04,27.6,Weapon+Missile,Blue,Enemies,R-27ER,,cn,,233.621852945406,186.312545776367,0.728526918267675,4999.365234375,4999.365234375,233.249462008495,13.185546875,0.0252958383874552,NaN,0.0153837204449843,0.534314066104167,5000,1.09924936294556,1.09924936294556,1.09924936294556,2728.95850868225,4902.70250756836,7631.66101625061,,,51.8799998760223,0,36179.191540749,36793.2402089161
2011-06-01T04:56:22Z,1306904182,50B,55.6441154,26.0457824,5012.8,-1.1,3.5,26.1,-59892.96,-13474.18,26.7,Weapon+Missile,Blue,Enemies,R-27ER,,cn,,226.278706969222,180.048187255859,0.70574834846414,5012.79833984375,5012.79833984375,225.87962481182,13.43310546875,0.0554790854417695,NaN,0.153878825915098,0.829650005072491,5000,1.11216902732849,1.11216902732849,1.11216902732849,2560.10266138315,4915.87588394287,7475.97854532602,,,52.8799998760223,0,36405.9374417648,37020.5613274985
2011-06-01T04:56:23Z,1306904183,50B,55.6450519,26.0475439,5026.1,-1.1,3.6,25.1,-59797.24,-13280.05,25.7,Weapon+Missile,Blue,Enemies,R-27ER,,cn,,216.857936293382,172.091735839844,0.676479838420213,5026.10205078125,5026.10205078125,216.449476341976,13.3037109375,0.036333589903555,NaN,0,1.09298469351031,5000,1.14562833309174,1.14562833309174,1.14562833309174,2351.36822667122,4928.9223676294,7280.29059430061,,,53.8799998760223,0,36623.2488046266,37238.4502331582
2011-06-01T04:56:24Z,1306904184,50B,55.6459193,26.049267,5039.51,-1,3.6,23.8,-59708.46,-13090.09,24.5,Weapon+Missile,Blue,Enemies,R-27ER,,cn,,210.105799574426,166.387237548828,0.655528416721055,5039.50830078125,5039.50830078125,209.67765611945,13.40625,0.261752407795644,NaN,0.23075516634453,1.08458099951025,5000,0.528291344642639,0.528291344642639,0.528291344642639,2207.22235074043,4942.06940778565,7149.29175852608,,,54.8799998760223,0,36833.7658694983,37449.5595152155
2011-06-01T04:56:25Z,1306904185,50B,55.6467386,26.0509406,5047.39,0.1,0.8,23.8,-59624.55,-12905.56,24.5,Weapon+Missile,Blue,Enemies,R-27ER,,cn,,202.865429601377,160.352111816406,0.633001860234472,5047.38525390625,5047.38525390625,202.712446921293,7.876953125,0.0971581821599573,NaN,1.13845774512672,2.1553765428413,4185.82207429523,0.0117270285263658,0.0117270285263658,0.0117270285263658,2057.71912636757,4949.79406002197,7007.51318638954,,,55.8799998760223,0,37037.2956598969,37653.4024932073
2011-06-01T04:56:26Z,1306904186,50B,55.647534,26.0525651,5045.49,0.9,-2,23.8,-59543.12,-12726.46,24.5,Weapon+Missile,Blue,Enemies,R-27ER,,cn,,196.752859364445,155.345108032227,0.613914008285146,5045.4912109375,5045.4912109375,196.743742643362,-1.89404296875,0.0859857170150413,NaN,0.769230845365645,2.82695916185104,3991.27456799236,0.0208022054284811,0.0208022054284811,0.0208022054284811,1935.58438340426,4947.93663837402,6883.52102177828,,,56.8799998760223,0,37234.851171144,37851.1233842001
2011-06-01T04:56:27Z,1306904187,50B,55.6483112,26.054152,5034.15,1.6,-4.9,23.9,-59463.55,-12551.5,24.5,Weapon+Missile,Blue,Enemies,R-27ER,,cn,,192.540761338407,151.981170654297,0.600684775434956,5034.15283203125,5034.15283203125,192.206623040289,-11.33837890625,0.0988927055992124,NaN,0.769230631922234,2.83082163382668,3843.70042752036,0.0292153228074312,0.0292153228074312,0.0292153228074312,1853.59723883867,4936.81748702393,6790.4147258626,,,57.8799998760223,0,37427.8467388363,38044.6039639326
2011-06-01T04:56:28Z,1306904188,50B,55.6490594,26.0556785,5013.91,2.2,-7.8,23.9,-59386.94,-12383.19,24.5,Weapon+Missile,Blue,Enemies,R-27ER,,cn,,186.029951407285,146.809112548828,0.58022334758709,5013.9130859375,5013.9130859375,184.925648568978,-20.23974609375,0.0721028040463479,NaN,0.569230953636625,2.87698901686091,3673.16365604512,0.0368606001138687,0.0368606001138687,0.0368606001138687,1730.35714102983,4916.9690764209,6647.32621745073,,,58.8799998760223,0,37613.5247572428,38231.5272341818
2011-06-01T04:56:29Z,1306904189,50B,55.6497946,26.0571767,4984.68,2.7,-10.6,23.9,-59311.66,-12218.02,24.5,Weapon+Missile,Blue,Enemies,R-27ER,,cn,,183.853518442267,145.247665405273,0.573222449774152,4984.68408203125,4984.68408203125,181.515237856906,-29.22900390625,0.0464818359030124,NaN,0.52307680409391,2.92318393409523,3608.78335625315,0.0412638932466507,0.0412638932466507,0.0412638932466507,1690.10581218004,4888.30521530518,6578.41102748522,,,59.8799998760223,0,37795.7842864235,38416.2566731669
2011-06-01T04:56:30Z,1306904190,50B,55.6505082,26.0586272,4947.1,3,-13.5,24,-59238.6,-12058.08,24.6,Weapon+Missile,Blue,Enemies,R-27ER,,cn,,179.807211341689,142.216995239258,0.560339683514014,4947.0966796875,4947.0966796875,175.834639464253,-37.58740234375,0.0208781939884024,NaN,0.261538615490366,2.8773636100482,3531.85978018018,0.0487033613026142,0.0487033613026142,0.0487033613026142,1616.53166252375,4851.44456538574,6467.97622790949,,,60.8799998760223,0,37972.3294104733,38596.89317663
2011-06-01T04:56:31Z,1306904191,50B,55.6512079,26.060045,4901.08,3.4,-16.5,24.1,-59166.97,-11901.77,24.7,Weapon+Missile,Blue,Enemies,R-27ER,,cn,,177.998036518412,141.069900512695,0.554378488621273,4901.080078125,4901.080078125,171.947007490819,-46.0166015625,0.0709251499689756,NaN,0.369231061907604,2.92789078820702,3489.5879819247,0.0484504103660583,0.0484504103660583,0.0484504103660583,1584.16505022049,4806.31769481445,6390.48274503494,,,61.8799998760223,0,38144.9691323123,38775.6892576948
2011-06-01T04:56:32Z,1306904192,50B,55.6518892,26.0614194,4847.19,3.6,-19.4,24.2,-59097.25,-11750.24,24.8,Weapon+Missile,Blue,Enemies,R-27ER,,cn,,175.288926312007,139.23762512207,0.545568899090622,4847.19287109375,4847.19287109375,166.800409489868,-53.88720703125,0.0392330078606562,NaN,0.199999891729021,2.92845982834225,3486.71040158665,0.0577611066401005,0.0577611066401005,0.0577611066401005,1536.31038438082,4753.47239693115,6289.78278131197,,,62.8799998760223,0,38312.4536707084,38951.7511530776
2011-06-01T04:56:33Z,1306904193,50B,55.6525593,26.0627642,4785.2,3.8,-22.3,24.3,-59028.67,-11601.98,24.9,Weapon+Missile,Blue,Enemies,R-27ER,,cn,,174.714607541043,139.205139160156,0.543355768413693,4785.201171875,4785.201171875,163.34694155751,-61.99169921875,0.0540025282251412,NaN,0.199999891729021,2.88034242629998,3526.84339683047,0.0616597644984722,0.0616597644984722,0.0616597644984722,1526.25970441103,4692.6793072168,6218.93901162783,,,63.8799998760223,0,38476.4648127498,39127.202756765
2011-06-01T04:56:34Z,1306904194,50B,55.6532146,26.0640709,4715.72,3.9,-25,24.4,-58961.62,-11457.93,25,Weapon+Missile,Blue,Enemies,R-27ER,,cn,,173.422455985085,138.633255004883,0.538864906232997,4715.72265625,4715.72265625,158.896457186576,-69.478515625,0.0362494263195373,NaN,0,2.83028503709001,3562.2699664493,0.0650211870670319,0.0650211870670319,0.0650211870670319,1503.76741199493,4624.54415869141,6128.31157068634,,,64.8799998760223,0,38636.0018651708,39301.3212881036
2011-06-01T04:56:35Z,1306904195,50B,55.6538556,26.0653397,4639.02,4,-27.8,24.6,-58896.04,-11318.04,25.2,Weapon+Missile,Blue,Enemies,R-27ER,,cn,,172.489353221782,138.403045654297,0.535448329683781,4639.0185546875,4639.0185546875,154.496141629357,-76.7041015625,0.0579992430419764,NaN,0,2.74943032491246,3640.80043080517,0.0724720507860184,0.0724720507860184,0.0724720507860184,1487.62884874344,4549.32313093262,6036.95197967606,,,65.8799998760223,0,38791.1183260438,39474.4684472941
2011-06-01T04:56:36Z,1306904196,50B,55.6544847,26.0665746,4555.17,4,-30.5,24.8,-58831.7,-11181.92,25.4,Weapon+Missile,Blue,Enemies,R-27ER,,cn,,172.338217309455,138.865829467773,0.534415992556415,4555.169921875,4555.169921875,150.565161710389,-83.8486328125,0.0372199863600039,NaN,0,2.66728961618024,3735.13820805283,0.0736575052142143,0.0736575052142143,0.0736575052142143,1485.02305727005,4467.09571143555,5952.1187687056,,,66.8799998760223,0,38942.2862444482,39647.4288063501
2011-06-01T04:56:37Z,1306904197,50B,55.6551067,26.0677841,4463.75,4,-33.1,25,-58768.09,-11048.58,25.6,Weapon+Missile,Blue,Enemies,R-27ER,,cn,,173.729343083784,140.665405273438,0.53811288201773,4463.7490234375,4463.7490234375,147.729834418114,-91.4208984375,0.017673085552138,NaN,0,2.61326132574156,3882.40529416191,0.0751600936055183,0.0751600936055183,0.0751600936055183,1509.09423241615,4377.44243606934,5886.53666848549,,,67.8799998760223,0,39090.6057905358,39821.7491619228
2011-06-01T04:56:38Z,1306904198,50B,55.655713,26.0689514,4366.3,4,-35.6,25.2,-58706.1,-10919.92,25.8,Weapon+Missile,Blue,Enemies,R-27ER,,cn,,172.898100332902,140.661727905273,0.534885979572463,4366.29638671875,4366.29638671875,142.817144262479,-97.45263671875,0.0387648357061844,NaN,0,2.51516977741983,3999.54004282188,0.0777690261602402,0.0777690261602402,0.0777690261602402,1494.68765493631,4281.87404608154,5776.56170101786,,,68.8799998760223,0,39233.9972837811,39995.2040894872
2011-06-01T04:56:39Z,1306904199,50B,55.6563146,26.0700969,4261.32,3.9,-38,25.5,-58644.61,-10793.66,26.1,Weapon+Missile,Blue,Enemies,R-27ER,,cn,,175.332521783092,143.448791503906,0.541707511259373,4261.32421875,4261.32421875,140.43623872334,-104.97216796875,0.045254129762444,NaN,0,2.39687474297662,4216.68538621496,0.0781645700335503,0.0781645700335503,0.0781645700335503,1537.07465974092,4178.93151498047,5716.00617472139,,,69.8799998760223,0,39374.9885221584,40171.0579602431
2011-06-01T04:56:40Z,1306904200,50B,55.656902,26.0712027,4150.72,3.8,-40.4,25.7,-58584.59,-10671.79,26.3,Weapon+Missile,Blue,Enemies,R-27ER,,cn,,175.185283454975,144.118698120117,0.540508428799004,4150.7177734375,4150.7177734375,135.853221509586,-110.6064453125,0.0848444453910003,NaN,0.12310732960031,2.31689771010741,4396.91568107097,0.0820161253213882,0.0820161253213882,0.0820161253213882,1534.49417695999,4070.46364528809,5604.95782224808,,,70.8799998760223,0,39511.3809354188,40346.7315761858
2011-06-01T04:56:41Z,1306904201,50B,55.657481,26.0722795,4033.71,3.7,-42.6,26,-58525.44,-10553.11,26.6,Weapon+Missile,Blue,Enemies,R-27ER,,cn,,176.841331064978,146.366287231445,0.544826623595645,4033.7138671875,4033.7138671875,132.600687385377,-117.00390625,0.0579336706064914,NaN,0,2.23824850870154,4625.27092373544,0.0819271057844162,0.0819271057844162,0.0819271057844162,1563.64281864166,3955.72200956543,5519.36482820709,,,71.8799998760223,0,39644.5041935944,40524.0292464244
2011-06-01T04:56:42Z,1306904202,50B,55.6580476,26.0733203,3911.36,3.5,-44.7,26.3,-58467.57,-10438.42,26.9,Weapon+Missile,Blue,Enemies,R-27ER,,cn,,177.407989907346,147.739898681641,0.545745973158002,3911.3583984375,3911.3583984375,128.462968009979,-122.35546875,0.0207095669998194,NaN,0.199987938897973,2.16864781384205,4857.36886496981,0.081627681851387,0.081627681851387,0.081627681851387,1573.67974414825,3835.73228380371,5409.41202795196,,,72.8799998760223,0,39773.4662741323,40701.8572601272
2011-06-01T04:56:43Z,1306904203,50B,55.6586074,26.0743354,3782.69,3.4,-46.7,26.6,-58410.42,-10326.56,27.2,Weapon+Missile,Blue,Enemies,R-27ER,,cn,,179.817472806128,150.750885009766,0.552281265723575,3782.69140625,3782.69140625,125.615001682937,-128.6669921875,0.0138580610509653,NaN,0.199987938897973,2.06068258674483,5000,0.0810083672404289,0.0810083672404289,0.0810083672404289,1616.71617631912,3709.55306791016,5326.26924422928,,,73.8799998760223,0,39899.5770436407,40882.0746622048
2011-06-01T04:56:44Z,1306904204,50B,55.6591577,26.0753202,3648.51,3.2,-48.7,26.9,-58354.25,-10218.04,27.5,Weapon+Missile,Blue,Enemies,R-27ER,,cn,,181.481549029408,153.18603515625,0.556473837001895,3648.51000976562,3648.51000976562,122.192084341075,-134.181396484375,0.0592865955827322,NaN,0.199987938897973,1.96753630882561,5000,0.0778732597827911,0.0778732597827911,0.0778732597827911,1646.77763190567,3577.96606872681,5224.74370063248,,,74.8799998760223,0,40022.2363759292,41063.9193581335
2011-06-01T04:56:45Z,1306904205,50B,55.6596969,26.0762724,3509.37,3.1,-50.5,27.2,-58299.23,-10113.12,27.8,Weapon+Missile,Blue,Enemies,R-27ER,,cn,,182.742614414372,155.327545166016,0.55938651824857,3509.373046875,3509.373046875,118.472649504316,-139.136962890625,0.0414969825419347,NaN,0.0307631720217374,1.84872623543029,5000,0.0784043595194817,0.0784043595194817,0.0784043595194817,1669.74315614998,3441.51931901367,5111.26247516365,,,75.8799998760223,0,40141.1615464197,41246.9990329034
2011-06-01T04:56:46Z,1306904206,50B,55.660229,26.0771996,3364.52,2.9,-52.3,27.5,-58244.95,-10010.97,28.1,Weapon+Missile,Blue,Enemies,R-27ER,,cn,,185.37520858913,158.731231689453,0.566442663404021,3364.51782226562,3364.51782226562,115.675977898746,-144.855224609375,0.021760820364991,NaN,0.199987938897973,1.7566752423775,5000,0.0772821307182312,0.0772821307182312,0.0772821307182312,1718.19839797318,3299.46487017212,5017.6632681453,,,76.8799998760223,0,40257.2820558537,41432.6911026427
2011-06-01T04:56:47Z,1306904207,50B,55.6607528,26.0781004,3214.4,2.7,-53.9,27.8,-58191.52,-9911.73,28.4,Weapon+Missile,Blue,Enemies,R-27ER,,cn,,187.715315592888,161.950988769531,0.572546969489663,3214.40161132812,3214.40161132812,112.703872701454,-150.1162109375,0.0235738564479864,NaN,0.199987938897973,1.69420910699292,5000,0.0737487971782684,0.0737487971782684,0.0737487971782684,1761.85198540688,3152.2511561731,4914.10314157997,,,77.8799998760223,0,40370.411494027,41620.6973555348
2011-06-01T04:56:48Z,1306904208,50B,55.6612703,26.0789786,3058.58,2.6,-55.6,28.2,-58138.75,-9815,28.8,Weapon+Missile,Blue,Enemies,R-27ER,,cn,,190.846638481808,165.949844360352,0.580999752223094,3058.5791015625,3058.5791015625,110.189767538314,-155.822509765625,0.0447056158094547,NaN,0.199987938897973,1.5978990641058,5000,0.0719862058758736,0.0719862058758736,0.0719862058758736,1821.1219709903,2999.44147463379,4820.56344562409,,,78.8799998760223,0,40481.0153953346,41811.8148901165
2011-06-01T04:56:49Z,1306904209,50B,55.6617773,26.0798276,2898.51,2.4,-57,28.5,-58087.08,-9721.48,29.1,Weapon+Missile,Blue,Enemies,R-27ER,,cn,,192.451339386497,168.657089233398,0.584754100432538,2898.51391601562,2898.51391601562,106.848745465266,-160.065185546875,0.0343956077518805,NaN,0.199987938897973,1.50252347647451,5000,0.0729047805070877,0.0729047805070877,0.0729047805070877,1851.87590158284,2842.47114944946,4694.3470510323,,,79.8799998760223,0,40588.2680890582,42004.5186789182
2011-06-01T04:56:50Z,1306904210,50B,55.6622758,26.0806516,2733.79,2.3,-58.4,28.8,-58036.28,-9630.72,29.4,Weapon+Missile,Blue,Enemies,R-27ER,,cn,,194.810734216883,172.105773925781,0.590751852396562,2733.79296875,2733.79296875,104.010728764086,-164.720947265625,0.0164908014284532,NaN,0.0307631720217374,1.447377916498,5000,0.0671434327960014,0.0671434327960014,0.0671434327960014,1897.56110830605,2680.93508169922,4578.49619000527,,,80.8799998760223,0,40692.6578426893,42199.5567167539
2011-06-01T04:56:51Z,1306904211,50B,55.6627691,26.0814566,2563.37,2.1,-59.8,29.1,-57986.03,-9542.05,29.7,Weapon+Missile,Blue,Enemies,R-27ER,,cn,,198.56922614728,176.906555175781,0.600921617129581,2563.37133789062,2563.37133789062,101.912733787101,-170.421630859375,0,NaN,0.199987938897973,1.34851999960705,5000,0.0653845742344856,0.0653845742344856,0.0653845742344856,1971.48687863648,2513.80855307251,4485.29543170899,,,81.8799998760223,0,40794.9490233635,42398.342304349
2011-06-01T04:56:52Z,1306904212,50B,55.6632519,26.0822348,2389.16,2,-61.1,29.4,-57936.85,-9456.37,30,Weapon+Missile,Blue,Enemies,R-27ER,,cn,,200.272717445914,179.909942626953,0.604818946890692,2389.16455078125,2389.16455078125,98.7985661748174,-174.206787109375,0.0321969782185262,NaN,0,1.24842560503293,5000,0.0621688552200794,0.0621688552200794,0.0621688552200794,2005.45806765854,2342.97005419189,4348.42812185044,,,82.8799998760223,0,40894.1133079804,42598.8147391608
2011-06-01T04:56:53Z,1306904213,50B,55.6637254,26.0829887,2210.91,1.8,-62.3,29.7,-57888.62,-9373.35,30.3,Weapon+Missile,Blue,Enemies,R-27ER,,cn,,202.461050495673,183.420822143555,0.610134669892722,2210.91162109375,2210.91162109375,96.0019271975035,-178.2529296875,0.0265707457363145,NaN,0.199987938897973,1.2450894845102,5000,0.0600210800766945,0.0600210800766945,0.0600210800766945,2049.52384839058,2168.1636448999,4217.68749329048,,,83.8799998760223,0,40990.4702916512,42801.4609155159
2011-06-01T04:56:54Z,1306904214,50B,55.6641909,26.0837209,2028.27,1.7,-63.5,30,-57841.23,-9292.72,30.6,Weapon+Missile,Blue,Enemies,R-27ER,,cn,,205.199016351857,187.513442993164,0.617051603819825,2028.267578125,2028.267578125,93.5296203338755,-182.64404296875,0.0241039363528172,NaN,0.199987938897973,1.19728659133487,5000,0.0557616278529167,0.0557616278529167,0.0557616278529167,2105.33181558847,1989.05102450195,4094.38284009043,,,84.8799998760223,0,41084.3348332215,43006.8270651904
2011-06-01T04:56:55Z,1306904215,50B,55.6646451,26.0844268,1842.67,1.6,-64.6,30.3,-57795,-9214.99,30.9,Weapon+Missile,Blue,Enemies,R-27ER,,cn,,206.461904343021,190.291320800781,0.619493971723675,1842.66760253906,1842.66760253906,90.4387472682273,-185.599975585938,0,NaN,0.0461720787892862,1.12297029118372,5000,0.0544397905468941,0.0544397905468941,0.0544397905468941,2131.32589724734,1807.03962444397,3938.36552169131,,,85.8799998760223,0,41175.0909403944,43213.4402825225
2011-06-01T04:56:56Z,1306904216,50B,55.6650912,26.0851124,1652.88,1.5,-65.6,30.6,-57749.61,-9139.51,31.2,Weapon+Missile,Blue,Enemies,R-27ER,,cn,,209.226294482804,194.543533325195,0.626393502853443,1652.88452148438,1652.88452148438,88.0796483212483,-189.783081054688,0.0136128633807642,NaN,0,1.04431436631038,5000,0.0513503104448318,0.0513503104448318,0.0513503104448318,2188.78211515024,1620.92599926147,3809.70811441172,,,86.8799998760223,0,41263.4949181304,43422.8135494191
2011-06-01T04:56:57Z,1306904217,50B,55.6655261,26.0857734,1460.41,1.4,-66.7,30.9,-57705.36,-9066.75,31.5,Weapon+Missile,Blue,Enemies,R-27ER,,cn,,210.471992867571,197.418823242188,0.628709160195575,1460.40991210938,1460.40991210938,85.1585845795237,-192.474609375,0.0747837138193893,NaN,0,0.976471591388526,5000,0.0493422485888004,0.0493422485888004,0.0493422485888004,2214.92298908234,1432.17288645874,3647.09587554108,,,87.8799998760223,0,41348.9600439047,43633.4182235793
2011-06-01T04:56:58Z,1306904218,50B,55.6659486,26.0864085,1265.96,1.3,-67.6,31.1,-57662.38,-8996.83,31.7,Weapon+Missile,Blue,Enemies,R-27ER,,cn,,211.06352929028,199.707168579102,0.629053477704772,1265.95690917969,1265.95690917969,82.0721819381921,-194.453002929688,0.0285025930151028,NaN,0,0.967612836035019,5000,0.0472380854189396,0.0472380854189396,0.0472380854189396,2227.39066982344,1241.4796323407,3468.87030216414,,,88.8799998760223,0,41431.3161305126,43844.5991765152
2011-06-01T04:56:59Z,1306904219,50B,55.6663637,26.0870259,1067.38,1.2,-68.5,31.4,-57620.16,-8928.88,32,Weapon+Missile,Blue,Enemies,R-27ER,,cn,,214.091063945309,204.393737792969,0.636613049404467,1067.37609863281,1067.37609863281,80.0040332969565,-198.580810546875,0.0319969857200287,NaN,0,0.935737944004157,5000,0.0430451892316341,0.0430451892316341,0.0430451892316341,2291.74918306172,1046.73838176575,3338.48756482747,,,89.8799998760223,0,41511.5989006447,44058.8000626554
2011-06-01T04:57:00Z,1306904220,50B,55.6667667,26.0876192,867,1.1,-69.4,31.6,-57579.17,-8863.58,32.2,Weapon+Missile,Blue,Enemies,R-27ER,,cn,,214.694854228767,206.789825439453,0.636937573115365,867.001525878906,867.001525878906,77.0967640436418,-200.374572753906,0.0191322896600665,NaN,0,0.874605883302691,5000,0.0418395362794399,0.0418395362794399,0.0418395362794399,2304.69402161557,850.238051376038,3154.93207299161,,,90.8799998760223,0,41588.9681659696,44273.5971487844
2011-06-01T04:57:01Z,1306904221,50B,55.6671583,26.0881897,664.76,1,-70.3,31.9,-57539.36,-8800.78,32.5,Weapon+Missile,Blue,Enemies,R-27ER,,cn,,215.474478812544,209.388519287109,0.637770824109981,664.761535644531,664.761535644531,74.3521174516056,-202.239990234375,0.0472909804805437,NaN,0.199987938897973,0.862041056633365,5000,0.0386088415980339,0.0386088415980339,0.0386088415980339,2321.46255097687,651.908371352844,2973.37092232972,,,91.8799998760223,0,41663.5763449125,44489.1632196481
2011-06-01T04:57:02Z,1306904222,50B,55.6675391,26.0887391,460.46,1,-71,32.1,-57500.65,-8740.31,32.7,Weapon+Missile,Blue,Enemies,R-27ER,,cn,,216.554469947167,212.317504882812,0.63947558682589,460.455352783203,460.455352783203,71.7970897650594,-204.306182861328,0.0150909078084136,NaN,0.0922895160652123,0.823672468970819,5000,0.0387751497328281,0.0387751497328281,0.0387751497328281,2344.79192270492,451.55244853714,2796.34437124206,,,92.8799998760223,0,41735.6185539524,44705.8011939277
2011-06-01T04:57:03Z,1306904223,50B,55.6679076,26.0892657,255.17,0.9,-71.8,32.4,-57463.2,-8682.36,33,Weapon+Missile,Blue,Enemies,R-27ER,,cn,,216.566926021007,214.216979980469,0.638023761777387,255.173843383789,255.173843383789,68.9980821826721,-205.281509399414,0,NaN,0,0.773308094774173,5000,0.0356223434209824,0.0356223434209824,0.0356223434209824,2345.06167230943,250.240057121964,2595.30172943139,,,93.8799998760223,0,41804.855909315,44922.445712345
2011-06-01T04:57:04Z,1306904224,50B,55.6682669,26.0897743,47.31,0.8,-72.6,32.6,-57426.68,-8626.39,33.2,Weapon+Missile,Blue,Enemies,R-27ER,,cn,,218.342828126654,217.90641784668,0.641746643449081,47.3092269897461,47.3092269897461,66.8273285842186,-207.864616394043,0.0376589391431657,NaN,0.199987938897973,0.722887158073463,5000,0.0325568914413452,0.0325568914413452,0.0325568914413452,2383.67952971729,46.3945030858994,2430.07403280319,,,94.8799998760223,0,41871.9003095468,45140.8555645152
2011-06-01T04:57:05Z,1306904225,50B,55.6686127,26.0902593,-160.43,0.8,-73.3,32.9,-57391.55,-8573.03,33.5,Weapon+Missile,Blue,Enemies,R-27ER,,cn,,217.338537851763,218.829223632812,0.637304186905392,-160.425384521484,-160.425384521484,63.8934364064128,-207.73461151123,0.0175889710901558,NaN,0,0.723022481196394,5000,0.0325778089463711,0.0325778089463711,0.0325778089463711,2361.80200177711,-157.323559711761,2204.47844206535,,,95.8799998760223,0,41936.0187508828,45358.2601882621
2011-06-01T04:57:06Z,1306904226,50B,55.6689484,26.090726,-369.81,0.7,-73.9,33.1,-57357.45,-8521.67,33.7,Weapon+Missile,Blue,Enemies,R-27ER,,cn,,218.27385625319,221.722229003906,0.638548388175079,-369.812286376953,-369.812286376953,61.649019903048,-209.386901855469,0.0134100989225257,NaN,0,0.721871274156129,5000,0.0305875558406115,0.0305875558406115,0.0305875558406115,2382.17381618191,-362.661965819855,2019.51185036205,,,96.8799998760223,0,41997.8657362439,45576.5893120232
2011-06-01T04:57:07Z,1306904227,50B,55.6692755,26.0911769,-581.66,0.7,-74.6,33.3,-57324.22,-8472.08,33.9,Weapon+Missile,Blue,Enemies,R-27ER,,cn,,220.099294114205,225.563125610352,0.64237061424617,-581.661499023438,-581.661499023438,59.6959828684978,-211.849212646484,0,NaN,0,0.634128796448294,5000,0.0263435989618301,0.0263435989618301,0.0263435989618301,2422.18496347857,-570.415073939819,1851.76988953875,,,97.8799998760223,0,42057.7671982707,45796.74321
2011-06-01T04:57:08Z,1306904228,50B,55.6695897,26.0916062,-793,0.6,-75.3,33.6,-57292.31,-8424.84,34.2,Weapon+Missile,Blue,Enemies,R-27ER,,cn,,218.892752966067,226.319076538086,0.637353804034262,-793.002319335938,-793.002319335938,57.0008330702554,-211.3408203125,0.04798159304509,NaN,0,0.622763361669393,5000,0.0283638443797827,0.0283638443797827,0.0283638443797827,2395.70186505318,-777.669619491577,1618.0322455616,,,98.8799998760223,0,42114.9551774999,46015.6831617247
