ISOTime,UnixTime,Id,Longitude,Latitude,Altitude,Roll,Pitch,Yaw,U,V,Heading,Type,Color,Coalition,Name,Group,Country,Pilot,TAS,CAS,M,ASL,AGL,GS,VS,AOA,AOS,RRT,TRT,TRD,G,LatG,LonG,Ek,Ep,Em,FFW,FFV,RelativeTime,Elev,GroundDistance,AirDistance
2011-06-01T04:57:56Z,1306904276,630D,55.6081289,25.6496978,5886.7,-0.4,-4.2,29.8,-63958.38,-57307.3,30.4,Weapon+Missile,Blue,Enemies,R-27ET,,cn,,344.518382431993,271.286102294922,1.08665231786773,5886.703125,5886.703125,NaN,NaN,NaN,NaN,NaN,NaN,NaN,NaN,NaN,NaN,NaN,5772.88372007812,NaN,,,0.329999923706055,0,NaN,NaN
2011-06-01T04:57:57Z,1306904277,630D,55.6106185,25.6536683,5847.43,-0.4,-3.6,28.5,-63703.83,-56870.15,29.1,Weapon+Missile,Blue,Enemies,R-27ET,,cn,,507.381613290744,399.252105712891,1.59952711008028,5847.42626953125,5847.42626953125,505.859101064718,-39.27685546875,0.385916695377913,NaN,0.0461720787892862,5.98364689281357,5000,5.51366567611694,5.51366567611694,5.51366567611694,12871.8050752759,5734.36628260986,18606.1713578858,,,1.32999992370605,0,507.711833998252,509.694446395862
2011-06-01T04:57:58Z,1306904278,630D,55.6138982,25.6598003,5813.05,-0.9,-1.1,23.1,-63367.48,-56194.45,23.8,Weapon+Missile,Blue,Enemies,R-27ET,,cn,,755.573676086691,574.788940429688,2.38089454089984,5813.04833984375,5813.04833984375,754.791188306777,-34.3779296875,0.1897318523635,NaN,0.569255286185543,5.0994243569734,5000,9.09267520904541,9.09267520904541,9.09267520904541,28544.5789997578,5700.65305019287,34245.2320499506,,,2.32999992370605,0,1265.5131394948,1268.96712770942
2011-06-01T04:57:59Z,1306904279,630D,55.6174587,25.6682439,5812.59,-1,0.4,20.1,-63000.29,-55262.98,20.7,Weapon+Missile,Blue,Enemies,R-27ET,,cn,,1001.22969702199,748.326232910156,3.15496438377577,5812.5859375,5812.5859375,1001.22959024532,-0.46240234375,0.0821159030899986,NaN,0.123069550116463,3.26061128734973,5000,2.23581457138062,2.23581457138062,2.23581457138062,50123.045309937,5700.19958839844,55823.2448983354,,,3.32999992370605,0,2271.05587948174,2275.42639137262
2011-06-01T04:58:00Z,1306904280,630D,55.6210352,25.6770961,5819.36,-0.9,0.4,20.1,-62631.07,-54286.26,20.7,Weapon+Missile,Blue,Enemies,R-27ET,,cn,,1044.19724574604,778.640075683594,3.29064780947836,5819.35986328125,5819.35986328125,1044.17527357869,6.77392578125,0.0321733381790365,NaN,0.16922060472971,0.265408904830957,5000,1.01520383358002,1.01520383358002,1.01520383358002,54517.3944011807,5706.84254032471,60224.2369415055,,,4.32999992370605,0,3319.77378148829,3325.12243515441
2011-06-01T04:58:01Z,1306904281,630D,55.6246246,25.6859853,5826.31,-0.7,0.4,20.1,-62260.57,-53305.46,20.7,Weapon+Missile,Blue,Enemies,R-27ET,,cn,,1048.46743381526,781.407592773438,3.30440237685586,5826.31005859375,5826.31005859375,1048.44439745571,6.9501953125,0.0314626724588719,NaN,0.199987938897973,0.0139882274201861,5000,1.00194847583771,1.00194847583771,1.00194847583771,54964.1979885578,5713.65835361084,60677.8563421687,,,5.32999992370605,0,4372.80385552155,4379.13677404978
2011-06-01T04:58:02Z,1306904282,630D,55.6281765,25.6947802,5833.2,-0.6,0.4,20.1,-61893.98,-52335.04,20.7,Weapon+Missile,Blue,Enemies,R-27ET,,cn,,1037.37350291399,773.243041992188,3.26973029827288,5833.2021484375,5833.2021484375,1037.35060786873,6.89208984375,0.0303630709808539,NaN,0,0.0139882274201861,5000,1.00242173671722,1.00242173671722,1.00242173671722,53807.1892274022,5720.41718489746,59527.6064122997,,,6.32999992370605,0,5414.67246348538,5421.98044755589
2011-06-01T04:58:03Z,1306904283,630D,55.6317368,25.7035946,5840.13,-0.5,0.4,20.1,-61526.59,-51362.47,20.7,Weapon+Missile,Blue,Enemies,R-27ET,,cn,,1039.67293355167,774.608459472656,3.27727248232637,5840.13427734375,5840.13427734375,1039.64982294461,6.93212890625,0.030010240887045,NaN,0,0.0139882274201861,5000,1.00104582309723,1.00104582309723,1.00104582309723,54045.9904379964,5727.21528109131,59773.2057190877,,,7.32999992370605,0,6458.85231802413,6467.13882612691
2011-06-01T04:58:04Z,1306904284,630D,55.6352941,25.7124004,5847.07,-0.4,0.4,20.1,-61159.55,-50390.85,20.7,Weapon+Missile,Blue,Enemies,R-27ET,,cn,,1038.6593883614,773.617858886719,3.27437204349185,5847.06982421875,5847.06982421875,1038.636232384,6.935546875,0.0295037840030483,NaN,0,0.0139882274201861,5000,1.00204944610596,1.00204944610596,1.00204944610596,53940.666251564,5734.01672916748,59674.6829807315,,,8.32999992370605,0,7502.02273629984,7511.28802366903
2011-06-01T04:58:05Z,1306904285,630D,55.6388283,25.7211476,5853.98,-0.3,0.4,20.1,-60794.95,-49425.68,20.7,Weapon+Missile,Blue,Enemies,R-27ET,,cn,,1031.75984384369,768.447937011719,3.25291266243401,5853.9775390625,5853.9775390625,1031.73671973231,6.90771484375,0.0292552683755872,NaN,0.0153836670841315,0.0139882274201861,5000,1.00054514408112,1.00054514408112,1.00054514408112,53226.4187684178,5740.79088334473,58967.2096517626,,,9.32999992370605,0,8538.26668077189,8548.50549417434
2011-06-01T04:58:06Z,1306904286,630D,55.6423477,25.729857,5860.86,-0.3,0.4,20.1,-60431.92,-48464.67,20.7,Weapon+Missile,Blue,Enemies,R-27ET,,cn,,1027.32318310951,765.032775878906,3.23921402325074,5860.85986328125,5860.85986328125,1027.30012954716,6.88232421875,0.0290030138688381,NaN,0.0923273489099118,0.0139882274201861,5000,1.00248289108276,1.00248289108276,1.00248289108276,52769.6461277127,5747.54013782471,58517.1862655374,,,10.3299999237061,0,9570.03917115558,9581.24845455396
2011-06-01T04:58:07Z,1306904287,630D,55.6456665,25.7380688,5867.36,-0.2,0.4,20.1,-60089.63,-47558.56,20.7,Weapon+Missile,Blue,Enemies,R-27ET,,cn,,968.621938947487,723.195556640625,3.05438280240998,5867.35693359375,5867.35693359375,968.600149023189,6.4970703125,0.02849614379019,NaN,0,0.0139882274201861,5000,1.00310611724854,1.00310611724854,1.00310611724854,46911.4230305195,5753.91158728272,52665.3346178022,,,11.3299999237061,0,10542.8720859878,10554.9974746701
2011-06-01T04:58:08Z,1306904288,630D,55.6487327,25.7456545,5873.37,-0.2,0.4,20.1,-59773.43,-46721.54,20.7,Weapon+Missile,Blue,Enemies,R-27ET,,cn,,894.78366515628,670.867736816406,2.82176663570247,5873.369140625,5873.369140625,894.763466396074,6.01220703125,0.028721670824585,NaN,0,0.0139882274201861,5000,1.00170195102692,1.00170195102692,1.00170195102692,40031.8903715253,5759.80754829102,45791.6979198163,,,12.3299999237061,0,11441.5361168068,11454.5087179987
2011-06-01T04:58:09Z,1306904289,630D,55.6515978,25.7527417,5878.99,-0.1,0.4,20.1,-59478.02,-45939.5,20.7,Weapon+Missile,Blue,Enemies,R-27ET,,cn,,835.992718237239,629.354125976562,2.63655728020136,5878.98779296875,5878.98779296875,835.973836726681,5.61865234375,0.0282002917763614,NaN,0.0615347483778051,0.0139882274201861,5000,1.00178623199463,1.00178623199463,1.00178623199463,34944.1912472844,5765.3175639917,40709.5088112761,,,13.3299999237061,0,12281.1573251737,12294.9222516831
2011-06-01T04:58:10Z,1306904290,630D,55.6542967,25.7594173,5884.29,-0.1,0.4,20.1,-59199.75,-45202.89,20.7,Weapon+Missile,Blue,Enemies,R-27ET,,cn,,787.433182890668,595.164123535156,2.48358078631209,5884.28515625,5884.28515625,787.415363997677,5.29736328125,0.028557439982096,NaN,0,0.0139882274201861,5000,1.00117170810699,1.00117170810699,1.00117170810699,31002.5508758664,5770.51250275391,36773.0633786203,,,14.3299999237061,0,13072.0097207593,13086.5216615562
2011-06-01T04:58:11Z,1306904291,630D,55.6568269,25.7656748,5889.25,-0.1,0.4,20.1,-58938.91,-44512.4,20.7,Weapon+Missile,Blue,Enemies,R-27ET,,cn,,738.126510755525,560.559143066406,2.32821656519371,5889.25,5889.25,738.109813108229,4.96484375,0.0281049267462407,NaN,0,0.0139882274201861,5000,1.00161993503571,1.00161993503571,1.00161993503571,27241.5372940063,5775.38135125,33016.9186452564,,,15.3299999237061,0,13813.3413100635,13828.5540802789
2011-06-01T04:58:12Z,1306904292,630D,55.6592049,25.7715551,5893.92,-0.1,0.4,20.1,-58693.8,-43863.53,20.7,Weapon+Missile,Blue,Enemies,R-27ET,,cn,,693.64473180724,529.400512695312,2.18804373477448,5893.92041015625,5893.92041015625,693.629008355987,4.67041015625,0.0283259347611614,NaN,0,0.0139882274201861,5000,1.00115251541138,1.00115251541138,1.00115251541138,24057.1506981969,5779.96145902588,29837.1121572228,,,16.3299999237061,0,14509.9922680251,14525.8641864582
2011-06-01T04:58:13Z,1306904293,630D,55.6614517,25.7771108,5898.33,-0.1,0.4,20.1,-58462.21,-43250.48,20.7,Weapon+Missile,Blue,Enemies,R-27ET,,cn,,655.344334227238,502.585876464844,2.06734686960777,5898.3349609375,5898.3349609375,655.329465341779,4.41455078125,0.0281447524398427,NaN,0,0.0139882274201861,5000,1.00008594989777,1.00008594989777,1.00008594989777,21473.8098201871,5784.29065446777,27258.1004746549,,,17.3299999237061,0,15168.1807127321,15184.6758695444
2011-06-01T04:58:14Z,1306904294,630D,55.6635903,25.7823982,5902.53,0,0.4,20.1,-58241.81,-42667.02,20.7,Weapon+Missile,Blue,Enemies,R-27ET,,cn,,623.717225333458,480.421051025391,1.96768329620156,5902.52978515625,5902.52978515625,623.703118981653,4.19482421875,0.0275612217811872,NaN,0.199987938897973,0.0139882274201861,5000,1.00168716907501,1.00168716907501,1.00168716907501,19451.1588588834,5788.40437176025,25239.5632306436,,,18.3299999237061,0,15794.5999336246,15811.6886248181
2011-06-01T04:58:15Z,1306904295,630D,55.6656088,25.7873884,5906.5,0,0.4,20.1,-58033.8,-42116.36,20.7,Weapon+Missile,Blue,Enemies,R-27ET,,cn,,588.652034988457,455.808563232422,1.85715642710508,5906.49658203125,5906.49658203125,588.638669149932,3.966796875,0.0281688478757572,NaN,0,0.0139882274201861,5000,1.0007176399231,1.0007176399231,1.0007176399231,17325.5609148026,5792.29447061768,23117.8553854202,,,19.3299999237061,0,16385.8102366243,16403.4595317797
2011-06-01T04:58:16Z,1306904296,630D,55.6675282,25.7921332,5910.27,0,0.4,20.1,-57836,-41592.78,20.7,Weapon+Missile,Blue,Enemies,R-27ET,,cn,,559.705582644281,435.392700195312,1.76591889332518,5910.2685546875,5910.2685546875,559.692872444749,3.77197265625,0.0281869063943748,NaN,0,0.0139882274201861,5000,1.00105679035187,1.00105679035187,1.00105679035187,15663.5169621587,5795.99351218262,21459.5104743413,,,20.3299999237061,0,16947.9439302693,16966.1266008625
2011-06-01T04:58:17Z,1306904297,630D,55.6693565,25.7966523,5913.87,0,0.4,20.1,-57647.62,-41094.11,20.7,Weapon+Missile,Blue,Enemies,R-27ET,,cn,,533.078969141286,416.489196777344,1.68198824035396,5913.865234375,5913.865234375,533.066835618163,3.5966796875,0.0279229657197492,NaN,0,0.0139882274201861,5000,1.00020015239716,1.00020015239716,1.00020015239716,14208.6593670368,5799.52065006836,20008.1800171052,,,21.3299999237061,0,17483.3355964982,17502.0266056905
2011-06-01T04:58:18Z,1306904298,630D,55.6711046,25.800973,5917.3,0,0.4,20.1,-57467.52,-40617.32,20.7,Weapon+Missile,Blue,Enemies,R-27ET,,cn,,509.683816670312,399.728546142578,1.60824286872076,5917.30078125,5917.30078125,509.672237809051,3.435546875,0.0277672245745217,NaN,0,0.0139882274201861,5000,1.00046861171722,1.00046861171722,1.00046861171722,12988.8796487808,5802.88977064453,18791.7694194254,,,22.3299999237061,0,17995.2297029374,18014.4070006746
2011-06-01T04:58:19Z,1306904299,630D,55.6727656,25.8050779,5920.56,0,0.4,20.1,-57296.41,-40164.34,20.7,Weapon+Missile,Blue,Enemies,R-27ET,,cn,,484.233110464179,381.275177001953,1.52800115526215,5920.5634765625,5920.5634765625,484.222118545933,3.2626953125,0.0281769924495483,NaN,0,0.0139882274201861,5000,1.00066542625427,1.00066542625427,1.00066542625427,11724.0852634907,5806.08938174316,17530.1746452338,,,23.3299999237061,0,18481.5626529853,18501.2022033661
2011-06-01T04:58:20Z,1306904300,630D,55.6743473,25.8089867,5923.67,0,0.4,20.1,-57133.46,-39733.01,20.7,Weapon+Missile,Blue,Enemies,R-27ET,,cn,,461.0945186765,364.203125,1.45504591759241,5923.67138671875,5923.67138671875,461.084044451739,3.10791015625,0.0274495905252622,NaN,0,0.0139882274201861,5000,1.00009870529175,1.00009870529175,1.00009870529175,10630.4077576756,5809.13720045654,16439.5449581322,,,24.3299999237061,0,18944.6636410653,18964.7436008972
2011-06-01T04:58:21Z,1306904301,630D,55.6758713,25.8127529,5926.66,0,0.4,20.1,-56976.46,-39317.41,20.7,Weapon+Missile,Blue,Enemies,R-27ET,,cn,,444.276245673135,351.545654296875,1.40202809552276,5926.6630859375,5926.6630859375,444.266172699656,2.99169921875,0.0281539847134332,NaN,0,0.0139882274201861,5000,1.00111079216003,1.00111079216003,1.00111079216003,9869.06912347078,5812.0710551709,15681.1401786417,,,25.3299999237061,0,19390.8648637379,19411.3693559513
2011-06-01T04:58:22Z,1306904302,630D,55.6773188,25.8163295,5929.51,0,0.4,20.1,-56827.38,-38922.73,20.7,Weapon+Missile,Blue,Enemies,R-27ET,,cn,,421.909872863554,334.317718505859,1.33149450502254,5929.509765625,5929.509765625,421.900269298915,2.8466796875,0.0276993122692782,NaN,0,0.0139882274201861,5000,1.00077927112579,1.00077927112579,1.00077927112579,8900.39704098701,5814.86269430664,14715.2597352937,,,26.3299999237061,0,19814.6100393939,19835.5179295842
2011-06-01T04:58:23Z,1306904303,630D,55.6787005,25.8197435,5932.23,0,0.4,20.1,-56685.05,-38545.98,20.7,Weapon+Missile,Blue,Enemies,R-27ET,,cn,,402.737072316266,319.104125976562,1.27103250133838,5932.23046875,5932.23046875,402.727882313086,2.720703125,0.0277703905926262,NaN,0,0.0139882274201861,5000,0.99937629699707,0.99937629699707,0.99937629699707,8109.85747089386,5817.53079263672,13927.3882635306,,,27.3299999237061,0,20219.0933000688,20240.3864507506
2011-06-01T04:58:24Z,1306904304,630D,55.6800279,25.823023,5934.83,0,0.4,20.1,-56548.35,-38184.09,20.7,Weapon+Missile,Blue,Enemies,R-27ET,,cn,,386.863341476276,306.199798583984,1.22097655639839,5934.83447265625,5934.83447265625,386.854577511816,2.60400390625,0.0280765789095835,NaN,0,0.0139882274201861,5000,1.00112736225128,1.00112736225128,1.00112736225128,7483.16224890947,5820.08444812744,13303.2466970369,,,28.3299999237061,0,20607.6434919853,20629.3068255738
2011-06-01T04:58:25Z,1306904305,630D,55.6812998,25.8261654,5937.34,0,0.4,20.1,-56417.36,-37837.32,20.7,Weapon+Missile,Blue,Enemies,R-27ET,,cn,,370.698033923291,292.795745849609,1.16999540526588,5937.3369140625,5937.3369140625,370.689587312082,2.50244140625,0.0276529049472023,NaN,0,0.0139882274201861,5000,0.999681293964386,0.999681293964386,0.999681293964386,6870.85161772966,5822.5385048291,12693.3901225588,,,29.3299999237061,0,20979.9418624719,21001.9600937371
2011-06-01T04:58:26Z,1306904306,630D,55.6825107,25.8291565,5939.71,0,0.4,20.1,-56292.66,-37507.23,20.7,Weapon+Missile,Blue,Enemies,R-27ET,,cn,,352.85791607756,277.738708496094,1.11372289294378,5939.7119140625,5939.7119140625,352.849923216087,2.375,0.0274586971308649,NaN,0,0.0139882274201861,5000,1.0011875629425,1.0011875629425,1.0011875629425,6225.43544692993,5824.8675842041,12050.303031134,,,30.3299999237061,0,21334.3295390007,21356.6856825773
2011-06-01T04:58:27Z,1306904307,630D,55.6836777,25.8320396,5942.01,0,0.4,20.1,-56172.48,-37189.08,20.7,Weapon+Missile,Blue,Enemies,R-27ET,,cn,,340.105625980317,266.837432861328,1.07350499988087,5942.009765625,5942.009765625,340.097863418252,2.2978515625,0.0285812565034763,NaN,0,0.0139882274201861,5000,0.999675154685974,0.999675154685974,0.999675154685974,5783.59184117317,5827.12100680664,11610.7128479798,,,31.3299999237061,0,21675.9134471763,21698.5954777452
2011-06-01T04:58:28Z,1306904308,630D,55.6847904,25.8347881,5944.19,0,0.4,20.1,-56057.9,-36885.77,20.7,Weapon+Missile,Blue,Enemies,R-27ET,,cn,,324.232401839032,253.204635620117,1.02343202080687,5944.19384765625,5944.19384765625,324.225045590232,2.18408203125,0.0279085657168518,NaN,0,0.0139882274201861,5000,1.00037574768066,1.00037574768066,1.00037574768066,5256.33252011538,5829.26285961182,11085.5953797272,,,32.3299999237061,0,22001.5583307073,22024.5511121751
2011-06-01T04:58:29Z,1306904309,630D,55.6858529,25.8374126,5946.28,0,0.4,20.1,-55948.49,-36596.14,20.7,Weapon+Missile,Blue,Enemies,R-27ET,,cn,,309.612397622373,240.721313476562,0.977310823395882,5946.27978515625,5946.27978515625,309.605370796795,2.0859375,0.0272532309331235,NaN,0,0.0139882274201861,5000,1.00069665908813,1.00069665908813,1.00069665908813,4792.99183807373,5831.30846551025,10624.300303584,,,33.3299999237061,0,22312.498875692,22335.7884835262
2011-06-01T04:58:30Z,1306904310,630D,55.6868742,25.839935,5948.29,0,0.4,20.1,-55843.34,-36317.8,20.7,Weapon+Missile,Blue,Enemies,R-27ET,,cn,,297.549109066472,230.485046386719,0.939256833826092,5948.28857421875,5948.28857421875,297.542328203491,2.0087890625,0.0284574522636132,NaN,0,0.0139882274201861,5000,1.00025987625122,1.00025987625122,1.00025987625122,4426.77361531258,5833.27841463623,10260.0520299488,,,34.3299999237061,0,22611.3521968512,22634.9272148408
2011-06-01T04:58:31Z,1306904311,630D,55.6878484,25.8423412,5950.2,0,0.4,20.1,-55743.03,-36052.26,20.7,Weapon+Missile,Blue,Enemies,R-27ET,,cn,,283.861343767524,218.977905273438,0.896071745976254,5950.20458984375,5950.20458984375,283.854877304634,1.916015625,0.0273436453077301,NaN,0,0.0139882274201861,5000,0.99980902671814,0.99980902671814,0.99980902671814,4028.86312427521,5835.15738409912,9864.02050837433,,,35.3299999237061,0,22896.4446946533,22920.2920668183
2011-06-01T04:58:32Z,1306904312,630D,55.6887892,25.8446646,5952.05,0,0.4,20.1,-55646.18,-35795.86,20.7,Weapon+Missile,Blue,Enemies,R-27ET,,cn,,274.094506731643,210.828903198242,0.865261315454264,5952.05078125,5952.05078125,274.088289056198,1.84619140625,0.0277252290991355,NaN,0,0.0139882274201861,5000,1.00044047832489,1.00044047832489,1.00044047832489,3756.38993102312,5836.96787939453,9593.35781041765,,,36.3299999237061,0,23171.7234741198,23195.8338804667
2011-06-01T04:58:33Z,1306904313,630D,55.6896972,25.8469073,5953.83,0,0.4,20.1,-55552.69,-35548.37,20.7,Weapon+Missile,Blue,Enemies,R-27ET,,cn,,264.559554538061,202.927429199219,0.83518076392813,5953.8349609375,5953.8349609375,264.553538249292,1.7841796875,0.0285282975579628,NaN,0,0.0139882274201861,5000,0.999795138835907,0.999795138835907,0.999795138835907,3499.58789486885,5838.71756196777,9338.30545683662,,,37.3299999237061,0,23437.4335184059,23461.7979059371
2011-06-01T04:58:34Z,1306904314,630D,55.6905752,25.8490756,5955.56,0,0.4,20.1,-55462.3,-35309.09,20.7,Weapon+Missile,Blue,Enemies,R-27ET,,cn,,255.790821159224,195.706451416016,0.807517066593422,5955.55615234375,5955.55615234375,255.785030229396,1.72119140625,0.028079525177946,NaN,0,0.0139882274201861,5000,1.00098991394043,1.00098991394043,1.00098991394043,3271.4472094655,5840.40547413818,9111.85268360369,,,38.3299999237061,0,23694.3335123168,23718.9435047946
2011-06-01T04:58:35Z,1306904315,630D,55.6914193,25.8511599,5957.22,0,0.4,20.1,-55375.4,-35079.06,20.7,Weapon+Missile,Blue,Enemies,R-27ET,,cn,,245.903389614861,187.619232177734,0.776319789115283,5957.21826171875,5957.21826171875,245.897772288616,1.662109375,0.0270561513293718,NaN,0,0.0139882274201861,5000,0.999876618385315,0.999876618385315,0.999876618385315,3023.42385120392,5842.03544662842,8865.45929783234,,,39.3299999237061,0,23941.2941580338,23966.1403689917
2011-06-01T04:58:36Z,1306904316,630D,55.6922323,25.8531674,5958.82,0,0.4,20.1,-55291.72,-34857.53,20.7,Weapon+Missile,Blue,Enemies,R-27ET,,cn,,236.810486749471,180.22998046875,0.747628926712794,5958.81591796875,5958.81591796875,236.805097345957,1.59765625,0.0280309162797778,NaN,0,0.0139882274201861,5000,0.999581634998322,0.999581634998322,0.999581634998322,2803.96033172607,5843.60221219482,8647.5625439209,,,40.3299999237061,0,24179.1437046626,24204.217459046
2011-06-01T04:58:37Z,1306904317,630D,55.6930183,25.8551083,5960.35,0,0.4,20.1,-55210.8,-34643.34,20.7,Weapon+Missile,Blue,Enemies,R-27ET,,cn,,228.971711989401,173.89518737793,0.722895782493197,5960.35498046875,5960.35498046875,228.966539428753,1.5390625,0.0280241655484064,NaN,0,0.0139882274201861,5000,1.00097978115082,1.00097978115082,1.00097978115082,2621.40224456787,5845.11151692139,8466.51376148926,,,41.3299999237061,0,24409.1030628626,24434.3968314358
2011-06-01T04:58:38Z,1306904318,630D,55.693781,25.8569917,5961.86,0,0.4,20.1,-55132.29,-34435.5,20.7,Weapon+Missile,Blue,Enemies,R-27ET,,cn,,222.175879190924,168.428970336914,0.701454085106678,5961.8564453125,5961.8564453125,222.170805682437,1.50146484375,0.0283097432479926,NaN,0,0.0261695779877396,5000,0.907235324382782,0.907235324382782,0.907235324382782,2468.106064713,5846.58395094238,8314.69001565538,,,42.3299999237061,0,24632.2493547666,24657.7567259372
2011-06-01T04:58:39Z,1306904319,630D,55.6945199,25.8588161,5962.4,0.3,-0.8,20.1,-55056.24,-34234.17,20.7,Weapon+Missile,Blue,Enemies,R-27ET,,cn,,215.222607003241,162.870254516602,0.679506005081963,5962.39990234375,5962.39990234375,215.221920862459,0.54345703125,0.0512083742034766,NaN,0.661538505670114,1.2308997665095,5000,0.177575275301933,0.177575275301933,0.177575275301933,2316.03852826357,5847.11690023193,8163.1554284955,,,43.3299999237061,0,24848.4072633923,24874.1173762788
2011-06-01T04:58:40Z,1306904320,630D,55.6952336,25.8605781,5954.98,0.9,-3.4,20.1,-54982.78,-34039.71,20.7,Weapon+Missile,Blue,Enemies,R-27ET,,cn,,208.001268465503,157.188110351562,0.656643247818787,5954.97998046875,5954.97998046875,207.868882814689,-7.419921875,0.026267809736792,NaN,0.569230846914919,2.5461956982812,4413.7991623586,0.0128145962953568,0.0128145962953568,0.0128145962953568,2163.2263841629,5839.84044254639,8003.06682670929,,,44.3299999237061,0,25057.1766432391,25083.2134881826
2011-06-01T04:58:41Z,1306904321,630D,55.6959265,25.8622881,5938.24,1.5,-6.1,20.1,-54911.46,-33851.02,20.7,Weapon+Missile,Blue,Enemies,R-27ET,,cn,,202.41373041479,152.893783569336,0.638864757231224,5938.23828125,5938.23828125,201.720186812575,-16.74169921875,0.02623255092494,NaN,0.53846137831254,2.72697565112922,4248.5116782763,0.0266430675983429,0.0266430675983429,0.0266430675983429,2048.56591302156,5823.42244408203,7871.9883571036,,,45.3299999237061,0,25259.7892788614,25286.7048863506
2011-06-01T04:58:42Z,1306904322,630D,55.6965955,25.8639374,5912.71,1.9,-8.9,20.2,-54842.6,-33669,20.7,Weapon+Missile,Blue,Enemies,R-27ET,,cn,,196.273077785698,148.239654541016,0.619277935885994,5912.70751953125,5912.70751953125,194.605501642506,-25.53076171875,0.0335243075648791,NaN,0.399999783458042,2.77740720663965,4065.68426741829,0.0328441746532917,0.0328441746532917,0.0328441746532917,1926.15605317354,5798.38531964111,7724.54137281466,,,46.3299999237061,0,25455.2401704756,25483.996253496
2011-06-01T04:58:43Z,1306904323,630D,55.6972478,25.8655428,5878.48,2.3,-11.6,20.2,-54775.47,-33491.84,20.8,Weapon+Missile,Blue,Enemies,R-27ET,,cn,,192.527126395026,145.544372558594,0.607188858050897,5878.48193359375,5878.48193359375,189.46055965599,-34.2255859375,0.0347977605676285,NaN,0.399999783458042,2.77742492244281,3920.20756980712,0.0271006934344769,0.0271006934344769,0.0271006934344769,1853.33471989632,5764.82148540772,7618.15620530403,,,47.3299999237061,0,25645.5238434258,25677.5065502505
2011-06-01T04:58:44Z,1306904324,630D,55.6978856,25.8671086,5835.63,2.6,-14.5,20.3,-54709.84,-33319.05,20.8,Weapon+Missile,Blue,Enemies,R-27ET,,cn,,189.730574630026,143.659851074219,0.598036607439722,5835.62939453125,5835.62939453125,184.827895203448,-42.8525390625,0.0576587435783417,NaN,0.399999783458042,2.82737516306017,3864.33907985023,0.0353477522730827,0.0353477522730827,0.0353477522730827,1799.884547472,5722.79750018799,7522.68204765999,,,48.3299999237061,0,25831.1603052476,25868.1909915076
2011-06-01T04:58:45Z,1306904325,630D,55.6985032,25.8686195,5784.91,2.8,-17.3,20.3,-54646.3,-33152.3,20.9,Weapon+Missile,Blue,Enemies,R-27ET,,cn,,185.511749117208,140.706130981445,0.584354635965129,5784.9130859375,5784.9130859375,178.444571514937,-50.71630859375,0.0157146159032316,NaN,0.199999891729021,2.82765242605179,3802.65532743101,0.0470342002809048,0.0470342002809048,0.0470342002809048,1720.73045302629,5673.0617914209,7393.79224444719,,,49.3299999237061,0,26010.3752604274,26054.6009902637
2011-06-01T04:58:46Z,1306904326,630D,55.699104,25.8700832,5726.51,3,-20.1,20.4,-54584.48,-32990.79,21,Weapon+Missile,Blue,Enemies,R-27ET,,cn,,182.530773040744,138.777587890625,0.574530405039694,5726.51220703125,5726.51220703125,172.935885373248,-58.40087890625,0.013383953410999,NaN,0.199999891729021,2.77735427267358,3738.17894266805,0.0430628247559071,0.0430628247559071,0.0430628247559071,1665.87415534258,5615.7900935083,7281.66424885088,,,50.3299999237061,0,26184.066664219,26237.9963016152
2011-06-01T04:58:47Z,1306904327,630D,55.6996981,25.8715225,5659.63,3.2,-22.9,20.5,-54523.38,-32831.96,21.1,Weapon+Missile,Blue,Enemies,R-27ET,,cn,,182.852754018805,139.514938354492,0.575046832431883,5659.626953125,5659.626953125,170.18076407796,-66.88525390625,0.0130048282943544,NaN,0.16923074329176,2.77917067610598,3792.20153316934,0.0479703657329082,0.0479703657329082,0.0479703657329082,1671.75648261309,5550.19806598633,7221.95454859941,,,51.3299999237061,0,26354.9880737401,26421.6806538356
2011-06-01T04:58:48Z,1306904328,630D,55.7002716,25.8729032,5586.15,3.2,-25.6,20.7,-54464.4,-32679.6,21.2,Weapon+Missile,Blue,Enemies,R-27ET,,cn,,179.139216761954,137.098251342773,0.56283476437437,5586.146484375,5586.146484375,163.37527259156,-73.48046875,0.0522149933715382,NaN,0,2.73038711717623,3793.66513101197,0.0556744933128357,0.0556744933128357,0.0556744933128357,1604.54294910431,5478.13834209961,7082.68129120392,,,52.3299999237061,0,26519.0663682314,26601.5932842592
2011-06-01T04:58:49Z,1306904329,630D,55.7008373,25.8742552,5504.84,3.3,-28.3,20.8,-54406.23,-32530.42,21.4,Weapon+Missile,Blue,Enemies,R-27ET,,cn,,179.585064956285,138.031509399414,0.563645559222166,5504.84228515625,5504.84228515625,160.126271251007,-81.30419921875,0.0469483245836664,NaN,0,2.67718933505194,3871.34749920897,0.0569351278245449,0.0569351278245449,0.0569351278245449,1612.53977776766,5398.40615957275,7010.94593734041,,,53.3299999237061,0,26679.8880773385,26781.9235061347
2011-06-01T04:58:50Z,1306904330,630D,55.7013877,25.8755598,5417.08,3.3,-30.9,21,-54349.66,-32386.47,21.5,Weapon+Missile,Blue,Enemies,R-27ET,,cn,,177.826893848367,137.253494262695,0.557498761311041,5417.07763671875,5417.07763671875,154.660178004554,-87.7646484375,0.0448368380704346,NaN,0,2.63018952271261,3930.05135121271,0.0605250336229801,0.0605250336229801,0.0605250336229801,1581.12020878792,5312.33844061279,6893.45864940071,,,54.3299999237061,0,26835.2202566849,26960.4509664022
2011-06-01T04:58:51Z,1306904331,630D,55.70193,25.8768336,5322.01,3.3,-33.5,21.2,-54293.92,-32245.93,21.7,Weapon+Missile,Blue,Enemies,R-27ET,,cn,,178.602415762691,138.550094604492,0.559248564312875,5322.005859375,5322.005859375,151.195833504001,-95.07177734375,0.0573211690811516,NaN,0,2.5608893561766,4069.25762315042,0.0621617920696735,0.0621617920696735,0.0621617920696735,1594.94114581347,5219.10487608398,6814.04602189745,,,55.3299999237061,0,26987.0678220171,27139.7138049406
2011-06-01T04:58:52Z,1306904332,630D,55.7024599,25.8780659,5220.7,3.3,-35.9,21.3,-54239.48,-32109.96,21.9,Weapon+Missile,Blue,Enemies,R-27ET,,cn,,178.088261614288,138.858367919922,0.556917214952634,5220.69677734375,5220.69677734375,146.464667489413,-101.30908203125,0.0159162192832836,NaN,0,2.47514444199673,4187.20788589738,0.0646185874938965,0.0646185874938965,0.0646185874938965,1585.77144623995,5119.75460515381,6705.52605139376,,,56.3299999237061,0,27134.1594309501,27318.4181677727
2011-06-01T04:58:53Z,1306904333,630D,55.7029825,25.8792684,5112.45,3.2,-38.3,21.6,-54185.8,-31977.29,22.1,Weapon+Missile,Blue,Enemies,R-27ET,,cn,,179.441655298563,140.727233886719,0.560375986685549,5112.44970703125,5112.44970703125,143.114916850232,-108.2470703125,0.0293855597448946,NaN,0,2.28636612418722,5000,0.195879280567169,0.195879280567169,0.195879280567169,1609.96538281441,5013.6004919458,6623.56587476021,,,57.3299999237061,0,27277.8870796863,27498.4419050854
2011-06-01T04:58:54Z,1306904334,630D,55.7034969,25.8804402,4999.49,2.6,-38.7,21.7,-54132.97,-31848.01,22.3,Weapon+Missile,Blue,Enemies,R-27ET,,cn,,179.62080333867,141.686508178711,0.560130831503063,4999.4931640625,4999.4931640625,139.658341650537,-112.95654296875,0.0648324937736556,NaN,0.969231163981489,0.46013047439416,5000,1.06178939342499,1.06178939342499,1.06178939342499,1613.18164960146,4902.82796373535,6516.00961333681,,,58.3299999237061,0,27418.1393091568,27678.6114554424
2011-06-01T04:58:55Z,1306904335,630D,55.7040196,25.8816276,4888.54,1.9,-37.5,21.7,-54079.3,-31717.01,22.3,Weapon+Missile,Blue,Enemies,R-27ET,,cn,,179.865158878186,142.688217163086,0.560104768545911,4888.53857421875,4888.53857421875,141.564664979931,-110.95458984375,0.0312502225605854,NaN,0.661544802250755,1.1853753817526,5000,1.1098073720932,1.1098073720932,1.1098073720932,1617.57376891375,4794.01868088623,6411.59244979998,,,59.3299999237061,0,27560.3046794702,27859.0366720467
2011-06-01T04:58:56Z,1306904336,630D,55.7045487,25.8828296,4780.16,1.5,-37.5,21.7,-54024.97,-31584.41,22.3,Weapon+Missile,Blue,Enemies,R-27ET,,cn,,179.671204604602,143.314483642578,0.558735031810805,4780.15771484375,4780.15771484375,143.301539018969,-108.380859375,0.0210215832467506,NaN,0.0615355221101721,0.321730911531147,5000,0.291126757860184,0.291126757860184,0.291126757860184,1614.08708820343,4687.73336542725,6301.82045363068,,,60.3299999237061,0,27704.2249071899,28039.2888666617
2011-06-01T04:58:57Z,1306904337,630D,55.7050751,25.8840195,4666.58,1.8,-39.8,21.9,-53970.94,-31453.12,22.5,Weapon+Missile,Blue,Enemies,R-27ET,,cn,,181.809307659156,145.908142089844,0.56457541721905,4666.58154296875,4666.58154296875,141.968579388969,-113.576171875,0.0217864194458305,NaN,0.199999891729021,2.02842723183286,4492.14040320345,0.0440226383507252,0.0440226383507252,0.0440226383507252,1652.73121757507,4576.35318883545,6229.08440641052,,,61.3299999237061,0,27846.7937592095,28221.6498834482
2011-06-01T04:58:58Z,1306904338,630D,55.705583,25.8851589,4548.39,2,-42.1,22,-53918.81,-31327.43,22.6,Weapon+Missile,Blue,Enemies,R-27ET,,cn,,180.237291594388,145.470138549805,0.558863271902864,4548.39208984375,4548.39208984375,136.076208248518,-118.189453125,0.0495542608995803,NaN,0.0769232979799761,2.26054032516175,4661.58994282152,0.0505371801555157,0.0505371801555157,0.0505371801555157,1624.27406406403,4460.44892878662,6084.72299285065,,,62.3299999237061,0,27983.4491776749,28402.3995465646
2011-06-01T04:58:59Z,1306904339,630D,55.7060828,25.8862704,4423.63,2.2,-44.2,22.2,-53867.52,-31204.81,22.8,Weapon+Missile,Blue,Enemies,R-27ET,,cn,,182.295877405054,148.105270385742,0.564363658150295,4423.630859375,4423.630859375,132.915094292567,-124.76123046875,0.0184456603441995,NaN,0.199999891729021,2.16263383227785,4893.54798015355,0.0528194569051266,0.0528194569051266,0.0528194569051266,1661.58934594393,4338.09995670898,5999.68930265291,,,63.3299999237061,0,28116.9155049787,28585.1663148517
2011-06-01T04:59:00Z,1306904340,630D,55.7065679,25.8873386,4294.29,2.2,-46.4,22.4,-53817.75,-31086.98,23,Weapon+Missile,Blue,Enemies,R-27ET,,cn,,181.906965413249,148.736801147461,0.56225086521442,4294.29296875,4294.29296875,127.913463382603,-129.337890625,0.00792988846975983,NaN,0,2.11237666003466,5000,0.0543740652501583,0.0543740652501583,0.0543740652501583,1654.50720329285,4211.26281419922,5865.77001749207,,,64.3299999237061,0,28245.3760474196,28767.5202685983
2011-06-01T04:59:01Z,1306904341,630D,55.707046,25.8883805,4158.64,2.2,-48.4,22.7,-53768.71,-30972.05,23.2,Weapon+Missile,Blue,Enemies,R-27ET,,cn,,184.436109036042,151.885543823242,0.569106466142683,4158.63525390625,4158.63525390625,124.954642649749,-135.65771484375,0.0388295385819739,NaN,0,2.01321277201324,5000,0.0576192662119865,0.0576192662119865,0.0576192662119865,1700.83391581774,4078.22804127197,5779.06195708971,,,65.3299999237061,0,28370.8544592668,28952.3681004292
2011-06-01T04:59:02Z,1306904342,630D,55.7075109,25.8893822,4018.8,2.2,-50.2,22.9,-53721.04,-30861.56,23.4,Weapon+Missile,Blue,Enemies,R-27ET,,cn,,184.48499702836,152.980667114258,0.568270830257707,4018.79516601562,4018.79516601562,120.330644256964,-139.840087890625,0.0333553901680675,NaN,0,1.91081009366477,5000,0.0592262409627438,0.0592262409627438,0.0592262409627438,1701.73570642769,3941.09176148071,5642.82746790841,,,66.3299999237061,0,28491.6921185761,29137.2348552181
2011-06-01T04:59:03Z,1306904343,630D,55.7079683,25.8903563,3873.37,2.2,-52,23.1,-53674.16,-30754.12,23.7,Weapon+Missile,Blue,Enemies,R-27ET,,cn,,186.787411262004,156.055725097656,0.574329780304286,3873.37060546875,3873.37060546875,117.223010521438,-145.424560546875,0.0389053203621339,NaN,0,1.77510832212178,5000,0.0579768605530262,0.0579768605530262,0.0579768605530262,1744.47685029805,3798.47898481201,5542.95583511006,,,67.3299999237061,0,28609.4057760464,29324.3764032521
2011-06-01T04:59:04Z,1306904344,630D,55.7084183,25.8913034,3722.46,2.1,-53.7,23.4,-53628.04,-30649.67,24,Weapon+Missile,Blue,Enemies,R-27ET,,cn,,189.240696647506,159.333236694336,0.580792771248638,3722.4599609375,3722.4599609375,114.184143534889,-150.91064453125,0.0106441371707642,NaN,0,1.69521997499008,5000,0.0570227839052677,0.0570227839052677,0.0570227839052677,1790.60206338167,3650.48619759277,5441.08826097445,,,68.3299999237061,0,28724.0626135354,29513.943999888
2011-06-01T04:59:05Z,1306904345,630D,55.7088611,25.8922239,3566.23,2,-55.4,23.6,-53582.67,-30548.15,24.2,Weapon+Missile,Blue,Enemies,R-27ET,,cn,,191.76338396167,162.74560546875,0.587408144651076,3566.22680664062,3566.22680664062,111.19530982411,-156.233154296875,0.00681157999907968,NaN,0.107698422832761,1.64525586055097,5000,0.0566730052232742,0.0566730052232742,0.0566730052232742,1838.65977142155,3497.27381133423,5335.93358275578,,,69.3299999237061,0,28835.7150301659,29706.0099017771
2011-06-01T04:59:06Z,1306904346,630D,55.7092921,25.893109,3406.53,1.9,-56.9,23.9,-53538.52,-30450.54,24.5,Weapon+Missile,Blue,Enemies,R-27ET,,cn,,192.30016649175,164.476959228516,0.587903959709643,3406.53002929688,3406.53002929688,107.127463046483,-159.69677734375,0.0232375077543717,NaN,0.199987938897973,1.54479402314383,5000,0.0557209849357605,0.0557209849357605,0.0557209849357605,1848.96770163774,3340.66477118042,5189.63247281816,,,70.3299999237061,0,28943.2837126705,29898.5890682707
2011-06-01T04:59:07Z,1306904347,630D,55.709715,25.8939667,3242.27,1.8,-58.4,24.2,-53495.22,-30355.96,24.7,Weapon+Missile,Blue,Enemies,R-27ET,,cn,,194.426259590667,167.659042358398,0.593216625639891,3242.2705078125,3242.2705078125,104.021055657697,-164.259521484375,0.0149319688273887,NaN,0.199987938897973,1.49547141287817,5000,0.0547118633985519,0.0547118633985519,0.0547118633985519,1890.07852092087,3179.58120754395,5069.65972846482,,,71.3299999237061,0,29047.7365752127,30093.275912329
2011-06-01T04:59:08Z,1306904348,630D,55.7101291,25.8947966,3073.88,1.7,-59.8,24.4,-53452.83,-30264.44,25,Weapon+Missile,Blue,Enemies,R-27ET,,cn,,196.287243740025,170.669250488281,0.597673313277731,3073.87524414062,3073.87524414062,100.85493159948,-168.395263671875,0.0135752584255217,NaN,0.199987938897973,1.3949681674492,5000,0.0540505386888981,0.0540505386888981,0.0540505386888981,1926.4341027528,3014.44186629517,4940.87596904797,,,72.3299999237061,0,29148.9989540156,30289.7986619204
2011-06-01T04:59:09Z,1306904349,630D,55.710535,25.8956,2901.37,1.6,-61.1,24.7,-53411.3,-30175.86,25.3,Weapon+Missile,Blue,Enemies,R-27ET,,cn,,198.321211459287,173.895965576172,0.602610123725266,2901.365234375,2901.365234375,97.8345513882648,-172.510009765625,0.0294301776506005,NaN,0.153870501622047,1.34503180065359,5000,0.0505294986069202,0.0505294986069202,0.0505294986069202,1966.56514573395,2845.26733756836,4811.83248330231,,,73.3299999237061,0,29247.2303273564,30488.3387036231
2011-06-01T04:59:10Z,1306904350,630D,55.7109279,25.8963684,2726.87,1.5,-62.4,24.9,-53371.1,-30091.14,25.5,Weapon+Missile,Blue,Enemies,R-27ET,,cn,,198.093015074702,175.125473022461,0.600655302705827,2726.87377929688,2726.87377929688,93.7740621179692,-174.491455078125,0,NaN,0.199987938897973,1.29483385895711,5000,0.0480234175920486,0.0480234175920486,0.0480234175920486,1962.0421310693,2674.14967477417,4636.19180584347,,,74.3299999237061,0,29341.3902063189,30686.6343820794
2011-06-01T04:59:11Z,1306904351,630D,55.7113098,25.8971065,2549.78,1.4,-63.6,25.2,-53332.04,-30009.77,25.8,Weapon+Missile,Blue,Enemies,R-27ET,,cn,,198.766667863707,177.198547363281,0.601421457767806,2549.78149414062,2549.78149414062,90.2580234205168,-177.09228515625,0.0179523897897145,NaN,0.199987938897973,1.22851218850776,5000,0.0464848466217518,0.0464848466217518,0.0464848466217518,1975.40941268206,2500.48146895142,4475.89088163347,,,75.3299999237061,0,29432.0157384217,30885.5852819714
2011-06-01T04:59:12Z,1306904352,630D,55.7116795,25.8978126,2370.84,1.3,-64.8,25.5,-53294.23,-29931.92,26,Weapon+Missile,Blue,Enemies,R-27ET,,cn,,198.76946619795,178.685562133789,0.600148310071352,2370.84228515625,2370.84228515625,86.5451337780702,-178.939208984375,0.0448615847117658,NaN,0.199987938897973,1.19425846965502,5000,0.0445519126951694,0.0445519126951694,0.0445519126951694,1975.46503463089,2325.00204957275,4300.46708420365,,,76.3299999237061,0,29518.9078192627,31084.5206991877
2011-06-01T04:59:13Z,1306904353,630D,55.7120352,25.8984844,2191.17,1.2,-65.9,25.7,-53257.86,-29857.87,26.3,Weapon+Missile,Blue,Enemies,R-27ET,,cn,,197.70983636807,179.203201293945,0.595677124787353,2191.17211914062,2191.17211914062,82.5094590977707,-179.670166015625,0.0176638231301558,NaN,0.199987938897973,1.12414604421631,5000,0.0406649149954319,0.0406649149954319,0.0406649149954319,1954.45896983445,2148.80580621704,4103.26477605149,,,77.3299999237061,0,29601.7375578287,31282.376814185
2011-06-01T04:59:14Z,1306904354,630D,55.7123803,25.8991286,2009.38,1.2,-67,26,-53222.59,-29786.85,26.6,Weapon+Missile,Blue,Enemies,R-27ET,,cn,,198.331322483684,181.291152954102,0.596266947175403,2009.37756347656,2009.37756347656,79.284632868124,-181.794555664062,0.0121919042826526,NaN,0,1.07392697162209,5000,0.0408421829342842,0.0408421829342842,0.0408421829342842,1966.76567390636,1970.52624828674,3937.2919221931,,,78.3299999237061,0,29681.3441532111,31480.8475797371
2011-06-01T04:59:15Z,1306904355,630D,55.7127143,25.8997452,1825.86,1.1,-68,26.2,-53188.46,-29718.89,26.8,Weapon+Missile,Blue,Enemies,R-27ET,,cn,,198.656497760142,183.128952026367,0.595955963973761,1825.85607910156,1825.85607910156,76.0543810383207,-183.521484375,0.0206699343741243,NaN,0,1.02368313959212,5000,0.036287996917963,0.036287996917963,0.036287996917963,1973.22020511627,1790.55315181213,3763.77335692841,,,79.3299999237061,0,29757.6932506284,31679.6259124919
2011-06-01T04:59:16Z,1306904356,630D,55.713036,25.9003326,1641.47,1,-69,26.5,-53155.59,-29654.14,27,Weapon+Missile,Blue,Enemies,R-27ET,,cn,,198.169887768002,184.218566894531,0.593213014348818,1641.46997070312,1641.46997070312,72.6158897739493,-184.386108398438,0.0075710165455691,NaN,0,0.973209322286199,5000,0.0354643128812313,0.0354643128812313,0.0354643128812313,1963.56522089914,1609.73214881958,3573.29736971872,,,80.3299999237061,0,29830.5929195034,31877.9072482583
2011-06-01T04:59:17Z,1306904357,630D,55.713345,25.9008907,1456.81,0.9,-70,26.7,-53124.04,-29592.63,27.3,Weapon+Missile,Blue,Enemies,R-27ET,,cn,,197.177115928417,184.828460693359,0.588970808072951,1456.80773925781,1456.80773925781,69.1279633975016,-184.662231445312,0.0214552232056366,NaN,0.199987938897973,0.958110548795651,5000,0.0387592054903507,0.0387592054903507,0.0387592054903507,1943.94075229242,1428.64036161926,3372.58111391169,,,81.3299999237061,0,29899.9930727149,32075.1858859825
