ISOTime,UnixTime,Id,Longitude,Latitude,Altitude,Roll,Pitch,Yaw,U,V,Heading,Type,Color,Coalition,Name,Group,Country,Pilot,TAS,CAS,M,ASL,AGL,GS,VS,AOA,AOS,RRT,TRT,TRD,G,LatG,LonG,Ek,Ep,Em,FFW,FFV,RelativeTime,Elev,GroundDistance,AirDistance
2011-06-01T04:58:21Z,1306904301,7105,55.7640526,25.7335042,6770.86,-34.3,-5.7,337.4,-48218.51,-48180.71,337.9,Weapon+Missile,Blue,Enemies,R-27ET,,ru,,443.728377141928,338.5986328125,1.41591906068876,6770.861328125,6770.861328125,NaN,NaN,1.48138745795321,NaN,7.938414683604,4.92297666557365,NaN,NaN,NaN,NaN,NaN,6639.9467243457,NaN,,,0.940000057220459,0,NaN,NaN
2011-06-01T04:58:22Z,1306904302,7105,55.7612753,25.7391049,6688.58,-27.5,-6,332.8,-48491.3,-47557.79,333.3,Weapon+Missile,Blue,Enemies,R-27ET,,ru,,684.993474778888,504.694793701172,2.18340028599755,6688.578125,6688.578125,680.033480773663,-82.283203125,0.543473365872187,NaN,6.53843763961566,4.01477324130245,5000,9.52519607543945,9.52519607543945,9.52519607543945,23460.8030244827,6559.25446695312,30020.0574914359,,,1.94000005722046,0,682.8412756485,688.496333672562
2011-06-01T04:58:23Z,1306904303,7105,55.7565241,25.7463492,6583.22,-21.7,-7,325.6,-48960.33,-46750.96,326.2,Weapon+Missile,Blue,Enemies,R-27ET,,ru,,939.188828657204,677.890319824219,2.98946882840943,6583.21630859375,6583.21630859375,933.260169255105,-105.36181640625,0.118146401457188,NaN,5.38460012274706,7.08819913902316,5000,13.1304473876953,13.1304473876953,13.1304473876953,44103.7827937245,6455.92982126709,50559.7126149916,,,2.94000005722046,0,1619.48004854919,1632.01090451262
2011-06-01T04:58:24Z,1306904304,7105,55.7500832,25.7537796,6441.97,-17.2,-8.1,319.4,-49598.6,-45921.88,320,Weapon+Missile,Blue,Enemies,R-27ET,,ru,,1055.79989848099,762.443664550781,3.35438751957962,6441.97216796875,6441.97216796875,1046.30947542856,-141.244140625,0.281693416056059,NaN,4.09232491668606,5.15116303993624,5000,4.99863815307617,4.99863815307617,4.99863815307617,55735.6712816238,6317.41663610107,62053.0879177249,,,3.94000005722046,0,2668.87700630785,2691.93256591776
2011-06-01T04:58:25Z,1306904305,7105,55.7433212,25.7608777,6300.34,-13.9,-7.5,319.2,-50269.33,-45129.27,319.7,Weapon+Missile,Blue,Enemies,R-27ET,,ru,,1047.93294549058,762.520141601562,3.32319948870995,6300.33984375,6300.33984375,1038.31774663682,-141.63232421875,0.0296907915564243,NaN,3.24611228984568,1.10043536267773,5000,1.87169671058655,1.87169671058655,1.87169671058655,54908.1729122281,6178.52277287109,61086.6956850992,,,4.94000005722046,0,3710.01527910357,3743.69074380995
2011-06-01T04:58:26Z,1306904306,7105,55.7365612,25.7679479,6167.65,-11.4,-7.2,319,-50939.82,-44339.72,319.6,Weapon+Missile,Blue,Enemies,R-27ET,,ru,,1044.29440989834,765.1337890625,3.30590958105908,6167.65283203125,6167.65283203125,1035.83057083003,-132.68701171875,0.0346343223255412,NaN,2.33847577179936,0.309011551831849,5000,1.26639425754547,1.26639425754547,1.26639425754547,54527.5407272458,6048.40126452393,60575.9419917697,,,5.94000005722046,0,4748.64341086509,4791.76708107134
2011-06-01T04:58:27Z,1306904307,7105,55.7297258,25.7750533,6036.3,-9.4,-7.1,318.8,-51617.74,-43546.15,319.4,Weapon+Missile,Blue,Enemies,R-27ET,,ru,,1051.9438094754,775.612731933594,3.32441934201861,6036.29541015625,6036.29541015625,1043.71021170245,-131.357421875,0.0379535779829208,NaN,1.9077076936777,0.219842791887098,5000,1.40699231624603,1.40699231624603,1.40699231624603,55329.2889146805,5919.58363840088,61248.8725530814,,,6.94000005722046,0,5795.14389304564,5847.47277998478
2011-06-01T04:58:28Z,1306904308,7105,55.7229019,25.7821308,5909.38,-7.7,-6.8,318.9,-52294.46,-42755.65,319.5,Weapon+Missile,Blue,Enemies,R-27ET,,ru,,1048.31169335213,778.031127929688,3.30747472346223,5909.38037109375,5909.38037109375,1040.60077805014,-126.9150390625,0.0308940203025939,NaN,1.53846425205223,0.296076294121756,5000,1.56633234024048,1.56633234024048,1.56633234024048,54947.87032094,5795.12250161865,60742.9928225587,,,7.94000005722046,0,6838.52118082754,6899.5105472695
2011-06-01T04:58:29Z,1306904309,7105,55.7161125,25.7891884,5788.55,-6.2,-6.5,319,-52967.68,-41967.35,319.5,Weapon+Missile,Blue,Enemies,R-27ET,,ru,,1043.6594057845,779.464660644531,3.28764045521486,5788.5498046875,5788.5498046875,1036.64117683237,-120.83056640625,0.0675919775902554,NaN,1.33843960088747,0.25868855897662,5000,1.24082696437836,1.24082696437836,1.24082696437836,54461.2477641225,5676.62819421387,60137.8759583364,,,8.94000005722046,0,7877.92910978824,7946.86495040854
2011-06-01T04:58:30Z,1306904310,7105,55.7093485,25.7962376,5670.35,-5.2,-6.5,319.1,-53638.25,-41179.96,319.6,Weapon+Missile,Blue,Enemies,R-27ET,,ru,,1040.97559472289,782.180603027344,3.27417862387687,5670.35009765625,5670.35009765625,1034.24321030713,-118.19970703125,0.0419858170095247,NaN,1.04616641479251,0.0699411571112504,5000,0.512950420379639,0.512950420379639,0.512950420379639,54181.509440434,5560.71387851807,59742.223318952,,,9.94000005722046,0,8914.94373087997,8991.5196373366
2011-06-01T04:58:31Z,1306904311,7105,55.702837,25.8030069,5551.87,-4.6,-7.2,318.7,-54283.74,-40423.79,319.2,Weapon+Missile,Blue,Enemies,R-27ET,,ru,,1001.24320373943,758.119506835938,3.14440275631584,5551.87255859375,5551.87255859375,994.208743560473,-118.4775390625,0.0214995502242722,NaN,0.569251017317311,0.830298392795966,5000,1.44981217384338,1.44981217384338,1.44981217384338,50124.39765172,5444.52710267334,55568.9247543934,,,10.9400000572205,0,9911.80669959729,9996.26932543387
2011-06-01T04:58:32Z,1306904312,7105,55.6967093,25.8092114,5425.75,-4.2,-8.3,317.8,-54891.3,-39730.52,318.4,Weapon+Missile,Blue,Enemies,R-27ET,,ru,,930.409407077333,711.431945800781,2.91721799989757,5425.7529296875,5425.7529296875,921.821839610314,-126.11962890625,0.0752867489251384,NaN,0.400030519309307,1.30870479922264,5000,1.27044761180878,1.27044761180878,1.27044761180878,43283.0832388997,5320.84599679199,48603.9292356917,,,11.9400000572205,0,10836.0109743896,10929.8272760333
2011-06-01T04:58:33Z,1306904313,7105,55.6909798,25.814892,5291.62,-4,-9.6,317.3,-55459.46,-39095.64,317.9,Weapon+Missile,Blue,Enemies,R-27ET,,ru,,862.472081612685,666.537841796875,2.69956536452861,5291.625,5291.625,851.978749757916,-134.1279296875,0.0496519526249482,NaN,0.199987938897973,1.24858237921872,5000,1.11117362976074,1.11117362976074,1.11117362976074,37192.9045780659,5189.311430625,42382.2160086909,,,12.9400000572205,0,11690.1535669517,11795.1458797978
2011-06-01T04:58:34Z,1306904314,7105,55.6855849,25.8201482,5149.04,-3.9,-10.8,317,-55994.48,-38508.07,317.5,Weapon+Missile,Blue,Enemies,R-27ET,,ru,,807.35093220668,630.673461914062,2.52244039825391,5149.03759765625,5149.03759765625,794.659902365695,-142.58740234375,0.0868989995639173,NaN,0,1.21891534583706,5000,0.609484672546387,0.609484672546387,0.609484672546387,32590.7763867497,5049.48095570557,37640.2573424553,,,13.9400000572205,0,12486.7876057044,12605.0818228759
2011-06-01T04:58:35Z,1306904315,7105,55.6805699,25.8250044,5002.23,-3.7,-11.8,316.9,-56491.8,-37965.17,317.5,Weapon+Missile,Blue,Enemies,R-27ET,,ru,,750.751594616076,593.277587890625,2.34123047790793,5002.22607421875,5002.22607421875,736.256975114356,-146.8115234375,0.0685414231411594,NaN,0.199987938897973,0.999988893196232,5000,0.281071841716766,0.281071841716766,0.281071841716766,28181.397840929,4905.50803307373,33086.9058740028,,,14.9400000572205,0,13224.8711031398,13358.2008398745
2011-06-01T04:58:36Z,1306904316,7105,55.6758817,25.8295689,4853.16,-3.7,-12.7,317.4,-56956.68,-37454.88,318,Weapon+Missile,Blue,Enemies,R-27ET,,ru,,706.201812626278,564.268249511719,2.19814687954956,4853.1591796875,4853.1591796875,690.28983848196,-149.06689453125,0.0393309249497183,NaN,0,0.91271017466087,5000,0.572383880615234,0.572383880615234,0.572383880615234,24936.0500078321,4759.32334694824,29695.3733547803,,,15.9400000572205,0,13916.8634256037,14066.5895149513
2011-06-01T04:58:37Z,1306904317,7105,55.6714987,25.8339074,4703.1,-3.4,-13.2,317.5,-57391.16,-36969.92,318.1,Weapon+Missile,Blue,Enemies,R-27ET,,ru,,668.193234464284,539.654174804688,2.07590551097556,4703.09912109375,4703.09912109375,651.125316201637,-150.06005859375,0.0357695928203901,NaN,0.507661494024014,0.631655254112545,5000,0.579122960567474,0.579122960567474,0.579122960567474,22324.1099291921,4612.1646995874,26936.2746287795,,,16.9400000572205,0,14569.6378301643,14736.8664157807
2011-06-01T04:58:38Z,1306904318,7105,55.6673706,25.8379719,4558.14,-2.8,-13.4,317.3,-57800.38,-36515.55,317.9,Weapon+Missile,Blue,Enemies,R-27ET,,ru,,628.431245734963,513.130004882812,1.94882035499086,4558.14013671875,4558.14013671875,611.484033695865,-144.958984375,0.158811886359518,NaN,0.769238956215285,0.209823878210254,5000,1.21473073959351,1.21473073959351,1.21473073959351,19746.2915307999,4470.00849717529,24216.3000279752,,,17.9400000572205,0,15182.652261819,15367.2200084049
2011-06-01T04:58:39Z,1306904319,7105,55.6635246,25.8418289,4422.96,-2.6,-13.1,318.6,-58181.53,-36084.42,319.2,Weapon+Missile,Blue,Enemies,R-27ET,,ru,,591.120281245216,487.755950927734,1.83001396293994,4422.958984375,4422.958984375,575.45568287266,-135.18115234375,0.033134038914822,NaN,0.199987938897973,0.956168107028723,5000,1.93180310726166,1.93180310726166,1.93180310726166,17471.1593449712,4337.44107241211,21808.6004173833,,,18.9400000572205,0,15759.5707632913,15960.1599155264
2011-06-01T04:58:40Z,1306904320,7105,55.6599991,25.8455507,4298.41,-2.7,-12.7,320.5,-58530.68,-35668.61,321.1,Weapon+Missile,Blue,Enemies,R-27ET,,ru,,557.060888856663,464.181304931641,1.72189144706884,4298.4111328125,4298.4111328125,542.959175781146,-124.5478515625,0.0452585226279814,NaN,0.199987938897973,1.8313542896066,5000,2.53570961952209,2.53570961952209,2.53570961952209,15515.8416946888,4215.30135355957,19731.1430482484,,,19.9400000572205,0,16303.9938171326,16519.0105713681
2011-06-01T04:58:41Z,1306904321,7105,55.6568225,25.8491895,4184.01,-2.9,-12.4,323,-58844.94,-35262.32,323.6,Weapon+Missile,Blue,Enemies,R-27ET,,ru,,526.230785833012,442.463836669922,1.62427964110792,4184.01318359375,4184.01318359375,513.64574287438,-114.39794921875,0.0453384228675181,NaN,0.35380379900666,2.4943046167225,5000,2.68159508705139,2.68159508705139,2.68159508705139,13845.9419979215,4103.11528868896,17949.0572866104,,,20.9400000572205,0,16819.1259117371,17047.0266625112
2011-06-01T04:58:42Z,1306904322,7105,55.6539921,25.8527637,4077.86,-3.2,-12.2,325.8,-59124.55,-34863.54,326.4,Weapon+Missile,Blue,Enemies,R-27ET,,ru,,498.474086942161,422.577514648438,1.53657843652515,4077.85986328125,4077.85986328125,487.03992437936,-106.1533203125,0.0292949491068324,NaN,0.399975877795947,2.73443912690134,5000,2.6507875919342,2.6507875919342,2.6507875919342,12423.8207676411,3999.01444282471,16422.8352104658,,,21.9400000572205,0,17307.7050804868,17547.3140223393
2011-06-01T04:58:43Z,1306904323,7105,55.651521,25.8562349,3979.92,-3.5,-12,328.7,-59368.26,-34476.53,329.3,Weapon+Missile,Blue,Enemies,R-27ET,,ru,,467.720015804912,399.708618164062,1.44002931479649,3979.92138671875,3979.92138671875,457.351142988803,-97.9384765625,0.0640747509290656,NaN,0.400030519309307,2.7976728047939,5000,2.48756384849548,2.48756384849548,2.48756384849548,10938.1006592274,3902.96960670654,14841.0702659339,,,22.9400000572205,0,17766.6045120152,18016.8316081901
2011-06-01T04:58:44Z,1306904324,7105,55.6493547,25.8596349,3887.71,-3.7,-11.9,331.5,-59581.49,-34097.71,332.1,Weapon+Missile,Blue,Enemies,R-27ET,,ru,,444.381754898219,382.211303710938,1.36661691455732,3887.70922851562,3887.70922851562,434.709169406331,-92.212158203125,0.0806180447765485,NaN,0.199987938897973,2.66918072480668,5000,2.25744652748108,2.25744652748108,2.25744652748108,9873.75720432103,3812.54037058228,13686.2975749033,,,23.9400000572205,0,18202.8946293718,18463.0232962837
2011-06-01T04:58:45Z,1306904325,7105,55.6474843,25.8629168,3801.18,-3.9,-11.9,334,-59765.18,-33732.28,334.6,Weapon+Missile,Blue,Enemies,R-27ET,,ru,,418.050515859608,361.643341064453,1.28426910624924,3801.177734375,3801.177734375,408.996985725171,-86.531494140625,0.0553541547716052,NaN,0.200042580411333,2.37109312673734,5000,1.82150936126709,1.82150936126709,1.82150936126709,8738.31169052422,3727.68196288086,12465.9936534051,,,24.9400000572205,0,18613.4698563263,18882.860160317
2011-06-01T04:58:46Z,1306904326,7105,55.6458317,25.8660999,3719.11,-3.5,-11.8,335.4,-59927.14,-33378,336,Weapon+Missile,Blue,Enemies,R-27ET,,ru,,398.099322274642,345.804748535156,1.22174400381674,3719.10913085938,3719.10913085938,389.548218725904,-82.068603515625,0.138827323756754,NaN,0.507661494024014,1.44046373734553,5000,1.62426865100861,1.62426865100861,1.62426865100861,7924.15351977646,3647.20015581421,11571.3536755907,,,25.9400000572205,0,19004.574040624,19282.707813422
2011-06-01T04:58:47Z,1306904327,7105,55.6443051,25.8691234,3647.41,-2.4,-10.1,335.2,-60076.67,-33041.55,335.8,Weapon+Missile,Blue,Enemies,R-27ET,,ru,,375.097562666774,326.592163085938,1.15013991140068,3647.41381835938,3647.41381835938,368.181970884075,-71.6953125,0.0625092273523464,NaN,1.33846905607826,1.3596148948618,5000,2.16817617416382,2.16817617416382,2.16817617416382,7034.90907592774,3576.8910721814,10611.8001481091,,,26.9400000572205,0,19374.2534131579,19659.4848597413
2011-06-01T04:58:48Z,1306904328,7105,55.6428022,25.8719982,3589.79,-1.2,-8.6,334.1,-60223.96,-32721.58,334.7,Weapon+Missile,Blue,Enemies,R-27ET,,ru,,356.926745263314,310.964050292969,1.09365090215968,3589.79150390625,3589.79150390625,352.244759168008,-57.622314453125,0.0355125833411023,NaN,0.969226895113258,1.86950132300795,5000,1.9469940662384,1.9469940662384,1.9469940662384,6369.83507421315,3520.38288517822,9890.21795939137,,,27.9400000572205,0,19727.914431816,20018.0073974698
2011-06-01T04:58:49Z,1306904329,7105,55.6413181,25.8746794,3543.09,-0.2,-7.4,332.6,-60369.62,-32423.07,333.2,Weapon+Missile,Blue,Enemies,R-27ET,,ru,,335.419634059561,291.823852539062,1.02716389084604,3543.08666992188,3543.08666992188,332.152057640987,-46.704833984375,0.0449043052338969,NaN,0.969260619172285,1.81133159005471,5000,1.81600630283356,1.81600630283356,1.81600630283356,5625.31654563248,3474.58108915894,9099.89763479142,,,28.9400000572205,0,20061.3521708247,20354.8848812798
2011-06-01T04:58:50Z,1306904330,7105,55.6398305,25.8771896,3504.26,0.4,-6.6,330.8,-60515.79,-32143.48,331.4,Weapon+Missile,Blue,Enemies,R-27ET,,ru,,317.867386182595,276.164154052734,0.972951047762846,3504.26147460938,3504.26147460938,315.487368063289,-38.8251953125,0.0377503731767103,NaN,0.661538505670114,1.96048221751687,5000,1.77755510807037,1.77755510807037,1.77755510807037,5051.98375992775,3436.5065789978,8488.49033892555,,,29.9400000572205,0,20378.0269381859,20674.104460158
2011-06-01T04:58:51Z,1306904331,7105,55.6383426,25.8795193,3472.16,0.8,-5.8,329.4,-60662.21,-31883.9,330,Weapon+Missile,Blue,Enemies,R-27ET,,ru,,299.754410712058,259.954406738281,0.917149687621169,3472.15991210938,3472.15991210938,298.030529352937,-32.1015625,0.188266530286767,NaN,0.169242909566219,1.15912002786136,5000,1.14452707767487,1.14452707767487,1.14452707767487,4492.63533706665,3405.02570020874,7897.66103727539,,,30.9400000572205,0,20677.1365701009,20975.0944396035
2011-06-01T04:58:52Z,1306904332,7105,55.6369232,25.8817385,3442.95,0.3,-6.2,331,-60801.87,-31636.61,331.6,Weapon+Missile,Blue,Enemies,R-27ET,,ru,,285.497503588835,247.299987792969,0.873216762854183,3442.95458984375,3442.95458984375,283.999777652761,-29.205322265625,0.134500575048004,NaN,0.876887006402917,1.6443334648479,5000,1.44498252868652,1.44498252868652,1.44498252868652,4075.44122777283,3376.38506284912,7451.82629062195,,,31.9400000572205,0,20962.162422168,21261.7663608059
2011-06-01T04:58:53Z,1306904333,7105,55.6356875,25.8839094,3409.74,-0.7,-7.6,333.6,-60923.18,-31394.88,334.2,Weapon+Missile,Blue,Enemies,R-27ET,,ru,,272.49734720505,235.873870849609,0.833116973776732,3409.7353515625,3409.7353515625,270.46494494075,-33.21923828125,0.127404089766148,NaN,0.492320035374519,2.09816666490986,5000,0.716720223426819,0.716720223426819,0.716720223426819,3712.74021168947,3343.80811854004,7056.54833022951,,,32.9400000572205,0,21233.6682969095,21535.4416778852
2011-06-01T04:58:54Z,1306904334,7105,55.6345344,25.8860045,3374.25,-0.7,-7.8,333.8,-61036.3,-31161.62,334.4,Weapon+Missile,Blue,Enemies,R-27ET,,ru,,261.659133937154,226.45475769043,0.799634866669305,3374.2529296875,3374.2529296875,259.242164993711,-35.482421875,0.0546688317371583,NaN,0,0.589925679769823,5000,1.10460209846497,1.10460209846497,1.10460209846497,3423.27511863709,3309.01174929199,6732.28686792908,,,33.9400000572205,0,21493.9213478789,21798.2395345794
2011-06-01T04:58:55Z,1306904335,7105,55.6334531,25.8880208,3341.08,-0.6,-7.4,334.5,-61142.31,-30937.16,335.1,Weapon+Missile,Blue,Enemies,R-27ET,,ru,,250.439085797096,216.687164306641,0.765037006112614,3341.0830078125,3341.0830078125,248.232737522051,-33.169921875,0.0390356191566879,NaN,0,0.760485481824532,5000,1.25855362415314,1.25855362415314,1.25855362415314,3135.98678474426,3276.48316785645,6412.46995260071,,,34.9400000572205,0,21743.1370948332,22049.7830526736
2011-06-01T04:58:56Z,1306904336,7105,55.6324419,25.8899688,3311.44,-0.4,-6.8,335.1,-61241.38,-30720.35,335.8,Weapon+Missile,Blue,Enemies,R-27ET,,ru,,240.20587025826,207.790756225586,0.733512034701442,3311.44067382812,3311.44067382812,238.369864165936,-29.642333984375,0.0485341449817059,NaN,0.199987938897973,0.91303172716039,5000,1.27179133892059,1.27179133892059,1.27179133892059,2884.94300532639,3247.41396839966,6132.35697372605,,,35.9400000572205,0,21982.4600340817,22291.058605195
2011-06-01T04:58:57Z,1306904337,7105,55.6314896,25.8918587,3285.24,-0.3,-6.2,335.8,-61334.6,-30510.02,336.4,Weapon+Missile,Blue,Enemies,R-27ET,,ru,,231.550242755853,200.288864135742,0.706855215257907,3285.2431640625,3285.2431640625,230.063481244578,-26.197509765625,0.0265442888458655,NaN,0.0307757118221668,0.85942637484172,5000,1.26715219020844,1.26715219020844,1.26715219020844,2680.77574601471,3221.72298748535,5902.49873350007,,,36.9400000572205,0,22213.4533753321,22523.651454874
2011-06-01T04:58:58Z,1306904338,7105,55.630591,25.893697,3262.28,-0.2,-5.6,336.6,-61422.51,-30305.48,337.2,Weapon+Missile,Blue,Enemies,R-27ET,,ru,,223.819031318892,193.592651367188,0.683063343564522,3262.27685546875,3262.27685546875,222.637614634418,-22.96630859375,0.0477512586032755,NaN,0,1.04599971548808,5000,1.27455019950867,1.27455019950867,1.27455019950867,2504.74793902636,3199.20073246826,5703.94867149462,,,37.9400000572205,0,22437.001079613,22748.4899331213
2011-06-01T04:58:59Z,1306904339,7105,55.6297699,25.895473,3242.18,-0.3,-5.1,338.1,-61502.71,-30107.9,338.7,Weapon+Missile,Blue,Enemies,R-27ET,,ru,,214.178173427737,185.178802490234,0.653481241653259,3242.17993164062,3242.17993164062,213.233214170514,-20.096923828125,0.0360930967008476,NaN,0.107698422832761,1.50688177749521,5000,1.30950939655304,1.30950939655304,1.30950939655304,2293.61449864209,3179.49238266235,5473.10688130444,,,38.9400000572205,0,22651.1246637663,22963.6632690883
2011-06-01T04:59:00Z,1306904340,7105,55.6290338,25.8972035,3224.38,-0.3,-4.7,339.8,-61574.45,-29915.46,340.4,Weapon+Missile,Blue,Enemies,R-27ET,,ru,,206.150524001626,178.194305419922,0.628852033162242,3224.3798828125,3224.3798828125,205.380614488956,-17.800048828125,0.0341428609514215,NaN,0,1.74237858922761,5000,1.33167493343353,1.33167493343353,1.33167493343353,2124.90192730725,3162.03649777832,5286.93842508557,,,39.9400000572205,0,22857.3817587287,23170.791185265
2011-06-01T04:59:01Z,1306904341,7105,55.6283842,25.8988833,3208.98,-0.4,-4.2,341.6,-61637.59,-29728.71,342.3,Weapon+Missile,Blue,Enemies,R-27ET,,ru,,197.729778173513,170.851943969727,0.603052191937846,3208.97827148438,3208.97827148438,197.129032729946,-15.401611328125,0.0701136764958224,NaN,0,1.84610301590219,5000,1.32750761508942,1.32750761508942,1.32750761508942,1954.85325882733,3146.93267660522,5101.78593543255,,,40.9400000572205,0,23055.3704558452,23369.4775780971
2011-06-01T04:59:02Z,1306904342,7105,55.6278097,25.9005296,3195.8,-0.4,-3.7,343.3,-61693.23,-29545.77,344,Weapon+Missile,Blue,Enemies,R-27ET,,ru,,191.675048732814,165.596969604492,0.584492524195599,3195.80297851562,3195.80297851562,191.221693230434,-13.17529296875,0.0494405833598254,NaN,0,1.76357202589192,5000,1.10784661769867,1.10784661769867,1.10784661769867,1836.96621533632,3134.01212792603,4970.97834326235,,,41.9400000572205,0,23247.4529401993,23562.1076075615
2011-06-01T04:59:03Z,1306904343,7105,55.6273026,25.9021247,3183.04,-0.7,-5.1,344.1,-61742.19,-29368.56,344.8,Weapon+Missile,Blue,Enemies,R-27ET,,ru,,184.285062906048,159.164428710938,0.56187053314623,3183.03833007812,3183.03833007812,183.842454728371,-12.7646484375,0.0648571104290095,NaN,0.507728942142068,1.57646795820271,3987.38509402788,0.158797696232796,0.158797696232796,0.158797696232796,1698.0492205143,3121.49428396606,4819.54350448036,,,42.9400000572205,0,23432.1352109884,23747.3226102746
2011-06-01T04:59:04Z,1306904344,7105,55.6268198,25.9036624,3162.51,-1.1,-8.2,344.1,-61788.77,-29197.73,344.7,Weapon+Missile,Blue,Enemies,R-27ET,,ru,,178.253227635356,153.996063232422,0.543344659958856,3162.51000976562,3162.51000976562,177.067222341035,-20.5283203125,0.0442404876382729,NaN,0.369212705774209,3.09242470922734,3260.90793732973,0.0113622844219208,0.0113622844219208,0.0113622844219208,1588.71065812111,3101.36287872681,4690.07353684792,,,43.9400000572205,0,23610.0115122967,23926.4674585051
2011-06-01T04:59:05Z,1306904345,7105,55.6263531,25.905147,3133.15,-1.5,-11.4,344.1,-61833.8,-29032.8,344.7,Weapon+Missile,Blue,Enemies,R-27ET,,ru,,173.467827868188,149.991668701172,0.528569852452441,3133.14819335938,3133.14819335938,170.964823992051,-29.36181640625,0.0504159031396861,NaN,0.230751110919711,3.12695835911433,3138.26651038589,0.0166832506656647,0.0166832506656647,0.0166832506656647,1504.55436526537,3072.56877304077,4577.12313830614,,,44.9400000572205,0,23781.7609454605,24100.7921775101
2011-06-01T04:59:06Z,1306904346,7105,55.6259,25.9065849,3095.18,-1.8,-14.6,344.1,-61877.52,-28873.07,344.7,Weapon+Missile,Blue,Enemies,R-27ET,,ru,,169.906282221104,147.124038696289,0.517479568824892,3095.18237304688,3095.18237304688,165.610208701627,-37.9658203125,0.0648278891177538,NaN,0.276923189708997,3.17345102990779,3043.43543949456,0.0176525786519051,0.0176525786519051,0.0176525786519051,1443.40723690987,3035.33702186401,4478.74425877388,,,45.9400000572205,0,23948.1279297013,24271.5153787531
2011-06-01T04:59:07Z,1306904347,7105,55.6254624,25.9079688,3049.13,-2.1,-17.7,344,-61919.74,-28719.32,344.6,Weapon+Missile,Blue,Enemies,R-27ET,,ru,,165.958375176098,143.964874267578,0.50517399873446,3049.13134765625,3049.13134765625,159.441165799685,-46.051025390625,0.0258138277898227,NaN,0.200042580411333,3.2234595405765,2972.47322307722,0.0250140316784382,0.0250140316784382,0.0250140316784382,1377.10911455452,2990.17639304932,4367.28550760384,,,46.9400000572205,0,24108.2982578229,24438.2485516292
2011-06-01T04:59:08Z,1306904348,7105,55.6250396,25.9093009,2995.35,-2.3,-20.9,343.9,-61960.56,-28571.33,344.5,Weapon+Missile,Blue,Enemies,R-27ET,,ru,,162.663393858833,141.426864624023,0.494822447415732,2995.34594726562,2995.34594726562,153.513876918323,-53.785400390625,0.0427287978695341,NaN,0.199987938897973,3.18879846497281,2932.02116926169,0.0292156077921391,0.0292156077921391,0.0292156077921391,1322.9689850837,2937.43093337524,4260.39991845894,,,47.9400000572205,0,24262.5075564454,24601.637409551
2011-06-01T04:59:09Z,1306904349,7105,55.6246261,25.9105958,2933.55,-2.4,-24.1,343.8,-62000.47,-28427.47,344.5,Weapon+Missile,Blue,Enemies,R-27ET,,ru,,161.577207882349,140.88948059082,0.49115189211676,2933.54907226562,2933.54907226562,149.292800721569,-61.796875,0.0330354456261911,NaN,0.0923441575785724,3.13214247269437,2950.91787796233,0.0320118144154549,0.0320118144154549,0.0320118144154549,1305.35970535278,2876.82890095337,4182.18860630615,,,48.9400000572205,0,24412.4804460017,24763.9076590741
2011-06-01T04:59:10Z,1306904350,7105,55.6242257,25.9118414,2864.64,-2.6,-27.2,343.7,-62039.13,-28289.09,344.3,Weapon+Missile,Blue,Enemies,R-27ET,,ru,,159.351136115322,139.383529663086,0.483983266406695,2864.640625,2864.640625,143.681628876779,-68.908447265625,0.096225566179955,NaN,0.199987938897973,3.12825929670781,2968.6052165237,0.0371859669685364,0.0371859669685364,0.0371859669685364,1269.6392290622,2809.25279851562,4078.89202757782,,,49.9400000572205,0,24556.8197958684,24923.9113021853
2011-06-01T04:59:11Z,1306904351,7105,55.6238351,25.9130467,2788.49,-2.6,-30.2,343.6,-62076.86,-28155.18,344.2,Weapon+Missile,Blue,Enemies,R-27ET,,ru,,158.60410042817,139.233901977539,0.481273373816702,2788.48608398438,2788.48608398438,139.124931465674,-76.154541015625,0.0269210481139846,NaN,0,3.07975107977897,3024.22510860803,0.0377724841237068,0.0377724841237068,0.0377724841237068,1257.76303363144,2734.57070555054,3992.33373918198,,,50.9400000572205,0,24696.574986645,25083.1229306704
2011-06-01T04:59:12Z,1306904352,7105,55.6234551,25.914209,2705.57,-2.7,-33.2,343.4,-62113.57,-28026.04,344,Weapon+Missile,Blue,Enemies,R-27ET,,ru,,157.793619700422,139.069976806641,0.478337731321599,2705.57446289062,2705.57446289062,134.255314627645,-82.91162109375,0.0125373336051315,NaN,0.199987938897973,2.92973131074493,3121.413024973,0.0454044863581657,0.0454044863581657,0.0454044863581657,1244.94132090807,2653.26218065063,3898.2035015587,,,51.9400000572205,0,24831.4406318403,25241.4856476586
2011-06-01T04:59:13Z,1306904353,7105,55.6230843,25.9153315,2616.09,-2.6,-36.1,343.3,-62149.4,-27901.32,343.9,Weapon+Missile,Blue,Enemies,R-27ET,,ru,,157.624925140708,139.521621704102,0.477314422145907,2616.08764648438,2616.08764648438,129.760266318654,-89.48681640625,0.0836299551271134,NaN,0.123069336673052,2.82962720449557,3272.36746842581,0.0489093437790871,0.0489093437790871,0.0489093437790871,1242.28085128069,2565.5055918396,3807.78644312029,,,52.9400000572205,0,24961.7940708178,25399.644080189
2011-06-01T04:59:14Z,1306904354,7105,55.6227211,25.9164199,2519.98,-2.7,-38.1,343.3,-62184.51,-27780.38,343.9,Weapon+Missile,Blue,Enemies,R-27ET,,ru,,158.423952156391,140.890472412109,0.479183248677071,2519.978515625,2519.978515625,125.941190967475,-96.109130859375,0.1751317244281,NaN,0.184579032130425,1.50392345181095,5000,0.71900486946106,0.71900486946106,0.71900486946106,1254.90743084252,2471.25473102539,3726.16216186791,,,53.9400000572205,0,25088.2956496477,25558.5544429309
2011-06-01T04:59:15Z,1306904355,7105,55.6223691,25.9175128,2422.78,-2.9,-37.1,344.2,-62218.5,-27658.96,344.9,Weapon+Missile,Blue,Enemies,R-27ET,,ru,,159.204277032347,142.257293701172,0.480985671766569,2422.77905273438,2422.77905273438,126.088327132872,-97.199462890625,0.0546448160470612,NaN,0.169224766876236,0.744031556113971,5000,1.09451293945312,1.09451293945312,1.09451293945312,1267.30009126961,2375.93461974976,3643.23471101937,,,54.9400000572205,0,25214.9659595617,25718.2589820546
2011-06-01T04:59:16Z,1306904356,7105,55.6220327,25.9186234,2327.87,-3,-36.3,345.1,-62250.91,-27535.58,345.7,Weapon+Missile,Blue,Enemies,R-27ET,,ru,,158.990414855539,142.7119140625,0.47979748047455,2327.87060546875,2327.87060546875,127.555237656336,-94.908447265625,0.0304699828031027,NaN,0.200042580411333,1.17725674142869,5000,1.04429161548615,1.04429161548615,1.04429161548615,1263.89760079682,2282.86122731201,3546.75882810883,,,55.9400000572205,0,25343.104291257,25877.7559332179
2011-06-01T04:59:17Z,1306904357,7105,55.6217118,25.9197476,2234.87,-3,-35.5,345.9,-62281.74,-27410.73,346.5,Weapon+Missile,Blue,Enemies,R-27ET,,ru,,158.707752633349,143.090103149414,0.47841600872963,2234.86987304688,2234.86987304688,128.604099914906,-93.000732421875,0.0447076854819588,NaN,0,0.88312318255855,5000,1.00433528423309,1.00433528423309,1.00433528423309,1259.40753729641,2191.65866405151,3451.06620134793,,,56.9400000572205,0,25472.3044869401,26036.9846065573
2011-06-01T04:59:18Z,1306904358,7105,55.6214007,25.9208859,2143.14,-2.8,-34.9,346.3,-62311.58,-27284.32,346.9,Weapon+Missile,Blue,Enemies,R-27ET,,ru,,159.01061882167,143.995315551758,0.478808444840043,2143.13696289062,2143.13696289062,129.882447206371,-91.73291015625,0.0276009418839158,NaN,0.199987938897973,0.631887533905178,5000,0.967714250087738,0.967714250087738,0.967714250087738,1264.21884490252,2101.69940971314,3365.91825461565,,,57.9400000572205,0,25602.7934407944,26196.5276528382
2011-06-01T04:59:19Z,1306904359,7105,55.6210948,25.9220325,2052.6,-2.4,-34.5,346.5,-62340.88,-27157,347.1,Weapon+Missile,Blue,Enemies,R-27ET,,ru,,158.957826556097,144.56867980957,0.478137551169775,2052.59912109375,2052.59912109375,130.654084613541,-90.537841796875,0.026124026698883,NaN,0.400030519309307,0.466885157957332,5000,0.923319220542908,0.923319220542908,0.923319220542908,1263.37953117192,2012.9121170874,3276.29164825932,,,58.9400000572205,0,25734.052622537,26356.0187472719
2011-06-01T04:59:20Z,1306904360,7105,55.6207925,25.923176,1963.53,-2,-34.3,346.6,-62369.81,-27030.03,347.2,Weapon+Missile,Blue,Enemies,R-27ET,,ru,,157.769223948441,144.083969116211,0.474064034546649,1963.5322265625,1963.5322265625,130.223716441563,-89.06689453125,0.244135964519808,NaN,0.369263078419338,0.36610942533307,5000,0.512263894081116,0.512263894081116,0.512263894081116,1244.55640126467,1925.56733096191,3170.12373222658,,,59.9400000572205,0,25864.8906911652,26514.3294945229
2011-06-01T04:59:21Z,1306904361,7105,55.6204928,25.9243052,1871.82,-2,-36.9,346.4,-62398.52,-26904.63,347,Weapon+Missile,Blue,Enemies,R-27ET,,ru,,157.98298829397,144.909881591797,0.474194244517738,1871.82067871094,1871.82067871094,128.637539547999,-91.7115478515625,0.050607049941705,NaN,0.199987938897973,1.95548145182736,3240.4366190213,0.0332815945148468,0.0332815945148468,0.0332815945148468,1247.93122951463,1835.62902588806,3083.56025540269,,,60.9400000572205,0,25994.1309653034,26672.8353366548
2011-06-01T04:59:22Z,1306904362,7105,55.6202002,25.9253962,1773.69,-2,-39.7,346.3,-62426.56,-26783.48,346.9,Weapon+Missile,Blue,Enemies,R-27ET,,ru,,158.408483921887,145.97932434082,0.474923800430115,1773.68994140625,1773.68994140625,124.352748962253,-98.1307373046875,0.0403716953858679,NaN,0,2.76024315469882,3372.52216393842,0.0351662486791611,0.0351662486791611,0.0351662486791611,1254.66238892153,1739.39564638916,2994.05803531069,,,61.9400000572205,0,26119.0591045125,26831.7239871596
2011-06-01T04:59:23Z,1306904363,7105,55.6199173,25.9264386,1670.46,-1.9,-42.3,346.1,-62453.67,-26667.73,346.7,Weapon+Missile,Blue,Enemies,R-27ET,,ru,,157.448836145677,145.794555664062,0.471476169316586,1670.46301269531,1670.46301269531,118.887918614699,-103.226928710938,0.0311997012549401,NaN,0,2.66008035151129,3491.43930315768,0.0366734713315964,0.0366734713315964,0.0366734713315964,1239.50680018142,1638.16461034485,2877.67141052627,,,62.9400000572205,0,26238.5079435499,26989.6211994192
2011-06-01T04:59:24Z,1306904364,7105,55.6196383,25.9274542,1560.28,-1.9,-44.9,345.9,-62480.43,-26554.95,346.6,Weapon+Missile,Blue,Enemies,R-27ET,,ru,,159.922506914069,148.874328613281,0.478267309805617,1560.28308105469,1560.28308105469,115.911996278848,-110.179931640625,0.0642469698466341,NaN,0,2.5100819268184,3716.01153557206,0.0348895080387592,0.0348895080387592,0.0348895080387592,1278.76041088402,1530.1150076825,2808.87541856652,,,63.9400000572205,0,26354.9576318717,27149.9552787375
2011-06-01T04:59:25Z,1306904365,7105,55.6193672,25.9284289,1444.95,-1.8,-47.2,345.8,-62506.45,-26446.69,346.4,Weapon+Missile,Blue,Enemies,R-27ET,,ru,,160.307711333982,150.043655395508,0.478775268317673,1444.94689941406,1444.94689941406,111.337897940011,-115.336181640625,0.0304503780068549,NaN,0.199987938897973,2.36178037724744,3948.19920417143,0.0384688414633274,0.0384688414633274,0.0384688414633274,1284.92811565697,1417.00885111389,2701.93696677086,,,64.9400000572205,0,26466.8114681152,27310.6400981691
2011-06-01T04:59:26Z,1306904366,7105,55.619102,25.9293695,1324.12,-1.8,-49.5,345.6,-62531.92,-26342.23,346.2,Weapon+Missile,Blue,Enemies,R-27ET,,ru,,161.738613506934,152.248428344727,0.482370901171587,1324.12377929688,1324.12377929688,107.522801043747,-120.823120117188,0.0165576074006913,NaN,0.0461509478915415,2.30764259033863,4181.10088553477,0.036856435239315,0.036856435239315,0.036856435239315,1307.96895495728,1298.52184602417,2606.49080098145,,,65.9400000572205,0,26574.8365924454,27472.728717994
2011-06-01T04:59:27Z,1306904367,7105,55.6188434,25.930274,1198.39,-1.7,-51.7,345.4,-62556.76,-26241.78,346,Weapon+Missile,Blue,Enemies,R-27ET,,ru,,162.842899884379,154.192489624023,0.484957085989615,1198.38610839844,1198.38610839844,103.478732886473,-125.737670898438,0.0645189393607914,NaN,0,2.1614108015296,4432.5970171008,0.0366156026721001,0.0366156026721001,0.0366156026721001,1325.89050213769,1175.21531299255,2501.10581513024,,,66.9400000572205,0,26678.7954975685,27635.8902653442
2011-06-01T04:59:28Z,1306904368,7105,55.6185926,25.931139,1068.59,-1.6,-53.7,345.2,-62580.87,-26145.69,345.8,Weapon+Missile,Blue,Enemies,R-27ET,,ru,,163.276642468116,155.536270141602,0.485520038729108,1068.59375,1068.59375,99.0616256530876,-129.792358398438,0.0297492589715344,NaN,0,2.0151815740415,4683.30878948222,0.0356615297496319,0.0356615297496319,0.0356615297496319,1332.96309878305,1047.93248984375,2380.8955886268,,,67.9400000572205,0,26778.3042361809,27799.4493223621
2011-06-01T04:59:29Z,1306904369,7105,55.6183477,25.9319722,934.02,-1.5,-55.7,345,-62604.42,-26053.16,345.6,Weapon+Missile,Blue,Enemies,R-27ET,,ru,,165.009227846324,158.17301940918,0.489911920305542,934.019958496094,934.019958496094,95.4879045466145,-134.573791503906,0.0689571519492118,NaN,0,1.96108135317312,5000,0.0348230041563511,0.0348230041563511,0.0348230041563511,1361.40226372201,915.960682598572,2277.36294632058,,,68.9400000572205,0,26874.239687434,27964.7266836415
2011-06-01T04:59:30Z,1306904370,7105,55.6181107,25.9327672,796.07,-1.4,-57.5,344.8,-62627.23,-25964.84,345.4,Weapon+Missile,Blue,Enemies,R-27ET,,ru,,165.378984729289,159.533889770508,0.490232433740515,796.070007324219,796.070007324219,91.2141412379001,-137.949951171875,0.0639663835939293,NaN,0,1.8609981643781,5000,0.033633891493082,0.033633891493082,0.033633891493082,1367.51042950451,780.677993732605,2148.18842323712,,,69.9400000572205,0,26965.8664147424,28130.3404621542
2011-06-01T04:59:31Z,1306904371,7105,55.6178811,25.9335268,654.75,-1.3,-59.1,344.6,-62649.34,-25880.47,345.2,Weapon+Missile,Blue,Enemies,R-27ET,,ru,,166.070807042554,161.240234375,0.491487401252322,654.746948242188,654.746948242188,87.2198711502254,-141.323059082031,0.0453981114045986,NaN,0,1.73401502258893,5000,0.0330639183521271,0.0330639183521271,0.0330639183521271,1378.97564758826,642.087415997925,2021.06306358619,,,70.9400000572205,0,27053.4946851715,28296.6313745959
2011-06-01T04:59:32Z,1306904372,7105,55.6176573,25.9342568,509.37,-1.2,-60.9,344.4,-62670.9,-25799.38,345,Weapon+Missile,Blue,Enemies,R-27ET,,ru,,167.851508024639,164.054260253906,0.495934059751348,509.372283935547,509.372283935547,83.9067084557424,-145.374664306641,0.053609064178205,NaN,0,1.64920776531605,5000,0.030073469504714,0.030073469504714,0.030073469504714,1408.70643730727,499.523570825653,1908.23000813292,,,71.9400000572205,0,27137.7844857836,28464.67857127
2011-06-01T04:59:33Z,1306904373,7105,55.6174401,25.9349557,360.57,-1.1,-62.4,344.2,-62691.83,-25721.75,344.8,Weapon+Missile,Blue,Enemies,R-27ET,,ru,,169.133906242827,166.425415039062,0.498878122305973,360.573059082031,360.573059082031,80.4056523134425,-148.799224853516,0.0384783868026645,NaN,0,1.59139234842601,5000,0.0288161747157574,0.0288161747157574,0.0288161747157574,1430.31391204786,353.60137898468,1783.91529103255,,,72.9400000572205,0,27218.5688403443,28633.9954677008
2011-06-01T04:59:34Z,1306904374,7105,55.6172316,25.9356175,210.12,-1,-63.9,344,-62711.93,-25648.21,344.6,Weapon+Missile,Blue,Enemies,R-27ET,,ru,,168.660611190404,167.084976196289,0.49663452543374,210.123077392578,210.123077392578,76.2312585280075,-150.449981689453,0,NaN,0.199987938897973,1.46050500647423,5000,0.0288620200008154,0.0288620200008154,0.0288620200008154,1422.32008835603,206.060347691193,1628.38043604723,,,73.9400000572205,0,27295.1392020068,28802.8111716242
2011-06-01T04:59:35Z,1306904375,7105,55.6170295,25.936251,56.61,-0.9,-65.3,343.8,-62731.44,-25577.83,344.4,Weapon+Missile,Blue,Enemies,R-27ET,,ru,,170.002812580513,169.576812744141,0.499719509595834,56.6069183349609,56.6069183349609,73.0324940932558,-153.516159057617,0.0533405441229768,NaN,0.199987938897973,1.39173706108496,5000,0.0284457504749298,0.0284457504749298,0.0284457504749298,1445.04781426425,55.5124235689545,1500.56023783321,,,74.9400000572205,0,27368.5034687403,28972.9574375609
