ISOTime,UnixTime,Id,Longitude,Latitude,Altitude,Roll,Pitch,Yaw,U,V,Heading,Type,Color,Coalition,Name,Group,Country,Pilot,TAS,CAS,M,ASL,AGL,GS,VS,AOA,AOS,RRT,TRT,TRD,G,LatG,LonG,Ek,Ep,Em,FFW,FFV,RelativeTime,Elev,GroundDistance,AirDistance
2011-06-01T04:59:16Z,1306904356,AF06,55.683829,25.7296565,3226.54,1,-10,39.4,-56270.63,-48529.04,40,Weapon+Missile,Blue,Enemies,R-27ER,,cn,,337.429124762883,297.553161621094,1.02933789542068,3226.53588867188,3226.53588867188,NaN,NaN,NaN,NaN,NaN,NaN,NaN,NaN,NaN,NaN,NaN,3164.1508172644,NaN,,,0.0799999237060547,0,NaN,NaN
2011-06-01T04:59:17Z,1306904357,AF06,55.6866772,25.7327932,3147.34,0.8,-9.9,39.4,-55981.43,-48184.47,40,Weapon+Missile,Blue,Enemies,R-27ER,,cn,,456.770063172593,403.932342529297,1.39205302074261,3147.34155273438,3147.34155273438,449.852362187989,-79.1943359375,0.476834045739871,NaN,0.199987938897973,4.483254760537,5000,1.41581737995148,1.41581737995148,1.41581737995148,10431.9445305347,3086.48770381226,13518.432234347,,,1.07999992370605,0,451.115437452371,458.236075382854
2011-06-01T04:59:18Z,1306904358,AF06,55.690924,25.7376672,3017.48,2.5,-11.3,35.3,-55550.04,-47648.87,35.9,Weapon+Missile,Blue,Enemies,R-27ER,,cn,,699.879227468306,607.212829589844,2.12960362092802,3017.47998046875,3017.47998046875,687.725893863487,-129.861572265625,0.359169382381162,NaN,3.24615433819775,4.51809030812751,5000,11.2980794906616,11.2980794906616,11.2980794906616,24491.5466520816,2959.13700504639,27450.683657128,,,2.07999992370605,0,1140.85333791941,1160.42005252552
2011-06-01T04:59:19Z,1306904359,AF06,55.6955834,25.7447869,2820.01,5,-12.5,27.5,-55074.83,-46864.94,28.1,Weapon+Missile,Blue,Enemies,R-27ER,,cn,,937.741987354463,812.076232910156,2.84659297087971,2820.0146484375,2820.0146484375,916.715592478543,-197.46533203125,0.247038300856853,NaN,1.52307668962584,6.38390546341776,5000,7.22154808044434,7.22154808044434,7.22154808044434,43968.0017423749,2765.48966520996,46733.4914075849,,,3.07999992370605,0,2060.8734573421,2101.80437541941
2011-06-01T04:59:20Z,1306904360,AF06,55.7000526,25.7529506,2599.69,4.7,-12.1,25.2,-54617.62,-45965.18,25.8,Weapon+Missile,Blue,Enemies,R-27ER,,cn,,1033.03497603117,901.987609863281,3.12758751995439,2599.68603515625,2599.68603515625,1009.26535850256,-220.32861328125,0.0668977688348852,NaN,0.399975877795947,3.07427177396074,5000,4.44330263137817,4.44330263137817,4.44330263137817,53358.0630851865,2549.4211056665,55907.484190853,,,4.07999992370605,0,3074.12606205711,3139.15587146233
2011-06-01T04:59:21Z,1306904361,AF06,55.7042222,25.7613012,2393.29,4,-10.8,23.6,-54190.3,-45044.4,24.2,Weapon+Missile,Blue,Enemies,R-27ER,,cn,,1035.87388245493,913.315185546875,3.12846851195286,2393.28686523438,2393.28686523438,1015.10299133034,-206.399169921875,0.0917253583697587,NaN,0.769243225083516,1.84562554299052,5000,3.5720751285553,3.5720751285553,3.5720751285553,53651.7350176126,2347.01266369507,55998.7476813076,,,5.07999992370605,0,4093.38576329655,4179.4944631744
2011-06-01T04:59:22Z,1306904362,AF06,55.7081761,25.769629,2209.22,3.1,-10.1,23.1,-53784.71,-44125.92,23.7,Weapon+Missile,Blue,Enemies,R-27ER,,cn,,1020.77654725727,908.085144042969,3.07614082621692,2209.2236328125,2209.2236328125,1004.04456370267,-184.063232421875,0.0458271062125628,NaN,0.969231163981489,0.902196592537517,5000,1.92081105709076,1.92081105709076,1.92081105709076,52099.2379715234,2166.50829387207,54265.7462653955,,,6.07999992370605,0,5101.62545772023,5204.75552019678
2011-06-01T04:59:23Z,1306904363,AF06,55.7121811,25.7780103,2033.01,2.3,-9.7,23.9,-53373.98,-43201.55,24.4,Weapon+Missile,Blue,Enemies,R-27ER,,cn,,1026.74495280409,920.9091796875,3.08768576689535,2033.0107421875,2033.0107421875,1011.5108577204,-176.212890625,0.0891654864649533,NaN,0.969231163981489,0.975920267056459,5000,4.14079666137695,4.14079666137695,4.14079666137695,52710.2599054337,1993.7024794873,54703.962384921,,,7.07999992370605,0,6117.33970808507,6235.97456790801
2011-06-01T04:59:24Z,1306904364,AF06,55.7164441,25.7861244,1869.69,0.6,-9.1,27.9,-52937.73,-42307.04,28.5,Weapon+Missile,Blue,Enemies,R-27ER,,cn,,1008.5328170661,911.766174316406,3.02708849772876,1869.69152832031,1869.69152832031,995.221220373179,-163.319213867188,0.497013798101562,NaN,2.04616075079574,2.56536120909226,5000,5.47425317764282,5.47425317764282,5.47425317764282,50856.9221549638,1833.54104262024,52690.463197584,,,8.07999992370605,0,7116.56934264102,7248.76480610769
2011-06-01T04:59:25Z,1306904365,AF06,55.7211397,25.7939789,1711.9,0.4,-9.1,28.5,-52458.44,-41441.66,29.1,Weapon+Missile,Blue,Enemies,R-27ER,,cn,,1001.75141398767,912.410705566406,3.00117245834158,1711.90454101562,1711.90454101562,989.24676500032,-157.786987304688,0.0516963322196014,NaN,0,1.79040196944709,5000,1.02502000331879,1.02502000331879,1.02502000331879,50175.2947713144,1678.80486671509,51854.0996380295,,,9.07999992370605,0,8109.55335412289,8254.4823354154
2011-06-01T04:59:26Z,1306904366,AF06,55.7257906,25.8017162,1556.41,0.3,-9.1,28.5,-51983.81,-40589.22,29.1,Weapon+Missile,Blue,Enemies,R-27ER,,cn,,987.980812971909,906.559387207031,2.95454093397073,1556.41455078125,1556.41455078125,975.668463022941,-155.489990234375,0.0530401936516837,NaN,0,0.0171320104161963,5000,0.983121335506439,0.983121335506439,0.983121335506439,48805.3043400317,1526.32127544189,50331.6256154736,,,10.0799999237061,0,9088.91360721135,9246.35692234516
2011-06-01T04:59:27Z,1306904367,AF06,55.730249,25.8091318,1407.38,0.2,-9.1,28.5,-51528.88,-39772.21,29.1,Weapon+Missile,Blue,Enemies,R-27ER,,cn,,946.926007465952,875.391296386719,2.826854789022,1407.37609863281,1407.37609863281,935.123736944265,-149.038452148438,0.0517610556736657,NaN,0.199987938897973,0.0171320104161963,5000,0.980783760547638,0.980783760547638,0.980783760547638,44833.4431807704,1380.16448176575,46213.6076625362,,,11.0799999237061,0,10027.5752091179,10196.9922536523
2011-06-01T04:59:28Z,1306904368,AF06,55.7343449,25.8159434,1270.47,0.2,-9.1,28.5,-51110.98,-39021.73,29.1,Weapon+Missile,Blue,Enemies,R-27ER,,cn,,869.83344682639,810.212280273438,2.59258602752897,1270.46618652344,1270.46618652344,858.99121135439,-136.909912109375,0.0518324882964568,NaN,0,0.0171320104161963,5000,0.98075807094574,0.98075807094574,0.98075807094574,37830.5112608939,1245.90172280701,39076.412983701,,,12.0799999237061,0,10889.8073322299,11070.2051278917
2011-06-01T04:59:29Z,1306904369,AF06,55.7381557,25.8222802,1143.08,0.2,-9.1,28.6,-50722.22,-38323.56,29.1,Weapon+Missile,Blue,Enemies,R-27ER,,cn,,809.19926546825,759.025512695312,2.40830877373601,1143.08154296875,1143.08154296875,799.109882194433,-127.384643554688,0.0514166093576212,NaN,0,0.0171320104161963,5000,0.983392179012299,0.983392179012299,0.983392179012299,32740.1725617178,1120.98006133545,33861.1526230532,,,13.0799999237061,0,11691.9463410141,11882.5457822301
2011-06-01T04:59:30Z,1306904370,AF06,55.7417039,25.8281797,1024.49,0.1,-9.1,28.6,-50360.29,-37673.54,29.1,Weapon+Missile,Blue,Enemies,R-27ER,,cn,,753.379780035734,711.3896484375,2.2391136690358,1024.48620605469,1024.48620605469,743.986719658981,-118.595336914062,0.0504513201825038,NaN,0.107698422832761,0.0171320104161963,5000,0.983278155326843,0.983278155326843,0.983278155326843,28379.0546483345,1004.67776526062,29383.7324135952,,,14.0799999237061,0,12438.7406249214,12638.8235775613
2011-06-01T04:59:31Z,1306904371,AF06,55.7450161,25.8336861,913.79,0.1,-9.1,28.6,-50022.47,-37066.84,29.1,Weapon+Missile,Blue,Enemies,R-27ER,,cn,,703.181982364341,668.205383300781,2.0872596180232,913.789978027344,913.789978027344,694.414318272862,-110.696228027344,0.0501766755636454,NaN,0,0.0171320104161963,5000,0.982101678848267,0.982101678848267,0.982101678848267,24723.2450160922,896.121848802185,25619.3668648944,,,15.0799999237061,0,13135.7835254319,13344.7060916826
2011-06-01T04:59:32Z,1306904372,AF06,55.7480893,25.8387948,811.07,0.1,-9.1,28.6,-49709.04,-36503.95,29.1,Weapon+Missile,Blue,Enemies,R-27ER,,cn,,652.405044050612,623.810668945312,1.93425511872098,811.073059082031,811.073059082031,644.268248530892,-102.716918945312,0.0505050228198692,NaN,0,0.0171320104161963,5000,0.985158085823059,0.985158085823059,0.985158085823059,21281.6170751341,795.39096148468,22077.0080366188,,,16.0799999237061,0,13782.4871813805,13999.6026437926
2011-06-01T04:59:33Z,1306904373,AF06,55.7509945,25.8436238,713.98,0.1,-9.1,28.6,-49412.78,-35971.87,29.1,Weapon+Missile,Blue,Enemies,R-27ER,,cn,,616.693784688007,592.929870605469,1.82634530609557,713.982299804688,713.982299804688,609.002962665837,-97.0907592773438,0.0501303557532774,NaN,0,0.0171320104161963,5000,0.983533084392548,0.983533084392548,0.983533084392548,19015.5612036409,700.177452037964,19715.7386556788,,,17.0799999237061,0,14393.7945261817,14618.6443580948
2011-06-01T04:59:34Z,1306904374,AF06,55.7536908,25.8481053,623.87,0.1,-9.1,28.6,-49137.83,-35478.08,29.1,Weapon+Missile,Blue,Enemies,R-27ER,,cn,,572.313052073982,553.435241699219,1.69316603684982,623.873107910156,623.873107910156,565.174807568731,-90.1091918945312,0.0499200357517514,NaN,0,0.0171320104161963,5000,0.985951960086823,0.985951960086823,0.985951960086823,16377.1114787119,611.810521368713,16988.9220000806,,,18.0799999237061,0,14961.1120168953,15193.132230196
2011-06-01T04:59:35Z,1306904375,AF06,55.7562348,25.8523332,538.87,0.1,-9.1,28.6,-48878.43,-35012.21,29.1,Weapon+Missile,Blue,Enemies,R-27ER,,cn,,539.953481718235,524.796081542969,1.59588284304994,538.86767578125,538.86767578125,533.220253674054,-85.0054321289062,0.0490067090251955,NaN,0,0.0171320104161963,5000,0.984035611152649,0.984035611152649,0.984035611152649,14577.4881209822,528.44866927002,15105.9367902523,,,19.0799999237061,0,15496.335442052,15735.1121776034
2011-06-01T04:59:36Z,1306904376,AF06,55.7586239,25.8563033,459.04,0,-9.1,28.6,-48634.85,-34574.76,29.1,Weapon+Missile,Blue,Enemies,R-27ER,,cn,,507.013611416232,495.222473144531,1.49716421159441,459.039215087891,459.039215087891,500.689743278867,-79.8284606933594,0.0495296517743852,NaN,0,0.0171320104161963,5000,0.985126554965973,0.985126554965973,0.985126554965973,12853.1401080665,450.163691864166,13303.3037999306,,,20.0799999237061,0,15998.9209343971,16244.0368102452
2011-06-01T04:59:37Z,1306904377,AF06,55.7608722,25.8600394,383.92,0,-9.1,28.6,-48405.64,-34163.1,29.1,Weapon+Missile,Blue,Enemies,R-27ER,,cn,,477.127169982567,468.172393798828,1.40770952583999,383.915374755859,383.915374755859,471.175917200084,-75.1238403320312,0.0490067028152683,NaN,0,0.0171320104161963,5000,0.984221816062927,0.984221816062927,0.984221816062927,11382.5168167787,376.492370984955,11759.0091877636,,,21.0799999237061,0,16471.8901449649,16722.9658565321
2011-06-01T04:59:38Z,1306904378,AF06,55.7629732,25.8635303,313.71,0,-9.1,28.6,-48191.45,-33778.43,29.1,Weapon+Missile,Blue,Enemies,R-27ER,,cn,,445.83811984302,439.396026611328,1.31434699089239,313.709228515625,313.709228515625,440.275738753856,-70.2061462402344,0.0491190717209231,NaN,0,0.0171320104161963,5000,0.986367344856262,0.986367344856262,0.986367344856262,9938.58145525795,307.643660582275,10246.2251158402,,,22.0799999237061,0,16913.8270159833,17170.4683300829
2011-06-01T04:59:39Z,1306904379,AF06,55.7649575,25.8668272,247.41,0,-9.1,28.6,-47989.18,-33415.14,29.1,Weapon+Missile,Blue,Enemies,R-27ER,,cn,,421.056727953162,416.512359619141,1.2403583032953,247.412307739258,247.412307739258,415.804625335259,-66.2969207763672,0.0501347150199741,NaN,0,0.0171320104161963,5000,0.986124396324158,0.986124396324158,0.986124396324158,8864.43840773116,242.628590769119,9107.06699850028,,,23.0799999237061,0,17331.2061769311,17593.0981585167
2011-06-01T04:59:40Z,1306904380,AF06,55.7668136,25.8699108,185.41,0,-9.1,28.6,-47799.98,-33075.36,29.1,Weapon+Missile,Blue,Enemies,R-27ER,,cn,,393.823867957841,390.881011962891,1.15932144729815,185.40998840332,185.40998840332,388.912524059382,-62.0023193359375,0.0483619344918345,NaN,0,0.0171320104161963,5000,0.984026730060577,0.984026730060577,0.984026730060577,7754.86194866374,181.825086277542,7936.68703494128,,,24.0799999237061,0,17721.5853944101,17988.3835779895
2011-06-01T04:59:41Z,1306904381,AF06,55.7685467,25.87279,127.51,0,-9.1,28.6,-47623.33,-32758.1,29.1,Weapon+Missile,Blue,Enemies,R-27ER,,cn,,367.707429670697,365.938995361328,1.08173294285518,127.505378723145,127.505378723145,363.119553333083,-57.9046096801758,0.0490301944428863,NaN,0,0.0171320104161963,5000,0.987043917179108,0.987043917179108,0.987043917179108,6760.43769175154,125.040062225533,6885.47775397708,,,25.0799999237061,0,18086.0803554774,18357.4581484616
2011-06-01T04:59:42Z,1306904382,AF06,55.7701822,25.8755068,72.87,0,-9.1,28.6,-47456.63,-32458.72,29.1,Weapon+Missile,Blue,Enemies,R-27ER,,cn,,346.984928995066,346.030609130859,1.02014166258844,72.8746109008789,72.8746109008789,342.657292577964,-54.6307678222656,0.0495661628735986,NaN,0,0.0171320104161963,5000,0.985306203365326,0.985306203365326,0.985306203365326,6019.92704748553,71.4655802991104,6091.39262778464,,,26.0799999237061,0,18430.0306571523,18705.7253554943
2011-06-01T04:59:43Z,1306904383,AF06,55.7717071,25.87804,21.93,0,-9.1,28.6,-47301.21,-32179.59,29.1,Weapon+Missile,Blue,Enemies,R-27ER,,cn,,323.524695441662,323.263366699219,0.950622119492885,21.9338455200195,21.9338455200195,319.489071774031,-50.9407653808594,0.0491177845670769,NaN,0,0.0171320104161963,5000,0.985776901245117,0.985776901245117,0.985776901245117,5233.411428031,21.50975461689,5254.92118264789,,,27.0799999237061,0,18750.7289251602,19030.4465735727
2011-06-01T04:59:44Z,1306904384,AF06,55.7731525,25.8804408,-26.35,0,-9.1,28.6,-47153.91,-31915.03,29.1,Weapon+Missile,Blue,Enemies,R-27ER,,cn,,306.62528572591,306.939727783203,0.900476372563973,-26.3499984741211,-26.3499984741211,302.799828691573,-48.2838439941406,0.0493112304920577,NaN,0,0.0171320104161963,5000,0.986902952194214,0.986902952194214,0.986902952194214,4700.95329232481,-25.840521253624,4675.11277107119,,,28.0799999237061,0,19054.6734259177,19338.202199298
2011-06-01T04:59:45Z,1306904385,AF06,55.7745072,25.882691,-71.6,0,-9.1,28.6,-47015.84,-31667.07,29.1,Weapon+Missile,Blue,Enemies,R-27ER,,cn,,287.392140853306,288.20556640625,0.843564326340094,-71.5969161987305,-71.5969161987305,283.807961587882,-45.2469177246094,0.0482945793364038,NaN,0,0.0171320104161963,5000,0.985497772693634,0.985497772693634,0.985497772693634,4129.71213121233,-70.212589824028,4059.4995413883,,,29.0799999237061,0,19339.554898031,19626.6523516861
2011-06-01T04:59:46Z,1306904386,AF06,55.7758045,25.8848456,-114.93,0,-9.1,28.6,-46883.64,-31429.65,29.1,Weapon+Missile,Blue,Enemies,R-27ER,,cn,,275.174043273592,276.441070556641,0.807308091045312,-114.930000305176,-114.930000305176,271.740681373549,-43.3330841064453,0.0492973773903292,NaN,0,0.0171320104161963,5000,0.987022936344147,0.987022936344147,0.987022936344147,3786.03770457684,-112.707828749275,3673.32987582757,,,30.0799999237061,0,19612.324646444,19902.8387306714
2011-06-01T04:59:47Z,1306904387,AF06,55.7770377,25.8868938,-156.12,0,-9.1,28.6,-46757.97,-31203.95,29.1,Weapon+Missile,Blue,Enemies,R-27ER,,cn,,261.594863034497,263.256927490234,0.76711456172188,-156.119216918945,-156.119216918945,258.331803695908,-41.1892166137695,0.0472953029889817,NaN,0,0.0171320104161963,5000,0.986064672470093,0.986064672470093,0.986064672470093,3421.59361830186,-153.100651859818,3268.49296644205,,,31.0799999237061,0,19871.6400825263,20165.3995604278
2011-06-01T04:59:48Z,1306904388,AF06,55.7782204,25.8888579,-195.62,0,-9.1,28.6,-46637.46,-30987.51,29.1,Weapon+Missile,Blue,Enemies,R-27ER,,cn,,250.855981649517,252.877838134766,0.735297422536063,-195.623062133789,-195.623062133789,247.725997308688,-39.5038452148438,0.0488245233461557,NaN,0,0.0171320104161963,5000,0.987202823162079,0.987202823162079,0.987202823162079,3146.43617646713,-191.840690227432,2954.5954862397,,,32.0799999237061,0,20120.2955546692,20417.1666906814
2011-06-01T04:59:49Z,1306904389,AF06,55.7793551,25.8907426,-233.52,0,-9.1,28.6,-46521.83,-30779.83,29.1,Weapon+Missile,Blue,Enemies,R-27ER,,cn,,240.707258423951,243.049942016602,0.705250341203221,-233.523849487305,-233.523849487305,237.70467933122,-37.9007873535156,0.0491214023327377,NaN,0,0.0171320104161963,5000,0.986344933509827,0.986344933509827,0.986344933509827,2896.99921289873,-229.008665857468,2667.99054704127,,,33.0799999237061,0,20358.9021069156,20658.7566859884
2011-06-01T04:59:50Z,1306904390,AF06,55.7804477,25.892557,-270.02,0,-9.1,28.6,-46410.5,-30579.88,29.1,Weapon+Missile,Blue,Enemies,R-27ER,,cn,,231.746032737779,234.380096435547,0.678717361207147,-270.017700195312,-270.017700195312,228.854588221869,-36.4938507080078,0.048593861933014,NaN,0,0.0171320104161963,5000,0.987024545669556,0.987024545669556,0.987024545669556,2685.31118448499,-264.796907962036,2420.51427652295,,,34.0799999237061,0,20588.6190704967,20891.3454185142
2011-06-01T04:59:51Z,1306904391,AF06,55.7814899,25.8942878,-304.82,0,-9.1,28.6,-46304.31,-30389.16,29.1,Weapon+Missile,Blue,Enemies,R-27ER,,cn,,221.041391331781,223.91064453125,0.647114508827286,-304.822296142578,-304.822296142578,218.284073589524,-34.8045959472656,0.048986190210286,NaN,0,0.0171320104161963,5000,0.987155079841614,0.987155079841614,0.987155079841614,2442.96483409447,-298.928557046661,2144.03627704781,,,35.0799999237061,0,20807.7344817916,21113.1980640758
2011-06-01T04:59:52Z,1306904392,AF06,55.7825015,25.8959677,-338.6,0,-9.1,28.6,-46201.24,-30204.04,29.1,Weapon+Missile,Blue,Enemies,R-27ER,,cn,,214.561695200994,217.676971435547,0.627907540049844,-338.604583740234,-338.604583740234,211.885530634335,-33.7822875976562,0.0493435876341273,NaN,0,0.0171320104161963,5000,0.986642003059387,0.986642003059387,0.986642003059387,2301.83605237622,-332.057664113617,1969.7783882626,,,36.0799999237061,0,21020.4190384306,21328.5382610229
2011-06-01T04:59:53Z,1306904393,AF06,55.7834736,25.8975819,-371.07,0,-9.1,28.6,-46102.2,-30026.15,29.1,Weapon+Missile,Blue,Enemies,R-27ER,,cn,,206.168691477576,209.47785949707,0.603126931092755,-371.066925048828,-371.066925048828,203.596968892811,-32.4623413085938,0.0489585469061471,NaN,0,0.0171320104161963,5000,0.986511588096619,0.986511588096619,0.986511588096619,2125.27646727879,-363.892346053009,1761.38412122578,,,37.0799999237061,0,21224.7873736525,21535.4575036765
2011-06-01T04:59:54Z,1306904394,AF06,55.784415,25.8991452,-402.51,0,-9.1,28.6,-46006.29,-29853.88,29.1,Weapon+Missile,Blue,Enemies,R-27ER,,cn,,199.663882076565,203.163192749023,0.583892740461803,-402.509216308594,-402.509216308594,197.172635338225,-31.4422912597656,0.0473953839860397,NaN,0,0.0171320104161963,5000,0.987554490566254,0.987554490566254,0.987554490566254,1993.28329029423,-394.726700611267,1598.55658968296,,,38.0799999237061,0,21422.7026405584,21735.8429320044
2011-06-01T04:59:55Z,1306904395,AF06,55.7853277,25.9006605,-432.98,0,-9.1,28.6,-45913.31,-29686.89,29.1,Weapon+Missile,Blue,Enemies,R-27ER,,cn,,193.539564960543,197.210678100586,0.565790548403721,-432.981536865234,-432.981536865234,191.12561546012,-30.4723205566406,0.0495701460034298,NaN,0,0.0171320104161963,5000,0.986697614192963,0.986697614192963,0.986697614192963,1872.87816025582,-424.609838849945,1448.26832140588,,,39.0799999237061,0,21614.5595943263,21930.0923372983
2011-06-01T04:59:56Z,1306904396,AF06,55.7862057,25.9021185,-462.3,0,-9.1,28.6,-45823.85,-29526.23,29.1,Weapon+Missile,Blue,Enemies,R-27ER,,cn,,186.214682252066,190.012908935547,0.544199182268693,-462.302307128906,-462.302307128906,183.891816885317,-29.3207702636719,0.0483264084935124,NaN,0,0.0171320104161963,5000,0.987435281276703,0.987435281276703,0.987435281276703,1733.79539431189,-453.363692020569,1280.43170229132,,,40.0799999237061,0,21799.1439371229,22116.9781442071
2011-06-01T04:59:57Z,1306904397,AF06,55.7870566,25.9035312,-490.71,0,-9.1,28.6,-45737.17,-29370.54,29.1,Weapon+Missile,Blue,Enemies,R-27ER,,cn,,180.442707162785,184.370986938477,0.527164121677529,-490.709991455078,-490.709991455078,178.192519594564,-28.4076843261719,0.0504130914880973,NaN,0,0.0171320104161963,5000,0.986338376998901,0.986338376998901,0.986338376998901,1627.97852841173,-481.222113770294,1146.75641464144,,,41.0799999237061,0,21978.0055042296,22298.0683890457
2011-06-01T04:59:58Z,1306904398,AF06,55.7878853,25.9049071,-518.38,0,-9.1,28.6,-45652.75,-29218.92,29.1,Weapon+Missile,Blue,Enemies,R-27ER,,cn,,175.732012815816,179.79133605957,0.513243642499237,-518.383056640625,-518.383056640625,173.539453126759,-27.6730651855469,0.047068530176034,NaN,0,0.0171320104161963,5000,0.987017452716827,0.987017452716827,0.987017452716827,1544.0870164149,-508.360120240479,1035.72689617442,,,42.0799999237061,0,22152.2065012738,22474.4401130295
2011-06-01T04:59:59Z,1306904399,AF06,55.7886853,25.9062354,-545.1,0,-9.1,28.6,-45571.26,-29072.55,29.1,Weapon+Missile,Blue,Enemies,R-27ER,,cn,,169.642548649547,173.786010742188,0.495311469538399,-545.096862792969,-545.096862792969,167.52601849614,-26.7138061523438,0.0501773481857289,NaN,0,0.0171320104161963,5000,0.987495601177216,0.987495601177216,0.987495601177216,1438.9297156157,-534.557414950867,904.372300664831,,,43.0799999237061,0,22320.3733546289,22644.7016848178
2011-06-01T05:00:00Z,1306904400,AF06,55.7894639,25.9075282,-571.1,0,-9.1,28.6,-45491.93,-28930.08,29.1,Weapon+Missile,Blue,Enemies,R-27ER,,cn,,165.124660744102,169.367477416992,0.481981053101449,-571.095336914062,-571.095336914062,163.065118677263,-25.9984741210938,0.0485383937780384,NaN,0,0.0171320104161963,5000,0.885689437389374,0.885689437389374,0.885689437389374,1363.30767929275,-560.053208574829,803.254470717917,,,44.0799999237061,0,22484.0503661921,22810.4164898918
2011-06-01T05:00:01Z,1306904401,AF06,55.790213,25.9087717,-597.11,0.7,-10.7,28.6,-45415.62,-28793.04,29.1,Weapon+Missile,Blue,Enemies,R-27ER,,cn,,158.991566046168,163.285461425781,0.463945053400159,-597.108459472656,-597.108459472656,156.849085201554,-26.0131225585938,0.119829608463062,NaN,1.3076924371216,1.10016855841328,5000,0.79285728931427,0.79285728931427,0.79285728931427,1263.91590369064,-585.563367408752,678.352536281891,,,45.0799999237061,0,22641.4904502062,22969.9768947922
