ISOTime,UnixTime,Id,Longitude,Latitude,Altitude,Roll,Pitch,Yaw,U,V,Heading,Type,Color,Coalition,Name,Group,Country,Pilot,TAS,CAS,M,ASL,AGL,GS,VS,AOA,AOS,RRT,TRT,TRD,G,LatG,LonG,Ek,Ep,Em,FFW,FFV,RelativeTime,Elev,GroundDistance,AirDistance
2011-06-01T04:59:37Z,1306904377,FA03,55.3859329,25.8237749,5352.92,-81,-7.2,48.6,-86029.69,-37771.91,49.3,Weapon+Missile,Blue,Enemies,R-27ER,,ru,,355.551575755541,287.403076171875,1.11376105436201,5352.9248046875,5352.9248046875,NaN,NaN,3.50977291000554,NaN,17.5846362068996,4.33321922393538,NaN,NaN,NaN,NaN,NaN,5249.42600358887,NaN,,,0.549999952316284,0,NaN,NaN
2011-06-01T04:59:38Z,1306904378,FA03,55.3900874,25.8268215,5253.23,-65.2,-11.2,47.9,-85609.06,-37439.54,48.6,Weapon+Missile,Blue,Enemies,R-27ER,,ru,,545.28423340822,437.255615234375,1.70592004067616,5253.23046875,5253.23046875,536.093214455818,-99.6943359375,1.83910279066283,NaN,15.3538554428385,2.77083720498833,5000,2.69449520111084,2.69449520111084,2.69449520111084,14866.7447601795,5151.65925763672,20018.4040178162,,,1.54999995231628,0,536.959213792474,546.574616098756
2011-06-01T04:59:39Z,1306904379,FA03,55.3959233,25.831526,5107.37,-56.3,-8.6,48.1,-85017.66,-36925.59,48.8,Weapon+Missile,Blue,Enemies,R-27ER,,ru,,796.973826871427,624.293273925781,2.48869819889194,5107.36962890625,5107.36962890625,783.512537307581,-145.86083984375,0.090228597684232,NaN,7.50767563378632,1.05113249592764,5000,5.92155647277832,5.92155647277832,5.92155647277832,31758.3640359044,5008.61863713135,36766.9826730358,,,2.54999995231628,0,1321.92917794713,1345.60812634427
2011-06-01T04:59:40Z,1306904380,FA03,55.4034831,25.8375209,4976.01,-48.3,-6.7,48.8,-84251.77,-36270.77,49.5,Weapon+Missile,Blue,Enemies,R-27ER,,ru,,1016.19048166943,791.201293945312,3.1679520531868,4976.01220703125,4976.01220703125,1007.66478689786,-131.357421875,0.169041658744704,NaN,8.23076044045889,1.82476699903895,5000,2.69513010978699,2.69513010978699,2.69513010978699,51632.1547517776,4879.8010110083,56511.9557627859,,,3.54999995231628,0,2331.42829980628,2364.40888827452
2011-06-01T04:59:41Z,1306904381,FA03,55.4110941,25.8437031,4856.34,-40.3,-6.7,47.2,-83480.57,-35595.22,47.9,Weapon+Missile,Blue,Enemies,R-27ER,,ru,,1032.20119882964,807.946350097656,3.2129924453151,4856.33984375,4856.33984375,1025.24038173105,-119.67236328125,0.0937124179350401,NaN,7.83076407209543,1.17000233347819,5000,2.74740195274353,2.74740195274353,2.74740195274353,53271.9657432675,4762.44251287109,58034.4082561386,,,4.54999995231628,0,3358.59941523706,3399.31423820857
2011-06-01T04:59:42Z,1306904382,FA03,55.4186441,25.8501569,4730.84,-33.3,-6.9,46.1,-82715.2,-34889.48,46.8,Weapon+Missile,Blue,Enemies,R-27ER,,ru,,1048.62531414214,825.438842773438,3.25894965489608,4730.84228515625,4730.84228515625,1041.08857079823,-125.49755859375,0.0686210064855476,NaN,6.58463703916162,1.2196377450635,5000,1.89413833618164,1.89413833618164,1.89413833618164,54980.7524729848,4639.37144957275,59620.1239225575,,,5.54999995231628,0,4401.79645398432,4450.81131953502
2011-06-01T04:59:43Z,1306904383,FA03,55.4261006,25.8567424,4602.44,-27.7,-7,45.4,-81959.09,-34168.99,46.1,Weapon+Missile,Blue,Enemies,R-27ER,,ru,,1052.27407317891,833.481750488281,3.26500960372913,4602.4375,4602.4375,1044.41032943643,-128.40478515625,0.0606576456247369,NaN,5.41540086080923,0.770138300029905,5000,1.40166580677032,1.40166580677032,1.40166580677032,55364.0362542272,4513.4493709375,59877.4856251647,,,6.54999995231628,0,5448.41883077897,5506.04102277088
2011-06-01T04:59:44Z,1306904384,FA03,55.4335099,25.8634207,4472.4,-23.1,-7,44.9,-81207.71,-33438.13,45.6,Weapon+Missile,Blue,Enemies,R-27ER,,ru,,1056.23924077361,841.900085449219,3.2719717900376,4472.39990234375,4472.39990234375,1048.20396724388,-130.03759765625,0.0340440636642125,NaN,4.39999761803846,0.472509391852014,5000,1.53673577308655,1.53673577308655,1.53673577308655,55782.0666875005,4385.92605023193,60167.9927377324,,,7.54999995231628,0,6498.90724679265,6565.28903347875
2011-06-01T04:59:45Z,1306904385,FA03,55.4409674,25.8702383,4343.94,-19.3,-6.7,44.5,-80451.38,-32691.86,45.2,Weapon+Missile,Blue,Enemies,R-27ER,,ru,,1070.25964091478,858.138549804688,3.31008318381034,4343.9384765625,4343.9384765625,1062.52216967802,-128.46142578125,0.0365839444632465,NaN,3.44615487025701,0.443896555480067,5000,1.69006299972534,1.69006299972534,1.69006299972534,57272.7849485517,4259.94842611816,61532.7333746698,,,8.54999995231628,0,7563.790283651,7638.62319766089
2011-06-01T04:59:46Z,1306904386,FA03,55.4483663,25.8770832,4221.3,-16.3,-6.4,44.2,-79700.98,-31942.46,44.9,Weapon+Missile,Blue,Enemies,R-27ER,,ru,,1067.59217769738,861.244140625,3.29679058509661,4221.30224609375,4221.30224609375,1060.52506470005,-122.63623046875,0.0466645842030109,NaN,2.78463055857376,0.602642371426476,5000,2.3525664806366,2.3525664806366,2.3525664806366,56987.652894032,4139.68336716553,61127.3362611975,,,9.54999995231628,0,8626.70987555519,8709.30308732751
2011-06-01T04:59:47Z,1306904387,FA03,55.4556937,25.8839624,4110.94,-13.9,-5.6,43.5,-78957.77,-31189.13,44.2,Weapon+Missile,Blue,Enemies,R-27ER,,ru,,1063.9738535949,863.071533203125,3.28111385400076,4110.93701171875,4110.93701171875,1058.23432007043,-110.365234375,0,NaN,2.44616053425378,1.07141826448428,5000,3.23910427093506,3.23910427093506,3.23910427093506,56602.0180566788,4031.45204459717,60633.4701012759,,,10.5499999523163,0,9687.37374652641,9776.38250998937
2011-06-01T04:59:48Z,1306904388,FA03,55.4624241,25.8905328,4022.04,-11.8,-4.6,42.1,-78274.87,-30469.27,42.7,Weapon+Missile,Blue,Enemies,R-27ER,,ru,,996.223792903612,813.258361816406,3.06880056486902,4022.03930664062,4022.03930664062,992.249486560261,-88.897705078125,0.0686262471827325,NaN,1.93844525249005,1.58235558126726,5000,3.57460522651672,3.57460522651672,3.57460522651672,49623.0922773629,3944.27317664673,53567.3654540097,,,11.5499999523163,0,10682.0086510949,10775.6138572007
2011-06-01T04:59:49Z,1306904389,FA03,55.4685734,25.8968391,3954.16,-10.2,-3.6,40.7,-77650.59,-29777.95,41.4,Weapon+Missile,Blue,Enemies,R-27ER,,ru,,933.944133196118,766.620849609375,2.8745371011898,3954.158203125,3954.158203125,931.473993043794,-67.881103515625,0.0592201768188818,NaN,1.60000425647404,1.62079919428897,5000,3.05860805511475,3.05860805511475,3.05860805511475,43612.5821965724,3877.70455426758,47490.28675084,,,12.5499999523163,0,11615.8439335926,11712.4954198956
2011-06-01T04:59:50Z,1306904390,FA03,55.4741657,25.9028305,3903.22,-8.5,-3.3,39.6,-77082.59,-29120.82,40.3,Weapon+Missile,Blue,Enemies,R-27ER,,ru,,870.074094377354,717.911682128906,2.67627037055403,3903.224609375,3903.224609375,868.582004611127,-50.93359375,0.0462788684026815,NaN,1.78462939238137,1.32094940741377,5000,2.13280272483826,2.13280272483826,2.13280272483826,37851.4464853287,3827.75576155273,41679.2022468814,,,13.5499999523163,0,12486.7327022711,12585.4078529775
2011-06-01T04:59:51Z,1306904391,FA03,55.4793282,25.9086171,3854.33,-7,-3.2,38.2,-76557.97,-28485.88,38.9,Weapon+Missile,Blue,Enemies,R-27ER,,ru,,825.094006650251,683.937255859375,2.53638496410455,3854.32983398438,3854.32983398438,823.643989081244,-48.894775390625,0.0590852440469612,NaN,1.16926606043001,1.28903865688976,5000,2.34155130386353,2.34155130386353,2.34155130386353,34039.0059905082,3779.80636664429,37818.8123571525,,,14.5499999523163,0,13312.6668388043,13413.2893968135
2011-06-01T04:59:52Z,1306904392,FA03,55.4840603,25.9141723,3812.48,-5.8,-2.8,36.9,-76076.8,-27876.03,37.6,Weapon+Missile,Blue,Enemies,R-27ER,,ru,,777.931622614579,647.905822753906,2.39017188826128,3812.47607421875,3812.47607421875,776.804912611418,-41.853759765625,0.0527056227654129,NaN,1.01537848333503,1.39106876976335,5000,2.50625467300415,2.50625467300415,2.50625467300415,30258.8804731876,3738.76184932373,33997.6423225113,,,15.5499999523163,0,14091.7209317327,14193.9345066264
2011-06-01T04:59:53Z,1306904393,FA03,55.4883861,25.9194994,3780.4,-5.1,-2.2,35.5,-75636.68,-27290.98,36.2,Weapon+Missile,Blue,Enemies,R-27ER,,ru,,732.823422910707,613.134033203125,2.2506891320396,3780.39990234375,3780.39990234375,732.121088594237,-32.076171875,0.0587514198967789,NaN,0.769238956215285,1.4274953425458,5000,2.3256311416626,2.3256311416626,2.3256311416626,26851.5084583282,3707.30587023193,30558.8143285602,,,16.5499999523163,0,14826.0551837269,14929.4056575053
2011-06-01T04:59:54Z,1306904394,FA03,55.4923539,25.9246401,3754.95,-4.2,-2.1,34.2,-75232.68,-26726.14,34.8,Weapon+Missile,Blue,Enemies,R-27ER,,ru,,694.912466650408,583.822204589844,2.13358657543615,3754.94995117188,3754.94995117188,694.446280349678,-25.449951171875,0.0721941721630271,NaN,0.769238956215285,1.40587096363354,5000,2.0050938129425,2.0050938129425,2.0050938129425,24145.1668153077,3682.34799386597,27827.5148091737,,,17.5499999523163,0,15522.6882524084,15626.9146889929
2011-06-01T04:59:55Z,1306904395,FA03,55.4959878,25.9296048,3731.22,-3.3,-2.1,32.8,-74862.39,-26180.39,33.5,Weapon+Missile,Blue,Enemies,R-27ER,,ru,,659.939656094334,556.743713378906,2.02561841240853,3731.21606445312,3731.21606445312,659.512738548035,-23.73388671875,0.0340042139607241,NaN,0.769222307629183,1.43849194710952,5000,1.9736442565918,1.9736442565918,1.9736442565918,21776.0174842954,3659.07300184692,25435.0904861423,,,18.5499999523163,0,16184.3542910584,16289.3943136389
2011-06-01T04:59:56Z,1306904396,FA03,55.4993043,25.9343965,3709.27,-2.8,-1.9,31.2,-74524.13,-25653.46,31.9,Weapon+Missile,Blue,Enemies,R-27ER,,ru,,626.547060191162,530.818908691406,1.92260444742067,3709.26611328125,3709.26611328125,626.162453583525,-21.949951171875,0.0473937173600524,NaN,0.476949121534229,1.53838111584343,5000,1.9470602273941,1.9470602273941,1.9470602273941,19628.0609317094,3637.54745298096,23265.6083846904,,,19.5499999523163,0,16812.6482608065,16918.437834127
2011-06-01T04:59:57Z,1306904397,FA03,55.5023115,25.9390172,3687.86,-2,-2.3,29.6,-74217.1,-25145.08,30.3,Weapon+Missile,Blue,Enemies,R-27ER,,ru,,594.282335198639,505.706726074219,1.82311839979461,3687.861328125,3687.861328125,593.896732691436,-21.40478515625,0.0307636482280233,NaN,0.769238956215285,1.64457156097349,5000,1.87771093845367,1.87771093845367,1.87771093845367,17658.5746964574,3616.5565293457,21275.1312258031,,,20.5499999523163,0,17408.6444609418,17515.1636639478
2011-06-01T04:59:58Z,1306904398,FA03,55.505039,25.9435054,3664.54,-1.5,-2.4,27.9,-73938.27,-24651.06,28.5,Weapon+Missile,Blue,Enemies,R-27ER,,ru,,567.75581171802,485.106353759766,1.74124266565917,3664.54150390625,3664.54150390625,567.276693984509,-23.31982421875,0.0436710914237378,NaN,0.369250485258056,1.69143338214725,5000,2.03576445579529,2.03576445579529,2.03576445579529,16117.3330869794,3593.68759392822,19711.0206809076,,,21.5499999523163,0,17977.9993995185,18085.3238602995
2011-06-01T04:59:59Z,1306904399,FA03,55.507485,25.9478443,3642.75,-1.2,-2.1,26.1,-73687.81,-24173.25,26.7,Weapon+Missile,Blue,Enemies,R-27ER,,ru,,539.911806092938,463.322601318359,1.65540545924896,3642.74536132812,3642.74536132812,539.471673517018,-21.796142578125,0.0320639114096986,NaN,0.199987938897973,1.880024083198,5000,2.40756177902222,2.40756177902222,2.40756177902222,14575.2379179269,3572.31287976685,18147.5507976938,,,22.5499999523163,0,18519.5220663527,18627.5949483704
2011-06-01T05:00:00Z,1306904400,FA03,55.5096586,25.9520412,3627.79,-1.2,-1.2,24.1,-73464.86,-23710.86,24.8,Weapon+Missile,Blue,Enemies,R-27ER,,ru,,513.553230667688,442.466918945312,1.57429947214824,3627.78759765625,3627.78759765625,513.335354359269,-14.957763671875,0.0462743757552293,NaN,0,2.11376681697417,5000,2.50766110420227,2.50766110420227,2.50766110420227,13186.846036461,3557.64432445557,16744.4903609166,,,23.5499999523163,0,19034.8917787641,19143.4752926345
2011-06-01T05:00:01Z,1306904401,FA03,55.5115573,25.9560791,3620.41,-1.1,-0.6,21.9,-73269.64,-23265.76,22.5,Weapon+Missile,Blue,Enemies,R-27ER,,ru,,486.084891071725,420.418395996094,1.4899602907576,3620.4052734375,3620.4052734375,486.028828998178,-7.38232421875,0.0638808412596086,NaN,0,2.23511772074073,5000,2.30446720123291,2.30446720123291,2.30446720123291,11813.9260664105,3550.40473747559,15364.3308038861,,,24.5499999523163,0,19522.9166630271,19631.8332767191
2011-06-01T05:00:02Z,1306904402,FA03,55.5132095,25.9600124,3616.27,-0.9,-0.6,19.5,-73099.24,-22831.96,20.2,Weapon+Missile,Blue,Enemies,R-27ER,,ru,,466.087448773773,404.199981689453,1.42859123611515,3616.27368164062,3616.27368164062,466.069136345315,-4.131591796875,0.0237198905877609,NaN,0.199987938897973,2.4095707839832,5000,2.19028306007385,2.19028306007385,2.19028306007385,10861.8754952222,3546.3530300061,14408.2285252283,,,25.5499999523163,0,19990.9577955409,20100.1581555453
2011-06-01T05:00:03Z,1306904403,FA03,55.5145931,25.9637898,3611.48,-0.7,-0.4,16.9,-72955.94,-22415.13,17.6,Weapon+Missile,Blue,Enemies,R-27ER,,ru,,440.800296236456,383.435546875,1.35100491496362,3611.47973632812,3611.47973632812,440.774227071511,-4.7939453125,0.0869295807950892,NaN,0,2.60956597995717,5000,2.41487503051758,2.41487503051758,2.41487503051758,9715.24505810738,3541.65177562622,13256.8968337336,,,26.5499999523163,0,20433.6664694562,20543.1436104445
2011-06-01T05:00:04Z,1306904404,FA03,55.5157198,25.9674337,3609.2,-0.6,-0.2,14,-72838.55,-22012.79,14.7,Weapon+Missile,Blue,Enemies,R-27ER,,ru,,419.125281264785,365.305145263672,1.28453740761451,3609.19677734375,3609.19677734375,419.119063624599,-2.282958984375,0.0604589402068449,NaN,0,2.9160340066947,5000,2.53399538993835,2.53399538993835,2.53399538993835,8783.30006976426,3539.41295765381,12322.7130274181,,,27.5499999523163,0,20854.6879120457,20964.4095578575
2011-06-01T05:00:05Z,1306904405,FA03,55.5165904,25.9709416,3610.15,-0.6,0.6,11.5,-72746.97,-21625.21,12.2,Weapon+Missile,Blue,Enemies,R-27ER,,ru,,398.255215679529,347.439849853516,1.22058903704579,3610.15380859375,3610.15380859375,398.254065776026,0.95703125,0.138949197077791,NaN,0,2.11744658138952,5000,1.68922805786133,1.68922805786133,1.68922805786133,7930.36084079742,3540.35148470459,11470.712325502,,,28.5499999523163,0,21254.7918026025,21364.7410291844
2011-06-01T05:00:06Z,1306904406,FA03,55.5173445,25.9742917,3615.65,-0.6,1.1,11.5,-72667.27,-21254.99,12.2,Weapon+Missile,Blue,Enemies,R-27ER,,ru,,378.735547989894,330.249908447266,1.16084260506282,3615.65307617188,3615.65307617188,378.69562100361,5.499267578125,0.0907492539074909,NaN,0,0.658353449721919,5000,1.16241896152496,1.16241896152496,1.16241896152496,7172.03076556027,3545.74442394409,10717.7751895044,,,29.5499999523163,0,21635.2835733262,21745.4880459657
2011-06-01T05:00:07Z,1306904407,FA03,55.518065,25.9774787,3622.39,-0.5,1,11.6,-72591.13,-20902.79,12.2,Weapon+Missile,Blue,Enemies,R-27ER,,ru,,360.400395311666,313.702331542969,1.10473572477129,3622.38989257812,3622.38989257812,360.337425540998,6.73681640625,0.0462505231621518,NaN,0,0.102315119858987,5000,0.86260849237442,0.86260849237442,0.86260849237442,6494.42224704027,3552.35098400513,10046.7732310454,,,30.5499999523163,0,21997.307602823,22107.780132594
2011-06-01T05:00:08Z,1306904408,FA03,55.5187582,25.9805218,3627.48,-0.3,0.6,11.7,-72517.91,-20566.51,12.3,Weapon+Missile,Blue,Enemies,R-27ER,,ru,,344.195714218463,298.855621337891,1.05512938926569,3627.48291015625,3627.48291015625,344.158031808509,5.093017578125,0.077480852201753,NaN,0.199987938897973,0.223812199011933,5000,0.900663673877716,0.900663673877716,0.900663673877716,5923.5344843179,3557.34552808838,9480.88001240628,,,31.5499999523163,0,22343.0925525747,22453.7990888381
2011-06-01T05:00:09Z,1306904409,FA03,55.5194202,25.9834028,3631.38,-0.3,0.7,11.8,-72448.02,-20248.14,12.4,Weapon+Missile,Blue,Enemies,R-27ER,,ru,,325.971750916842,282.097717285156,0.999311769571763,3631.3837890625,3631.3837890625,325.948409322013,3.90087890625,0.0249247977722391,NaN,0,0.148037653472989,5000,0.990075290203094,0.990075290203094,0.990075290203094,5312.8791197896,3561.17098350098,8874.05010329058,,,32.5499999523163,0,22670.578865408,22781.4949741976
2011-06-01T05:00:10Z,1306904410,FA03,55.520063,25.9861724,3635.01,-0.2,0.7,11.9,-72380.2,-19942.09,12.6,Weapon+Missile,Blue,Enemies,R-27ER,,ru,,313.497876204213,270.632537841797,0.961114168473494,3635.0146484375,3635.0146484375,313.476849615328,3.630859375,0.0487297079622362,NaN,0,0.112776761862158,5000,1.07954680919647,1.07954680919647,1.07954680919647,4914.0459192276,3564.73164020996,8478.77755943756,,,33.5499999523163,0,22985.5228225733,23096.639250661
2011-06-01T05:00:11Z,1306904411,FA03,55.5206904,25.9887917,3639.04,-0.1,0.7,13.5,-72314.1,-19652.68,14.2,Weapon+Missile,Blue,Enemies,R-27ER,,ru,,296.886730915191,255.467575073242,0.91023311262801,3639.04443359375,3639.04443359375,296.859380557704,4.02978515625,0.030809817492495,NaN,0.199987938897973,1.9044458514622,5000,1.92927706241608,1.92927706241608,1.92927706241608,4407.08654967546,3568.68350947021,7975.77005914568,,,34.5499999523163,0,23283.7825104455,23395.0962227484
2011-06-01T05:00:12Z,1306904412,FA03,55.5214483,25.991245,3641.4,0,0.3,17.8,-72235.16,-19381.79,18.4,Weapon+Missile,Blue,Enemies,R-27ER,,ru,,282.171433528135,242.136215209961,0.865142119720352,3641.40380859375,3641.40380859375,282.161569404715,2.359375,0.0935031128501113,NaN,0.0923076987758348,3.96245655358109,3879.94242862174,2.17125821113586,2.17125821113586,2.17125821113586,3981.03589496613,3570.99726595459,7552.03316092072,,,35.5499999523163,0,23567.2188881679,23678.7041816062
2011-06-01T05:00:13Z,1306904413,FA03,55.5223511,25.9935185,3641.49,0.2,-0.2,21.8,-72141.94,-19130.98,22.5,Weapon+Missile,Blue,Enemies,R-27ER,,ru,,267.570016089427,229.01416015625,0.820374793303911,3641.48852539062,3641.48852539062,267.570002678104,0.084716796875,0.0910215139600927,NaN,0.20000001179094,4.07688484718043,3842.92750121159,2.01058053970337,2.01058053970337,2.01058053970337,3579.6856755048,3571.0803447522,7150.766020257,,,36.5499999523163,0,23835.9447558492,23947.5834852988
2011-06-01T05:00:14Z,1306904414,FA03,55.5233837,25.995644,3639.49,0.2,-0.7,25.7,-72035.91,-18896.73,26.3,Weapon+Missile,Blue,Enemies,R-27ER,,ru,,257.141387165162,219.712066650391,0.78838107315895,3639.48828125,3639.48828125,257.133607326233,-2.000244140625,0.0533288546909038,NaN,0,3.90665689626985,3843.74992345632,1.87821626663208,1.87821626663208,1.87821626663208,3306.08464966118,3569.11877533203,6875.20342499321,,,37.5499999523163,0,24094.1264561797,24205.9202934206
2011-06-01T05:00:15Z,1306904415,FA03,55.524521,25.9976176,3635.52,0.3,-1.2,29.4,-71919.6,-18679.39,30.1,Weapon+Missile,Blue,Enemies,R-27ER,,ru,,246.532755854642,210.308364868164,0.755818821916676,3635.52075195312,3635.52075195312,246.500828437883,-3.967529296875,0.0867533498079555,NaN,0.200000025131153,3.75581174156329,3857.40007854962,1.74302387237549,1.74302387237549,1.74302387237549,3038.91998546422,3565.22795821411,6604.14794367833,,,38.5499999523163,0,24341.5507028341,24453.5174383254
2011-06-01T05:00:16Z,1306904416,FA03,55.5257368,25.9994366,3629.65,0.3,-1.7,33,-71795.62,-18479.29,33.6,Weapon+Missile,Blue,Enemies,R-27ER,,ru,,235.475687372067,200.564865112305,0.72186813571486,3629.64916992188,3629.64916992188,235.402472093642,-5.87158203125,0.059184969955275,NaN,0,3.58418402875968,3826.75556241492,1.6221296787262,1.6221296787262,1.6221296787262,2772.43996716738,3559.46990322144,6331.90987038881,,,39.5499999523163,0,24577.7677406063,24689.9419318027
2011-06-01T05:00:17Z,1306904417,FA03,55.5270208,26.0011175,3621.75,0.3,-2.3,36.3,-71665,-18294.55,37,Weapon+Missile,Blue,Enemies,R-27ER,,ru,,226.383275779152,192.610580444336,0.693927418230258,3621.74536132812,3621.74536132812,226.24525931434,-7.90380859375,0.0450765527544972,NaN,0,3.47583396319142,3768.02589847714,1.5053962469101,1.5053962469101,1.5053962469101,2562.46937762499,3551.71891476685,6114.18829239183,,,40.5499999523163,0,24804.7385496678,24917.1792614583
2011-06-01T05:00:18Z,1306904418,FA03,55.528366,26.0026746,3611.22,0.5,-3.3,39.6,-71528.4,-18123.59,40.3,Weapon+Missile,Blue,Enemies,R-27ER,,ru,,219.089902836685,186.285125732422,0.671484572280521,3611.22143554688,3611.22143554688,218.836999867799,-10.52392578125,0.223023462890261,NaN,0.20000005181158,2.82491330675121,5000,0.910262048244476,0.910262048244476,0.910262048244476,2400.01927624941,3541.39846909058,5941.41774533999,,,41.5499999523163,0,25024.1953999811,25137.0125932708
2011-06-01T05:00:19Z,1306904419,FA03,55.5297116,26.0041363,3597.19,0.8,-4,38.8,-71391.89,-17963.2,39.4,Weapon+Missile,Blue,Enemies,R-27ER,,ru,,211.081090861812,179.375869750977,0.646827253952313,3597.18774414062,3597.18774414062,210.614060368549,-14.03369140625,0.0503663476777767,NaN,0.107692339695532,0.698168596745481,5000,1.25974071025848,1.25974071025848,1.25974071025848,2227.76134597063,3527.63611910767,5755.3974650783,,,42.5499999523163,0,25235.3905980572,25348.7926208367
2011-06-01T05:00:20Z,1306904420,FA03,55.5309551,26.005602,3582.99,1,-4,36.1,-71265.59,-17802.25,36.7,Weapon+Missile,Blue,Enemies,R-27ER,,ru,,205.079878531961,174.23876953125,0.628328109886494,3582.98999023438,3582.98999023438,204.587830436469,-14.19775390625,0.075722286858225,NaN,0.200000105172432,2.65159554901484,4274.02849399089,1.41722989082336,1.41722989082336,1.41722989082336,2102.88782893419,3513.71287877319,5616.60070770739,,,43.5499999523163,0,25440.5663379324,25554.574215042
2011-06-01T05:00:21Z,1306904421,FA03,55.5320757,26.0070632,3569.54,1,-3.8,33.3,-71151.61,-17641.66,34,Weapon+Missile,Blue,Enemies,R-27ER,,ru,,197.392327297766,167.628982543945,0.604675201510529,3569.53857421875,3569.53857421875,196.933466640902,-13.451416015625,0.0206856000651177,NaN,0,2.73013589428082,4447.84869944063,1.31335425376892,1.31335425376892,1.31335425376892,1948.18654380143,3500.52154588623,5448.70808968766,,,44.5499999523163,0,25638.1256354636,25752.7014400958
2011-06-01T05:00:22Z,1306904422,FA03,55.5330993,26.0085334,3556.13,1.4,-4.9,31.6,-71047.33,-17479.96,32.3,Weapon+Missile,Blue,Enemies,R-27ER,,ru,,192.875309657895,163.794677734375,0.590741191758892,3556.13452148438,3556.13452148438,192.408982238156,-13.404052734375,0.0232745936053278,NaN,0.67692318661045,1.90143608591575,4789.28712986053,0.304353207349777,0.304353207349777,0.304353207349777,1860.04425378144,3487.37666051147,5347.42091429291,,,45.5499999523163,0,25831.1841035035,25946.3322544044
2011-06-01T05:00:23Z,1306904423,FA03,55.5340698,26.0099567,3535.92,2.3,-7.7,31.6,-70948.43,-17323.39,32.3,Weapon+Missile,Blue,Enemies,R-27ER,,ru,,186.284459199701,158.209030151367,0.570413520148094,3535.92138671875,3535.92138671875,185.18458068174,-20.213134765625,0.0670883455672661,NaN,0.769230845365645,2.68834644906115,3718.80199878745,0.0510199368000031,0.0510199368000031,0.0510199368000031,1735.09498696625,3467.55434670654,5202.6493336728,,,46.5499999523163,0,26017.00850827,26133.3554794453
2011-06-01T05:00:24Z,1306904424,FA03,55.5350127,26.0113378,3507.13,3.1,-10.5,31.7,-70852.34,-17171.47,32.3,Weapon+Missile,Blue,Enemies,R-27ER,,ru,,182.04838856857,154.740097045898,0.557246177517445,3507.13159179688,3507.13159179688,179.757513024545,-28.789794921875,0.037795565433201,NaN,0.769230845365645,2.89662794515881,3613.99158955113,0.0602118819952011,0.0602118819952011,0.0602118819952011,1657.08078902066,3439.32120246948,5096.40199149014,,,47.5499999523163,0,26197.3848741663,26316.1133056316
2011-06-01T05:00:25Z,1306904425,FA03,55.5359293,26.0126777,3470.09,3.6,-13.5,31.7,-70758.93,-17024.09,32.4,Weapon+Missile,Blue,Enemies,R-27ER,,ru,,178.383147492857,151.825988769531,0.545779828544689,3470.08984375,3470.08984375,174.494860127999,-37.041748046875,0.0591583417095726,NaN,0.569230526749801,2.87765325275769,3539.86219545812,0.0685041397809982,0.0685041397809982,0.0685041397809982,1591.02736547291,3402.99565662109,4994.02302209401,,,48.5499999523163,0,26372.4734279053,26495.1709426442
2011-06-01T05:00:26Z,1306904426,FA03,55.5368202,26.0139759,3425.16,4.1,-16.4,31.8,-70668.16,-16881.29,32.5,Weapon+Missile,Blue,Enemies,R-27ER,,ru,,175.068475865734,149.269058227539,0.535344537403269,3425.1591796875,3425.1591796875,169.204629572757,-44.9306640625,0.050857388366544,NaN,0.369231488794427,2.90814214999557,3479.09637013441,0.0761496722698212,0.0761496722698212,0.0761496722698212,1532.44856209755,3358.93372694824,4891.38228904579,,,49.5499999523163,0,26542.2611635857,26670.8917817584
2011-06-01T05:00:27Z,1306904427,FA03,55.5376851,26.0152312,3372.72,4.5,-19.2,32,-70580.03,-16743.22,32.6,Weapon+Missile,Blue,Enemies,R-27ER,,ru,,171.984761314516,146.959487915039,0.525578604552834,3372.71997070312,3372.71997070312,163.795260876205,-52.439208984375,0.0638671618475366,NaN,0.399999783458042,2.84522052637071,3445.1405320649,0.0816230550408363,0.0816230550408363,0.0816230550408363,1478.93790622056,3307.50843006958,4786.44633629014,,,50.5499999523163,0,26706.6215458487,26843.4982871509
2011-06-01T05:00:28Z,1306904428,FA03,55.5385317,26.0164537,3312.64,4.8,-22.1,32.1,-70493.78,-16608.76,32.8,Weapon+Missile,Blue,Enemies,R-27ER,,ru,,170.67118646374,146.242446899414,0.521182932404619,3312.64233398438,3312.64233398438,159.747711893569,-60.07763671875,0.0470980543399462,NaN,0.199999891729021,2.83135823056335,3479.61259617723,0.0918590947985649,0.0918590947985649,0.0918590947985649,1456.43269444704,3248.59239445679,4705.02508890383,,,51.5499999523163,0,26866.912530745,27014.7567471803
2011-06-01T05:00:29Z,1306904429,FA03,55.5393531,26.0176324,3245.81,5,-24.8,32.3,-70410.11,-16479.11,32.9,Weapon+Missile,Blue,Enemies,R-27ER,,ru,,168.156708358717,144.516387939453,0.513087327538596,3245.814453125,3245.814453125,154.307203026572,-66.827880859375,0.0328700214710141,NaN,0.123076593749045,2.81126488124223,3474.38295221901,0.0941650345921516,0.0941650345921516,0.0941650345921516,1413.83392830193,3183.05663067383,4596.89055897576,,,52.5499999523163,0,27021.7350011987,27183.4594946961
2011-06-01T05:00:30Z,1306904430,FA03,55.5401633,26.0187865,3171.38,5.2,-27.6,32.5,-70327.59,-16352.19,33.1,Weapon+Missile,Blue,Enemies,R-27ER,,ru,,168.697773143401,145.517318725586,0.514273369846424,3171.37524414062,3171.37524414062,151.386072111416,-74.439208984375,0.0357141069957576,NaN,0.199999891729021,2.74554288005766,3556.94351594253,0.0954003259539604,0.0954003259539604,0.0954003259539604,1422.94693317711,3110.05670379517,4533.00363697228,,,53.5499999523163,0,27173.6285633419,27352.6814460279
2011-06-01T05:00:31Z,1306904431,FA03,55.5409492,26.0198967,3090.8,5.3,-30.2,32.7,-70247.56,-16230.08,33.4,Weapon+Missile,Blue,Enemies,R-27ER,,ru,,166.7518934962,144.373031616211,0.507845380955753,3090.7998046875,3090.7998046875,145.992440014899,-80.575439453125,0.0330005959399037,NaN,0.199999891729021,2.66644480715727,3626.318709565,0.103922456502914,0.103922456502914,0.103922456502914,1390.30969922841,3031.03919046387,4421.34888969227,,,54.5499999523163,0,27320.1085344694,27519.9233511666
2011-06-01T05:00:32Z,1306904432,FA03,55.5417224,26.0209788,3003.3,5.3,-32.8,33,-70168.85,-16111.1,33.6,Weapon+Missile,Blue,Enemies,R-27ER,,ru,,167.357066676077,145.523727416992,0.509149535831921,3003.30297851562,3003.30297851562,142.662865442516,-87.496826171875,0.0125504982381732,NaN,0,2.61442309823069,3754.54649360448,0.107493504881859,0.107493504881859,0.107493504881859,1400.41938832104,2945.23411542603,4345.65350374707,,,55.5499999523163,0,27463.2591975152,27687.7547878657
2011-06-01T05:00:33Z,1306904433,FA03,55.5424755,26.0220222,2910,5.3,-35.3,33.2,-70092.19,-15996.37,33.9,Weapon+Missile,Blue,Enemies,R-27ER,,ru,,166.571020103996,145.484603881836,0.506188049618584,2910,2910,137.987169470928,-93.302978515625,0.425454335418681,NaN,0,1.66242087298715,5000,0.603926181793213,0.603926181793213,0.603926181793213,1387.29523692429,2853.73515,4241.03038692429,,,56.5499999523163,0,27601.7042273684,27854.758519428
2011-06-01T05:00:34Z,1306904434,FA03,55.5432131,26.0230752,2813.74,5.6,-34.3,31.3,-70017.07,-15880.56,32,Weapon+Missile,Blue,Enemies,R-27ER,,ru,,168.287785286305,147.695281982422,0.510812899428084,2813.74291992188,2813.74291992188,138.041128695048,-96.257080078125,0.0317723815162748,NaN,0.338461486583519,1.13880608477439,5000,1.22636032104492,1.22636032104492,1.22636032104492,1416.03893382847,2759.33920056519,4175.37813439366,,,57.5499999523163,0,27740.2127313577,28023.4809283643
2011-06-01T05:00:35Z,1306904435,FA03,55.5439162,26.0241567,2720.52,5.7,-33.4,29.5,-69945.37,-15761.54,30.1,Weapon+Missile,Blue,Enemies,R-27ER,,ru,,167.323799668178,147.496078491211,0.50731856426712,2720.517578125,2720.517578125,138.947074752412,-93.225341796875,0.0768330407538825,NaN,0.0769232979799761,1.74291230447822,5000,1.16759347915649,1.16759347915649,1.16759347915649,1399.86269676983,2667.91637075195,4067.77906752179,,,58.5499999523163,0,27879.6504339602,28191.262665602
2011-06-01T05:00:36Z,1306904436,FA03,55.5445944,26.025276,2628.64,5.8,-32.6,27.8,-69876.12,-15638.32,28.5,Weapon+Missile,Blue,Enemies,R-27ER,,ru,,168.577452873681,149.276672363281,0.510557212332036,2628.64453125,2628.64453125,141.342494937942,-91.873046875,0.076043859728588,NaN,0,1.47391373503203,5000,0.963057219982147,0.963057219982147,0.963057219982147,1420.91788086891,2577.81968923828,3998.73757010719,,,59.5499999523163,0,28021.5152613364,28360.328239624
2011-06-01T05:00:37Z,1306904437,FA03,55.5452418,26.0264053,2537.78,5.6,-33.8,27.3,-69809.94,-15513.96,28,Weapon+Missile,Blue,Enemies,R-27ER,,ru,,167.637042660552,149.078659057617,0.507157793000259,2537.7822265625,2537.7822265625,140.876611468517,-90.8623046875,0.0221037565412148,NaN,0.353858440520021,1.13618211819435,4316.63025170574,0.17139433324337,0.17139433324337,0.17139433324337,1405.10890359879,2488.71420721191,3893.8231108107,,,60.5499999523163,0,28162.9237007426,28528.4606454654
2011-06-01T05:00:38Z,1306904438,FA03,55.5458722,26.0274996,2441.93,5.4,-36.3,27.6,-69745.5,-15393.44,28.3,Weapon+Missile,Blue,Enemies,R-27ER,,ru,,166.926721784247,149.11962890625,0.504431694735681,2441.93139648438,2441.93139648438,136.664365578485,-95.850830078125,0.0555624961666225,NaN,0.292277454963186,2.4670974119374,3860.89160664497,0.104021176695824,0.104021176695824,0.104021176695824,1393.22652228177,2394.71665293335,3787.94317521512,,,61.5499999523163,0,28300.1052903288,28695.8549874667
2011-06-01T05:00:39Z,1306904439,FA03,55.546495,26.0285666,2339.37,5.1,-38.7,28,-69681.84,-15275.96,28.6,Weapon+Missile,Blue,Enemies,R-27ER,,ru,,168.445665788083,151.233825683594,0.508400787746886,2339.369140625,2339.369140625,133.622325963241,-102.562255859375,0.0464758143664124,NaN,0.230751110919711,2.42367597839292,4015.32953728773,0.0985855832695961,0.0985855832695961,0.0985855832695961,1418.69711613953,2294.13743829102,3712.83455443055,,,62.5499999523163,0,28434.2274479985,28864.7373639993
2011-06-01T05:00:40Z,1306904440,FA03,55.5471025,26.0295931,2231.56,4.8,-41.1,28.3,-69619.78,-15162.93,28.9,Weapon+Missile,Blue,Enemies,R-27ER,,ru,,168.077193799214,151.673400878906,0.506639797137595,2231.55908203125,2231.55908203125,128.945470418432,-107.81005859375,0.0290153609758258,NaN,0.199987938897973,2.37167155838268,4168.63598516688,0.10011763125658,0.10011763125658,0.10011763125658,1412.49715377092,2188.41188718018,3600.9090409511,,,63.5499999523163,0,28563.6472288453,29033.2143480886
2011-06-01T05:00:41Z,1306904441,FA03,55.5476998,26.0305882,2117.88,4.5,-43.4,28.7,-69558.78,-15053.37,29.3,Weapon+Missile,Blue,Enemies,R-27ER,,ru,,169.251993611489,153.572387695312,0.509494762758861,2117.88061523438,2117.88061523438,125.393155826685,-113.678466796875,0.0535370383940082,NaN,0.399975877795947,2.27009490603695,4375.98342810732,0.0969167798757553,0.0969167798757553,0.0969167798757553,1432.31186707318,2076.93139353882,3509.243260612,,,64.5499999523163,0,28689.5053508189,29202.8429555369
2011-06-01T05:00:42Z,1306904442,FA03,55.5482834,26.0315469,1999.2,4.3,-45.5,29,-69499.2,-14947.83,29.6,Weapon+Missile,Blue,Enemies,R-27ER,,ru,,169.626892073845,154.781341552734,0.509908239475282,1999.20458984375,1999.20458984375,121.199354421199,-118.676025390625,0.0146214307803821,NaN,0.199987938897973,2.17214465725368,4569.48514746134,0.096848338842392,0.096848338842392,0.096848338842392,1438.66412573159,1960.54996909912,3399.21409483071,,,65.5499999523163,0,28811.1502153427,29372.8165575212
2011-06-01T05:00:43Z,1306904443,FA03,55.548856,26.0324739,1875.26,4.1,-47.6,29.3,-69440.77,-14845.79,30,Weapon+Missile,Blue,Enemies,R-27ER,,ru,,170.84849484813,156.820358276367,0.512831447311644,1875.25537109375,1875.25537109375,117.583159351738,-123.94921875,0.0334422538979803,NaN,0.184633673643785,2.08482325003601,4788.46212785987,0.091957226395607,0.091957226395607,0.091957226395607,1459.46040959358,1838.99730849365,3298.45771808723,,,66.5499999523163,0,28929.1698253699,29543.9904443769
2011-06-01T05:00:44Z,1306904444,FA03,55.5494196,26.0333733,1745.67,3.8,-49.6,29.7,-69383.26,-14746.8,30.4,Weapon+Missile,Blue,Enemies,R-27ER,,ru,,172.916951518475,159.705780029297,0.51825127085178,1745.66918945312,1745.66918945312,114.488836356414,-129.586181640625,0.0704064247231562,NaN,0.24616001768726,1.99812765890104,5000,0.088993065059185,0.088993065059185,0.088993065059185,1495.01360612214,1711.91667567505,3206.93028179719,,,67.5499999523163,0,29044.0703784295,29717.2019093477
2011-06-01T05:00:45Z,1306904445,FA03,55.5499696,26.034238,1611.79,3.6,-51.5,30,-69327.16,-14651.62,30.7,Weapon+Missile,Blue,Enemies,R-27ER,,ru,,173.577731793513,161.3251953125,0.519417202808662,1611.78686523438,1611.78686523438,110.475120440605,-133.88232421875,0.0568963005413433,NaN,0.199987938897973,1.90249135014252,5000,0.0881807580590248,0.0881807580590248,0.0881807580590248,1506.46144872904,1580.62296619507,3087.08441492411,,,68.5499999523163,0,29154.9399785248,29891.0495908615
2011-06-01T05:00:46Z,1306904446,FA03,55.5505067,26.0350702,1473.64,3.4,-53.2,30.4,-69272.39,-14560.03,31.1,Weapon+Missile,Blue,Enemies,R-27ER,,ru,,174.566778477167,163.295593261719,0.521535631925646,1473.64001464844,1473.64001464844,106.719294511738,-138.146850585938,0.0267239531187641,NaN,0.199987938897973,1.80127755159645,5000,0.084689199924469,0.084689199924469,0.084689199924469,1523.67800739482,1445.14718496521,2968.82519236003,,,69.5499999523163,0,29262.0328276621,30065.8608588287
2011-06-01T05:00:47Z,1306904447,FA03,55.5510303,26.0358699,1331.59,3.2,-54.9,30.8,-69219.01,-14472.04,31.4,Weapon+Missile,Blue,Enemies,R-27ER,,ru,,175.414043797738,165.174423217773,0.523201983162653,1331.58923339844,1331.58923339844,102.915802031269,-142.05078125,0.0218368244279324,NaN,0.199987938897973,1.75053447542684,5000,0.0828972011804581,0.0828972011804581,0.0828972011804581,1538.50433807373,1305.84295557068,2844.34729364441,,,70.5499999523163,0,29365.3215772061,30241.5073304531
2011-06-01T05:00:48Z,1306904448,FA03,55.5515421,26.0366401,1185.45,3,-56.6,31.1,-69166.85,-14387.29,31.8,Weapon+Missile,Blue,Enemies,R-27ER,,ru,,176.800180200149,167.611068725586,0.52644401240728,1185.45300292969,1185.45300292969,99.5113353502489,-146.13623046875,0.0255341351896038,NaN,0.199987938897973,1.65391984879142,5000,0.079972080886364,0.079972080886364,0.079972080886364,1562.91518594027,1162.53226911804,2725.44745505831,,,71.5499999523163,0,29465.1805843373,30418.5145472194
2011-06-01T05:00:49Z,1306904449,FA03,55.552041,26.0373804,1035.69,2.8,-58.1,31.5,-69116.02,-14305.85,32.2,Weapon+Missile,Blue,Enemies,R-27ER,,ru,,177.889405860501,169.808868408203,0.528771913637432,1035.69384765625,1035.69384765625,96.004354740754,-149.759155273438,0.0218522389052409,NaN,0.199987938897973,1.55001271455655,5000,0.0743996426463127,0.0743996426463127,0.0743996426463127,1582.23203587011,1015.66870711182,2597.90074298192,,,72.5499999523163,0,29561.5183255661,30596.5931739276
2011-06-01T05:00:50Z,1306904450,FA03,55.5525333,26.0381004,880.54,2.6,-59.7,31.9,-69065.88,-14226.63,32.5,Weapon+Missile,Blue,Enemies,R-27ER,,ru,,181.276646876086,174.286911010742,0.537879077409169,880.543823242188,880.543823242188,93.75336061685,-155.150024414062,0.0697415636063021,NaN,0.199987938897973,1.49949119264814,5000,0.0731055364012718,0.0731055364012718,0.0731055364012718,1643.06113513187,863.5185084198,2506.57964355167,,,73.5499999523163,0,29655.5866207757,30778.0402267308
2011-06-01T05:00:51Z,1306904451,FA03,55.553014,26.0387938,721.72,2.4,-61,32.2,-69016.91,-14150.37,32.9,Weapon+Missile,Blue,Enemies,R-27ER,,ru,,182.856273869011,177.078155517578,0.541578822128963,721.724609375,721.724609375,90.6249093785326,-158.819213867188,0.022148875941193,NaN,0.199987938897973,1.40022047619923,5000,0.0704115703701973,0.0704115703701973,0.0704115703701973,1671.82084466293,707.770064052734,2379.59090871567,,,74.5499999523163,0,29746.5215434516,30961.056019225
2011-06-01T05:00:52Z,1306904452,FA03,55.5534803,26.0394573,560.39,2.2,-62.3,32.6,-68969.43,-14077.39,33.2,Weapon+Missile,Blue,Enemies,R-27ER,,ru,,183.325248024639,178.823608398438,0.541967867817976,560.394592285156,560.394592285156,87.0676297431255,-161.330017089844,0.0231199005340751,NaN,0.199987938897973,1.34877399726681,5000,0.0661391019821167,0.0661391019821167,0.0661391019821167,1680.40732816476,549.559362843323,2229.96669100809,,,75.5499999523163,0,29833.8768729731,31144.5222614689
2011-06-01T05:00:53Z,1306904453,FA03,55.553934,26.0400941,396.18,2.1,-63.6,32.9,-68923.26,-14007.36,33.6,Weapon+Missile,Blue,Enemies,R-27ER,,ru,,184.401198049045,181.199569702148,0.544130583478776,396.176910400391,396.176910400391,83.882982769552,-164.217681884766,0,NaN,0.199987938897973,1.26505167285491,5000,0.0655331984162331,0.0655331984162331,0.0655331984162331,1700.19009209615,388.516829837799,2088.70692193395,,,76.5499999523163,0,29918.0438656908,31329.0557061137
