ISOTime,UnixTime,Id,Longitude,Latitude,Altitude,Roll,Pitch,Yaw,U,V,Heading,Type,Color,Coalition,Name,Group,Country,Pilot,TAS,CAS,M,ASL,AGL,GS,VS,AOA,AOS,RRT,TRT,TRD,G,LatG,LonG,Ek,Ep,Em,FFW,FFV,RelativeTime,Elev,GroundDistance,AirDistance
2018-07-19T08:00:00Z,1531987200,102,39.8463525,45.9883808,8998.06,0,0.3,198.6,430678.53,117477.21,193.6,Air+FixedWing,Red,Allies,E-2C,Red AWACS,xu,,NaN,NaN,NaN,8998.05957,8947.02512,NaN,NaN,NaN,NaN,NaN,NaN,NaN,NaN,NaN,NaN,NaN,8824.082089,NaN,,,0,51.03445053,NaN,NaN
2018-07-19T08:00:01Z,1531987201,102,39.8457246,45.9870788,8994.94,0.4,2.4,198.6,430642.41,117328.38,193.7,Air+FixedWing,Red,Allies,E-2C,Red AWACS,xu,,153.1813866,96.60289764,0.503913711,8994.943359,8943.943359,153.1496863,-3.116210938,4.182652917,-0.023205096,0.657173481,0.132355279,5000,0.772503032,-0.002146038,-0.06635786,1173.226859,8821.02613,9994.252989,,,1,51,152.8609346,153.1082637
2018-07-19T08:00:02Z,1531987202,102,39.8451001,45.9857851,8989.56,0.2,3.9,198.6,430606.44,117180.51,193.7,Air+FixedWing,Red,Allies,E-2C,Red AWACS,xu,,152.2817134,96.04216766,0.500916037,8989.5625,8938.614883,152.1866177,-5.380859375,5.874378261,-0.007245058,0.390476232,1.574759557,5000,1.082464346,0.006454504,0.112314389,1159.486012,8815.749309,9975.235322,,,2,50.94761658,304.760662,305.317289
2018-07-19T08:00:03Z,1531987203,102,39.8444739,45.9844881,8985.04,0,5.1,198.6,430570.41,117032.27,193.7,Air+FixedWing,Red,Allies,E-2C,Red AWACS,xu,,152.6251649,96.29301453,0.502013739,8985.041016,8935.041016,152.5581762,-4.521484375,6.477878908,-0.026075221,0.038085135,1.119216782,5000,1.189025418,-0.005394554,0.070789322,1164.722048,8811.315248,9976.037295,,,3,50,457.0424963,457.8807163
2018-07-19T08:00:04Z,1531987204,102,39.8438492,45.9831942,8982.39,-0.1,5.8,198.6,430534.41,116884.38,193.7,Air+FixedWing,Red,Allies,E-2C,Red AWACS,xu,,152.2322958,96.04971313,0.500702768,8982.388672,8932.284618,152.2091882,-2.65234375,6.436292452,-0.049554321,0.199987939,0.735832928,5000,1.179997858,0.00394387,0.117464839,1158.733595,8808.714187,9967.447781,,,4,50.1040535,608.9705855,610.0459166
2018-07-19T08:00:05Z,1531987205,102,39.8432248,45.9819005,8981.56,-0.1,6.2,198.6,430498.47,116736.49,193.7,Air+FixedWing,Red,Allies,E-2C,Red AWACS,xu,,152.1890902,96.02599335,0.500554796,8981.558594,8930.837646,152.1868264,-0.830078125,6.200096643,-0.047279148,0,0.421627631,5000,1.142496822,-0.002174426,0.055127746,1158.075958,8807.900158,9965.976117,,,5,50.72094727,760.8721603,762.1636707
2018-07-19T08:00:06Z,1531987206,102,39.8426033,45.9806124,8982.12,-0.1,6.3,198.6,430462.69,116589.26,193.7,Air+FixedWing,Red,Allies,E-2C,Red AWACS,xu,,151.5208674,95.58399963,0.498360933,8982.119141,8929.852417,151.5198305,0.560546875,5.897079691,-0.064097156,0,0.183454199,5000,1.084049505,0.00222454,0.109595449,1147.928662,8808.449867,9956.378529,,,6,52.26672363,912.1091019,913.614625
2018-07-19T08:00:07Z,1531987207,102,39.8419824,45.979325,8983.56,-0.1,6.4,198.6,430426.97,116442.11,193.6,Air+FixedWing,Red,Allies,E-2C,Red AWACS,xu,,151.4284021,95.51537323,0.498066924,8983.557617,8929.746094,151.4215697,1.438476563,5.74748159,0.042666071,0,0.071326265,5000,1.044863697,-0.001998108,0.089200553,1146.528049,8809.860531,9956.388579,,,7,53.81152344,1063.251773,1064.976998
2018-07-19T08:00:08Z,1531987208,102,39.841363,45.97804,8985.47,-0.1,6.3,198.6,430391.31,116295.23,193.6,Air+FixedWing,Red,Allies,E-2C,Red AWACS,xu,,151.1607917,95.32911682,0.497200141,8985.469727,8930.116211,151.1486976,1.912109375,5.533479776,0.032464955,0,0.071326265,5000,1.013033057,-0.001467868,0.072185507,1142.479247,8811.735669,9954.214916,,,8,55.35351563,1214.110302,1216.060133
2018-07-19T08:00:09Z,1531987209,102,39.8407452,45.976758,8987.53,-0.1,6.3,198.6,430355.75,116148.72,193.6,Air+FixedWing,Red,Allies,E-2C,Red AWACS,xu,,150.7762061,95.06519318,0.495949564,8987.527344,8932.430775,150.7621654,2.057617188,5.519177787,0.034035001,0,0.101354391,5000,0.989139355,-4.03e-05,0.116213085,1136.673216,8813.753503,9950.426718,,,9,55.09656906,1364.608177,1366.784098
2018-07-19T08:00:10Z,1531987210,102,39.8401274,45.9754756,8989.54,0,6.2,198.6,430320.19,116002.14,193.6,Air+FixedWing,Red,Allies,E-2C,Red AWACS,xu,,150.8439881,95.09858704,0.496186654,8989.544922,8936.341236,150.8304947,2.017578125,5.464725571,0.035550267,0,0.100870595,5000,0.985447597,-0.000798375,0.008313412,1137.695438,8815.732071,9953.427509,,,10,53.20368576,1515.154576,1517.556158
2018-07-19T08:00:11Z,1531987211,102,39.8395135,45.9742014,8991.37,0,6.1,198.6,430284.84,115856.5,193.6,Air+FixedWing,Red,Allies,E-2C,Red AWACS,xu,,149.8789871,94.45588684,0.493025097,8991.37207,8940.331909,149.8678495,1.827148438,5.441755812,0.038405354,0,0.084510231,5000,0.96548834,0.002971746,0.170050488,1123.185539,8817.523891,9940.709431,,,11,51.04016113,1664.735404,1667.358975
2018-07-19T08:00:12Z,1531987212,102,39.8388972,45.9729216,8992.98,0,6,198.6,430249.38,115710.22,193.6,Air+FixedWing,Red,Allies,E-2C,Red AWACS,xu,,150.5285217,94.87258148,0.495173006,8992.984375,8942.804749,150.5198868,1.612304688,5.431861126,0.041624521,0,0.05326559,5000,0.986152249,0.000263777,-0.058773012,1132.941793,8819.105022,9952.046815,,,12,50.17962646,1814.969779,1817.813795
2018-07-19T08:00:13Z,1531987213,102,39.8382873,45.9716552,8994.35,0,5.9,198.6,430214.28,115565.48,193.6,Air+FixedWing,Red,Allies,E-2C,Red AWACS,xu,,148.9420379,93.82534027,0.489963601,8994.347656,8946.363037,148.9357987,1.36328125,5.43962973,0.029936547,0,0.067810465,5000,0.963782897,-0.002286147,0.172167592,1109.186533,8820.441944,9929.628478,,,13,47.98461914,1963.641055,1966.700951
2018-07-19T08:00:14Z,1531987214,102,39.8376746,45.9703827,8995.48,0,5.9,198.6,430179,115420.05,193.6,Air+FixedWing,Red,Allies,E-2C,Red AWACS,xu,,149.6448107,94.27961731,0.492283329,8995.479492,8949.021729,149.6405304,1.131835938,5.505482,0.029955281,0,0.052339163,5000,0.980176393,0.001624132,0.039920371,1119.678469,8821.551896,9941.230365,,,14,46.45776367,2113.007634,2116.282459
2018-07-19T08:00:15Z,1531987215,102,39.8370645,45.9691155,8996.41,0,5.9,198.6,430143.88,115275.21,193.6,Air+FixedWing,Red,Allies,E-2C,Red AWACS,xu,,149.0447464,93.88159943,0.490315727,8996.40625,8951.993164,149.0418651,0.926757813,5.546959732,0.017189404,0,0.052339163,5000,0.981118096,-0.001011185,0.055740512,1110.716821,8822.460735,9933.177556,,,15,44.41308594,2261.764193,2265.251713
2018-07-19T08:00:16Z,1531987216,102,39.8364562,45.9678519,8997.15,0,5.8,198.6,430108.84,115130.8,193.6,Air+FixedWing,Red,Allies,E-2C,Red AWACS,xu,,148.6040647,93.58890533,0.488871165,8997.15332,8954.732666,148.6021868,0.747070313,5.542422412,0.037454414,0,0.052339163,5000,0.972363964,0.001935077,0.174916967,1104.158402,8823.193361,9927.351763,,,16,42.4206543,2410.096765,2413.795397
2018-07-19T08:00:17Z,1531987217,102,39.8358449,45.9665819,8997.75,0,5.8,198.6,430073.66,114985.66,193.6,Air+FixedWing,Red,Allies,E-2C,Red AWACS,xu,,149.3463153,94.07183075,0.491317155,8997.753906,8956.855766,149.3451077,0.600585938,5.595320742,0.024627371,0,0.01713201,5000,0.994300258,-0.000410979,-0.02330435,1115.216094,8823.782334,9938.998429,,,17,40.89813995,2559.167236,2563.077365
2018-07-19T08:00:18Z,1531987218,102,39.8352386,45.9653224,8998.23,0,5.8,198.6,430038.75,114841.7,193.6,Air+FixedWing,Red,Allies,E-2C,Red AWACS,xu,,148.1331168,93.27455902,0.487329241,8998.225586,8958.940613,148.1323659,0.471679688,5.634811687,0.035012148,0,0.01713201,5000,0.980512516,-0.000774791,0.150864199,1097.171015,8824.244894,9921.415909,,,18,39.28497314,2707.014715,2711.134172
2018-07-19T08:00:19Z,1531987219,102,39.8346302,45.9640586,8998.61,0,5.8,198.6,430003.72,114697.25,193.6,Air+FixedWing,Red,Allies,E-2C,Red AWACS,xu,,148.6330442,93.59996796,0.488976535,8998.606445,8961.182739,148.6325563,0.380859375,5.67131851,0.026051384,0,0.01713201,5000,0.990171243,0.001424064,0.065629938,1104.589092,8824.61839,9929.207481,,,19,37.42370605,2855.374931,2859.704186
2018-07-19T08:00:20Z,1531987220,102,39.8340234,45.9627977,8998.91,0,5.8,198.6,429968.78,114553.13,193.6,Air+FixedWing,Red,Allies,E-2C,Red AWACS,xu,,148.2918829,93.37477875,0.48785624,8998.90625,8963.079529,148.2915798,0.299804688,5.698351339,0.036069176,0,0.01713201,5000,0.988529881,-0.001873268,0.092628309,1099.524126,8824.912398,9924.436524,,,20,35.82672119,3003.384961,3007.923343
2018-07-19T08:00:21Z,1531987221,102,39.8334167,45.9615373,8999.14,0,5.8,198.6,429933.84,114409.09,193.6,Air+FixedWing,Red,Allies,E-2C,Red AWACS,xu,,148.2158328,93.32375336,0.487607628,8999.135742,8965.036987,148.2156552,0.229492188,5.720476283,0.028557523,0,0.01713201,5000,0.99664883,0.001249479,0.038319375,1098.396655,8825.137453,9923.534108,,,21,34.09875488,3151.331252,3156.078551
2018-07-19T08:00:22Z,1531987222,102,39.8328126,45.9602822,8999.32,0,5.8,198.6,429899.06,114265.65,193.6,Air+FixedWing,Red,Allies,E-2C,Red AWACS,xu,,147.601921,92.92127991,0.485589217,8999.320313,8966.609314,147.6018056,0.184570313,5.734816243,0.033547642,0,0.01713201,5000,0.99038572,0.00056198,0.102934721,1089.316355,8825.318454,9914.634809,,,22,32.71099854,3298.658826,3303.614113
2018-07-19T08:00:23Z,1531987223,102,39.8322085,45.9590269,8999.46,0,5.8,198.6,429864.28,114122.18,193.6,Air+FixedWing,Red,Allies,E-2C,Red AWACS,xu,,147.6246521,92.93539429,0.485664977,8999.462891,8967.814087,147.6245832,0.142578125,5.751820227,0.029280497,0,0.01713201,5000,0.991300716,-0.002535283,0.103780826,1089.651895,8825.458276,9915.110171,,,23,31.64880371,3446.018875,3451.182151
2018-07-19T08:00:24Z,1531987224,102,39.8316043,45.9577714,8999.57,0,5.8,198.6,429829.47,113978.69,193.6,Air+FixedWing,Red,Allies,E-2C,Red AWACS,xu,,147.654767,92.95433807,0.485764808,8999.573242,8968.649475,147.6547257,0.110351563,5.760516183,0.040072106,0,0.01713201,5000,0.995736912,0.000949376,0.077844644,1090.09651,8825.566494,9915.663004,,,24,30.92376709,3593.388179,3598.759435
2018-07-19T08:00:25Z,1531987225,102,39.8310009,45.9565178,8999.67,0,5.8,198.6,429794.72,113835.41,193.6,Air+FixedWing,Red,Allies,E-2C,Red AWACS,xu,,147.4274383,92.80532837,0.485017582,8999.668945,8969.324945,147.4274072,0.095703125,5.769953194,0.028206138,0,0.01713201,5000,0.991167552,0.002247922,0.110018838,1086.742478,8825.660346,9912.402824,,,25,30.34399986,3740.550037,3746.12897
2018-07-19T08:00:26Z,1531987226,102,39.8303972,45.9552634,8999.74,0,5.8,198.6,429759.97,113692.05,193.6,Air+FixedWing,Red,Allies,E-2C,Red AWACS,xu,,147.5185332,92.86444092,0.485317741,8999.737305,8968.902349,147.5185173,0.068359375,5.773820681,0.032157719,0,0.01713201,5000,1.0030873,-0.00258435,0.009423102,1088.085881,8825.727384,9913.813265,,,26,30.83495522,3887.791683,3893.578394
2018-07-19T08:00:27Z,1531987227,102,39.8297973,45.9540167,8999.79,0,5.8,198.6,429725.41,113549.56,193.6,Air+FixedWing,Red,Allies,E-2C,Red AWACS,xu,,146.6163935,92.2742691,0.482350206,8999.794922,8969.039551,146.6163822,0.057617188,5.781339456,0.035064022,0,0.01713201,5000,0.988738654,-0.000112776,0.140828715,1074.818342,8825.783887,9900.602229,,,27,30.75537109,4034.138574,4040.131797
2018-07-19T08:00:28Z,1531987228,102,39.8291957,45.9527666,8999.83,0,5.8,198.6,429690.75,113406.7,193.6,Air+FixedWing,Red,Allies,E-2C,Red AWACS,xu,,147.0105109,92.53160858,0.483647058,8999.832031,8969.798523,147.0105062,0.037109375,5.785534271,0.030733148,0,0.01713201,5000,0.993338916,0.000649273,0.117218962,1080.604515,8825.820279,9906.424794,,,28,30.0335083,4180.881797,4187.082085
2018-07-19T08:00:29Z,1531987229,102,39.8285935,45.9515151,8999.87,0,5.8,198.6,429656.06,113263.67,193.6,Air+FixedWing,Red,Allies,E-2C,Red AWACS,xu,,147.1697244,92.63560486,0.484171112,8999.870117,8969.813086,147.1697195,0.038085938,5.788972453,0.042261722,0,0.01713201,5000,1.002383054,-0.000898409,0.016356269,1082.946389,8825.857628,9908.804018,,,29,30.05703163,4327.784726,4334.192305
2018-07-19T08:00:30Z,1531987230,102,39.8279947,45.9502708,8999.9,0,5.8,198.6,429621.56,113121.46,193.6,Air+FixedWing,Red,Allies,E-2C,Red AWACS,xu,,146.33592,92.0904541,0.481428179,8999.897461,8969.220947,146.3359175,0.02734375,5.789683356,0.034368653,0,0.01713201,5000,0.990558552,-0.000674756,0.138678673,1070.710075,8825.884444,9896.594518,,,30,30.67651367,4473.842968,4480.456646
2018-07-19T08:00:31Z,1531987231,102,39.8273945,45.9490233,8999.92,0,5.8,198.6,429586.97,112978.89,193.6,Air+FixedWing,Red,Allies,E-2C,Red AWACS,xu,,146.7072665,92.33296967,0.482650019,8999.919922,8970.093506,146.7072648,0.022460938,5.792748144,0.03472428,0,0.01713201,5000,0.999192483,-0.001198512,0.05565008,1076.151102,8825.90647,9902.057573,,,31,29.82641602,4620.283267,4627.103582
2018-07-19T08:00:32Z,1531987232,102,39.8267961,45.9477797,8999.94,0,5.9,198.6,429552.47,112836.76,193.6,Air+FixedWing,Red,Allies,E-2C,Red AWACS,xu,,146.2599972,92.04058838,0.481178687,8999.939453,8971.502804,146.2599959,0.01953125,5.895793097,0.037274834,0,0.052339163,5000,0.987849382,0.004195741,0.160391834,1069.599339,8825.925624,9895.524962,,,32,28.43664932,4766.26537,4773.291676
2018-07-19T08:00:33Z,1531987233,102,39.8261953,45.946531,8999.95,0,5.9,198.6,429517.88,112694.06,193.6,Air+FixedWing,Red,Allies,E-2C,Red AWACS,xu,,146.8287433,92.41217804,0.48304987,8999.950195,8971.85705,146.8287429,0.010742188,5.894254357,0.034388225,0,0.052339163,5000,1.005847304,-0.003046297,-0.00408288,1077.933993,8825.936158,9903.870151,,,33,28.09314537,4912.835156,4920.068281
2018-07-19T08:00:34Z,1531987234,102,39.825599,45.9452915,8999.96,0,5.9,198.6,429483.5,112552.4,193.6,Air+FixedWing,Red,Allies,E-2C,Red AWACS,xu,,145.7749888,91.72357941,0.479583217,8999.961914,8970.126005,145.7749884,0.01171875,5.8942949,0.036498761,0,0.013988227,5000,0.988824787,-0.00021281,0.155796854,1062.517368,8825.94765,9888.465019,,,34,29.83590889,5058.33115,5065.76958
2018-07-19T08:00:35Z,1531987235,102,39.8250005,45.9440476,8999.97,0,5.9,198.6,429449,112410.23,193.6,Air+FixedWing,Red,Allies,E-2C,Red AWACS,xu,,146.2979566,92.06533813,0.481303775,8999.969727,8966.825211,146.2979564,0.0078125,5.899612846,0.044338329,0,0.013988227,5000,1.001037893,0.001249479,0.040519319,1070.154605,8825.955312,9896.109917,,,35,33.14451599,5204.352711,5211.997187
2018-07-19T08:00:36Z,1531987236,102,39.8244044,45.9428086,8999.98,0,5.9,198.6,429414.66,112268.65,193.6,Air+FixedWing,Red,Allies,E-2C,Red AWACS,xu,,145.6841058,91.66411591,0.479284321,8999.976563,8963.998352,145.6841057,0.006835938,5.896171311,0.039824566,0,0.013988227,5000,0.992955956,-0.000100034,0.115820344,1061.192934,8825.962016,9887.15495,,,36,35.97821045,5349.782882,5357.63257
2018-07-19T08:00:37Z,1531987237,102,39.8238079,45.9415688,8999.98,0,5.9,198.6,429380.28,112126.95,193.6,Air+FixedWing,Red,Allies,E-2C,Red AWACS,xu,,145.8129496,91.74841309,0.479708223,8999.979492,8960.809078,145.8129496,0.002929688,5.899999268,0.029677531,0,0.013988227,5000,0.997801717,-0.000736566,0.072803923,1063.070813,8825.964889,9889.035702,,,37,39.17041397,5495.325402,5503.38046
2018-07-19T08:00:38Z,1531987238,102,39.8232127,45.9403314,8999.98,0,5.9,198.6,429345.97,111985.53,193.6,Air+FixedWing,Red,Allies,E-2C,Red AWACS,xu,,145.5173005,91.55523682,0.47873559,8999.982422,8957.716801,145.5173004,0.002929688,5.895768771,0.041705883,0,0.013988227,5000,0.994165818,-0.000849342,0.112831613,1058.764237,8825.967762,9884.731999,,,38,42.26562119,5640.570648,5648.830657
2018-07-19T08:00:39Z,1531987239,102,39.8226171,45.9390932,8999.99,0,5.9,198.6,429311.62,111844.02,193.6,Air+FixedWing,Red,Allies,E-2C,Red AWACS,xu,,145.615776,91.61930084,0.479059617,8999.990234,8955.900513,145.6157758,0.0078125,5.899999268,0.041679674,0,0.013988227,5000,0.995974563,0.001698683,0.082734817,1060.197711,8825.975423,9886.173134,,,39,44.08972168,5785.913247,5794.378345
2018-07-19T08:00:40Z,1531987240,102,39.8220224,45.9378566,8999.99,0,5.9,198.6,429277.34,111702.7,193.6,Air+FixedWing,Red,Allies,E-2C,Red AWACS,xu,,145.4188256,91.4907608,0.478411672,8999.990234,8954.416626,145.4188256,0,5.899999268,0.027131466,0,0.013988227,5000,0.992081241,-0.000387395,0.12815984,1057.331741,8825.975423,9883.307165,,,40,45.5736084,5931.064387,5939.734303
2018-07-19T08:00:41Z,1531987241,102,39.8214265,45.9366179,8999.99,0,5.9,198.6,429243,111561.14,193.6,Air+FixedWing,Red,Allies,E-2C,Red AWACS,xu,,145.6689211,91.65432739,0.479234458,8999.990234,8952.972847,145.6689211,0,5.899999268,0.040247359,0,0.013988227,5000,1.005031905,-0.001360355,0.002838812,1060.971729,8825.975423,9886.947152,,,41,47.01738739,6076.473345,6085.348442
2018-07-19T08:00:42Z,1531987242,102,39.8208348,45.9353875,8999.99,0,5.9,198.6,429208.88,111420.54,193.6,Air+FixedWing,Red,Allies,E-2C,Red AWACS,xu,,144.6834994,91.01081848,0.475992531,8999.990234,8951.990402,144.6834994,0,5.898077114,0.048620094,0,0.031278628,5000,0.989813575,0.000723824,0.159791232,1046.66575,8825.975423,9872.641173,,,42,47.99983215,6220.89032,6229.9692
2018-07-19T08:00:43Z,1531987243,102,39.8202408,45.9341525,9000,0,6,198.6,429174.62,111279.39,193.6,Air+FixedWing,Red,Allies,E-2C,Red AWACS,xu,,145.2444285,91.37677002,0.477837991,9000,8951,145.2444282,0.009765625,5.998054545,0.027136305,0,0.052339163,5000,0.996922987,0.001986044,0.072155755,1054.7972,8825.985,9880.7822,,,43,49,6365.861824,6375.14527
2018-07-19T08:00:44Z,1531987244,102,39.8196481,45.93292,9000,0,6,198.6,429140.47,111138.55,193.6,Air+FixedWing,Red,Allies,E-2C,Red AWACS,xu,,144.9262272,91.16918182,0.476791144,9000,8950.576355,144.9262272,0,5.999993149,0.04536289,0,0.031278628,5000,0.992422639,-0.001698683,0.124500529,1050.180566,8825.985,9876.165566,,,44,49.42364502,6510.52879,6520.016371
2018-07-19T08:00:45Z,1531987245,102,39.8190546,45.9316859,9000,0,6,198.6,429106.25,110997.52,193.6,Air+FixedWing,Red,Allies,E-2C,Red AWACS,xu,,145.1231764,91.29779816,0.477439085,9000,8949.864258,145.1231764,0,5.999993149,0.034088542,0,0.019782341,5000,0.998398976,0.000862083,0.067639402,1053.036816,8825.985,9879.021816,,,45,50.13574219,6655.387982,6665.079969
2018-07-19T08:00:46Z,1531987246,102,39.8184627,45.930455,9000,0,6,198.6,429072.12,110856.84,193.6,Air+FixedWing,Red,Allies,E-2C,Red AWACS,xu,,144.7594215,91.06047821,0.476242372,9000,8949.070099,144.7594215,0,5.999993149,0.042555925,0,0.019782341,5000,0.999693983,-0.002135146,0.055318215,1047.764505,8825.985,9873.749505,,,46,50.92990112,6799.877672,6809.773545
2018-07-19T08:00:47Z,1531987247,102,39.8178727,45.9292282,9000,0,6,198.6,429038.09,110716.63,193.6,Air+FixedWing,Red,Allies,E-2C,Red AWACS,xu,,144.2741912,90.74384308,0.474646018,9000,8948.445923,144.2741912,0,5.999993149,0.037412302,0,0.019782341,5000,0.990884818,0.001860527,0.139131938,1040.752112,8825.985,9866.737112,,,47,51.55407715,6943.884065,6953.98314
2018-07-19T08:00:48Z,1531987248,102,39.8172814,45.9279983,9000,0,6,198.6,429004,110576.09,193.6,Air+FixedWing,Red,Allies,E-2C,Red AWACS,xu,,144.6153929,90.96643829,0.475768534,9000,8947.736389,144.6153929,0,5.999993149,0.04182089,0,0.019782341,5000,0.998722728,0.000112776,0.064559105,1045.680594,8825.985,9871.665594,,,48,52.26361084,7088.247145,7098.549926
2018-07-19T08:00:49Z,1531987249,102,39.8166917,45.9267719,9000,0,6,198.6,428970,110435.94,193.6,Air+FixedWing,Red,Allies,E-2C,Red AWACS,xu,,144.2212689,90.70922852,0.47447191,9000,8947.003578,144.2212689,0,5.999993149,0.033740602,0,0.019782341,5000,0.990242543,-0.00321004,0.145242788,1039.988721,8825.985,9865.973721,,,49,52.99642181,7232.205112,7242.711029
2018-07-19T08:00:50Z,1531987250,102,39.8161006,45.9255422,9000,0,6,198.6,428935.88,110295.4,193.6,Air+FixedWing,Red,Allies,E-2C,Red AWACS,xu,,144.6227635,90.97099304,0.475792782,9000,8944.968384,144.6227635,0,5.999993149,0.036352895,0,0.019782341,5000,1.002033341,0.002286147,0.03306068,1045.787186,8825.985,9871.772186,,,50,55.03161621,7376.546507,7387.256099
2018-07-19T08:00:51Z,1531987251,102,39.8155122,45.9243183,9000,0,6,198.6,428901.94,110155.54,193.6,Air+FixedWing,Red,Allies,E-2C,Red AWACS,xu,,143.9180276,90.51155853,0.47347428,9000,8943.683052,143.9180276,0,5.999993149,0.050257214,0,0.019782341,5000,0.993388666,0.002622576,0.115309383,1035.619934,8825.985,9861.604934,,,51,56.31694794,7520.20107,7531.113369
2018-07-19T08:00:52Z,1531987252,102,39.8149233,45.9230935,9000,0,6,198.6,428868,110015.57,193.6,Air+FixedWing,Red,Allies,E-2C,Red AWACS,xu,,144.0243205,90.58054352,0.473823971,9000,8942.64426,144.0243205,0,5.999993149,0.030081641,0,0.019782341,5000,0.992341701,-0.001511356,0.125270604,1037.150244,8825.985,9863.135244,,,52,57.35573959,7663.971547,7675.086716
2018-07-19T08:00:53Z,1531987253,102,39.8143337,45.9218669,9000,0,6,198.6,428834,109875.41,193.6,Air+FixedWing,Red,Allies,E-2C,Red AWACS,xu,,144.2288612,90.71417999,0.474496888,9000,8942,144.2288612,0,5.999993149,0.033402294,0,0.019782341,5000,0.99557399,-0.002435249,0.094517381,1040.098221,8825.985,9866.083221,,,53,58,7807.939666,7819.257985
2018-07-19T08:00:54Z,1531987254,102,39.8137446,45.9206413,9000,0,6.1,198.6,428800,109735.34,193.6,Air+FixedWing,Red,Allies,E-2C,Red AWACS,xu,,144.1301631,90.64985657,0.474172182,9000,8942.11414,144.1301631,0,6.099987404,0.039289601,0,0.05326559,5000,1.001153957,0.000874825,0.042483857,1038.675195,8825.985,9864.660195,,,54,57.88586044,7951.803007,7963.324327
2018-07-19T08:00:55Z,1531987255,102,39.8131581,45.9194209,9000,0,6.1,198.6,428766.16,109595.89,193.6,Air+FixedWing,Red,Allies,E-2C,Red AWACS,xu,,143.5011271,90.23966217,0.472102723,9000,8942.549004,143.5011271,0,6.099987404,0.050786156,0,0.05326559,5000,0.989573487,0.001011185,0.150845292,1029.628674,8825.985,9855.613674,,,55,57.4509964,8095.043964,8106.767407
2018-07-19T08:00:56Z,1531987256,102,39.8125698,45.9181969,9000,0,6.1,198.6,428732.22,109456.01,193.6,Air+FixedWing,Red,Allies,E-2C,Red AWACS,xu,,143.9408043,90.52604675,0.473549212,9000,8942.082397,143.9408043,0,6.099987404,0.033420052,0,0.01713201,5000,0.998855382,-0.000449204,0.063992211,1035.947757,8825.985,9861.932757,,,56,57.91760254,8238.715215,8250.641388
2018-07-19T08:00:57Z,1531987257,102,39.8119831,45.9169764,9000,0,6.1,198.6,428698.38,109316.53,193.6,Air+FixedWing,Red,Allies,E-2C,Red AWACS,xu,,143.5239036,90.25419617,0.472177655,9000,8942.238312,143.5239036,0,6.099987404,0.044834786,0,0.01713201,5000,0.994911172,0.001973303,0.100899199,1029.955545,8825.985,9855.940545,,,57,57.76168823,8381.974638,8394.10296
2018-07-19T08:00:58Z,1531987258,102,39.8113968,45.9157563,9000,0,6.1,198.6,428664.56,109177.1,193.6,Air+FixedWing,Red,Allies,E-2C,Red AWACS,xu,,143.4709828,90.21977997,0.472003552,9000,8942.768738,143.4709828,0,6.099987404,0.035998827,0,0.01713201,5000,0.993520354,-0.004695912,0.113913437,1029.196146,8825.985,9855.181146,,,58,57.23126221,8525.190567,8537.520977
2018-07-19T08:00:59Z,1531987259,102,39.8108102,45.9145356,9000,0,6.1,198.6,428630.69,109037.61,193.6,Air+FixedWing,Red,Allies,E-2C,Red AWACS,xu,,143.5464594,90.26911163,0.472251861,9000,8942.987183,143.5464594,0,6.099987404,0.044966258,0,0.01713201,5000,0.99737431,0.002922678,0.077850981,1030.2793,8825.985,9856.2643,,,59,57.01281738,8668.468954,8681.00154
2018-07-19T08:01:00Z,1531987260,102,39.8102247,45.9133173,9000,0,6.1,198.6,428596.91,108898.38,193.6,Air+FixedWing,Red,Allies,E-2C,Red AWACS,xu,,143.2662157,90.08617401,0.471329891,9000,8942,143.2662157,0,6.099987404,0.032326015,0,0.01713201,5000,0.997376968,-0.000361912,0.077826114,1026.260428,8825.985,9852.245428,,,60,58,8811.471136,8824.205508
2018-07-19T08:01:01Z,1531987261,102,39.8096404,45.9121012,9000,0,6.1,198.6,428563.19,108759.43,193.6,Air+FixedWing,Red,Allies,E-2C,Red AWACS,xu,,142.9857512,89.90325165,0.470407194,9000,8941.294888,142.9857512,0,6.099987404,0.035260281,0,0.01713201,5000,0.992694879,0.000461946,0.121637621,1022.246252,8825.985,9848.231252,,,61,58.70511246,8954.205921,8967.141702
2018-07-19T08:01:02Z,1531987262,102,39.8090556,45.9108841,9000,0,6.1,198.6,428529.44,108620.33,193.6,Air+FixedWing,Red,Allies,E-2C,Red AWACS,xu,,143.1373717,90.00223541,0.470906009,9000,8940.051338,143.1373717,0,6.099987404,0.046064244,0,0.01713201,5000,0.995487144,0.000662015,0.095509677,1024.415359,8825.985,9850.400359,,,62,59.9486618,9097.072567,9110.209943
2018-07-19T08:01:03Z,1531987263,102,39.8084711,45.9096676,9000,0,6.1,198.6,428495.72,108481.33,193.6,Air+FixedWing,Red,Allies,E-2C,Red AWACS,xu,,143.0313046,89.93318939,0.47055706,9000,8938.599609,143.0313046,0,6.099987404,0.033455046,0,0.01713201,5000,0.99713278,-0.003084522,0.080111043,1022.897705,8825.985,9848.882705,,,63,61.40039063,9239.855299,9253.194151
2018-07-19T08:01:04Z,1531987264,102,39.8078879,45.9084535,9000,0,6.1,198.6,428462.03,108342.59,193.6,Air+FixedWing,Red,Allies,E-2C,Red AWACS,xu,,142.7733948,89.76495361,0.469708565,9000,8937.1427,142.7733948,0,6.099987404,0.040864641,0,0.01713201,5000,0.987516442,0.005694356,0.170093584,1019.212112,8825.985,9845.197112,,,64,62.8572998,9382.357925,9395.897858
2018-07-19T08:01:05Z,1531987265,102,39.8073019,45.9072339,9000,0,6.1,198.6,428428.25,108203.22,193.6,Air+FixedWing,Red,Allies,E-2C,Red AWACS,xu,,143.4028793,90.17539215,0.471779499,9000,8936.679077,143.4028793,0,6.099987404,0.031951104,0,0.01713201,5000,1.007152554,-0.002946262,-0.013646557,1028.21929,8825.985,9854.20429,,,65,63.32092285,9525.50935,9539.251281
2018-07-19T08:01:06Z,1531987266,102,39.8067209,45.9060244,9000,0,6.1,198.6,428394.72,108065.01,193.6,Air+FixedWing,Red,Allies,E-2C,Red AWACS,xu,,142.2202797,89.40475464,0.467888878,9000,8936,142.2202797,0,6.099987404,0.049822723,0,0.037009373,5000,0.988344575,-0.002748093,0.162344533,1011.330399,8825.985,9837.315399,,,66,64,9667.47103,9681.413278
2018-07-19T08:01:07Z,1531987267,102,39.8061377,45.9048104,9000,0,6.2,198.6,428361.03,107926.27,193.6,Air+FixedWing,Red,Allies,E-2C,Red AWACS,xu,,142.7733948,89.76495361,0.469708565,9000,8935,142.7733948,0,6.200008228,0.034610982,0,0.05326559,5000,0.99640337,0.001511356,0.08726498,1019.212112,8825.985,9845.197112,,,67,65,9809.966809,9824.110128
2018-07-19T08:01:08Z,1531987268,102,39.8055553,45.9035979,9000,0,6.2,198.6,428327.41,107787.72,193.6,Air+FixedWing,Red,Allies,E-2C,Red AWACS,xu,,142.5688507,89.63143921,0.469035638,9000,8935,142.5688507,0,6.200008228,0.039049034,0,0.024228322,5000,0.988974185,0.001760492,0.15565171,1016.29386,8825.985,9842.27886,,,68,65,9952.280609,9966.624744
2018-07-19T08:01:09Z,1531987269,102,39.804971,45.9023813,9000,0,6.2,198.6,428293.69,107648.71,193.6,Air+FixedWing,Red,Allies,E-2C,Red AWACS,xu,,143.0388969,89.93818665,0.470582038,9000,8934,143.0388969,0,6.200008228,0.033851662,0,0.019782341,5000,1.002416319,-0.002122404,0.031914904,1023.006302,8825.985,9848.991302,,,69,66,10095.07213,10109.61775
2018-07-19T08:01:10Z,1531987270,102,39.8043899,45.9011713,9000,0,6.2,198.6,428260.12,107510.44,193.6,Air+FixedWing,Red,Allies,E-2C,Red AWACS,xu,,142.2883865,89.44875336,0.468112942,9000,8934,142.2883865,0,6.200008228,0.048734764,0,0.019782341,5000,0.994900808,0.001598649,0.101096283,1012.299246,8825.985,9838.284246,,,70,66,10237.0943,10251.84033
2018-07-19T08:01:11Z,1531987271,102,39.803809,45.8999618,9000,0,6.2,198.6,428226.59,107372.23,193.6,Air+FixedWing,Red,Allies,E-2C,Red AWACS,xu,,142.2202797,89.40475464,0.467888878,9000,8934,142.2202797,0,6.200008228,0.034597074,0,0.019782341,5000,0.992899192,-0.000474688,0.119521446,1011.330399,8825.985,9837.315399,,,71,66,10379.0512,10393.99754
2018-07-19T08:01:12Z,1531987272,102,39.8032277,45.8987513,9000,0,6.2,198.6,428193.03,107233.91,193.6,Air+FixedWing,Red,Allies,E-2C,Red AWACS,xu,,142.3339392,89.47845459,0.468262805,9000,8934,142.3339392,0,6.200008228,0.047989231,0,0.019782341,5000,0.997741382,-0.001485873,0.074948388,1012.947513,8825.985,9838.932513,,,72,66,10521.13043,10536.27726
2018-07-19T08:01:13Z,1531987273,102,39.8026477,45.8975436,9000,0,6.2,198.6,428159.53,107095.91,193.6,Air+FixedWing,Red,Allies,E-2C,Red AWACS,xu,,142.0079223,89.2664566,0.467190246,9000,8934.949219,142.0079223,0,6.200008228,0.035388638,0,0.019782341,5000,0.990474047,0.00495779,0.141845269,1008.3125,8825.985,9834.2975,,,73,65.05078125,10662.88513,10678.23198
2018-07-19T08:01:14Z,1531987274,102,39.8020665,45.8963331,9000,0,6.2,198.6,428126,106957.57,193.6,Air+FixedWing,Red,Allies,E-2C,Red AWACS,xu,,142.3417589,89.4838562,0.468288531,9000,8935,142.3417589,0,6.200008228,0.036833788,0,0.019782341,5000,1.002918074,-0.003246365,0.027296182,1013.058817,8825.985,9839.043817,,,74,65,10804.96391,10820.51124
2018-07-19T08:01:15Z,1531987275,102,39.8014885,45.8951294,9000,0,6.2,198.6,428092.62,106820.02,193.6,Air+FixedWing,Red,Allies,E-2C,Red AWACS,xu,,141.5456911,88.96516418,0.465669557,9000,8935,141.5456911,0,6.200008228,0.04202783,0,0.019782341,5000,0.98388382,4.91e-05,0.202509267,1001.759134,8825.985,9827.744134,,,75,65,10946.24424,10961.99092
2018-07-19T08:01:16Z,1531987276,102,39.8009067,45.8939176,9000,0,6.2,198.6,428059.03,106681.55,193.6,Air+FixedWing,Red,Allies,E-2C,Red AWACS,xu,,142.4779676,89.5725174,0.468736643,9000,8936,142.4779676,0,6.200008228,0.035021163,0,0.019782341,5000,0.998661264,-0.003546468,0.066480731,1014.998563,8825.985,9840.983563,,,76,64,11088.47263,11104.42001
2018-07-19T08:01:17Z,1531987277,102,39.8003266,45.8927094,9000,0,6.2,198.6,428025.5,106543.5,193.6,Air+FixedWing,Red,Allies,E-2C,Red AWACS,xu,,142.0684394,89.30548859,0.46738934,9000,8936,142.0684394,0,6.200008228,0.046250197,0,0.019782341,5000,1.001075607,0.004159415,0.044256358,1009.172073,8825.985,9835.157073,,,77,64,11230.28066,11246.42815
2018-07-19T08:01:18Z,1531987278,102,39.7997491,45.8915065,9000,0,6.2,198.6,427992.16,106406.05,193.6,Air+FixedWing,Red,Allies,E-2C,Red AWACS,xu,,141.439624,88.89608765,0.465320608,9000,8937,141.439624,0,6.200008228,0.030131351,0,0.019782341,5000,0.98947594,0.000636531,0.151032988,1000.258362,8825.985,9826.243362,,,78,63,11371.46493,11387.81163
2018-07-19T08:01:19Z,1531987279,102,39.7991699,45.8902999,9000,0,6.2,198.6,427958.72,106268.18,193.6,Air+FixedWing,Red,Allies,E-2C,Red AWACS,xu,,141.8641174,89.17246246,0.466717144,9000,8937,141.8641174,0,6.200008228,0.038367152,0,0.019782341,5000,0.998326762,-0.002797161,0.069559879,1006.27139,8825.985,9832.25639,,,79,63,11513.07379,11529.62031
2018-07-19T08:01:20Z,1531987280,102,39.7985923,45.8890967,9000,0,6.2,198.6,427925.34,106130.69,193.6,Air+FixedWing,Red,Allies,E-2C,Red AWACS,xu,,141.4849541,88.92558289,0.465469739,9000,8937.973557,141.4849541,0,6.200008228,0.044031624,0,0.019782341,5000,0.988809635,-0.001149444,0.157166421,1000.899612,8825.985,9826.884612,,,80,62.02644348,11654.29313,11671.03892
2018-07-19T08:01:21Z,1531987281,102,39.7980127,45.8878892,9000,0,6.2,198.6,427891.84,105992.73,193.6,Air+FixedWing,Red,Allies,E-2C,Red AWACS,xu,,141.9699626,89.24171448,0.467065363,9000,8937.67189,141.9699626,0,6.200008228,0.03727269,0,0.051396036,5000,1.001909163,0.005570737,0.03658335,1007.773514,8825.985,9833.758514,,,81,62.32810974,11796.01573,11812.9615
2018-07-19T08:01:22Z,1531987282,102,39.797436,45.8866879,9000,0,6.3,198.6,427858.56,105855.44,193.6,Air+FixedWing,Red,Allies,E-2C,Red AWACS,xu,,141.2654533,88.78265381,0.464747605,9000,8938,141.2654533,0,6.300002825,0.04325836,0,0.051396036,5000,0.993371504,-0.005257893,0.115072119,997.7964142,8825.985,9823.781414,,,82,62,11937.02003,11954.16477
2018-07-19T08:01:23Z,1531987283,102,39.7968592,45.8854859,9000,0,6.3,198.6,427825.22,105718.11,193.6,Air+FixedWing,Red,Allies,E-2C,Red AWACS,xu,,141.3181502,88.81723785,0.464920973,9000,8937,141.3181502,0,6.300002825,0.034277369,0,0.00989117,5000,0.992091479,0.00412119,0.126666429,998.540979,8825.985,9824.525979,,,83,63,12078.08974,12095.43354
2018-07-19T08:01:24Z,1531987284,102,39.7962817,45.8842826,9000,0,6.3,198.6,427791.88,105580.61,193.6,Air+FixedWing,Red,Allies,E-2C,Red AWACS,xu,,141.4851782,88.92597198,0.465470476,9000,8937.862427,141.4851782,0,6.300002825,0.033526958,0,0.00989117,5000,0.999985366,-0.003446434,0.055164512,1000.902783,8825.985,9826.887783,,,84,62.13757324,12219.3174,12236.86048
2018-07-19T08:01:25Z,1531987285,102,39.7957064,45.8830839,9000,0,6.3,198.6,427758.62,105443.64,193.6,Air+FixedWing,Red,Allies,E-2C,Red AWACS,xu,,140.9468019,88.57522583,0.463699278,9000,8938,140.9468019,0,6.300002825,0.044497186,0,0.00989117,5000,0.98378098,0.002771677,0.201941973,993.3000488,8825.985,9819.285049,,,85,62,12360.00501,12377.74661
2018-07-19T08:01:26Z,1531987286,102,39.7951274,45.8818774,9000,0,6.3,198.6,427725.19,105305.78,193.6,Air+FixedWing,Red,Allies,E-2C,Red AWACS,xu,,141.856525,89.16781616,0.466692166,9000,8938,141.856525,0,6.300002825,0.042898112,0,0.00989117,5000,1.006769167,-0.002009628,-0.006282375,1006.163684,8825.985,9832.148684,,,86,62,12501.61477,12519.55619
2018-07-19T08:01:27Z,1531987287,102,39.7945532,45.8806806,9000,0,6.3,198.6,427692,105169.04,193.6,Air+FixedWing,Red,Allies,E-2C,Red AWACS,xu,,140.71189,88.42235565,0.462926444,9000,8939,140.71189,0,6.300002825,0.04181342,0,0.00989117,5000,0.987344191,0.001473131,0.169666821,989.9917999,8825.985,9815.9768,,,87,61,12642.06988,12660.2095
2018-07-19T08:01:28Z,1531987288,102,39.7939766,45.8794788,9000,0,6.3,198.6,427658.69,105031.72,193.6,Air+FixedWing,Red,Allies,E-2C,Red AWACS,xu,,141.3031878,88.80713654,0.464871748,9000,8939.143841,141.3031878,0,6.300002825,0.037684852,0,0.00989117,5000,0.9987958,-0.000823858,0.065939467,998.3295441,8825.985,9824.314544,,,88,60.85615921,12783.11784,12801.45649
2018-07-19T08:01:29Z,1531987289,102,39.7934016,45.8782808,9000,0,6.3,198.6,427625.47,104894.82,193.6,Air+FixedWing,Red,Allies,E-2C,Red AWACS,xu,,140.8711026,88.52611542,0.463450236,9000,8940,140.8711026,0,6.300002825,0.044824752,0,0.00989117,5000,0.990567525,0.000923892,0.140470228,992.2333771,8825.985,9818.218377,,,89,60,12923.73235,12942.26941
2018-07-19T08:01:30Z,1531987290,102,39.7928256,45.8770801,9000,0,6.3,198.6,427592.19,104757.62,193.6,Air+FixedWing,Red,Allies,E-2C,Red AWACS,xu,,141.1743439,88.72354889,0.464447866,9000,8939.494629,141.1743439,0,6.300002825,0.024518438,0,0.00989117,5000,1.000240274,-0.004008414,0.052855593,996.5097687,8825.985,9822.494769,,,90,60.50537109,13064.64732,13083.38322
2018-07-19T08:01:31Z,1531987291,102,39.7922519,45.8758842,9000,0,6.3,198.6,427559,104620.98,193.6,Air+FixedWing,Red,Allies,E-2C,Red AWACS,xu,,140.6131948,88.35832977,0.462601748,9000,8939,140.6131948,0,6.300002825,0.042232292,0,0.00989117,5000,0.990394843,0.004583136,0.142034365,988.6035278,8825.985,9814.588528,,,91,61,13205.00063,13223.93458
2018-07-19T08:01:32Z,1531987292,102,39.7916768,45.8746855,9000,0,6.3,198.6,427525.78,104484.02,193.6,Air+FixedWing,Red,Allies,E-2C,Red AWACS,xu,,140.9318408,88.56548309,0.463650058,9000,8938.621094,140.9318408,0,6.300002825,0.047084102,0,0.00989117,5000,0.994385643,-0.000936634,0.105886158,993.0891876,8825.985,9819.074188,,,92,61.37890625,13345.68395,13364.81641
2018-07-19T08:01:33Z,1531987293,102,39.7911019,45.8734872,9000,0,6.3,198.6,427492.56,104347.1,193.6,Air+FixedWing,Red,Allies,E-2C,Red AWACS,xu,,140.8938792,88.5409317,0.463525168,9000,8937.183105,140.8938792,0,6.300002825,0.040748401,0,0.00989117,5000,0.997948854,-0.00223518,0.073611007,992.5542603,8825.985,9818.53926,,,93,62.81689453,13486.32964,13505.66057
2018-07-19T08:01:34Z,1531987294,102,39.7905286,45.872292,9000,0,6.3,198.6,427459.41,104210.53,193.6,Air+FixedWing,Red,Allies,E-2C,Red AWACS,xu,,140.5374938,88.30870819,0.4623527,9000,8936.748901,140.5374938,0,6.300002825,0.038847348,0,0.00989117,5000,0.991411727,0.005619805,0.132823547,987.5393585,8825.985,9813.524359,,,94,63.25109863,13626.60012,13646.12898
2018-07-19T08:01:35Z,1531987295,102,39.7899543,45.8710947,9000,0,6.3,198.6,427426.25,104073.73,193.6,Air+FixedWing,Red,Allies,E-2C,Red AWACS,xu,,140.7652636,88.45708466,0.463102037,9000,8935.312134,140.7652636,0,6.300002825,0.030918812,0,0.00989117,5000,0.992184681,-0.005919908,0.125822217,990.7429718,8825.985,9816.727972,,,95,64.68786621,13767.12214,13786.84929
2018-07-19T08:01:36Z,1531987296,102,39.7893795,45.8698962,9000,0,6.3,198.6,427393,103936.78,193.6,Air+FixedWing,Red,Allies,E-2C,Red AWACS,xu,,140.924026,88.56040955,0.463624348,9000,8934.967964,140.924026,0,6.300002825,0.03772463,0,0.00989117,5000,0.999557777,0.000774791,0.059037568,992.9790558,8825.985,9818.964056,,,96,65.03203583,13907.78355,13927.70918
2018-07-19T08:01:37Z,1531987297,102,39.7888066,45.8687018,9000,0,6.3,198.6,427359.88,103800.32,193.6,Air+FixedWing,Red,Allies,E-2C,Red AWACS,xu,,140.4238338,88.23480988,0.461978771,9000,8934.68306,140.4238338,0,6.300002825,0.046439719,0,0.00989117,5000,0.995994566,0.002073337,0.091312719,985.9426544,8825.985,9811.927654,,,97,65.31694031,14047.95637,14068.07979
2018-07-19T08:01:38Z,1531987298,102,39.7882346,45.8675089,9000,0,6.3,198.6,427326.81,103664.03,193.6,Air+FixedWing,Red,Allies,E-2C,Red AWACS,xu,,140.2420674,88.11660767,0.46138078,9000,8934.127869,140.2420674,0,6.300002825,0.032426219,0,0.00989117,5000,0.990907402,0.000174585,0.13739167,983.3918732,8825.985,9809.376873,,,98,65.87213135,14187.95473,14208.2757
2018-07-19T08:01:39Z,1531987299,102,39.7876614,45.8663139,9000,0,6.4,198.6,427293.69,103527.48,193.6,Air+FixedWing,Red,Allies,E-2C,Red AWACS,xu,,140.5149398,88.29425049,0.4622785,9000,8934.464439,140.5149398,0,6.399996696,0.048283014,0,0.051396036,5000,0.997473643,-0.001485873,0.078430498,987.2224152,8825.985,9813.207415,,,99,65.53556061,14328.2125,14348.73138
2018-07-19T08:01:40Z,1531987300,102,39.7870897,45.8651216,9000,0,6.4,198.6,427260.62,103391.24,193.6,Air+FixedWing,Red,Allies,E-2C,Red AWACS,xu,,140.188922,88.08213806,0.461205937,9000,8934.493713,140.188922,0,6.399996696,0.040782047,0,0.051396036,5000,0.990666138,0.000174585,0.139120818,982.6466919,8825.985,9808.631692,,,100,65.50628662,14468.14406,14488.86039
2018-07-19T08:01:41Z,1531987301,102,39.7865168,45.8639268,9000,0,6.4,198.6,427227.5,103254.74,193.6,Air+FixedWing,Red,Allies,E-2C,Red AWACS,xu,,140.4617942,88.25945282,0.462103657,9000,8935,140.4617942,0,6.399996696,0.037013291,0,0.00989117,5000,0.998506601,-0.000449204,0.069221467,986.4757813,8825.985,9812.460781,,,101,65,14608.36438,14629.27858
2018-07-19T08:01:42Z,1531987302,102,39.7859457,45.8627357,9000,0,6.4,198.6,427194.47,103118.65,193.6,Air+FixedWing,Red,Allies,E-2C,Red AWACS,xu,,140.0448938,87.98844147,0.460732101,9000,8935,140.0448938,0,6.399996696,0.037731956,0,0.00989117,5000,0.991440159,0.001773234,0.132220259,980.6286133,8825.985,9806.613613,,,102,65,14748.15168,14769.26313
2018-07-19T08:01:43Z,1531987303,102,39.7853737,45.8615428,9000,0,6.4,198.6,427161.41,102982.35,193.6,Air+FixedWing,Red,Allies,E-2C,Red AWACS,xu,,140.2496597,88.1217041,0.461405758,9000,8935,140.2496597,0,6.399996696,0.046808956,0,0.00989117,5000,0.991442947,-0.001511356,0.132195406,983.4983521,8825.985,9809.483352,,,103,65,14888.15575,14909.46476
2018-07-19T08:01:44Z,1531987304,102,39.784801,45.8603482,9000,0,6.4,198.6,427128.28,102845.86,193.6,Air+FixedWing,Red,Allies,E-2C,Red AWACS,xu,,140.4542021,88.25475311,0.462078679,9000,8935,140.4542021,0,6.399996696,0.019168465,0,0.00989117,5000,1.003328928,0.002198855,0.026229423,986.3691437,8825.985,9812.354144,,,104,65,15028.35062,15049.85744
2018-07-19T08:01:45Z,1531987305,102,39.7842317,45.8591607,9000,0,6.4,198.6,427095.38,102710.18,193.6,Air+FixedWing,Red,Allies,E-2C,Red AWACS,xu,,139.6130327,87.70755768,0.459311326,9000,8935,139.6130327,0,6.399996696,0.049837241,0,0.00989117,5000,0.98506979,-0.004072123,0.189013423,974.5899445,8825.985,9800.574944,,,105,65,15167.71299,15189.41647
2018-07-19T08:01:46Z,1531987306,102,39.7836593,45.8579668,9000,0,6.4,198.6,427062.25,102573.77,193.6,Air+FixedWing,Red,Allies,E-2C,Red AWACS,xu,,140.3782821,88.20547485,0.461828911,9000,8935.610168,140.3782821,0,6.399996696,0.039704965,0,0.00989117,5000,1.001605473,0.002660801,0.041594375,985.3031036,8825.985,9811.288104,,,106,64.38983154,15307.83298,15329.73417
2018-07-19T08:01:47Z,1531987307,102,39.7830898,45.8567787,9000,0,6.4,198.6,427029.31,102438.02,193.6,Air+FixedWing,Red,Allies,E-2C,Red AWACS,xu,,139.6887304,87.75672913,0.459560363,9000,8936,139.6887304,0,6.399996696,0.037751962,0,0.00989117,5000,0.986445208,-0.000500171,0.176751284,975.6470703,8825.985,9801.63207,,,107,64,15447.26733,15469.36528
2018-07-19T08:01:48Z,1531987308,102,39.7825176,45.8555851,9000,0,6.4,198.6,426996.22,102301.64,193.6,Air+FixedWing,Red,Allies,E-2C,Red AWACS,xu,,140.3329502,88.17573547,0.461679774,9000,8936,140.3329502,0,6.399996696,0.044208599,0,0.00989117,5000,0.996866671,0.003110005,0.083841782,984.6668457,8825.985,9810.651846,,,108,64,15587.34617,15609.64178
2018-07-19T08:01:49Z,1531987309,102,39.7819466,45.8543936,9000,0,6.4,198.6,426963.22,102165.52,193.6,Air+FixedWing,Red,Allies,E-2C,Red AWACS,xu,,140.0603039,87.99864197,0.460782798,9000,8936,140.0603039,0,6.399996696,0.032472573,0,0.00989117,5000,1.004022212,-0.00258435,0.020048648,980.8444366,8825.985,9806.829437,,,109,64,15727.17391,15749.66682
2018-07-19T08:01:50Z,1531987310,102,39.7813793,45.85321,9000,0,6.4,198.6,426930.41,102030.29,193.6,Air+FixedWing,Red,Allies,E-2C,Red AWACS,xu,,139.1581702,87.41194916,0.457814879,9000,8937.149475,139.1581702,0,6.399996696,0.03132922,0,0.00989117,5000,0.985153314,-0.000974859,0.188268785,968.2498169,8825.985,9794.234817,,,110,62.8505249,15866.07761,15888.76652
2018-07-19T08:01:51Z,1531987311,102,39.7808089,45.85202,9000,0,6.4,198.6,426897.41,101894.32,193.6,Air+FixedWing,Red,Allies,E-2C,Red AWACS,xu,,139.9160497,87.90486908,0.460308218,9000,8939.155151,139.9160497,0,6.399996696,0.050009997,0,0.00989117,5000,0.99385411,-0.000187327,0.110699384,978.8250488,8825.985,9804.810049,,,111,60.84484863,16005.74079,16028.62679
2018-07-19T08:01:52Z,1531987312,102,39.7802386,45.85083,9000,0,6.4,198.6,426864.41,101758.36,193.6,Air+FixedWing,Red,Allies,E-2C,Red AWACS,xu,,139.9084577,87.89975739,0.460283241,9000,8941.009422,139.9084577,0,6.399996696,0.035124318,0,0.00989117,5000,0.99609265,0.001511356,0.090742342,978.7188263,8825.985,9804.703826,,,112,58.9905777,16145.39132,16168.47437
2018-07-19T08:01:53Z,1531987313,102,39.7796692,45.8496418,9000,0,6.4,198.6,426831.47,101622.59,193.6,Air+FixedWing,Red,Allies,E-2C,Red AWACS,xu,,139.7039149,87.76655579,0.459610318,9000,8943.431396,139.7039149,0,6.399996696,0.046123759,0,0.00989117,5000,0.993249926,0.001123961,0.116085816,975.8591919,8825.985,9801.844192,,,113,56.56860352,16284.84232,16308.12215
2018-07-19T08:01:54Z,1531987314,102,39.7790995,45.8484529,9000,0,6.4,198.6,426798.53,101486.78,193.6,Air+FixedWing,Red,Allies,E-2C,Red AWACS,xu,,139.7494689,87.79644012,0.459760186,9000,8945.645733,139.7494689,0,6.399996696,0.036679061,0,0.00989117,5000,1.003679751,-0.005119634,0.023101756,976.4957031,8825.985,9802.480703,,,114,54.35426712,16424.36068,16447.83737
2018-07-19T08:01:55Z,1531987315,102,39.7785335,45.8472718,9000,0,6.4,198.6,426765.75,101351.83,193.6,Air+FixedWing,Red,Allies,E-2C,Red AWACS,xu,,138.8774867,87.22934723,0.456891461,9000,8947.275391,138.8774867,0,6.399996696,0.03816188,0,0.00989117,5000,0.983165348,0.006618248,0.205991914,964.3478149,8825.985,9790.332815,,,115,52.72460938,16562.97653,16586.64882
2018-07-19T08:01:56Z,1531987316,102,39.7779637,45.8460825,9000,0,6.4,198.6,426732.81,101215.95,193.6,Air+FixedWing,Red,Allies,E-2C,Red AWACS,xu,,139.810209,87.83573151,0.459960014,9000,8949.092449,139.810209,0,6.399996696,0.041227462,0,0.00989117,5000,0.994633707,-0.005157859,0.103749118,977.3447266,8825.985,9803.329727,,,116,50.90755081,16702.54194,16726.41117
2018-07-19T08:01:57Z,1531987317,102,39.7773943,45.844894,9000,0,6.4,198.6,426699.84,101080.16,193.6,Air+FixedWing,Red,Allies,E-2C,Red AWACS,xu,,139.7340616,87.78621674,0.459709497,9000,8950.871277,139.7340616,0,6.399996696,0.040466172,0,0.00989117,5000,0.997557168,0.001611391,0.07768586,976.2803986,8825.985,9802.265399,,,117,49.12872314,16842.02075,16866.0868
2018-07-19T08:01:58Z,1531987318,102,39.7768262,45.8437083,9000,0,6.4,198.6,426666.97,100944.7,193.6,Air+FixedWing,Red,Allies,E-2C,Red AWACS,xu,,139.4006738,87.56972504,0.458612689,9000,8949.448486,139.4006738,0,6.399996696,0.038617773,0,0.00989117,5000,0.997557168,0.001611391,0.07768586,971.6273926,8825.985,9797.612393,,,118,50.55151367,16981.16756,17005.42995
2018-07-19T08:01:59Z,1531987319,102,39.7762594,45.8425254,9000,0,6.4,198.6,426634.19,100809.55,193.6,Air+FixedWing,Red,Allies,E-2C,Red AWACS,xu,,139.0672877,87.35269928,0.457515886,9000,8948.028931,139.0672877,0,6.399996696,0.046123759,0,0.00989117,5000,0.991011386,-0.000574722,0.136042857,966.9855255,8825.985,9792.970526,,,119,51.97106934,17119.9952,17144.45348
2018-07-19T08:02:00Z,1531987320,102,39.7756919,45.8413405,9000,0,6.4,198.6,426601.34,100674.16,193.6,Air+FixedWing,Red,Allies,E-2C,Red AWACS,xu,,139.3097909,87.51019287,0.458313694,9000,8945.710838,139.3097909,0,6.399996696,0.034392581,0,0.00989117,5000,0.987480953,-0.002748093,0.1675174,970.3608917,8825.985,9796.345892,,,120,54.28916168,17259.04873,17283.70323
2018-07-19T08:02:01Z,1531987321,102,39.7751219,45.8401508,9000,0,6.5,198.6,426568.34,100538.25,193.6,Air+FixedWing,Red,Allies,E-2C,Red AWACS,xu,,139.8629057,87.86991119,0.46013338,9000,8944.179382,139.8629057,0,6.499990465,0.034024817,0,0.051396036,5000,1.005116726,0.004834172,0.011873998,978.0816193,8825.985,9804.066619,,,121,55.82061768,17398.66529,17423.5168
2018-07-19T08:02:02Z,1531987322,102,39.7745561,45.8389696,9000,0,6.5,198.6,426535.62,100403.3,193.6,Air+FixedWing,Red,Allies,E-2C,Red AWACS,xu,,138.8627472,87.21984863,0.45684297,9000,8942.761963,138.8627472,0,6.499990465,0.044347548,0,0.051396036,5000,0.989025028,-0.003397366,0.153109259,964.1431274,8825.985,9790.128127,,,122,57.23803711,17537.28502,17562.33213
2018-07-19T08:02:03Z,1531987323,102,39.7739889,45.8377851,9000,0,6.5,198.6,426502.78,100267.97,193.6,Air+FixedWing,Red,Allies,E-2C,Red AWACS,xu,,139.2566456,87.47588348,0.458138852,9000,8941.340576,139.2566456,0,6.499990465,0.037058104,0,0.013988227,5000,0.99611092,-0.002147888,0.09091708,969.6206665,8825.985,9795.605667,,,123,58.65942383,17676.28571,17701.52896
2018-07-19T08:02:04Z,1531987324,102,39.7734224,45.8366025,9000,0,6.5,198.6,426469.97,100132.86,193.6,Air+FixedWing,Red,Allies,E-2C,Red AWACS,xu,,139.0366979,87.33294678,0.457415249,9000,8938.921387,139.0366979,0,6.499990465,0.038996516,0,0.013988227,5000,0.992254104,0.006094493,0.124767974,966.5601685,8825.985,9792.545168,,,124,61.07861328,17815.07319,17840.51227
2018-07-19T08:02:05Z,1531987325,102,39.7728555,45.8354187,9000,0,6.5,198.5,426437.19,99997.62,193.6,Air+FixedWing,Red,Allies,E-2C,Red AWACS,xu,,139.150805,87.40720367,0.457790648,9000,8937.500977,139.150805,0,6.499990465,0.040920258,0,0.013988227,5000,0.998913045,-0.004857756,0.066323096,968.1473267,8825.985,9794.132327,,,125,62.49902344,17953.98409,17979.61919
2018-07-19T08:02:06Z,1531987326,102,39.7722905,45.8342391,9000,0,6.5,198.5,426404.47,99862.85,193.6,Air+FixedWing,Red,Allies,E-2C,Red AWACS,xu,,138.6881251,87.10622406,0.456268483,9000,8937,138.6881251,0,6.499990465,0.036296395,0,0.013988227,5000,0.987707373,0.002697126,0.164674184,961.7198029,8825.985,9787.704803,,,126,63,18092.42028,18118.25072
2018-07-19T08:02:07Z,1531987327,102,39.7717236,45.833055,9000,0,6.5,198.5,426371.66,99727.58,193.6,Air+FixedWing,Red,Allies,E-2C,Red AWACS,xu,,139.1961316,87.43641663,0.457939768,9000,8937.380001,139.1961316,0,6.499990465,0.037507879,0,0.013988227,5000,0.994798927,-0.002622576,0.10243231,968.7781525,8825.985,9794.763152,,,127,62.61999893,18231.37112,18257.39764
2018-07-19T08:02:08Z,1531987328,102,39.771157,45.831872,9000,0,6.5,198.5,426338.84,99592.41,193.6,Air+FixedWing,Red,Allies,E-2C,Red AWACS,xu,,139.0898413,87.3673172,0.457590084,9000,8937.849915,139.0898413,0,6.499990465,0.040867895,0,0.013988227,5000,0.991733837,0.000649273,0.129334309,967.2991974,8825.985,9793.284197,,,128,62.15008545,18370.20473,18396.42715
2018-07-19T08:02:09Z,1531987329,102,39.7705898,45.8306875,9000,0,6.5,198.5,426306,99457.09,193.6,Air+FixedWing,Red,Allies,E-2C,Red AWACS,xu,,139.2490535,87.47114563,0.458113875,9000,8938,139.2490535,0,6.499990465,0.047005656,0,0.013988227,5000,0.996455877,0.003671986,0.087889422,969.5149445,8825.985,9795.499944,,,129,62,18509.20529,18535.62385
2018-07-19T08:02:10Z,1531987330,102,39.7700237,45.8295051,9000,0,6.5,198.5,426273.25,99322.01,193.6,Air+FixedWing,Red,Allies,E-2C,Red AWACS,xu,,138.9991835,87.30844116,0.45729183,9000,8937.404602,138.9991835,0,6.499990465,0.03520755,0,0.013988227,5000,1.001624685,-0.004095707,0.042523298,966.0386505,8825.985,9792.023651,,,130,62.59539795,18647.96375,18674.57811
2018-07-19T08:02:11Z,1531987331,102,39.7694604,45.8283287,9000,0,6.5,198.5,426240.62,99187.61,193.6,Air+FixedWing,Red,Allies,E-2C,Red AWACS,xu,,138.301593,86.85505676,0.454996835,9000,8937,138.301593,0,6.499990465,0.039784786,0,0.013988227,5000,0.98131989,0.003233624,0.220736503,956.3665314,8825.985,9782.351531,,,131,63,18786.01932,18812.82848
2018-07-19T08:02:12Z,1531987332,102,39.7688929,45.8271432,9000,0,6.5,198.5,426207.78,99052.17,193.6,Air+FixedWing,Red,Allies,E-2C,Red AWACS,xu,,139.3629374,87.54489136,0.45848854,9000,8937,139.3629374,0,6.499990465,0.030981276,0,0.013988227,5000,1.006700176,-0.005106892,-0.002023791,971.101416,8825.985,9797.086416,,,132,63,18925.13547,18952.14094
2018-07-19T08:02:13Z,1531987333,102,39.7683301,45.8259675,9000,0,6.5,198.5,426175.16,98917.85,193.6,Air+FixedWing,Red,Allies,E-2C,Red AWACS,xu,,138.2256741,86.80577087,0.454747071,9000,8937,138.2256741,0,6.499990465,0.045146648,0,0.013988227,5000,0.982894847,0.003146331,0.206913258,955.3168488,8825.985,9781.301849,,,133,63,19063.10593,19090.30608
2018-07-19T08:02:14Z,1531987334,102,39.7677634,45.8247837,9000,0,6.5,198.5,426142.34,98782.62,193.6,Air+FixedWing,Red,Allies,E-2C,Red AWACS,xu,,139.150578,87.40681458,0.457789901,9000,8937.76741,139.150578,0,6.499990465,0.036348823,0,0.013988227,5000,0.999433313,0.000587464,0.061756761,968.1441681,8825.985,9794.129168,,,134,62.23258972,19202.01524,19229.4114
2018-07-19T08:02:15Z,1531987335,102,39.7671989,45.8236044,9000,0,6.5,198.5,426109.66,98647.89,193.6,Air+FixedWing,Red,Allies,E-2C,Red AWACS,xu,,138.6427945,87.07689667,0.45611935,9000,8938,138.6427945,0,6.499990465,0.032519659,0,0.013988227,5000,0.991821492,0.000461946,0.128564971,961.0912231,8825.985,9787.076223,,,135,62,19340.40877,19368.00022
2018-07-19T08:02:16Z,1531987336,102,39.7666337,45.8224239,9000,0,6.5,198.5,426076.94,98513.01,193.6,Air+FixedWing,Red,Allies,E-2C,Red AWACS,xu,,138.7944153,87.17552948,0.456618166,9000,8938.129936,138.7944153,0,6.499990465,0.047809371,0,0.013988227,5000,0.996195744,0.000949376,0.090172589,963.1944855,8825.985,9789.179485,,,136,61.87006378,19478.94801,19506.73495
2018-07-19T08:02:17Z,1531987337,102,39.7660695,45.821245,9000,0,6.5,198.5,426044.28,98378.34,193.6,Air+FixedWing,Red,Allies,E-2C,Red AWACS,xu,,138.5670971,87.02773285,0.455870314,9000,8938.492493,138.5670971,0,6.499990465,0.045582645,0,0.013988227,5000,0.999085524,-0.001947819,0.064809267,960.0420197,8825.985,9786.02702,,,137,61.50750732,19617.28296,19645.26509
2018-07-19T08:02:18Z,1531987338,102,39.7655073,45.8200703,9000,0,6.5,198.5,426011.72,98244.15,193.6,Air+FixedWing,Red,Allies,E-2C,Red AWACS,xu,,138.0894576,86.71746826,0.454298934,9000,8938.032539,138.0894576,0,6.499990465,0.038996516,0,0.013988227,5000,0.9847356,-0.000787532,0.19075715,953.4349152,8825.985,9779.419915,,,138,61.96746063,19755.13259,19783.30924
2018-07-19T08:02:19Z,1531987339,102,39.764942,45.8188892,9000,0,6.5,198.5,425978.97,98109.21,193.6,Air+FixedWing,Red,Allies,E-2C,Red AWACS,xu,,138.8549294,87.21470642,0.45681725,9000,8937.665466,138.8549294,0,6.499990465,0.03177171,0,0.013988227,5000,0.996984638,-0.000736566,0.083248543,964.0345703,8825.985,9790.01957,,,139,62.33453369,19893.73874,19922.11097
2018-07-19T08:02:20Z,1531987340,102,39.764378,45.8177106,9000,0,6.5,198.5,425946.28,97974.56,193.6,Air+FixedWing,Red,Allies,E-2C,Red AWACS,xu,,138.5592811,87.02258301,0.4558446,9000,8937,138.5592811,0,6.499990465,0.050873377,0,0.013988227,NaN,0.993571759,0,0.113203049,959.9337189,8825.985,9785.918719,,,140,63,20032.04564,20060.61303
2018-07-19T08:02:21Z,1531987341,102,39.763814,45.8165319,9000,0,6.5,198.5,425913.59,97839.91,193.6,Air+FixedWing,Red,Allies,E-2C,Red AWACS,xu,,138.5592811,87.02258301,0.4558446,9000,8936.518513,138.5592811,0,6.499990465,0.029853356,0,0.013988227,5000,0.993656583,0.003097264,0.112458558,959.9337189,8825.985,9785.918719,,,141,63.48148727,20170.35939,20199.12195
2018-07-19T08:02:22Z,1531987342,102,39.76325,45.8153533,9000,0,6.5,198.5,425880.94,97705.27,193.6,Air+FixedWing,Red,Allies,E-2C,Red AWACS,xu,,138.5519122,87.01781464,0.455820358,9000,8937.577637,138.5519122,0,6.499990465,0.041657688,0,0.013988227,5000,0.997773532,-0.002422507,0.076324497,959.8316193,8825.985,9785.816619,,,142,62.42236328,20308.66912,20337.62685
2018-07-19T08:02:23Z,1531987343,102,39.7626874,45.8141777,9000,0,6.5,198.5,425848.34,97570.98,193.6,Air+FixedWing,Red,Allies,E-2C,Red AWACS,xu,,138.1879331,86.78152466,0.454622907,9000,8938,138.1879331,0,6.499990465,0.041741082,0,0.013988227,5000,0.990071225,0.000923892,0.143926893,954.7952423,8825.985,9780.780242,,,143,62,20446.6203,20475.77269
2018-07-19T08:02:24Z,1531987344,102,39.7621238,45.8129997,9000,0,6.5,198.5,425815.69,97436.39,193.6,Air+FixedWing,Red,Allies,E-2C,Red AWACS,xu,,138.4911739,86.97814941,0.455620535,9000,8939.181946,138.4911739,0,6.499990465,0.03829615,0,0.013988227,5000,0.997244771,0.001986044,0.080965375,958.9902618,8825.985,9784.975262,,,144,60.8180542,20584.85395,20614.20139
2018-07-19T08:02:25Z,1531987345,102,39.7615614,45.8118243,9000,0,6.5,198.5,425783.12,97302.11,193.6,Air+FixedWing,Red,Allies,E-2C,Red AWACS,xu,,138.1729731,86.77157593,0.45457369,9000,8940.812439,138.1729731,0,6.499990465,0.029080705,0,0.013988227,5000,0.987888345,-0.004246708,0.163085812,954.5885254,8825.985,9780.573525,,,145,59.18756104,20722.78494,20752.32701
2018-07-19T08:02:26Z,1531987346,102,39.7609971,45.8106447,9000,0,6.5,198.5,425750.41,97167.36,193.6,Air+FixedWing,Red,Allies,E-2C,Red AWACS,xu,,138.6653493,87.09156036,0.456193553,9000,8943.077198,138.6653493,0,6.499990465,0.047562925,0,0.013988227,5000,1.002843361,0.003135489,0.031827103,961.4039551,8825.985,9787.388955,,,146,56.92280197,20861.20371,20890.9411
2018-07-19T08:02:27Z,1531987347,102,39.760436,45.8094719,9000,0,6.5,198.5,425717.91,97033.38,193.6,Air+FixedWing,Red,Allies,E-2C,Red AWACS,xu,,137.8621387,86.56969452,0.45355108,9000,8944.938999,137.8621387,0,6.499990465,0.031367297,0,0.013988227,5000,0.990334189,0.000361912,0.141618877,950.298465,8825.985,9776.283465,,,147,55.06100082,20998.82549,21028.75708
2018-07-19T08:02:28Z,1531987348,102,39.7598739,45.8082967,9000,0,6.5,198.5,425685.34,96899.13,193.6,Air+FixedWing,Red,Allies,E-2C,Red AWACS,xu,,138.1426035,86.75208282,0.454473778,9000,8947.045471,138.1426035,0,6.499990465,0.038317557,0,0.013988227,5000,0.988499099,-0.002273405,0.15772529,954.1689453,8825.985,9780.153945,,,148,52.95452881,21136.72503,21166.8512
2018-07-19T08:02:29Z,1531987349,102,39.7593099,45.8071178,9000,0,6.5,198.5,425652.66,96764.46,193.6,Air+FixedWing,Red,Allies,E-2C,Red AWACS,xu,,138.5820572,87.03725433,0.455919531,9000,8948.460144,138.5820572,0,6.499990465,0.056294326,0,0.051396036,5000,0.999345658,0.000774791,0.062526099,960.2493286,8825.985,9786.234329,,,149,51.53985596,21275.06264,21305.38402
2018-07-19T08:02:30Z,1531987350,102,39.7587481,45.8059433,9000,0,6.6,198.5,425620.09,96630.27,193.6,Air+FixedWing,Red,Allies,E-2C,Red AWACS,xu,,138.0818654,86.71229553,0.454273956,9000,8949.935246,138.0818654,0,6.60001197,0.025242196,0,0.051396036,5000,0.992574514,-0.001598649,0.121835173,953.3300781,8825.985,9779.315078,,,150,50.06475449,21412.88901,21443.40487
2018-07-19T08:02:31Z,1531987351,102,39.758186,45.804768,9000,0,6.6,198.5,425587.5,96496.02,193.6,Air+FixedWing,Red,Allies,E-2C,Red AWACS,xu,,138.149973,86.75645447,0.454498022,9000,8951.128239,138.149973,0,6.60001197,0.052104665,0,0.00989117,5000,0.995855935,0.00460862,0.093474726,954.270752,8825.985,9780.255752,,,151,48.87176132,21550.80405,21581.51451
2018-07-19T08:02:32Z,1531987352,102,39.7576248,45.8035946,9000,0,6.6,198.5,425555,96361.97,193.6,Air+FixedWing,Red,Allies,E-2C,Red AWACS,xu,,137.9380631,86.61911774,0.453800862,9000,8950.312012,137.9380631,0,6.60001197,0.032546755,0,0.00989117,5000,0.987424139,-0.003872054,0.166348491,951.345462,8825.985,9777.330462,,,152,49.68798828,21688.49129,21719.39604
2018-07-19T08:02:33Z,1531987353,102,39.7570615,45.8024168,9000,0,6.6,198.5,425522.34,96227.43,193.6,Air+FixedWing,Red,Allies,E-2C,Red AWACS,xu,,138.4456211,86.94878387,0.455470672,9000,8947.898621,138.4456211,0,6.60001197,0.033706206,0,0.00989117,5000,0.996923908,0.002360698,0.084244515,958.3595001,8825.985,9784.3445,,,153,52.10137939,21826.69872,21857.7985
2018-07-19T08:02:34Z,1531987354,102,39.7564995,45.8012416,9000,0,6.6,198.5,425489.78,96093.18,193.6,Air+FixedWing,Red,Allies,E-2C,Red AWACS,xu,,138.1426035,86.75208282,0.454473778,9000,8945.976807,138.1426035,0,6.60001197,0.042977731,0,0.00989117,5000,0.995327697,-0.0008366,0.098040146,954.1689453,8825.985,9780.153945,,,154,54.02319336,21964.59756,21995.89192
2018-07-19T08:02:35Z,1531987355,102,39.7559382,45.8000679,9000,0,6.6,198.5,425457.25,95959.09,193.6,Air+FixedWing,Red,Allies,E-2C,Red AWACS,xu,,137.9757981,86.64340973,0.453925006,9000,8944.079895,137.9757981,0,6.60001197,0.034084362,0,0.00989117,5000,0.992396518,-0.001223995,0.123373542,951.8660431,8825.985,9777.851043,,,155,55.92010498,22102.33119,22133.8199
2018-07-19T08:02:36Z,1531987356,102,39.7553766,45.7988935,9000,0,6.6,198.5,425424.69,95824.93,193.6,Air+FixedWing,Red,Allies,E-2C,Red AWACS,xu,,138.0590891,86.6975708,0.454199024,9000,8942.220093,138.0590891,0,6.60001197,0.048302947,0,0.00989117,5000,0.994084602,-0.001498615,0.108783883,953.0156036,8825.985,9779.000604,,,156,57.77990723,22240.133,22271.81616
2018-07-19T08:02:37Z,1531987357,102,39.7548153,45.7977195,9000,0,6.6,198.5,425392.12,95690.83,193.6,Air+FixedWing,Red,Allies,E-2C,Red AWACS,xu,,137.9983531,86.65814972,0.45399921,9000,8942,137.9983531,0,6.60001197,0.039865594,0,0.00989117,5000,0.995410946,0.005545254,0.097320647,952.1772736,8825.985,9778.162274,,,157,58,22377.89598,22409.77353
2018-07-19T08:02:38Z,1531987358,102,39.7542547,45.7965471,9000,0,6.6,198.5,425359.66,95556.88,193.6,Air+FixedWing,Red,Allies,E-2C,Red AWACS,xu,,137.8244045,86.54537201,0.453426938,9000,8942.895691,137.8244045,0,6.60001197,0.029097638,0,0.00989117,5000,0.996929657,-0.004208483,0.084194829,949.7783234,8825.985,9775.763323,,,158,57.10430908,22515.4689,22547.54058
2018-07-19T08:02:39Z,1531987359,102,39.7536954,45.7953771,9000,0,6.6,198.5,425327.22,95423.24,193.6,Air+FixedWing,Red,Allies,E-2C,Red AWACS,xu,,137.5209368,86.34815979,0.452428563,9000,8943.311195,137.5209368,0,6.60001197,0.046726134,0,0.00989117,5000,0.985288192,0.00062379,0.184808914,945.6004028,8825.985,9771.585403,,,159,56.68880463,22652.75167,22685.01706
2018-07-19T08:02:40Z,1531987360,102,39.7531332,45.7942013,9000,0,6.6,198.5,425294.62,95288.93,193.6,Air+FixedWing,Red,Allies,E-2C,Red AWACS,xu,,138.2107094,86.79582977,0.454697838,9000,8944,138.2107094,0,6.60001197,0.036803748,0,0.00989117,5000,0.99479371,0.000287361,0.102655252,955.1100098,8825.985,9781.09501,,,160,56,22790.72928,22823.18937
2018-07-19T08:02:41Z,1531987361,102,39.7525716,45.7930266,9000,0,6.6,198.5,425262.06,95154.73,193.6,Air+FixedWing,Red,Allies,E-2C,Red AWACS,xu,,138.0894576,86.71746826,0.454298934,9000,8943.630371,138.0894576,0,6.60001197,0.036785222,0,0.00989117,5000,0.997546893,0.00104941,0.078860225,953.4349152,8825.985,9779.419915,,,161,56.36962891,22928.56925,22961.22384
2018-07-19T08:02:42Z,1531987362,102,39.7520115,45.7918548,9000,0,6.6,198.5,425229.59,95020.88,193.6,Air+FixedWing,Red,Allies,E-2C,Red AWACS,xu,,137.7332949,86.48633575,0.453127198,9000,8942.09248,137.7332949,0,6.60001197,0.050702876,0,0.00989117,5000,0.994529591,-0.002435249,0.104937962,948.5230255,8825.985,9774.508026,,,162,57.90752029,23066.06623,23098.91484
2018-07-19T08:02:43Z,1531987363,102,39.7514518,45.7906839,9000,0,6.6,198.5,425197.12,94887.13,193.6,Air+FixedWing,Red,Allies,E-2C,Red AWACS,xu,,137.6345968,86.42206573,0.452802492,9000,8940.606911,137.6345968,0,6.60001197,0.030635208,0,0.00989117,5000,0.994526717,0.000849342,0.104962805,947.1641113,8825.985,9773.149111,,,163,59.39308929,23203.45366,23236.49613
