ISOTime,UnixTime,Id,Longitude,Latitude,Altitude,Roll,Pitch,Yaw,U,V,Heading,Type,Color,Coalition,Name,Group,Country,Pilot,TAS,CAS,M,ASL,AGL,GS,VS,AOA,AOS,RRT,TRT,TRD,G,LatG,LonG,Ek,Ep,Em,FFW,FFV,RelativeTime,Elev,GroundDistance,AirDistance
2018-07-19T08:06:07Z,1531987567,103,38.9495853,45.0805947,32.27,0.1,-0.3,154.1,368741.12,11034.94,149.8,Air+FixedWing,Red,Allies,J-11A,Red J-11A #002,xu,<51>Frostie,0.202831345,0.262722313,0.000596055,32.26666641,2.266666412,NaN,NaN,NaN,NaN,NaN,NaN,NaN,NaN,NaN,NaN,NaN,31.64279042,NaN,,,0.369999886,30,NaN,NaN
2018-07-19T08:06:08Z,1531987568,103,38.9495845,45.0805957,31.94,-0.5,0.9,154,368741.06,11035.04,149.8,Air+FixedWing,Red,Allies,J-11A,Red J-11A #002,xu,<51>Frostie,0.347282871,0.371545464,0.001020547,31.94142723,1.941427231,0.121757411,-0.325239182,NaN,NaN,0.742851374,NaN,NaN,1.075491594,-0.005934722,0.048980099,0.00603027,31.32383974,31.32987,,,1.369999886,30,0.133664813,0.351634736
2018-07-19T08:06:09Z,1531987569,103,38.9495857,45.0805943,32.36,-0.3,0.2,154,368741.19,11034.89,149.8,Air+FixedWing,Red,Allies,J-11A,Red J-11A #002,xu,<51>Frostie,0.464592381,0.455048412,0.001365286,32.36285782,2.362857819,0.195556488,0.421430588,NaN,NaN,0.276189371,0.085087095,NaN,0.944494999,-0.007926193,-0.022918509,0.010792304,31.73712196,31.74791427,,,2.369999886,30,0.319070493,0.812046891
2018-07-19T08:06:10Z,1531987570,103,38.9495856,45.0805947,32.24,-0.2,0,154,368741.16,11034.94,149.8,Air+FixedWing,Red,Allies,J-11A,Red J-11A #002,xu,<51>Frostie,0.136993657,0,0.000402579,32.23952103,2.239521027,0.059626318,-0.123336792,NaN,NaN,0,0.309327982,NaN,1.015483145,-0.003946166,0.007025084,0.000938363,31.61616989,31.61710825,,,3.369999886,30,0.367916454,0.944704027
2018-07-19T08:06:11Z,1531987571,103,38.9495855,45.0805946,32.27,-0.1,0,154,368741.16,11034.93,149.8,Air+FixedWing,Red,Allies,J-11A,Red J-11A #002,xu,<51>Frostie,0.03052829,0,8.97e-05,32.26809692,2.268096924,0.010742188,0.028575897,NaN,NaN,0.16189504,0.039564685,NaN,0.997279122,-0.001520989,-0.000946725,4.66e-05,31.64419327,31.64423987,,,4.369999886,30,0.381331439,0.976272138
2018-07-19T08:06:12Z,1531987572,103,38.9495854,45.0805946,32.27,-0.2,-0.1,154,368741.16,11034.93,149.8,Air+FixedWing,Red,Allies,J-11A,Red J-11A #002,xu,<51>Frostie,0.001903534,0,5.59e-06,32.27000046,2.270000458,0,0.001903534,NaN,NaN,0,0.060973279,NaN,0.998778339,-0.003486198,-0.00174321,1.81e-07,31.64606,31.64606018,,,5.369999886,30,0.388248588,0.983446459
2018-07-19T08:06:13Z,1531987573,103,38.9495854,45.0805946,32.26,-0.1,-0.2,154,368741.16,11034.93,149.8,Air+FixedWing,Red,Allies,J-11A,Red J-11A #002,xu,<51>Frostie,0.010002136,0,2.94e-05,32.25999832,2.259998322,0,-0.010002136,NaN,NaN,0,0.060165649,NaN,1.000023154,-0.001745266,-0.002970499,5e-06,31.63625125,31.63625626,,,6.369999886,30,0.389191836,0.993492973
2018-07-19T08:06:14Z,1531987574,103,38.9495854,45.0805946,32.25,-0.1,-0.2,154,368741.16,11034.93,149.8,Air+FixedWing,Red,Allies,J-11A,Red J-11A #002,xu,<51>Frostie,0.009716034,0,2.86e-05,32.25028229,2.250282288,0,-0.009716034,NaN,NaN,0,0.048456647,NaN,1.000954218,-0.001746891,-0.00349401,4.72e-06,31.62672308,31.6267278,,,7.369999886,30,0.389191836,1.003209007
2018-07-19T08:06:15Z,1531987575,103,38.9495854,45.0805946,32.25,-0.1,-0.2,154,368741.16,11034.93,149.8,Air+FixedWing,Red,Allies,J-11A,Red J-11A #002,xu,<51>Frostie,0.000282288,0,8.3e-07,32.25,2.25,0,-0.000282288,NaN,NaN,0,0.026169578,NaN,1.000018533,-0.001745258,-0.004169506,3.98e-09,31.62644625,31.62644625,,,8.369999886,30,0.389191836,1.003491294
2018-07-19T08:06:16Z,1531987576,103,38.9495854,45.0805946,32.25,-0.1,-0.3,154,368741.16,11034.93,149.8,Air+FixedWing,Red,Allies,J-11A,Red J-11A #002,xu,<51>Frostie,0,0,0,32.25,2.25,0,0,NaN,NaN,0,0.039564685,NaN,0.999986589,-0.001745202,-0.00486197,0,31.62644625,31.62644625,,,9.369999886,30,0.389191836,1.003491294
2018-07-19T08:06:17Z,1531987577,103,38.9495854,45.0805946,32.25,0,-0.3,154,368741.16,11034.93,149.8,Air+FixedWing,Red,Allies,J-11A,Red J-11A #002,xu,<51>Frostie,0,0,0,32.25,2.25,0,0,NaN,NaN,0.199987939,0.019782341,NaN,0.999985933,0,-0.005284499,0,31.62644625,31.62644625,,,10.36999989,30,0.389191836,1.003491294
2018-07-19T08:06:18Z,1531987578,103,38.9495854,45.0805946,32.25,0,-0.3,154,368741.16,11034.93,149.8,Air+FixedWing,Red,Allies,J-11A,Red J-11A #002,xu,<51>Frostie,0,0,0,32.25,2.25,0,0,NaN,NaN,0,0.00989117,NaN,0.99998486,0,-0.005478637,0,31.62644625,31.62644625,,,11.36999989,30,0.389191836,1.003491294
2018-07-19T08:06:19Z,1531987579,103,38.9495854,45.0805946,32.25,0,-0.3,154,368741.16,11034.93,149.8,Air+FixedWing,Red,Allies,J-11A,Red J-11A #002,xu,<51>Frostie,0,0,0,32.25,2.25,0,0,NaN,NaN,0,0.00989117,NaN,0.999983788,0,-0.005672776,0,31.62644625,31.62644625,,,12.36999989,30,0.389191836,1.003491294
2018-07-19T08:06:20Z,1531987580,103,38.9495854,45.0805946,32.25,0,-0.3,154,368741.16,11034.93,149.8,Air+FixedWing,Red,Allies,J-11A,Red J-11A #002,xu,<51>Frostie,0,0,0,32.25,2.25,0,0,NaN,NaN,0,0,NaN,0.999982715,0,-0.005866914,0,31.62644625,31.62644625,,,13.36999989,30,0.389191836,1.003491294
2018-07-19T08:06:21Z,1531987581,103,38.9495854,45.0805946,32.25,0,-0.3,154,368741.16,11034.93,149.8,Air+FixedWing,Red,Allies,J-11A,Red J-11A #002,xu,<51>Frostie,0,0,0,32.25,2.25,0,0,NaN,NaN,0,0,NaN,0.999981582,0,-0.006061051,0,31.62644625,31.62644625,,,14.36999989,30,0.389191836,1.003491294
2018-07-19T08:06:22Z,1531987582,103,38.9495854,45.0805946,32.25,0,-0.4,154,368741.16,11034.93,149.8,Air+FixedWing,Red,Allies,J-11A,Red J-11A #002,xu,<51>Frostie,0,0,0,32.25,2.25,0,0,NaN,NaN,0,0,NaN,0.99998033,0,-0.006255188,0,31.62644625,31.62644625,,,15.36999989,30,0.389191836,1.003491294
2018-07-19T08:06:23Z,1531987583,103,38.9495854,45.0805946,32.25,0,-0.4,154,368741.16,11034.93,149.8,Air+FixedWing,Red,Allies,J-11A,Red J-11A #002,xu,<51>Frostie,0,0,0,32.25,2.25,0,0,NaN,NaN,0,0,NaN,0.999979079,0,-0.006449326,0,31.62644625,31.62644625,,,16.36999989,30,0.389191836,1.003491294
2018-07-19T08:06:24Z,1531987584,103,38.9495854,45.0805946,32.25,0,-0.4,154,368741.16,11034.93,149.8,Air+FixedWing,Red,Allies,J-11A,Red J-11A #002,xu,<51>Frostie,0,0,0,32.25,2.25,0,0,NaN,NaN,0,0,NaN,0.999977827,0,-0.006643463,0,31.62644625,31.62644625,,,17.36999989,30,0.389191836,1.003491294
2018-07-19T08:06:25Z,1531987585,103,38.9495854,45.0805946,32.25,0,-0.4,154,368741.16,11034.93,149.8,Air+FixedWing,Red,Allies,J-11A,Red J-11A #002,xu,<51>Frostie,0,0,0,32.25,2.25,0,0,NaN,NaN,0,0.013988227,NaN,0.999976516,0,-0.0068376,0,31.62644625,31.62644625,,,18.36999989,30,0.389191836,1.003491294
2018-07-19T08:06:26Z,1531987586,103,38.9495854,45.0805946,32.25,0,-0.4,154,368741.16,11034.93,149.8,Air+FixedWing,Red,Allies,J-11A,Red J-11A #002,xu,<51>Frostie,0,0,0,32.25,2.25,0,0,NaN,NaN,0,0,NaN,0.999975681,0,-0.006961584,0,31.62644625,31.62644625,,,19.36999989,30,0.389191836,1.003491294
2018-07-19T08:06:27Z,1531987587,103,38.9495854,45.0805946,32.25,0,-0.4,154,368741.16,11034.93,149.8,Air+FixedWing,Red,Allies,J-11A,Red J-11A #002,xu,<51>Frostie,0,0,0,32.25,2.25,0,0,NaN,NaN,0,0,NaN,0.999976158,0,-0.006885904,0,31.62644625,31.62644625,,,20.36999989,30,0.389191836,1.003491294
2018-07-19T08:06:28Z,1531987588,103,38.9495854,45.0805946,32.25,0,-0.4,154,368741.16,11034.93,149.8,Air+FixedWing,Red,Allies,J-11A,Red J-11A #002,xu,<51>Frostie,0,0,0,32.25,2.25,0,0,NaN,NaN,0,0,NaN,0.999976754,0,-0.006810224,0,31.62644625,31.62644625,,,21.36999989,30,0.389191836,1.003491294
2018-07-19T08:06:29Z,1531987589,103,38.9495854,45.0805946,32.25,0,-0.4,154,368741.16,11034.93,149.8,Air+FixedWing,Red,Allies,J-11A,Red J-11A #002,xu,<51>Frostie,0,0,0,32.25,2.25,0,0,NaN,NaN,0,0,NaN,0.999977171,0,-0.006734544,0,31.62644625,31.62644625,,,22.36999989,30,0.389191836,1.003491294
2018-07-19T08:06:30Z,1531987590,103,38.9495854,45.0805946,32.25,0,-0.4,154,368741.16,11034.93,149.8,Air+FixedWing,Red,Allies,J-11A,Red J-11A #002,xu,<51>Frostie,0,0,0,32.25,2.25,0,0,NaN,NaN,0,0,NaN,0.999977767,0,-0.006658863,0,31.62644625,31.62644625,,,23.36999989,30,0.389191836,1.003491294
2018-07-19T08:06:31Z,1531987591,103,38.9495854,45.0805946,32.25,0,-0.4,154,368741.16,11034.93,149.8,Air+FixedWing,Red,Allies,J-11A,Red J-11A #002,xu,<51>Frostie,0,0,0,32.25,2.25,0,0,NaN,NaN,0,0,NaN,0.999978244,0,-0.006583183,0,31.62644625,31.62644625,,,24.36999989,30,0.389191836,1.003491294
2018-07-19T08:06:32Z,1531987592,103,38.9495854,45.0805946,32.25,0,-0.4,154,368741.16,11034.93,149.8,Air+FixedWing,Red,Allies,J-11A,Red J-11A #002,xu,<51>Frostie,0,0,0,32.25,2.25,0,0,NaN,NaN,0,0,NaN,0.999978721,0,-0.006507503,0,31.62644625,31.62644625,,,25.36999989,30,0.389191836,1.003491294
2018-07-19T08:06:33Z,1531987593,103,38.9495854,45.0805946,32.25,0,-0.4,154,368741.16,11034.93,149.8,Air+FixedWing,Red,Allies,J-11A,Red J-11A #002,xu,<51>Frostie,0,0,0,32.25,2.25,0,0,NaN,NaN,0,0,NaN,0.999979198,0,-0.006431823,0,31.62644625,31.62644625,,,26.36999989,30,0.389191836,1.003491294
2018-07-19T08:06:34Z,1531987594,103,38.9495854,45.0805946,32.25,0,-0.4,154,368741.16,11034.93,149.8,Air+FixedWing,Red,Allies,J-11A,Red J-11A #002,xu,<51>Frostie,0,0,0,32.25,2.25,0,0,NaN,NaN,0,0,NaN,0.999979794,0,-0.006356142,0,31.62644625,31.62644625,,,27.36999989,30,0.389191836,1.003491294
2018-07-19T08:06:35Z,1531987595,103,38.9495854,45.0805946,32.25,0,-0.4,154,368741.16,11034.93,149.8,Air+FixedWing,Red,Allies,J-11A,Red J-11A #002,xu,<51>Frostie,0,0,0,32.25,2.25,0,0,NaN,NaN,0,0,NaN,0.999980152,0,-0.006280462,0,31.62644625,31.62644625,,,28.36999989,30,0.389191836,1.003491294
2018-07-19T08:06:36Z,1531987596,103,38.9495854,45.0805946,32.25,0,-0.4,154,368741.16,11034.93,149.8,Air+FixedWing,Red,Allies,J-11A,Red J-11A #002,xu,<51>Frostie,0,0,0,32.25,2.25,0,0,NaN,NaN,0,0,NaN,0.999980688,0,-0.006204782,0,31.62644625,31.62644625,,,29.36999989,30,0.389191836,1.003491294
2018-07-19T08:06:37Z,1531987597,103,38.9495854,45.0805946,32.25,0,-0.4,154,368741.16,11034.93,149.8,Air+FixedWing,Red,Allies,J-11A,Red J-11A #002,xu,<51>Frostie,0,0,0,32.25,2.25,0,0,NaN,NaN,0,0,NaN,0.999981105,0,-0.006129101,0,31.62644625,31.62644625,,,30.36999989,30,0.389191836,1.003491294
2018-07-19T08:06:38Z,1531987598,103,38.9495854,45.0805946,32.25,0,-0.3,154,368741.16,11034.93,149.8,Air+FixedWing,Red,Allies,J-11A,Red J-11A #002,xu,<51>Frostie,0,0,0,32.25,2.25,0,0,NaN,NaN,0,0,NaN,0.999981582,0,-0.006053421,0,31.62644625,31.62644625,,,31.36999989,30,0.389191836,1.003491294
2018-07-19T08:06:39Z,1531987599,103,38.9495854,45.0805946,32.25,0,-0.3,154,368741.16,11034.93,149.8,Air+FixedWing,Red,Allies,J-11A,Red J-11A #002,xu,<51>Frostie,0,0,0,32.25,2.25,0,0,NaN,NaN,0,0,NaN,0.999982059,0,-0.005977741,0,31.62644625,31.62644625,,,32.36999989,30,0.389191836,1.003491294
2018-07-19T08:06:40Z,1531987600,103,38.9495854,45.0805946,32.25,0,-0.3,154,368741.16,11034.93,149.8,Air+FixedWing,Red,Allies,J-11A,Red J-11A #002,xu,<51>Frostie,0,0,0,32.25,2.25,0,0,NaN,NaN,0,0,NaN,0.999982536,0,-0.005902059,0,31.62644625,31.62644625,,,33.36999989,30,0.389191836,1.003491294
2018-07-19T08:06:41Z,1531987601,103,38.9495854,45.0805946,32.25,0,-0.3,154,368741.16,11034.93,149.8,Air+FixedWing,Red,Allies,J-11A,Red J-11A #002,xu,<51>Frostie,0,0,0,32.25,2.25,0,0,NaN,NaN,0,0,NaN,0.999982893,0,-0.005826379,0,31.62644625,31.62644625,,,34.36999989,30,0.389191836,1.003491294
2018-07-19T08:06:42Z,1531987602,103,38.9495854,45.0805946,32.25,0,-0.3,154,368741.16,11034.93,149.8,Air+FixedWing,Red,Allies,J-11A,Red J-11A #002,xu,<51>Frostie,0,0,0,32.25,2.25,0,0,NaN,NaN,0,0,NaN,0.99998337,0,-0.005750699,0,31.62644625,31.62644625,,,35.36999989,30,0.389191836,1.003491294
2018-07-19T08:06:43Z,1531987603,103,38.9495854,45.0805946,32.25,0,-0.3,154,368741.16,11034.93,149.8,Air+FixedWing,Red,Allies,J-11A,Red J-11A #002,xu,<51>Frostie,0,0,0,32.25,2.25,0,0,NaN,NaN,0,0,NaN,0.999983788,0,-0.005675018,0,31.62644625,31.62644625,,,36.36999989,30,0.389191836,1.003491294
2018-07-19T08:06:44Z,1531987604,103,38.9495854,45.0805946,32.25,0,-0.3,154,368741.16,11034.93,149.8,Air+FixedWing,Red,Allies,J-11A,Red J-11A #002,xu,<51>Frostie,0,0,0,32.25,2.25,0,0,NaN,NaN,0,0,NaN,0.999984145,0,-0.005599337,0,31.62644625,31.62644625,,,37.36999989,30,0.389191836,1.003491294
2018-07-19T08:06:45Z,1531987605,103,38.9495854,45.0805946,32.25,0,-0.3,154,368741.16,11034.93,149.8,Air+FixedWing,Red,Allies,J-11A,Red J-11A #002,xu,<51>Frostie,0,0,0,32.25,2.25,0,0,NaN,NaN,0,0,NaN,0.999984682,0,-0.005523656,0,31.62644625,31.62644625,,,38.36999989,30,0.389191836,1.003491294
2018-07-19T08:06:46Z,1531987606,103,38.9495854,45.0805946,32.25,0,-0.3,154,368741.16,11034.93,149.8,Air+FixedWing,Red,Allies,J-11A,Red J-11A #002,xu,<51>Frostie,0,0,0,32.25,2.25,0,0,NaN,NaN,0,0,NaN,0.999985039,0,-0.005447975,0,31.62644625,31.62644625,,,39.36999989,30,0.389191836,1.003491294
2018-07-19T08:06:47Z,1531987607,103,38.9495854,45.0805946,32.25,0,-0.3,154,368741.16,11034.93,149.8,Air+FixedWing,Red,Allies,J-11A,Red J-11A #002,xu,<51>Frostie,0,0,0,32.25,2.25,0,0,NaN,NaN,0,0,NaN,0.999985516,0,-0.005372295,0,31.62644625,31.62644625,,,40.36999989,30,0.389191836,1.003491294
2018-07-19T08:06:48Z,1531987608,103,38.9495854,45.0805946,32.25,0,-0.3,154,368741.16,11034.93,149.8,Air+FixedWing,Red,Allies,J-11A,Red J-11A #002,xu,<51>Frostie,0,0,0,32.25,2.25,0,0,NaN,NaN,0,0,NaN,0.999985933,0,-0.005296614,0,31.62644625,31.62644625,,,41.36999989,30,0.389191836,1.003491294
2018-07-19T08:06:49Z,1531987609,103,38.9495854,45.0805946,32.25,0,-0.3,154,368741.16,11034.93,149.8,Air+FixedWing,Red,Allies,J-11A,Red J-11A #002,xu,<51>Frostie,0,0,0,32.25,2.25,0,0,NaN,NaN,0,0.045327043,NaN,1.000670765,0,-0.005738564,0,31.62644625,31.62644625,,,42.36999989,30,0.389191836,1.003491294
2018-07-19T08:06:50Z,1531987610,103,38.9495854,45.0805946,32.26,0,-0.4,154,368741.16,11034.93,149.8,Air+FixedWing,Red,Allies,J-11A,Red J-11A #002,xu,<51>Frostie,0.00674057,0,1.98e-05,32.25674057,2.25674057,0,0.00674057,NaN,NaN,0,0.048456647,NaN,0.998600902,0,-0.006971664,2.27e-06,31.63305649,31.63305876,,,43.36999989,30,0.389191836,1.010231864
2018-07-19T08:06:51Z,1531987611,103,38.9495854,45.0805946,32.25,0,-0.4,154,368741.16,11034.93,149.8,Air+FixedWing,Red,Allies,J-11A,Red J-11A #002,xu,<51>Frostie,0.00674057,0,1.98e-05,32.25,2.25,0,-0.00674057,NaN,NaN,0.067796598,0,NaN,1.000653212,-0.002162087,-0.00858895,2.27e-06,31.62644625,31.62644852,,,44.36999989,30,0.389191836,1.016972434
2018-07-19T08:06:52Z,1531987612,103,38.9495853,45.0805946,32.25,0.1,-0.4,154,368741.12,11034.93,149.8,Air+FixedWing,Red,Allies,J-11A,Red J-11A #002,xu,<51>Frostie,0.03125,0,9.18e-05,32.25,2.25,0.03125,0,NaN,NaN,0.047457622,0,NaN,0.999986839,0.007253537,-0.003775479,4.88e-05,31.62644625,31.62649508,,,45.36999989,30,0.397070087,1.024850724
2018-07-19T08:06:53Z,1531987613,103,38.9495854,45.0805946,32.25,0,-0.4,154,368741.16,11034.93,149.8,Air+FixedWing,Red,Allies,J-11A,Red J-11A #002,xu,<51>Frostie,0.03125,0,9.18e-05,32.25,2.25,0.03125,0,NaN,NaN,0.199987939,0.00989117,NaN,0.99996541,-0.00275411,-0.00845723,4.88e-05,31.62644625,31.62649508,,,46.36999989,30,0.404948337,1.032729015
2018-07-19T08:06:54Z,1531987614,103,38.9495854,45.0805946,32.25,0,-0.3,154,368741.16,11034.93,149.8,Air+FixedWing,Red,Allies,J-11A,Red J-11A #002,xu,<51>Frostie,0,0,0,32.25,2.25,0,0,NaN,NaN,0,0.034264021,NaN,0.999981582,0,-0.006061071,0,31.62644625,31.62644625,,,47.36999989,30,0.404948337,1.032729015
2018-07-19T08:06:55Z,1531987615,103,38.9495854,45.0805946,32.25,0,-0.3,154,368741.16,11034.93,149.8,Air+FixedWing,Red,Allies,J-11A,Red J-11A #002,xu,<51>Frostie,0,0,0,32.25,2.25,0,0,NaN,NaN,0,0,NaN,0.999986053,0,-0.005267801,0,31.62644625,31.62644625,,,48.36999989,30,0.404948337,1.032729015
2018-07-19T08:06:56Z,1531987616,103,38.9495854,45.0805946,32.25,0,-0.3,154,368741.16,11034.93,149.8,Air+FixedWing,Red,Allies,J-11A,Red J-11A #002,xu,<51>Frostie,0,0,0,32.25,2.25,0,0,NaN,NaN,0,0,NaN,0.999973315,-0.00275411,-0.007467243,0,31.62644625,31.62644625,,,49.36999989,30,0.404948337,1.032729015
2018-07-19T08:06:57Z,1531987617,103,38.9495854,45.0805946,32.25,0,-0.3,154,368741.12,11034.93,149.8,Air+FixedWing,Red,Allies,J-11A,Red J-11A #002,xu,<51>Frostie,0.03125,0,9.18e-05,32.25,2.25,0.03125,0,NaN,NaN,0,0.032805302,NaN,0.999994565,0.00275411,-0.003633057,4.88e-05,31.62644625,31.62649508,,,50.36999989,30,0.404948337,1.032729015
2018-07-19T08:06:58Z,1531987618,103,38.9495853,45.0805946,32.25,0.2,-0.3,154,368741.12,11034.93,149.8,Air+FixedWing,Red,Allies,J-11A,Red J-11A #002,xu,<51>Frostie,0,0,0,32.25,2.25,0,0,NaN,NaN,0.333333349,0,NaN,0.999978803,0.005963501,-0.004149445,0,31.62644625,31.62644625,,,51.36999989,30,0.412808734,1.040589452
2018-07-19T08:06:59Z,1531987619,103,38.9495855,45.0805947,32.25,0,-0.3,154,368741.16,11034.94,149.8,Air+FixedWing,Red,Allies,J-11A,Red J-11A #002,xu,<51>Frostie,0.031794571,0,9.34e-05,32.25,2.25,0.031794571,0,NaN,NaN,0.104747781,0,NaN,0.999978149,-0.005261157,-0.007581132,5.05e-05,31.62644625,31.62649679,,,52.36999989,30,0.432071745,1.059852561
2018-07-19T08:07:00Z,1531987620,103,38.9495854,45.0805946,32.25,0.1,-0.3,154,368741.12,11034.93,149.8,Air+FixedWing,Red,Allies,J-11A,Red J-11A #002,xu,<51>Frostie,0.031493194,0,9.25e-05,32.25,2.25,0.031493194,0,NaN,NaN,0,0,NaN,0.999985397,0.007854634,-0.003062926,4.96e-05,31.62644625,31.62649584,,,53.36999989,30,0.444029771,1.071810648
2018-07-19T08:07:01Z,1531987621,103,38.9495854,45.0805947,32.25,0,-0.3,154,368741.16,11034.94,149.8,Air+FixedWing,Red,Allies,J-11A,Red J-11A #002,xu,<51>Frostie,0.032211763,0,9.47e-05,32.25,2.25,0.032211763,0,NaN,NaN,0.199987939,0,NaN,0.99997254,-0.005858861,-0.007839326,5.19e-05,31.62644625,31.62649813,,,54.36999989,30,0.452511259,1.080292179
2018-07-19T08:07:02Z,1531987622,103,38.9495854,45.0805947,32.25,0.1,-0.3,154,368741.12,11034.94,149.8,Air+FixedWing,Red,Allies,J-11A,Red J-11A #002,xu,<51>Frostie,0.031265255,0,9.19e-05,32.25,2.25,0.031265255,0,NaN,NaN,0.17142861,0,NaN,0.99999831,0.006652458,-0.000997372,4.89e-05,31.62644625,31.62649513,,,55.36999989,30,0.45304135,1.080822272
2018-07-19T08:07:03Z,1531987623,103,38.9495855,45.0805946,32.25,0,-0.3,154.1,368741.16,11034.93,149.8,Air+FixedWing,Red,Allies,J-11A,Red J-11A #002,xu,<51>Frostie,0.033044774,0,9.71e-05,32.25,2.25,0.033044774,0,NaN,NaN,0,0,NaN,0.999964429,-0.004957213,-0.009388492,5.46e-05,31.62644625,31.62650085,,,56.36999989,30,0.466668753,1.094449744
2018-07-19T08:07:04Z,1531987624,103,38.9495853,45.0805947,32.25,0.1,-0.3,154,368741.12,11034.93,149.8,Air+FixedWing,Red,Allies,J-11A,Red J-11A #002,xu,<51>Frostie,0.03125,0,9.18e-05,32.25,2.25,0.03125,0,NaN,NaN,0.200000012,0,NaN,0.999991854,0.007253546,-0.002030149,4.88e-05,31.62644625,31.62649508,,,57.36999989,30,0.484286017,1.112067097
2018-07-19T08:07:05Z,1531987625,103,38.9495854,45.0805947,32.25,0.1,-0.3,154,368741.16,11034.93,149.8,Air+FixedWing,Red,Allies,J-11A,Red J-11A #002,xu,<51>Frostie,0.03125,0,9.18e-05,32.25,2.25,0.03125,0,NaN,NaN,0,0,NaN,0.999981096,-0.001008816,-0.006838872,4.88e-05,31.62644625,31.62649508,,,58.36999989,30,0.492765507,1.120546631
2018-07-19T08:07:06Z,1531987626,103,38.9495854,45.0805946,32.25,0,-0.3,154,368741.16,11034.93,149.8,Air+FixedWing,Red,Allies,J-11A,Red J-11A #002,xu,<51>Frostie,0,0,0,32.25,2.25,0,0,NaN,NaN,0.071962873,0,NaN,0.999980474,0.001354654,-0.006182677,0,31.62644625,31.62644625,,,59.36999989,30,0.503897455,1.131678636
2018-07-19T08:07:07Z,1531987627,103,38.9495855,45.0805947,32.25,0,-0.3,154,368741.16,11034.94,149.8,Air+FixedWing,Red,Allies,J-11A,Red J-11A #002,xu,<51>Frostie,0.010742188,0,3.16e-05,32.25,2.25,0.010742188,0,NaN,NaN,0.020162718,0,NaN,0.999996086,-0.001102014,-0.00334254,5.77e-06,31.62644625,31.62645202,,,60.36999989,30,0.515987249,1.143768491
2018-07-19T08:07:08Z,1531987628,103,38.9495854,45.0805946,32.25,0,-0.3,154,368741.16,11034.93,149.8,Air+FixedWing,Red,Allies,J-11A,Red J-11A #002,xu,<51>Frostie,0.010742188,0,3.16e-05,32.25,2.25,0.010742188,0,NaN,NaN,0,0,NaN,0.999981215,0.000551007,-0.006182677,5.77e-06,31.62644625,31.62645202,,,61.36999989,30,0.527586897,1.155368198
2018-07-19T08:07:09Z,1531987629,103,38.9495854,45.0805946,32.25,0,-0.3,154,368741.16,11034.93,149.8,Air+FixedWing,Red,Allies,J-11A,Red J-11A #002,xu,<51>Frostie,0,0,0,32.25,2.25,0,0,NaN,NaN,0.074626874,0,NaN,0.999979406,-0.002076832,-0.006838872,0,31.62644625,31.62644625,,,62.36999989,30,0.529042525,1.156823833
2018-07-19T08:07:10Z,1531987630,103,38.9495854,45.0805946,32.25,0.1,-0.3,154,368741.12,11034.93,149.8,Air+FixedWing,Red,Allies,J-11A,Red J-11A #002,xu,<51>Frostie,0.03125,0,9.18e-05,32.25,2.25,0.03125,0,NaN,NaN,0.047761192,0,NaN,0.999988268,0.004499425,-0.003633057,4.88e-05,31.62644625,31.62649508,,,63.36999989,30,0.529042525,1.156823833
2018-07-19T08:07:11Z,1531987631,103,38.9495854,45.0805946,32.25,0.1,-0.3,154,368741.12,11034.93,149.8,Air+FixedWing,Red,Allies,J-11A,Red J-11A #002,xu,<51>Frostie,0,0,0,32.25,2.25,0,0,NaN,NaN,0.13427761,0,NaN,0.999988268,0.004499425,-0.003633057,0,31.62644625,31.62644625,,,64.36999989,30,0.529042525,1.156823833
2018-07-19T08:07:12Z,1531987632,103,38.9495854,45.0805946,32.25,0.1,-0.3,154,368741.16,11034.93,149.8,Air+FixedWing,Red,Allies,J-11A,Red J-11A #002,xu,<51>Frostie,0.03125,0,9.18e-05,32.25,2.25,0.03125,0,NaN,NaN,0,0,NaN,0.999970334,-7e-06,-0.008560167,4.88e-05,31.62644625,31.62649508,,,65.36999989,30,0.532669787,1.160451114
2018-07-19T08:07:13Z,1531987633,103,38.9495854,45.0805948,32.25,0,-0.3,154,368741.16,11034.95,149.8,Air+FixedWing,Red,Allies,J-11A,Red J-11A #002,xu,<51>Frostie,0.01953125,0,5.74e-05,32.25,2.25,0.01953125,0,NaN,NaN,0.199987939,0,NaN,0.999324251,-0.002003662,-0.001789814,1.91e-05,31.62644625,31.62646532,,,66.36999989,30,0.550246239,1.178027654
2018-07-19T08:07:14Z,1531987634,103,38.9495854,45.0805946,32.24,0,-0.3,154,368741.16,11034.93,149.8,Air+FixedWing,Red,Allies,J-11A,Red J-11A #002,xu,<51>Frostie,0.020638148,0,6.06e-05,32.24333191,2.243331909,0.01953125,-0.006668091,NaN,NaN,0,0,NaN,1.001332095,0.001552838,-0.007911092,2.13e-05,31.61990709,31.61992838,,,67.36999989,30,0.571449952,1.200255238
2018-07-19T08:07:15Z,1531987635,103,38.9495854,45.0805947,32.25,0,-0.3,154,368741.16,11034.94,149.8,Air+FixedWing,Red,Allies,J-11A,Red J-11A #002,xu,<51>Frostie,0.012643497,0,3.72e-05,32.25,2.25,0.010742188,0.006668091,NaN,NaN,0,0,NaN,0.998497201,-0.003305117,-0.005884381,7.99e-06,31.62644625,31.62645424,,,68.36999989,30,0.5825819,1.213231562
2018-07-19T08:07:16Z,1531987636,103,38.9495854,45.0805947,32.24,0,-0.3,154,368741.12,11034.94,149.8,Air+FixedWing,Red,Allies,J-11A,Red J-11A #002,xu,<51>Frostie,0.032233155,0,9.47e-05,32.24209976,2.242099762,0.03125,-0.007900238,NaN,NaN,0,0,NaN,1.000594215,0.00550822,-0.002033245,5.19e-05,31.61869876,31.61875071,,,69.36999989,30,0.5825819,1.221131799
2018-07-19T08:07:17Z,1531987637,103,38.9495854,45.0805947,32.24,0,-0.3,154,368741.16,11034.94,149.8,Air+FixedWing,Red,Allies,J-11A,Red J-11A #002,xu,<51>Frostie,0.031320608,0,9.2e-05,32.23999786,2.239997864,0.03125,-0.002101898,NaN,NaN,0,0,NaN,1.00019211,-0.00275411,-0.006839994,4.9e-05,31.61663751,31.61668655,,,70.36999989,30,0.5825819,1.223233698
2018-07-19T08:07:18Z,1531987638,103,38.9495854,45.0805947,32.24,0,-0.3,154,368741.16,11034.94,149.8,Air+FixedWing,Red,Allies,J-11A,Red J-11A #002,xu,<51>Frostie,0,0,0,32.23999786,2.239997864,0,0,NaN,NaN,0,0,NaN,0.999977779,-0.00275411,-0.006838872,0,31.61663751,31.61663751,,,71.36999989,30,0.5825819,1.223233698
2018-07-19T08:07:19Z,1531987639,103,38.9495854,45.0805947,32.24,0,-0.3,154,368741.12,11034.94,149.8,Air+FixedWing,Red,Allies,J-11A,Red J-11A #002,xu,<51>Frostie,0.03125,0,9.18e-05,32.23999786,2.239997864,0.03125,0,NaN,NaN,0,0,NaN,0.999994565,0.00275411,-0.003633057,4.88e-05,31.61663751,31.61668633,,,72.36999989,30,0.5825819,1.223233698
2018-07-19T08:07:20Z,1531987640,103,38.9495854,45.0805947,32.24,0,-0.3,154,368741.12,11034.94,149.8,Air+FixedWing,Red,Allies,J-11A,Red J-11A #002,xu,<51>Frostie,0,0,0,32.23999786,2.239997864,0,0,NaN,NaN,0,0,NaN,0.999986172,0,-0.005235964,0,31.61663751,31.61663751,,,73.36999989,30,0.5825819,1.223233698
2018-07-19T08:07:21Z,1531987641,103,38.9495854,45.0805947,32.24,0,-0.3,154,368741.12,11034.94,149.8,Air+FixedWing,Red,Allies,J-11A,Red J-11A #002,xu,<51>Frostie,0,0,0,32.23999786,2.239997864,0,0,NaN,NaN,0,0,NaN,0.999994565,0.00275411,-0.003633057,0,31.61663751,31.61663751,,,74.36999989,30,0.5825819,1.223233698
2018-07-19T08:07:22Z,1531987642,103,38.9495854,45.0805947,32.24,0,-0.3,154,368741.16,11034.94,149.8,Air+FixedWing,Red,Allies,J-11A,Red J-11A #002,xu,<51>Frostie,0.03125,0,9.18e-05,32.23999786,2.239997864,0.03125,0,NaN,NaN,0,0,NaN,0.999977779,-0.00275411,-0.006838872,4.88e-05,31.61663751,31.61668633,,,75.36999989,30,0.5825819,1.223233698
2018-07-19T08:07:23Z,1531987643,103,38.9495854,45.0805947,32.24,0,-0.3,154,368741.16,11034.94,149.8,Air+FixedWing,Red,Allies,J-11A,Red J-11A #002,xu,<51>Frostie,0,0,0,32.23999786,2.239997864,0,0,NaN,NaN,0,0,NaN,0.999977779,-0.00275411,-0.006838872,0,31.61663751,31.61663751,,,76.36999989,30,0.5825819,1.223233698
2018-07-19T08:07:24Z,1531987644,103,38.9495854,45.0805947,32.24,0,-0.3,154,368741.12,11034.94,149.8,Air+FixedWing,Red,Allies,J-11A,Red J-11A #002,xu,<51>Frostie,0.03125,0,9.18e-05,32.23999786,2.239997864,0.03125,0,NaN,NaN,0,0,NaN,1.000002957,0.00550822,-0.002030149,4.88e-05,31.61663751,31.61668633,,,77.36999989,30,0.5825819,1.223233698
2018-07-19T08:07:25Z,1531987645,103,38.9495854,45.0805947,32.24,0,-0.3,154,368741.16,11034.94,149.8,Air+FixedWing,Red,Allies,J-11A,Red J-11A #002,xu,<51>Frostie,0.03125,0,9.18e-05,32.23999786,2.239997864,0.03125,0,NaN,NaN,0,0,NaN,0.999969386,-0.00550822,-0.00844178,4.88e-05,31.61663751,31.61668633,,,78.36999989,30,0.5825819,1.223233698
2018-07-19T08:07:26Z,1531987646,103,38.9495854,45.0805947,32.24,0,-0.3,154,368741.12,11034.94,149.8,Air+FixedWing,Red,Allies,J-11A,Red J-11A #002,xu,<51>Frostie,0.03125,0,9.18e-05,32.23999786,2.239997864,0.03125,0,NaN,NaN,0,0,NaN,0.999996367,0.002553744,-0.003288798,4.88e-05,31.61663751,31.61668633,,,79.36999989,30,0.5825819,1.223233698
2018-07-19T08:07:27Z,1531987647,103,38.9495854,45.0805947,32.24,0,-0.3,154,368741.12,11034.94,149.8,Air+FixedWing,Red,Allies,J-11A,Red J-11A #002,xu,<51>Frostie,0.00390625,0,1.15e-05,32.23999786,2.239997864,0.00390625,0,NaN,NaN,0,0,NaN,0.999987073,-0.000100183,-0.005063835,7.63e-07,31.61663751,31.61663827,,,80.36999989,30,0.5825819,1.223233698
2018-07-19T08:07:28Z,1531987648,103,38.9495854,45.0805947,32.24,0,-0.3,154,368741.12,11034.93,149.8,Air+FixedWing,Red,Allies,J-11A,Red J-11A #002,xu,<51>Frostie,0.005859375,0,1.72e-05,32.23999786,2.239997864,0.005859375,0,NaN,NaN,0,0,NaN,0.999992311,0.003004568,-0.004063381,1.72e-06,31.61663751,31.61663922,,,81.36999989,30,0.5825819,1.223233698
2018-07-19T08:07:29Z,1531987649,103,38.9495854,45.0805947,32.24,0,-0.3,154,368741.16,11034.93,149.8,Air+FixedWing,Red,Allies,J-11A,Red J-11A #002,xu,<51>Frostie,0.031265255,0,9.19e-05,32.23999786,2.239997864,0.031265255,0,NaN,NaN,0,0,NaN,0.999977328,-0.002704018,-0.006924937,4.89e-05,31.61663751,31.61668638,,,82.36999989,30,0.5825819,1.223233698
2018-07-19T08:07:30Z,1531987650,103,38.9495854,45.0805946,32.24,0,-0.3,154,368741.16,11034.93,149.8,Air+FixedWing,Red,Allies,J-11A,Red J-11A #002,xu,<51>Frostie,0,0,0,32.23999786,2.239997864,0,0,NaN,NaN,0,0,NaN,0.999977779,-0.00275411,-0.006838872,0,31.61663751,31.61663751,,,83.36999989,30,0.593713848,1.234365702
2018-07-19T08:07:31Z,1531987651,103,38.9495854,45.0805946,32.24,0,-0.3,154,368741.12,11034.93,149.8,Air+FixedWing,Red,Allies,J-11A,Red J-11A #002,xu,<51>Frostie,0.03125,0,9.18e-05,32.23999786,2.239997864,0.03125,0,NaN,NaN,0,0,NaN,1.000002957,0.00550822,-0.002030149,4.88e-05,31.61663751,31.61668633,,,84.36999989,30,0.593713848,1.234365702
2018-07-19T08:07:32Z,1531987652,103,38.9495854,45.0805946,32.24,0,-0.3,154,368741.16,11034.93,149.8,Air+FixedWing,Red,Allies,J-11A,Red J-11A #002,xu,<51>Frostie,0.03125,0,9.18e-05,32.23999786,2.239997864,0.03125,0,NaN,NaN,0,0,NaN,0.999969386,-0.00550822,-0.00844178,4.88e-05,31.61663751,31.61668633,,,85.36999989,30,0.593713848,1.234365702
2018-07-19T08:07:33Z,1531987653,103,38.9495854,45.0805946,32.24,0,-0.3,154,368741.12,11034.93,149.8,Air+FixedWing,Red,Allies,J-11A,Red J-11A #002,xu,<51>Frostie,0.03125,0,9.18e-05,32.23999786,2.239997864,0.03125,0,NaN,NaN,0,0,NaN,0.999994565,0.00275411,-0.003633057,4.88e-05,31.61663751,31.61668633,,,86.36999989,30,0.593713848,1.234365702
2018-07-19T08:07:34Z,1531987654,103,38.9495854,45.0805946,32.24,0,-0.3,154,368741.12,11034.93,149.8,Air+FixedWing,Red,Allies,J-11A,Red J-11A #002,xu,<51>Frostie,0,0,0,32.23999786,2.239997864,0,0,NaN,NaN,0,0,NaN,0.999994565,0.00275411,-0.003633057,0,31.61663751,31.61663751,,,87.36999989,30,0.593713848,1.234365702
2018-07-19T08:07:35Z,1531987655,103,38.9495854,45.0805946,32.24,0,-0.3,154,368741.16,11034.93,149.8,Air+FixedWing,Red,Allies,J-11A,Red J-11A #002,xu,<51>Frostie,0.03125,0,9.18e-05,32.23999786,2.239997864,0.03125,0,NaN,NaN,0,0,NaN,0.999977779,-0.00275411,-0.006838872,4.88e-05,31.61663751,31.61668633,,,88.36999989,30,0.593713848,1.234365702
2018-07-19T08:07:36Z,1531987656,103,38.9495854,45.0805946,32.24,0,-0.3,154,368741.16,11034.93,149.8,Air+FixedWing,Red,Allies,J-11A,Red J-11A #002,xu,<51>Frostie,0,0,0,32.23999786,2.239997864,0,0,NaN,NaN,0,0,NaN,0.999977779,-0.00275411,-0.006838872,0,31.61663751,31.61663751,,,89.36999989,30,0.593713848,1.234365702
2018-07-19T08:07:37Z,1531987657,103,38.9495854,45.0805946,32.24,0,-0.3,154,368741.12,11034.93,149.8,Air+FixedWing,Red,Allies,J-11A,Red J-11A #002,xu,<51>Frostie,0.03125,0,9.18e-05,32.23999786,2.239997864,0.03125,0,NaN,NaN,0,0,NaN,1.000002957,0.00550822,-0.002030149,4.88e-05,31.61663751,31.61668633,,,90.36999989,30,0.593713848,1.234365702
2018-07-19T08:07:38Z,1531987658,103,38.9495854,45.0805946,32.24,0,-0.3,154,368741.16,11034.93,149.8,Air+FixedWing,Red,Allies,J-11A,Red J-11A #002,xu,<51>Frostie,0.03125,0,9.18e-05,32.23999786,2.239997864,0.03125,0,NaN,NaN,0,0,NaN,0.999969386,-0.00550822,-0.00844178,4.88e-05,31.61663751,31.61668633,,,91.36999989,30,0.593713848,1.234365702
2018-07-19T08:07:39Z,1531987659,103,38.9495854,45.0805946,32.24,0,-0.3,154,368741.12,11034.93,149.8,Air+FixedWing,Red,Allies,J-11A,Red J-11A #002,xu,<51>Frostie,0.03125,0,9.18e-05,32.23999786,2.239997864,0.03125,0,NaN,NaN,0,0,NaN,0.999994565,0.00275411,-0.003633057,4.88e-05,31.61663751,31.61668633,,,92.36999989,30,0.593713848,1.234365702
2018-07-19T08:07:40Z,1531987660,103,38.9495854,45.0805946,32.24,0,-0.3,154,368741.12,11034.93,149.8,Air+FixedWing,Red,Allies,J-11A,Red J-11A #002,xu,<51>Frostie,0,0,0,32.23999786,2.239997864,0,0,NaN,NaN,0,0,NaN,0.999986172,0,-0.005235964,0,31.61663751,31.61663751,,,93.36999989,30,0.593713848,1.234365702
2018-07-19T08:07:41Z,1531987661,103,38.9495854,45.0805946,32.24,0,-0.3,154,368741.12,11034.93,149.8,Air+FixedWing,Red,Allies,J-11A,Red J-11A #002,xu,<51>Frostie,0,0,0,32.23999786,2.239997864,0,0,NaN,NaN,0,0,NaN,0.999994565,0.00275411,-0.003633057,0,31.61663751,31.61663751,,,94.36999989,30,0.593713848,1.234365702
2018-07-19T08:07:42Z,1531987662,103,38.9495854,45.0805946,32.24,0,-0.3,154,368741.16,11034.93,149.8,Air+FixedWing,Red,Allies,J-11A,Red J-11A #002,xu,<51>Frostie,0.03125,0,9.18e-05,32.23999786,2.239997864,0.03125,0,NaN,NaN,0,0,NaN,0.999977779,-0.00275411,-0.006838872,4.88e-05,31.61663751,31.61668633,,,95.36999989,30,0.593713848,1.234365702
2018-07-19T08:07:43Z,1531987663,103,38.9495854,45.0805946,32.24,0,-0.3,154,368741.16,11034.93,149.8,Air+FixedWing,Red,Allies,J-11A,Red J-11A #002,xu,<51>Frostie,0,0,0,32.23999786,2.239997864,0,0,NaN,NaN,0,0,NaN,0.999986172,0,-0.005235964,0,31.61663751,31.61663751,,,96.36999989,30,0.593713848,1.234365702
2018-07-19T08:07:44Z,1531987664,103,38.9495854,45.0805946,32.24,0,-0.3,154,368741.16,11034.93,149.8,Air+FixedWing,Red,Allies,J-11A,Red J-11A #002,xu,<51>Frostie,0,0,0,32.23999786,2.239997864,0,0,NaN,NaN,0,0,NaN,0.999977779,-0.00275411,-0.006838872,0,31.61663751,31.61663751,,,97.36999989,30,0.593713848,1.234365702
2018-07-19T08:07:45Z,1531987665,103,38.9495854,45.0805946,32.24,0,-0.3,154,368741.12,11034.93,149.8,Air+FixedWing,Red,Allies,J-11A,Red J-11A #002,xu,<51>Frostie,0.03125,0,9.18e-05,32.23999786,2.239997864,0.03125,0,NaN,NaN,0,0,NaN,1.000002957,0.00550822,-0.002030149,4.88e-05,31.61663751,31.61668633,,,98.36999989,30,0.593713848,1.234365702
2018-07-19T08:07:46Z,1531987666,103,38.9495854,45.0805946,32.24,0,-0.3,154,368741.16,11034.93,149.8,Air+FixedWing,Red,Allies,J-11A,Red J-11A #002,xu,<51>Frostie,0.03125,0,9.18e-05,32.23999786,2.239997864,0.03125,0,NaN,NaN,0,0,NaN,0.999969386,-0.00550822,-0.00844178,4.88e-05,31.61663751,31.61668633,,,99.36999989,30,0.593713848,1.234365702
2018-07-19T08:07:47Z,1531987667,103,38.9495854,45.0805946,32.24,0,-0.3,154,368741.12,11034.93,149.8,Air+FixedWing,Red,Allies,J-11A,Red J-11A #002,xu,<51>Frostie,0.03125,0,9.18e-05,32.23999786,2.239997864,0.03125,0,NaN,NaN,0,0,NaN,1.000002957,0.00550822,-0.002030149,4.88e-05,31.61663751,31.61668633,,,100.3699999,30,0.593713848,1.234365702
2018-07-19T08:07:48Z,1531987668,103,38.9495854,45.0805946,32.24,0,-0.3,154,368741.16,11034.93,149.8,Air+FixedWing,Red,Allies,J-11A,Red J-11A #002,xu,<51>Frostie,0.03125,0,9.18e-05,32.23999786,2.239997864,0.03125,0,NaN,NaN,0.009523799,0,NaN,0.999978008,-0.002671001,-0.006838872,4.88e-05,31.61663751,31.61668633,,,101.3699999,30,0.593713848,1.234365702
2018-07-19T08:07:49Z,1531987669,103,38.9495854,45.0805946,32.24,0,-0.3,154,368741.16,11034.93,149.8,Air+FixedWing,Red,Allies,J-11A,Red J-11A #002,xu,<51>Frostie,0,0,0,32.23999786,2.239997864,0,0,NaN,NaN,0.113654348,0,NaN,0.999986172,0.00015876,-0.005235964,0,31.61663751,31.61663751,,,102.3699999,30,0.593713848,1.234365702
2018-07-19T08:07:50Z,1531987670,103,38.9495854,45.0805946,32.24,0,-0.3,154,368741.16,11034.93,149.8,Air+FixedWing,Red,Allies,J-11A,Red J-11A #002,xu,<51>Frostie,0,0,0,32.23999786,2.239997864,0,0,NaN,NaN,0,0,NaN,0.999977779,-0.00275411,-0.006838872,0,31.61663751,31.61663751,,,103.3699999,30,0.593713848,1.234365702
2018-07-19T08:07:51Z,1531987671,103,38.9495854,45.0805946,32.24,0,-0.3,154,368741.12,11034.93,149.8,Air+FixedWing,Red,Allies,J-11A,Red J-11A #002,xu,<51>Frostie,0.03125,0,9.18e-05,32.23999786,2.239997864,0.03125,0,NaN,NaN,0,0,NaN,0.999994565,0.00275411,-0.003633057,4.88e-05,31.61663751,31.61668633,,,104.3699999,30,0.595585369,1.236237233
2018-07-19T08:07:52Z,1531987672,103,38.9495852,45.0805947,32.24,0,-0.3,154,368741.12,11034.93,149.8,Air+FixedWing,Red,Allies,J-11A,Red J-11A #002,xu,<51>Frostie,0,0,0,32.23999786,2.239997864,0,0,NaN,NaN,0,0,NaN,0.999986172,0,-0.005235964,0,31.61663751,31.61663751,,,105.3699999,30,0.612672646,1.253324596
2018-07-19T08:07:53Z,1531987673,103,38.9495853,45.0805946,32.24,0,-0.3,154,368741.12,11034.93,149.8,Air+FixedWing,Red,Allies,J-11A,Red J-11A #002,xu,<51>Frostie,0,0,0,32.23999786,2.239997864,0,0,NaN,NaN,0,0,NaN,0.999994565,0.00275411,-0.003633057,0,31.61663751,31.61663751,,,106.3699999,30,0.623878475,1.264530482
2018-07-19T08:07:54Z,1531987674,103,38.9495854,45.0805946,32.24,0,-0.3,154,368741.16,11034.93,149.8,Air+FixedWing,Red,Allies,J-11A,Red J-11A #002,xu,<51>Frostie,0.03125,0,9.18e-05,32.23999786,2.239997864,0.03125,0,NaN,NaN,0,0,NaN,0.999977779,-0.00275411,-0.006838872,4.88e-05,31.61663751,31.61668633,,,107.3699999,30,0.635239552,1.275891616
2018-07-19T08:07:55Z,1531987675,103,38.9495854,45.0805946,32.24,0,-0.3,154,368741.16,11034.93,149.8,Air+FixedWing,Red,Allies,J-11A,Red J-11A #002,xu,<51>Frostie,0,0,0,32.23999786,2.239997864,0,0,NaN,NaN,0,0,NaN,0.999986172,0,-0.005235964,0,31.61663751,31.61663751,,,108.3699999,30,0.638495449,1.279147529
2018-07-19T08:07:56Z,1531987676,103,38.9495854,45.0805946,32.24,0,-0.3,154,368741.16,11034.93,149.8,Air+FixedWing,Red,Allies,J-11A,Red J-11A #002,xu,<51>Frostie,0,0,0,32.23999786,2.239997864,0,0,NaN,NaN,0,0,NaN,0.999986172,0,-0.005235964,0,31.61663751,31.61663751,,,109.3699999,30,0.638688811,1.279340892
2018-07-19T08:07:57Z,1531987677,103,38.9495854,45.0805946,32.24,0,-0.3,154,368741.16,11034.93,149.8,Air+FixedWing,Red,Allies,J-11A,Red J-11A #002,xu,<51>Frostie,0,0,0,32.23999786,2.239997864,0,0,NaN,NaN,0,0,NaN,0.999986172,0,-0.005235964,0,31.61663751,31.61663751,,,110.3699999,30,0.638882176,1.279534258
2018-07-19T08:07:58Z,1531987678,103,38.9495854,45.0805946,32.24,0,-0.3,154,368741.16,11034.93,149.8,Air+FixedWing,Red,Allies,J-11A,Red J-11A #002,xu,<51>Frostie,0,0,0,32.23999786,2.239997864,0,0,NaN,NaN,0,0,NaN,0.999986172,0,-0.005235964,0,31.61663751,31.61663751,,,111.3699999,30,0.639075539,1.279727622
2018-07-19T08:07:59Z,1531987679,103,38.9495854,45.0805946,32.24,0,-0.3,154,368741.16,11034.93,149.8,Air+FixedWing,Red,Allies,J-11A,Red J-11A #002,xu,<51>Frostie,0,0,0,32.23999786,2.239997864,0,0,NaN,NaN,0,0,NaN,0.999986172,0,-0.005235964,0,31.61663751,31.61663751,,,112.3699999,30,0.639268904,1.279920988
2018-07-19T08:08:00Z,1531987680,103,38.9495854,45.0805946,32.24,0,-0.3,154,368741.16,11034.93,149.8,Air+FixedWing,Red,Allies,J-11A,Red J-11A #002,xu,<51>Frostie,0,0,0,32.23999786,2.239997864,0,0,NaN,NaN,0,0,NaN,0.999986172,0,-0.005235964,0,31.61663751,31.61663751,,,113.3699999,30,0.639462266,1.280114351
2018-07-19T08:08:01Z,1531987681,103,38.9495854,45.0805946,32.24,0,-0.3,154,368741.16,11034.93,149.8,Air+FixedWing,Red,Allies,J-11A,Red J-11A #002,xu,<51>Frostie,0,0,0,32.23999786,2.239997864,0,0,NaN,NaN,0,0,NaN,0.999986172,0,-0.005235964,0,31.61663751,31.61663751,,,114.3699999,30,0.639655632,1.280307717
2018-07-19T08:08:02Z,1531987682,103,38.9495854,45.0805946,32.24,0,-0.3,154,368741.16,11034.93,149.8,Air+FixedWing,Red,Allies,J-11A,Red J-11A #002,xu,<51>Frostie,0,0,0,32.23999786,2.239997864,0,0,NaN,NaN,0,0,NaN,0.999986172,0,-0.005235964,0,31.61663751,31.61663751,,,115.3699999,30,0.639848993,1.28050108
2018-07-19T08:08:03Z,1531987683,103,38.9495854,45.0805946,32.24,0,-0.3,154,368741.16,11034.93,149.8,Air+FixedWing,Red,Allies,J-11A,Red J-11A #002,xu,<51>Frostie,0,0,0,32.23999786,2.239997864,0,0,NaN,NaN,0,0,NaN,0.999986172,0,-0.005235964,0,31.61663751,31.61663751,,,116.3699999,30,0.640042359,1.280694446
2018-07-19T08:08:04Z,1531987684,103,38.9495854,45.0805946,32.24,0,-0.3,154,368741.16,11034.93,149.8,Air+FixedWing,Red,Allies,J-11A,Red J-11A #002,xu,<51>Frostie,0,0,0,32.23999786,2.239997864,0,0,NaN,NaN,0,0,NaN,0.999986172,0,-0.005235964,0,31.61663751,31.61663751,,,117.3699999,30,0.640235722,1.280887809
2018-07-19T08:08:05Z,1531987685,103,38.9495854,45.0805946,32.24,0,-0.3,154,368741.16,11034.93,149.8,Air+FixedWing,Red,Allies,J-11A,Red J-11A #002,xu,<51>Frostie,0,0,0,32.23999786,2.239997864,0,0,NaN,NaN,0,0,NaN,0.999986172,0,-0.005235964,0,31.61663751,31.61663751,,,118.3699999,30,0.640429087,1.281081176
2018-07-19T08:08:06Z,1531987686,103,38.9495854,45.0805946,32.24,0,-0.3,154,368741.16,11034.93,149.8,Air+FixedWing,Red,Allies,J-11A,Red J-11A #002,xu,<51>Frostie,0,0,0,32.23999786,2.239997864,0,0,NaN,NaN,0,0,NaN,0.999986172,0,-0.005235964,0,31.61663751,31.61663751,,,119.3699999,30,0.640622448,1.281274539
2018-07-19T08:08:07Z,1531987687,103,38.9495854,45.0805946,32.24,0,-0.3,154,368741.16,11034.93,149.8,Air+FixedWing,Red,Allies,J-11A,Red J-11A #002,xu,<51>Frostie,0,0,0,32.23999786,2.239997864,0,0,NaN,NaN,0,0,NaN,0.999986172,0,-0.005235964,0,31.61663751,31.61663751,,,120.3699999,30,0.640815813,1.281467905
2018-07-19T08:08:08Z,1531987688,103,38.9495854,45.0805946,32.24,0,-0.3,154,368741.16,11034.93,149.8,Air+FixedWing,Red,Allies,J-11A,Red J-11A #002,xu,<51>Frostie,0,0,0,32.23999786,2.239997864,0,0,NaN,NaN,0,0,NaN,0.999986172,0,-0.005235964,0,31.61663751,31.61663751,,,121.3699999,30,0.641009176,1.281661268
2018-07-19T08:08:09Z,1531987689,103,38.9495854,45.0805946,32.24,0,-0.3,154,368741.16,11034.93,149.8,Air+FixedWing,Red,Allies,J-11A,Red J-11A #002,xu,<51>Frostie,0,0,0,32.23999786,2.239997864,0,0,NaN,NaN,0,0,NaN,0.999986172,0,-0.005235964,0,31.61663751,31.61663751,,,122.3699999,30,0.641202541,1.281854635
2018-07-19T08:08:10Z,1531987690,103,38.9495854,45.0805946,32.24,0,-0.3,154,368741.16,11034.93,149.8,Air+FixedWing,Red,Allies,J-11A,Red J-11A #002,xu,<51>Frostie,0,0,0,32.23999786,2.239997864,0,0,NaN,NaN,0,0,NaN,0.999986172,0,-0.005235964,0,31.61663751,31.61663751,,,123.3699999,30,0.641395905,1.282047999
2018-07-19T08:08:11Z,1531987691,103,38.9495854,45.0805946,32.24,0,-0.3,154,368741.16,11034.93,149.8,Air+FixedWing,Red,Allies,J-11A,Red J-11A #002,xu,<51>Frostie,0,0,0,32.23999786,2.239997864,0,0,NaN,NaN,0,0,NaN,0.999986172,0,-0.005235964,0,31.61663751,31.61663751,,,124.3699999,30,0.641589269,1.282241364
2018-07-19T08:08:12Z,1531987692,103,38.9495854,45.0805946,32.24,0,-0.3,154,368741.16,11034.93,149.8,Air+FixedWing,Red,Allies,J-11A,Red J-11A #002,xu,<51>Frostie,0,0,0,32.23999786,2.239997864,0,0,NaN,NaN,0,0,NaN,0.999986172,0,-0.005235964,0,31.61663751,31.61663751,,,125.3699999,30,0.641782632,1.282434728
2018-07-19T08:08:13Z,1531987693,103,38.9495854,45.0805946,32.24,0,-0.3,154,368741.16,11034.93,149.8,Air+FixedWing,Red,Allies,J-11A,Red J-11A #002,xu,<51>Frostie,0,0,0,32.23999786,2.239997864,0,0,NaN,NaN,0,0,NaN,0.999986172,0,-0.005235964,0,31.61663751,31.61663751,,,126.3699999,30,0.641975996,1.282628093
2018-07-19T08:08:14Z,1531987694,103,38.9495854,45.0805946,32.24,0,-0.3,154,368741.16,11034.93,149.8,Air+FixedWing,Red,Allies,J-11A,Red J-11A #002,xu,<51>Frostie,0,0,0,32.23999786,2.239997864,0,0,NaN,NaN,0,0,NaN,0.999986172,0,-0.005235964,0,31.61663751,31.61663751,,,127.3699999,30,0.642169359,1.282821457
2018-07-19T08:08:15Z,1531987695,103,38.9495854,45.0805946,32.24,0,-0.3,154,368741.16,11034.93,149.8,Air+FixedWing,Red,Allies,J-11A,Red J-11A #002,xu,<51>Frostie,0,0,0,32.23999786,2.239997864,0,0,NaN,NaN,0,0,NaN,0.999986172,0,-0.005235964,0,31.61663751,31.61663751,,,128.3699999,30,0.642362724,1.283014822
2018-07-19T08:08:16Z,1531987696,103,38.9495854,45.0805946,32.24,0,-0.3,154,368741.16,11034.93,149.8,Air+FixedWing,Red,Allies,J-11A,Red J-11A #002,xu,<51>Frostie,0,0,0,32.23999786,2.239997864,0,0,NaN,NaN,0,0,NaN,0.999986172,0,-0.005235964,0,31.61663751,31.61663751,,,129.3699999,30,0.642556087,1.283208187
2018-07-19T08:08:17Z,1531987697,103,38.9495854,45.0805946,32.24,0,-0.3,154,368741.16,11034.93,149.8,Air+FixedWing,Red,Allies,J-11A,Red J-11A #002,xu,<51>Frostie,0,0,0,32.23999786,2.239997864,0,0,NaN,NaN,0,0,NaN,0.999986172,0,-0.005235964,0,31.61663751,31.61663751,,,130.3699999,30,0.64274945,1.283401551
2018-07-19T08:08:18Z,1531987698,103,38.9495854,45.0805946,32.24,0,-0.3,154,368741.16,11034.93,149.8,Air+FixedWing,Red,Allies,J-11A,Red J-11A #002,xu,<51>Frostie,0,0,0,32.23999786,2.239997864,0,0,NaN,NaN,0,0,NaN,0.999986172,0,-0.005235964,0,31.61663751,31.61663751,,,131.3699999,30,0.642942814,1.283594916
2018-07-19T08:08:19Z,1531987699,103,38.9495854,45.0805946,32.24,0,-0.3,154,368741.16,11034.93,149.8,Air+FixedWing,Red,Allies,J-11A,Red J-11A #002,xu,<51>Frostie,0,0,0,32.23999786,2.239997864,0,0,NaN,NaN,0,0,NaN,0.999986172,0,-0.005235964,0,31.61663751,31.61663751,,,132.3699999,30,0.643136179,1.283788281
2018-07-19T08:08:20Z,1531987700,103,38.9495854,45.0805946,32.24,0,-0.3,154,368741.16,11034.93,149.8,Air+FixedWing,Red,Allies,J-11A,Red J-11A #002,xu,<51>Frostie,0,0,0,32.23999786,2.239997864,0,0,NaN,NaN,0,0,NaN,0.999986172,0,-0.005235964,0,31.61663751,31.61663751,,,133.3699999,30,0.643329541,1.283981645
2018-07-19T08:08:21Z,1531987701,103,38.9495854,45.0805946,32.24,0,-0.3,154,368741.16,11034.93,149.8,Air+FixedWing,Red,Allies,J-11A,Red J-11A #002,xu,<51>Frostie,0,0,0,32.23999786,2.239997864,0,0,NaN,NaN,0,0,NaN,0.999986172,0,-0.005235964,0,31.61663751,31.61663751,,,134.3699999,30,0.643522905,1.28417501
2018-07-19T08:08:22Z,1531987702,103,38.9495854,45.0805946,32.24,0,-0.3,154,368741.16,11034.93,149.8,Air+FixedWing,Red,Allies,J-11A,Red J-11A #002,xu,<51>Frostie,0,0,0,32.23999786,2.239997864,0,0,NaN,NaN,0,0,NaN,0.999986172,0,-0.005235964,0,31.61663751,31.61663751,,,135.3699999,30,0.64371627,1.284368375
2018-07-19T08:08:23Z,1531987703,103,38.9495854,45.0805946,32.24,0,-0.3,154,368741.16,11034.93,149.8,Air+FixedWing,Red,Allies,J-11A,Red J-11A #002,xu,<51>Frostie,0,0,0,32.23999786,2.239997864,0,0,NaN,NaN,0,0,NaN,0.999986172,0,-0.005235964,0,31.61663751,31.61663751,,,136.3699999,30,0.643909632,1.284561739
2018-07-19T08:08:24Z,1531987704,103,38.9495854,45.0805947,32.24,0,-0.3,154,368741.16,11034.93,149.8,Air+FixedWing,Red,Allies,J-11A,Red J-11A #002,xu,<51>Frostie,0,0,0,32.23999786,2.239997864,0,0,NaN,NaN,0,0,NaN,0.999986172,0,-0.005235964,0,31.61663751,31.61663751,,,137.3699999,30,0.644102996,1.284755104
2018-07-19T08:08:25Z,1531987705,103,38.9495854,45.0805947,32.24,0,-0.3,154,368741.16,11034.93,149.8,Air+FixedWing,Red,Allies,J-11A,Red J-11A #002,xu,<51>Frostie,0,0,0,32.23999786,2.239997864,0,0,NaN,NaN,0,0,NaN,0.999986172,0,-0.005235964,0,31.61663751,31.61663751,,,138.3699999,30,0.64429636,1.284948469
2018-07-19T08:08:26Z,1531987706,103,38.9495854,45.0805947,32.24,0,-0.3,154,368741.16,11034.93,149.8,Air+FixedWing,Red,Allies,J-11A,Red J-11A #002,xu,<51>Frostie,0,0,0,32.23999786,2.239997864,0,0,NaN,NaN,0,0,NaN,0.999986172,0,-0.005235964,0,31.61663751,31.61663751,,,139.3699999,30,0.644489724,1.285141833
2018-07-19T08:08:27Z,1531987707,103,38.9495854,45.0805947,32.24,0,-0.3,154,368741.16,11034.93,149.8,Air+FixedWing,Red,Allies,J-11A,Red J-11A #002,xu,<51>Frostie,0,0,0,32.23999786,2.239997864,0,0,NaN,NaN,0,0,NaN,0.999986172,0,-0.005235964,0,31.61663751,31.61663751,,,140.3699999,30,0.644683088,1.285335198
2018-07-19T08:08:28Z,1531987708,103,38.9495854,45.0805947,32.24,0,-0.3,154,368741.16,11034.93,149.8,Air+FixedWing,Red,Allies,J-11A,Red J-11A #002,xu,<51>Frostie,0,0,0,32.23999786,2.239997864,0,0,NaN,NaN,0,0,NaN,0.999986172,0,-0.005235964,0,31.61663751,31.61663751,,,141.3699999,30,0.644876451,1.285528563
2018-07-19T08:08:29Z,1531987709,103,38.9495854,45.0805947,32.24,0,-0.3,154,368741.16,11034.93,149.8,Air+FixedWing,Red,Allies,J-11A,Red J-11A #002,xu,<51>Frostie,0,0,0,32.23999786,2.239997864,0,0,NaN,NaN,0,0,NaN,0.999986172,0,-0.005235964,0,31.61663751,31.61663751,,,142.3699999,30,0.645069815,1.285721928
2018-07-19T08:08:30Z,1531987710,103,38.9495854,45.0805947,32.24,0,-0.3,154,368741.16,11034.93,149.8,Air+FixedWing,Red,Allies,J-11A,Red J-11A #002,xu,<51>Frostie,0,0,0,32.23999786,2.239997864,0,0,NaN,NaN,0,0,NaN,0.999986172,0,-0.005235964,0,31.61663751,31.61663751,,,143.3699999,30,0.645263179,1.285915292
2018-07-19T08:08:31Z,1531987711,103,38.9495854,45.0805947,32.24,0,-0.3,154,368741.16,11034.93,149.8,Air+FixedWing,Red,Allies,J-11A,Red J-11A #002,xu,<51>Frostie,0,0,0,32.23999786,2.239997864,0,0,NaN,NaN,0,0,NaN,0.999986172,0,-0.005235964,0,31.61663751,31.61663751,,,144.3699999,30,0.645456542,1.286108656
2018-07-19T08:08:32Z,1531987712,103,38.9495854,45.0805947,32.24,0,-0.3,154,368741.16,11034.93,149.8,Air+FixedWing,Red,Allies,J-11A,Red J-11A #002,xu,<51>Frostie,0,0,0,32.23999786,2.239997864,0,0,NaN,NaN,0,0,NaN,0.999986172,0,-0.005235964,0,31.61663751,31.61663751,,,145.3699999,30,0.645649906,1.286302022
2018-07-19T08:08:33Z,1531987713,103,38.9495854,45.0805947,32.24,0,-0.3,154,368741.16,11034.93,149.8,Air+FixedWing,Red,Allies,J-11A,Red J-11A #002,xu,<51>Frostie,0,0,0,32.23999786,2.239997864,0,0,NaN,NaN,0,0,NaN,0.999986172,0,-0.005235964,0,31.61663751,31.61663751,,,146.3699999,30,0.64584327,1.286495386
2018-07-19T08:08:34Z,1531987714,103,38.9495854,45.0805947,32.24,0,-0.3,154,368741.16,11034.93,149.8,Air+FixedWing,Red,Allies,J-11A,Red J-11A #002,xu,<51>Frostie,0,0,0,32.23999786,2.239997864,0,0,NaN,NaN,0,0,NaN,0.999986172,0,-0.005235964,0,31.61663751,31.61663751,,,147.3699999,30,0.646036634,1.286688752
2018-07-19T08:08:35Z,1531987715,103,38.9495854,45.0805947,32.24,0,-0.3,154,368741.16,11034.93,149.8,Air+FixedWing,Red,Allies,J-11A,Red J-11A #002,xu,<51>Frostie,0,0,0,32.23999786,2.239997864,0,0,NaN,NaN,0,0,NaN,0.999986172,0,-0.005235964,0,31.61663751,31.61663751,,,148.3699999,30,0.646229996,1.286882116
2018-07-19T08:08:36Z,1531987716,103,38.9495854,45.0805947,32.24,0,-0.3,154,368741.16,11034.93,149.8,Air+FixedWing,Red,Allies,J-11A,Red J-11A #002,xu,<51>Frostie,0,0,0,32.23999786,2.239997864,0,0,NaN,NaN,0,0,NaN,0.999986172,0,-0.005235964,0,31.61663751,31.61663751,,,149.3699999,30,0.646423361,1.287075481
2018-07-19T08:08:37Z,1531987717,103,38.9495854,45.0805947,32.24,0,-0.3,154,368741.16,11034.93,149.8,Air+FixedWing,Red,Allies,J-11A,Red J-11A #002,xu,<51>Frostie,0,0,0,32.23999786,2.239997864,0,0,NaN,NaN,0,0,NaN,0.999986172,0,-0.005235964,0,31.61663751,31.61663751,,,150.3699999,30,0.646616725,1.287268844
2018-07-19T08:08:38Z,1531987718,103,38.9495854,45.0805947,32.24,0,-0.3,154,368741.16,11034.93,149.8,Air+FixedWing,Red,Allies,J-11A,Red J-11A #002,xu,<51>Frostie,0,0,0,32.23999786,2.239997864,0,0,NaN,NaN,0,0,NaN,0.999986172,0,-0.005235964,0,31.61663751,31.61663751,,,151.3699999,30,0.646810088,1.287462209
2018-07-19T08:08:39Z,1531987719,103,38.9495854,45.0805947,32.24,0,-0.3,154,368741.16,11034.93,149.8,Air+FixedWing,Red,Allies,J-11A,Red J-11A #002,xu,<51>Frostie,0,0,0,32.23999786,2.239997864,0,0,NaN,NaN,0,0,NaN,0.999986172,0,-0.005235964,0,31.61663751,31.61663751,,,152.3699999,30,0.647003452,1.287655574
2018-07-19T08:08:40Z,1531987720,103,38.9495854,45.0805947,32.24,0,-0.3,154,368741.16,11034.93,149.8,Air+FixedWing,Red,Allies,J-11A,Red J-11A #002,xu,<51>Frostie,0,0,0,32.23999786,2.239997864,0,0,NaN,NaN,0,0,NaN,0.999986172,0,-0.005235964,0,31.61663751,31.61663751,,,153.3699999,30,0.647196815,1.287848938
2018-07-19T08:08:41Z,1531987721,103,38.9495854,45.0805947,32.24,0,-0.3,154,368741.16,11034.93,149.8,Air+FixedWing,Red,Allies,J-11A,Red J-11A #002,xu,<51>Frostie,0,0,0,32.23999786,2.239997864,0,0,NaN,NaN,0,0,NaN,0.999986172,0,-0.005235964,0,31.61663751,31.61663751,,,154.3699999,30,0.647390179,1.288042304
2018-07-19T08:08:42Z,1531987722,103,38.9495854,45.0805947,32.24,0,-0.3,154,368741.16,11034.93,149.8,Air+FixedWing,Red,Allies,J-11A,Red J-11A #002,xu,<51>Frostie,0,0,0,32.23999786,2.239997864,0,0,NaN,NaN,0,0,NaN,0.999986172,0,-0.005235964,0,31.61663751,31.61663751,,,155.3699999,30,0.647583543,1.288235668
2018-07-19T08:08:43Z,1531987723,103,38.9495854,45.0805947,32.24,0,-0.3,154,368741.16,11034.93,149.8,Air+FixedWing,Red,Allies,J-11A,Red J-11A #002,xu,<51>Frostie,0,0,0,32.23999786,2.239997864,0,0,NaN,NaN,0,0,NaN,0.999986172,0,-0.005235964,0,31.61663751,31.61663751,,,156.3699999,30,0.647776906,1.288429032
2018-07-19T08:08:44Z,1531987724,103,38.9495854,45.0805947,32.24,0,-0.3,154,368741.16,11034.93,149.8,Air+FixedWing,Red,Allies,J-11A,Red J-11A #002,xu,<51>Frostie,0,0,0,32.23999786,2.239997864,0,0,NaN,NaN,0,0,NaN,0.999986172,0,-0.005235964,0,31.61663751,31.61663751,,,157.3699999,30,0.64797027,1.288622397
2018-07-19T08:08:45Z,1531987725,103,38.9495854,45.0805947,32.24,0,-0.3,154,368741.16,11034.93,149.8,Air+FixedWing,Red,Allies,J-11A,Red J-11A #002,xu,<51>Frostie,0,0,0,32.23999786,2.239997864,0,0,NaN,NaN,0,0,NaN,0.999986172,0,-0.005235964,0,31.61663751,31.61663751,,,158.3699999,30,0.648163634,1.288815762
2018-07-19T08:08:46Z,1531987726,103,38.9495854,45.0805947,32.24,0,-0.3,154,368741.16,11034.93,149.8,Air+FixedWing,Red,Allies,J-11A,Red J-11A #002,xu,<51>Frostie,0,0,0,32.23999786,2.239997864,0,0,NaN,NaN,0,0,NaN,0.999986172,0,-0.005235964,0,31.61663751,31.61663751,,,159.3699999,30,0.648356998,1.289009127
2018-07-19T08:08:47Z,1531987727,103,38.9495854,45.0805947,32.24,0,-0.3,154,368741.16,11034.93,149.8,Air+FixedWing,Red,Allies,J-11A,Red J-11A #002,xu,<51>Frostie,0,0,0,32.23999786,2.239997864,0,0,NaN,NaN,0,0,NaN,0.999986172,0,-0.005235964,0,31.61663751,31.61663751,,,160.3699999,30,0.648550362,1.289202492
2018-07-19T08:08:48Z,1531987728,103,38.9495854,45.0805947,32.24,0,-0.3,154,368741.16,11034.93,149.8,Air+FixedWing,Red,Allies,J-11A,Red J-11A #002,xu,<51>Frostie,0,0,0,32.23999786,2.239997864,0,0,NaN,NaN,0,0,NaN,0.999986172,0,-0.005235964,0,31.61663751,31.61663751,,,161.3699999,30,0.648743725,1.289395856
2018-07-19T08:08:49Z,1531987729,103,38.9495854,45.0805947,32.24,0,-0.3,154,368741.16,11034.93,149.8,Air+FixedWing,Red,Allies,J-11A,Red J-11A #002,xu,<51>Frostie,0,0,0,32.23999786,2.239997864,0,0,NaN,NaN,0,0,NaN,0.999986172,0,-0.005235964,0,31.61663751,31.61663751,,,162.3699999,30,0.648937088,1.289589221
2018-07-19T08:08:50Z,1531987730,103,38.9495854,45.0805947,32.24,0,-0.3,154,368741.16,11034.93,149.8,Air+FixedWing,Red,Allies,J-11A,Red J-11A #002,xu,<51>Frostie,0,0,0,32.23999786,2.239997864,0,0,NaN,NaN,0,0,NaN,0.999986172,0,-0.005235964,0,31.61663751,31.61663751,,,163.3699999,30,0.649130452,1.289782585
2018-07-19T08:08:51Z,1531987731,103,38.9495854,45.0805947,32.24,0,-0.3,154,368741.16,11034.93,149.8,Air+FixedWing,Red,Allies,J-11A,Red J-11A #002,xu,<51>Frostie,0,0,0,32.23999786,2.239997864,0,0,NaN,NaN,0,0,NaN,0.999981665,0.000500915,-0.006096612,0,31.61663751,31.61663751,,,164.3699999,30,0.649323817,1.28997595
2018-07-19T08:08:52Z,1531987732,103,38.9495854,45.0805947,32.24,0,-0.3,154,368741.16,11034.94,149.8,Air+FixedWing,Red,Allies,J-11A,Red J-11A #002,xu,<51>Frostie,0.009765625,0,2.87e-05,32.23999786,2.239997864,0.009765625,0,NaN,NaN,0,0,NaN,0.999992931,-0.000751373,-0.003944993,4.77e-06,31.61663751,31.61664227,,,165.3699999,30,0.64948044,1.290132575
2018-07-19T08:08:53Z,1531987733,103,38.9495854,45.0805947,32.24,0,-0.3,154,368741.16,11034.93,149.8,Air+FixedWing,Red,Allies,J-11A,Red J-11A #002,xu,<51>Frostie,0.004882813,0,1.43e-05,32.23999786,2.239997864,0.004882813,0,NaN,NaN,0,0,NaN,0.999981215,0.000551007,-0.006182677,1.19e-06,31.61663751,31.6166387,,,166.3699999,30,0.64948044,1.290132575
2018-07-19T08:08:54Z,1531987734,103,38.9495854,45.0805947,32.24,0,-0.3,154,368741.16,11034.94,149.8,Air+FixedWing,Red,Allies,J-11A,Red J-11A #002,xu,<51>Frostie,0.005859375,0,1.72e-05,32.23999786,2.239997864,0.005859375,0,NaN,NaN,0.003598417,0,NaN,0.999988952,-0.000244654,-0.004719576,1.72e-06,31.61663751,31.61663922,,,167.3699999,30,0.64948044,1.290132575
2018-07-19T08:08:55Z,1531987735,103,38.9495854,45.0805947,32.24,0,-0.3,154,368741.16,11034.94,149.8,Air+FixedWing,Red,Allies,J-11A,Red J-11A #002,xu,<51>Frostie,0,0,0,32.23999786,2.239997864,0,0,NaN,NaN,0.003598417,0,NaN,0.999986231,0.000118698,-0.005235964,0,31.61663751,31.61663751,,,168.3699999,30,0.64948044,1.290132575
2018-07-19T08:08:56Z,1531987736,103,38.9495854,45.0805947,32.24,0,-0.3,154,368741.16,11034.94,149.8,Air+FixedWing,Red,Allies,J-11A,Red J-11A #002,xu,<51>Frostie,0,0,0,32.23999786,2.239997864,0,0,NaN,NaN,0.003598416,0,NaN,0.999986172,0.000181502,-0.005235964,0,31.61663751,31.61663751,,,169.3699999,30,0.64948044,1.290132575
2018-07-19T08:08:57Z,1531987737,103,38.9495854,45.0805947,32.24,0,-0.3,154,368741.16,11034.94,149.8,Air+FixedWing,Red,Allies,J-11A,Red J-11A #002,xu,<51>Frostie,0,0,0,32.23999786,2.239997864,0,0,NaN,NaN,0.003598419,0,NaN,0.999986172,0.000244305,-0.005235964,0,31.61663751,31.61663751,,,170.3699999,30,0.64948044,1.290132575
2018-07-19T08:08:58Z,1531987738,103,38.9495854,45.0805947,32.24,0,-0.3,154,368741.16,11034.94,149.8,Air+FixedWing,Red,Allies,J-11A,Red J-11A #002,xu,<51>Frostie,0,0,0,32.23999786,2.239997864,0,0,NaN,NaN,0.003598416,0,NaN,0.999986172,0.000307108,-0.005235964,0,31.61663751,31.61663751,,,171.3699999,30,0.64948044,1.290132575
2018-07-19T08:08:59Z,1531987739,103,38.9495854,45.0805947,32.24,0,-0.3,154,368741.16,11034.94,149.8,Air+FixedWing,Red,Allies,J-11A,Red J-11A #002,xu,<51>Frostie,0,0,0,32.23999786,2.239997864,0,0,NaN,NaN,0.003598416,0,NaN,0.999986172,0.000369912,-0.005235964,0,31.61663751,31.61663751,,,172.3699999,30,0.64948044,1.290132575
2018-07-19T08:09:00Z,1531987740,103,38.9495854,45.0805947,32.24,0,-0.3,154,368741.16,11034.94,149.8,Air+FixedWing,Red,Allies,J-11A,Red J-11A #002,xu,<51>Frostie,0,0,0,32.23999786,2.239997864,0,0,NaN,NaN,0.003598416,0,NaN,0.999986112,0.000432715,-0.005235964,0,31.61663751,31.61663751,,,173.3699999,30,0.64948044,1.290132575
2018-07-19T08:09:01Z,1531987741,103,38.9495854,45.0805947,32.24,0,-0.3,154,368741.16,11034.94,149.8,Air+FixedWing,Red,Allies,J-11A,Red J-11A #002,xu,<51>Frostie,0,0,0,32.23999786,2.239997864,0,0,NaN,NaN,0.003598416,0,NaN,0.999986112,0.000495518,-0.005235964,0,31.61663751,31.61663751,,,174.3699999,30,0.64948044,1.290132575
2018-07-19T08:09:02Z,1531987742,103,38.9495854,45.0805947,32.24,0,-0.3,154,368741.16,11034.94,149.8,Air+FixedWing,Red,Allies,J-11A,Red J-11A #002,xu,<51>Frostie,0,0,0,32.23999786,2.239997864,0,0,NaN,NaN,0.003598416,0,NaN,0.999986053,0.000558322,-0.005235964,0,31.61663751,31.61663751,,,175.3699999,30,0.64948044,1.290132575
2018-07-19T08:09:03Z,1531987743,103,38.9495854,45.0805947,32.24,0,-0.3,154,368741.16,11034.94,149.8,Air+FixedWing,Red,Allies,J-11A,Red J-11A #002,xu,<51>Frostie,0,0,0,32.23999786,2.239997864,0,0,NaN,NaN,0.003598422,0,NaN,0.999985993,0.000621125,-0.005235964,0,31.61663751,31.61663751,,,176.3699999,30,0.64948044,1.290132575
2018-07-19T08:09:04Z,1531987744,103,38.9495854,45.0805947,32.24,0,-0.3,154,368741.16,11034.94,149.8,Air+FixedWing,Red,Allies,J-11A,Red J-11A #002,xu,<51>Frostie,0,0,0,32.23999786,2.239997864,0,0,NaN,NaN,0.003598416,0,NaN,0.999985993,0.000683929,-0.005235964,0,31.61663751,31.61663751,,,177.3699999,30,0.64948044,1.290132575
2018-07-19T08:09:05Z,1531987745,103,38.9495854,45.0805947,32.24,0,-0.3,154,368741.16,11034.94,149.8,Air+FixedWing,Red,Allies,J-11A,Red J-11A #002,xu,<51>Frostie,0,0,0,32.23999786,2.239997864,0,0,NaN,NaN,0.003598416,0,NaN,0.999985933,0.000746732,-0.005235964,0,31.61663751,31.61663751,,,178.3699999,30,0.64948044,1.290132575
2018-07-19T08:09:06Z,1531987746,103,38.9495854,45.0805947,32.24,0,-0.3,154,368741.16,11034.94,149.8,Air+FixedWing,Red,Allies,J-11A,Red J-11A #002,xu,<51>Frostie,0,0,0,32.23999786,2.239997864,0,0,NaN,NaN,0.003598416,0,NaN,0.999985874,0.000809535,-0.005235964,0,31.61663751,31.61663751,,,179.3699999,30,0.64948044,1.290132575
2018-07-19T08:09:07Z,1531987747,103,38.9495854,45.0805947,32.24,0,-0.3,154,368741.16,11034.94,149.8,Air+FixedWing,Red,Allies,J-11A,Red J-11A #002,xu,<51>Frostie,0,0,0,32.23999786,2.239997864,0,0,NaN,NaN,0.003598416,0,NaN,0.999985814,0.000872339,-0.005235964,0,31.61663751,31.61663751,,,180.3699999,30,0.64948044,1.290132575
2018-07-19T08:09:08Z,1531987748,103,38.9495854,45.0805947,32.24,0.1,-0.3,154,368741.16,11034.94,149.8,Air+FixedWing,Red,Allies,J-11A,Red J-11A #002,xu,<51>Frostie,0,0,0,32.23999786,2.239997864,0,0,NaN,NaN,0.003598429,0,NaN,0.999985754,0.000935142,-0.005235964,0,31.61663751,31.61663751,,,181.3699999,30,0.64948044,1.290132575
2018-07-19T08:09:09Z,1531987749,103,38.9495854,45.0805947,32.24,0.1,-0.3,154,368741.16,11034.94,149.8,Air+FixedWing,Red,Allies,J-11A,Red J-11A #002,xu,<51>Frostie,0,0,0,32.23999786,2.239997864,0,0,NaN,NaN,0.003598422,0,NaN,0.999985695,0.000997945,-0.005235964,0,31.61663751,31.61663751,,,182.3699999,30,0.64948044,1.290132575
2018-07-19T08:09:10Z,1531987750,103,38.9495854,45.0805947,32.24,0.1,-0.3,154,368741.16,11034.94,149.8,Air+FixedWing,Red,Allies,J-11A,Red J-11A #002,xu,<51>Frostie,0,0,0,32.23999786,2.239997864,0,0,NaN,NaN,0.003598416,0,NaN,0.999985635,0.001060749,-0.005235964,0,31.61663751,31.61663751,,,183.3699999,30,0.64948044,1.290132575
2018-07-19T08:09:11Z,1531987751,103,38.9495854,45.0805947,32.24,0.1,-0.3,154,368741.16,11034.94,149.8,Air+FixedWing,Red,Allies,J-11A,Red J-11A #002,xu,<51>Frostie,0,0,0,32.23999786,2.239997864,0,0,NaN,NaN,0.003598416,0,NaN,0.999985576,0.001123552,-0.005235964,0,31.61663751,31.61663751,,,184.3699999,30,0.64948044,1.290132575
2018-07-19T08:09:12Z,1531987752,103,38.9495854,45.0805947,32.24,0.1,-0.3,154,368741.16,11034.94,149.8,Air+FixedWing,Red,Allies,J-11A,Red J-11A #002,xu,<51>Frostie,0,0,0,32.23999786,2.239997864,0,0,NaN,NaN,0.003598416,0,NaN,0.999985516,0.001186355,-0.005235964,0,31.61663751,31.61663751,,,185.3699999,30,0.64948044,1.290132575
2018-07-19T08:09:13Z,1531987753,103,38.9495854,45.0805947,32.24,0.1,-0.3,154,368741.16,11034.94,149.8,Air+FixedWing,Red,Allies,J-11A,Red J-11A #002,xu,<51>Frostie,0,0,0,32.23999786,2.239997864,0,0,NaN,NaN,0.003598416,0,NaN,0.999985397,0.001249158,-0.005235964,0,31.61663751,31.61663751,,,186.3699999,30,0.64948044,1.290132575
2018-07-19T08:09:14Z,1531987754,103,38.9495854,45.0805947,32.24,0.1,-0.3,154,368741.16,11034.94,149.8,Air+FixedWing,Red,Allies,J-11A,Red J-11A #002,xu,<51>Frostie,0,0,0,32.23999786,2.239997864,0,0,NaN,NaN,0.003598416,0,NaN,0.999985337,0.001311962,-0.005235964,0,31.61663751,31.61663751,,,187.3699999,30,0.64948044,1.290132575
