ISOTime,UnixTime,Id,Longitude,Latitude,Altitude,Roll,Pitch,Yaw,U,V,Heading,Type,Color,Coalition,Name,Group,Country,Pilot,TAS,CAS,M,ASL,AGL,GS,VS,AOA,AOS,RRT,TRT,TRD,G,LatG,LonG,Ek,Ep,Em,FFW,FFV,RelativeTime,Elev,GroundDistance,AirDistance
2018-07-19T08:06:52Z,1531987612,105,38.9461119,45.0788217,32.3,-0.3,-0.3,65.4,368482.31,10817.82,61.1,Air+FixedWing,Red,Allies,Su-27,Red Su-27 #001,xu,<51P> Rich,0.126684434,0,0.000372284,32.29856873,2.298568726,NaN,NaN,NaN,NaN,NaN,NaN,NaN,NaN,NaN,NaN,NaN,31.6740759,NaN,,,0.25,30,NaN,NaN
2018-07-19T08:06:53Z,1531987613,105,38.9461114,45.0788216,32.18,0.1,-0.1,65.4,368482.25,10817.8,61.2,Air+FixedWing,Red,Allies,Su-27,Red Su-27 #001,xu,<51P> Rich,0.135475589,0,0.000398118,32.17952347,2.179523468,0.064667317,-0.119045258,NaN,NaN,0.200000012,NaN,NaN,1.01934287,-0.000470269,0.00797829,0.000917682,31.55733238,31.55825006,,,1.25,30,0.042995543,0.126571754
2018-07-19T08:06:54Z,1531987614,105,38.9461117,45.0788217,32.25,0,-0.2,65.4,368482.28,10817.81,61.2,Air+FixedWing,Red,Allies,Su-27,Red Su-27 #001,xu,<51P> Rich,0.077710176,0,0.000228365,32.25,2.25,0.032740341,0.070476532,NaN,NaN,0.133325293,0.091726979,NaN,0.992989866,0.000662521,-0.006738411,0.000301944,31.62644625,31.62674819,,,2.25,30,0.073164863,0.203234253
2018-07-19T08:06:55Z,1531987615,105,38.9461118,45.0788217,32.25,0,-0.2,65.4,368482.28,10817.81,61.2,Air+FixedWing,Red,Allies,Su-27,Red Su-27 #001,xu,<51P> Rich,0.001903534,0,5.59e-06,32.25190353,2.251903534,0,0.001903534,NaN,NaN,0,0.01713201,NaN,0.99960434,0,-0.003821608,1.81e-07,31.62831298,31.62831316,,,3.25,30,0.077531882,0.207998126
2018-07-19T08:06:56Z,1531987616,105,38.9461118,45.0788217,32.25,0,-0.3,65.4,368482.28,10817.81,61.2,Air+FixedWing,Red,Allies,Su-27,Red Su-27 #001,xu,<51P> Rich,0.001903534,0,5.59e-06,32.25,2.25,0,-0.001903534,NaN,NaN,0,0.060973279,NaN,0.999694433,0,-0.005234437,1.81e-07,31.62644625,31.62644643,,,4.25,30,0.077859407,0.209929633
2018-07-19T08:06:57Z,1531987617,105,38.9461116,45.0788217,32.25,0,-0.3,65.4,368482.28,10817.81,61.2,Air+FixedWing,Red,Allies,Su-27,Red Su-27 #001,xu,<51P> Rich,0.004764557,0,1.4e-05,32.24523544,2.245235443,0,-0.004764557,NaN,NaN,0,0.044234663,NaN,1.001603573,0,-0.005244433,1.14e-06,31.62177382,31.62177495,,,5.25,30,0.093253162,0.226043946
2018-07-19T08:06:58Z,1531987618,105,38.9461117,45.0788217,32.26,0,-0.3,65.4,368482.28,10817.81,61.2,Air+FixedWing,Red,Allies,Su-27,Red Su-27 #001,xu,<51P> Rich,0.011096954,0,3.26e-05,32.2563324,2.256332397,0,0.011096954,NaN,NaN,0,0.00989117,NaN,0.998208897,0,-0.005226659,6.16e-06,31.63265621,31.63266237,,,6.25,30,0.101113803,0.239642943
2018-07-19T08:06:59Z,1531987619,105,38.9461117,45.0788217,32.25,-0.1,-0.3,65.4,368482.28,10817.81,61.2,Air+FixedWing,Red,Allies,Su-27,Red Su-27 #001,xu,<51P> Rich,0.006332397,0,1.86e-05,32.25,2.25,0,-0.006332397,NaN,NaN,0.038085135,0.00989117,NaN,1.000630396,-0.001746326,-0.005239345,2e-06,31.62644625,31.62644825,,,7.25,30,0.10120381,0.245975981
2018-07-19T08:07:00Z,1531987620,105,38.9461117,45.0788217,32.25,-0.1,-0.3,65.4,368482.28,10817.81,61.2,Air+FixedWing,Red,Allies,Su-27,Red Su-27 #001,xu,<51P> Rich,0,0,0,32.25,2.25,0,0,NaN,NaN,0,0.00989117,NaN,0.999984682,-0.001745199,-0.005235964,0,31.62644625,31.62644625,,,8.25,30,0.101578841,0.246351013
2018-07-19T08:07:01Z,1531987621,105,38.9461117,45.0788217,32.25,-0.1,-0.3,65.4,368482.28,10817.81,61.2,Air+FixedWing,Red,Allies,Su-27,Red Su-27 #001,xu,<51P> Rich,0,0,0,32.25,2.25,0,0,NaN,NaN,0,0.00989117,NaN,0.999984682,-0.001745199,-0.005235964,0,31.62644625,31.62644625,,,9.25,30,0.101953871,0.246726045
2018-07-19T08:07:02Z,1531987622,105,38.9461117,45.0788217,32.25,-0.1,-0.3,65.4,368482.28,10817.81,61.2,Air+FixedWing,Red,Allies,Su-27,Red Su-27 #001,xu,<51P> Rich,0,0,0,32.25,2.25,0,0,NaN,NaN,0,0.00989117,NaN,0.999984682,-0.001745199,-0.005235964,0,31.62644625,31.62644625,,,10.25,30,0.102328902,0.247101079
2018-07-19T08:07:03Z,1531987623,105,38.9461117,45.0788217,32.25,-0.1,-0.3,65.4,368482.28,10817.81,61.2,Air+FixedWing,Red,Allies,Su-27,Red Su-27 #001,xu,<51P> Rich,0,0,0,32.25,2.25,0,0,NaN,NaN,0,0.00989117,NaN,0.999984682,-0.001745199,-0.005235964,0,31.62644625,31.62644625,,,11.25,30,0.102703933,0.24747611
2018-07-19T08:07:04Z,1531987624,105,38.9461117,45.0788217,32.25,-0.1,-0.3,65.4,368482.28,10817.81,61.2,Air+FixedWing,Red,Allies,Su-27,Red Su-27 #001,xu,<51P> Rich,0,0,0,32.25,2.25,0,0,NaN,NaN,0,0.00989117,NaN,0.999984682,-0.001745199,-0.005235964,0,31.62644625,31.62644625,,,12.25,30,0.103078963,0.247851143
2018-07-19T08:07:05Z,1531987625,105,38.9461117,45.0788217,32.25,-0.1,-0.3,65.4,368482.28,10817.81,61.2,Air+FixedWing,Red,Allies,Su-27,Red Su-27 #001,xu,<51P> Rich,0,0,0,32.25,2.25,0,0,NaN,NaN,0,0.00989117,NaN,0.999984682,-0.001745199,-0.005235964,0,31.62644625,31.62644625,,,13.25,30,0.103453993,0.248226174
2018-07-19T08:07:06Z,1531987626,105,38.9461117,45.0788217,32.25,-0.1,-0.3,65.4,368482.28,10817.81,61.2,Air+FixedWing,Red,Allies,Su-27,Red Su-27 #001,xu,<51P> Rich,0,0,0,32.25,2.25,0,0,NaN,NaN,0,0.00989117,NaN,0.999984682,-0.001745199,-0.005235964,0,31.62644625,31.62644625,,,14.25,30,0.103829024,0.248601208
2018-07-19T08:07:07Z,1531987627,105,38.9461117,45.0788217,32.25,-0.1,-0.3,65.4,368482.28,10817.81,61.2,Air+FixedWing,Red,Allies,Su-27,Red Su-27 #001,xu,<51P> Rich,0,0,0,32.25,2.25,0,0,NaN,NaN,0,0.00989117,NaN,0.999984682,-0.001745199,-0.005235964,0,31.62644625,31.62644625,,,15.25,30,0.104204055,0.24897624
2018-07-19T08:07:08Z,1531987628,105,38.9461117,45.0788217,32.25,-0.1,-0.3,65.4,368482.28,10817.81,61.2,Air+FixedWing,Red,Allies,Su-27,Red Su-27 #001,xu,<51P> Rich,0,0,0,32.25,2.25,0,0,NaN,NaN,0,0.00989117,NaN,0.999984682,-0.001745199,-0.005235964,0,31.62644625,31.62644625,,,16.25,30,0.104579086,0.249351274
2018-07-19T08:07:09Z,1531987629,105,38.9461117,45.0788217,32.25,-0.1,-0.3,65.4,368482.28,10817.81,61.2,Air+FixedWing,Red,Allies,Su-27,Red Su-27 #001,xu,<51P> Rich,0,0,0,32.25,2.25,0,0,NaN,NaN,0,0.00989117,NaN,0.999984682,-0.001745199,-0.005235964,0,31.62644625,31.62644625,,,17.25,30,0.104954116,0.249726305
2018-07-19T08:07:10Z,1531987630,105,38.9461118,45.0788217,32.25,-0.1,-0.3,65.4,368482.28,10817.81,61.2,Air+FixedWing,Red,Allies,Su-27,Red Su-27 #001,xu,<51P> Rich,0,0,0,32.25,2.25,0,0,NaN,NaN,0,0.00989117,NaN,0.999984682,-0.001745199,-0.005235964,0,31.62644625,31.62644625,,,18.25,30,0.105329146,0.250101337
2018-07-19T08:07:11Z,1531987631,105,38.9461118,45.0788217,32.25,-0.1,-0.3,65.4,368482.28,10817.81,61.2,Air+FixedWing,Red,Allies,Su-27,Red Su-27 #001,xu,<51P> Rich,0,0,0,32.25,2.25,0,0,NaN,NaN,0,0.00989117,NaN,0.999984682,-0.001745199,-0.005235964,0,31.62644625,31.62644625,,,19.25,30,0.105704177,0.25047637
2018-07-19T08:07:12Z,1531987632,105,38.9461118,45.0788217,32.25,-0.1,-0.3,65.4,368482.28,10817.81,61.2,Air+FixedWing,Red,Allies,Su-27,Red Su-27 #001,xu,<51P> Rich,0,0,0,32.25,2.25,0,0,NaN,NaN,0,0.00989117,NaN,0.999984682,-0.001745199,-0.005235964,0,31.62644625,31.62644625,,,20.25,30,0.106079208,0.250851403
2018-07-19T08:07:13Z,1531987633,105,38.9461118,45.0788217,32.25,-0.1,-0.3,65.4,368482.28,10817.81,61.2,Air+FixedWing,Red,Allies,Su-27,Red Su-27 #001,xu,<51P> Rich,0,0,0,32.25,2.25,0,0,NaN,NaN,0,0.00989117,NaN,0.999984682,-0.001745199,-0.005235964,0,31.62644625,31.62644625,,,21.25,30,0.106454238,0.251226435
2018-07-19T08:07:14Z,1531987634,105,38.9461118,45.0788217,32.25,-0.1,-0.3,65.4,368482.28,10817.81,61.2,Air+FixedWing,Red,Allies,Su-27,Red Su-27 #001,xu,<51P> Rich,0,0,0,32.25,2.25,0,0,NaN,NaN,0,0.00989117,NaN,0.999984682,-0.001745199,-0.005235964,0,31.62644625,31.62644625,,,22.25,30,0.106829268,0.251601467
2018-07-19T08:07:15Z,1531987635,105,38.9461118,45.0788217,32.25,-0.1,-0.3,65.4,368482.28,10817.81,61.2,Air+FixedWing,Red,Allies,Su-27,Red Su-27 #001,xu,<51P> Rich,0,0,0,32.25,2.25,0,0,NaN,NaN,0,0.00989117,NaN,0.999984682,-0.001745199,-0.005235964,0,31.62644625,31.62644625,,,23.25,30,0.1072043,0.2519765
2018-07-19T08:07:16Z,1531987636,105,38.9461118,45.0788217,32.25,-0.1,-0.3,65.4,368482.28,10817.81,61.2,Air+FixedWing,Red,Allies,Su-27,Red Su-27 #001,xu,<51P> Rich,0,0,0,32.25,2.25,0,0,NaN,NaN,0,0.00989117,NaN,0.999984682,-0.001745199,-0.005235964,0,31.62644625,31.62644625,,,24.25,30,0.10757933,0.252351532
2018-07-19T08:07:17Z,1531987637,105,38.9461118,45.0788217,32.25,-0.1,-0.3,65.4,368482.28,10817.81,61.2,Air+FixedWing,Red,Allies,Su-27,Red Su-27 #001,xu,<51P> Rich,0,0,0,32.25,2.25,0,0,NaN,NaN,0,0.00989117,NaN,0.999984682,-0.001745199,-0.005235964,0,31.62644625,31.62644625,,,25.25,30,0.10795436,0.252726564
2018-07-19T08:07:18Z,1531987638,105,38.9461118,45.0788217,32.25,-0.1,-0.3,65.4,368482.28,10817.81,61.2,Air+FixedWing,Red,Allies,Su-27,Red Su-27 #001,xu,<51P> Rich,0,0,0,32.25,2.25,0,0,NaN,NaN,0,0.00989117,NaN,0.999984682,-0.001745199,-0.005235964,0,31.62644625,31.62644625,,,26.25,30,0.108329391,0.253101597
2018-07-19T08:07:19Z,1531987639,105,38.9461118,45.0788217,32.25,-0.1,-0.3,65.4,368482.28,10817.81,61.2,Air+FixedWing,Red,Allies,Su-27,Red Su-27 #001,xu,<51P> Rich,0,0,0,32.25,2.25,0,0,NaN,NaN,0,0.00989117,NaN,0.999984682,-0.001745199,-0.005235964,0,31.62644625,31.62644625,,,27.25,30,0.108704422,0.25347663
2018-07-19T08:07:20Z,1531987640,105,38.9461118,45.0788217,32.25,-0.1,-0.3,65.4,368482.28,10817.81,61.2,Air+FixedWing,Red,Allies,Su-27,Red Su-27 #001,xu,<51P> Rich,0,0,0,32.25,2.25,0,0,NaN,NaN,0,0.00989117,NaN,0.999984682,-0.001745199,-0.005235964,0,31.62644625,31.62644625,,,28.25,30,0.108892925,0.253665134
2018-07-19T08:07:21Z,1531987641,105,38.9461118,45.0788217,32.25,-0.1,-0.3,65.4,368482.28,10817.81,61.2,Air+FixedWing,Red,Allies,Su-27,Red Su-27 #001,xu,<51P> Rich,0,0,0,32.25,2.25,0,0,NaN,NaN,0,0.00989117,NaN,0.999984682,-0.001745199,-0.005235964,0,31.62644625,31.62644625,,,29.25,30,0.10918406,0.25395627
2018-07-19T08:07:22Z,1531987642,105,38.9461118,45.0788217,32.25,-0.1,-0.3,65.4,368482.28,10817.81,61.2,Air+FixedWing,Red,Allies,Su-27,Red Su-27 #001,xu,<51P> Rich,0,0,0,32.25,2.25,0,0,NaN,NaN,0,0.00989117,NaN,0.999984682,-0.001745199,-0.005235964,0,31.62644625,31.62644625,,,30.25,30,0.109475194,0.254247406
2018-07-19T08:07:23Z,1531987643,105,38.9461118,45.0788217,32.25,-0.1,-0.3,65.4,368482.28,10817.81,61.2,Air+FixedWing,Red,Allies,Su-27,Red Su-27 #001,xu,<51P> Rich,0,0,0,32.25,2.25,0,0,NaN,NaN,0,0.00989117,NaN,0.999984682,-0.001745199,-0.005235964,0,31.62644625,31.62644625,,,31.25,30,0.109766329,0.254538543
2018-07-19T08:07:24Z,1531987644,105,38.9461118,45.0788217,32.25,-0.1,-0.3,65.4,368482.28,10817.81,61.2,Air+FixedWing,Red,Allies,Su-27,Red Su-27 #001,xu,<51P> Rich,0,0,0,32.25,2.25,0,0,NaN,NaN,0,0.00989117,NaN,0.999984682,-0.001745199,-0.005235964,0,31.62644625,31.62644625,,,32.25,30,0.110057465,0.25482968
2018-07-19T08:07:25Z,1531987645,105,38.9461118,45.0788217,32.25,-0.1,-0.3,65.4,368482.28,10817.81,61.2,Air+FixedWing,Red,Allies,Su-27,Red Su-27 #001,xu,<51P> Rich,0,0,0,32.25,2.25,0,0,NaN,NaN,0,0.00989117,NaN,0.999984682,-0.001745199,-0.005235964,0,31.62644625,31.62644625,,,33.25,30,0.110348599,0.255120816
2018-07-19T08:07:26Z,1531987646,105,38.9461118,45.0788217,32.25,-0.1,-0.3,65.4,368482.28,10817.81,61.2,Air+FixedWing,Red,Allies,Su-27,Red Su-27 #001,xu,<51P> Rich,0,0,0,32.25,2.25,0,0,NaN,NaN,0,0.00989117,NaN,0.999984682,-0.001745199,-0.005235964,0,31.62644625,31.62644625,,,34.25,30,0.110639733,0.255411952
2018-07-19T08:07:27Z,1531987647,105,38.9461118,45.0788217,32.25,-0.1,-0.3,65.4,368482.28,10817.81,61.2,Air+FixedWing,Red,Allies,Su-27,Red Su-27 #001,xu,<51P> Rich,0,0,0,32.25,2.25,0,0,NaN,NaN,0,0.00989117,NaN,0.999984682,-0.001745199,-0.005235964,0,31.62644625,31.62644625,,,35.25,30,0.110930868,0.255703088
2018-07-19T08:07:28Z,1531987648,105,38.9461118,45.0788217,32.25,-0.1,-0.3,65.4,368482.28,10817.81,61.2,Air+FixedWing,Red,Allies,Su-27,Red Su-27 #001,xu,<51P> Rich,0,0,0,32.25,2.25,0,0,NaN,NaN,0,0.00989117,NaN,0.999984682,-0.001745199,-0.005235964,0,31.62644625,31.62644625,,,36.25,30,0.111222003,0.255994225
2018-07-19T08:07:29Z,1531987649,105,38.9461118,45.0788217,32.25,-0.1,-0.3,65.4,368482.28,10817.81,61.2,Air+FixedWing,Red,Allies,Su-27,Red Su-27 #001,xu,<51P> Rich,0,0,0,32.25,2.25,0,0,NaN,NaN,0,0.00989117,NaN,0.999984682,-0.001745199,-0.005235964,0,31.62644625,31.62644625,,,37.25,30,0.111513139,0.256285361
2018-07-19T08:07:30Z,1531987650,105,38.9461118,45.0788217,32.25,-0.1,-0.3,65.4,368482.28,10817.81,61.2,Air+FixedWing,Red,Allies,Su-27,Red Su-27 #001,xu,<51P> Rich,0,0,0,32.25,2.25,0,0,NaN,NaN,0,0.00989117,NaN,0.999984682,-0.001745199,-0.005235964,0,31.62644625,31.62644625,,,38.25,30,0.111804273,0.256576497
2018-07-19T08:07:31Z,1531987651,105,38.9461118,45.0788217,32.25,-0.1,-0.3,65.4,368482.28,10817.81,61.2,Air+FixedWing,Red,Allies,Su-27,Red Su-27 #001,xu,<51P> Rich,0,0,0,32.25,2.25,0,0,NaN,NaN,0,0.00989117,NaN,0.999984682,-0.001745199,-0.005235964,0,31.62644625,31.62644625,,,39.25,30,0.112095407,0.256867633
2018-07-19T08:07:32Z,1531987652,105,38.9461118,45.0788217,32.25,-0.1,-0.3,65.4,368482.28,10817.81,61.2,Air+FixedWing,Red,Allies,Su-27,Red Su-27 #001,xu,<51P> Rich,0,0,0,32.25,2.25,0,0,NaN,NaN,0,0.00989117,NaN,0.999984682,-0.001745199,-0.005235964,0,31.62644625,31.62644625,,,40.25,30,0.112386543,0.25715877
2018-07-19T08:07:33Z,1531987653,105,38.9461118,45.0788217,32.25,-0.1,-0.3,65.4,368482.28,10817.81,61.2,Air+FixedWing,Red,Allies,Su-27,Red Su-27 #001,xu,<51P> Rich,0,0,0,32.25,2.25,0,0,NaN,NaN,0,0.00989117,NaN,0.999984682,-0.001745199,-0.005235964,0,31.62644625,31.62644625,,,41.25,30,0.112677678,0.257449906
2018-07-19T08:07:34Z,1531987654,105,38.9461117,45.0788217,32.25,-0.1,-0.3,65.4,368482.28,10817.81,61.2,Air+FixedWing,Red,Allies,Su-27,Red Su-27 #001,xu,<51P> Rich,0,0,0,32.25,2.25,0,0,NaN,NaN,0,0.00989117,NaN,0.999984682,-0.001745199,-0.005235964,0,31.62644625,31.62644625,,,42.25,30,0.112968813,0.257741043
2018-07-19T08:07:35Z,1531987655,105,38.9461117,45.0788217,32.25,-0.1,-0.3,65.4,368482.28,10817.81,61.2,Air+FixedWing,Red,Allies,Su-27,Red Su-27 #001,xu,<51P> Rich,0,0,0,32.25,2.25,0,0,NaN,NaN,0,0.00989117,NaN,0.999984682,-0.001745199,-0.005235964,0,31.62644625,31.62644625,,,43.25,30,0.113259947,0.258032178
2018-07-19T08:07:36Z,1531987656,105,38.9461117,45.0788217,32.25,-0.1,-0.3,65.4,368482.28,10817.81,61.2,Air+FixedWing,Red,Allies,Su-27,Red Su-27 #001,xu,<51P> Rich,0,0,0,32.25,2.25,0,0,NaN,NaN,0,0.00989117,NaN,0.999984682,-0.001745199,-0.005235964,0,31.62644625,31.62644625,,,44.25,30,0.113551082,0.258323315
2018-07-19T08:07:37Z,1531987657,105,38.9461117,45.0788217,32.25,-0.1,-0.3,65.4,368482.28,10817.81,61.2,Air+FixedWing,Red,Allies,Su-27,Red Su-27 #001,xu,<51P> Rich,0,0,0,32.25,2.25,0,0,NaN,NaN,0,0.00989117,NaN,0.999984682,-0.001745199,-0.005235964,0,31.62644625,31.62644625,,,45.25,30,0.113842217,0.258614451
2018-07-19T08:07:38Z,1531987658,105,38.9461117,45.0788217,32.25,-0.1,-0.3,65.4,368482.28,10817.81,61.2,Air+FixedWing,Red,Allies,Su-27,Red Su-27 #001,xu,<51P> Rich,0,0,0,32.25,2.25,0,0,NaN,NaN,0,0.00989117,NaN,0.999984682,-0.001745199,-0.005235964,0,31.62644625,31.62644625,,,46.25,30,0.114133352,0.258905588
2018-07-19T08:07:39Z,1531987659,105,38.9461117,45.0788217,32.25,-0.1,-0.3,65.4,368482.28,10817.81,61.2,Air+FixedWing,Red,Allies,Su-27,Red Su-27 #001,xu,<51P> Rich,0,0,0,32.25,2.25,0,0,NaN,NaN,0,0.00989117,NaN,0.999984682,-0.001745199,-0.005235964,0,31.62644625,31.62644625,,,47.25,30,0.114424486,0.259196723
2018-07-19T08:07:40Z,1531987660,105,38.9461117,45.0788217,32.25,-0.1,-0.3,65.4,368482.28,10817.81,61.2,Air+FixedWing,Red,Allies,Su-27,Red Su-27 #001,xu,<51P> Rich,0,0,0,32.25,2.25,0,0,NaN,NaN,0,0.00989117,NaN,0.999984682,-0.001745199,-0.005235964,0,31.62644625,31.62644625,,,48.25,30,0.114715621,0.25948786
2018-07-19T08:07:41Z,1531987661,105,38.9461117,45.0788217,32.25,-0.1,-0.3,65.4,368482.28,10817.81,61.2,Air+FixedWing,Red,Allies,Su-27,Red Su-27 #001,xu,<51P> Rich,0,0,0,32.25,2.25,0,0,NaN,NaN,0,0.00989117,NaN,0.999984682,-0.001745199,-0.005235964,0,31.62644625,31.62644625,,,49.25,30,0.115006756,0.259778996
2018-07-19T08:07:42Z,1531987662,105,38.9461117,45.0788217,32.25,-0.1,-0.3,65.4,368482.28,10817.81,61.2,Air+FixedWing,Red,Allies,Su-27,Red Su-27 #001,xu,<51P> Rich,0,0,0,32.25,2.25,0,0,NaN,NaN,0,0.00989117,NaN,0.999984682,-0.001745199,-0.005235964,0,31.62644625,31.62644625,,,50.25,30,0.115297891,0.260070133
2018-07-19T08:07:43Z,1531987663,105,38.9461117,45.0788217,32.25,-0.1,-0.3,65.4,368482.28,10817.81,61.2,Air+FixedWing,Red,Allies,Su-27,Red Su-27 #001,xu,<51P> Rich,0,0,0,32.25,2.25,0,0,NaN,NaN,0,0.00989117,NaN,0.999984682,-0.001745199,-0.005235964,0,31.62644625,31.62644625,,,51.25,30,0.115589026,0.260361269
2018-07-19T08:07:44Z,1531987664,105,38.9461117,45.0788217,32.25,-0.1,-0.3,65.4,368482.28,10817.81,61.2,Air+FixedWing,Red,Allies,Su-27,Red Su-27 #001,xu,<51P> Rich,0,0,0,32.25,2.25,0,0,NaN,NaN,0,0.00989117,NaN,0.999984682,-0.001745199,-0.005235964,0,31.62644625,31.62644625,,,52.25,30,0.11588016,0.260652405
2018-07-19T08:07:45Z,1531987665,105,38.9461117,45.0788217,32.25,-0.1,-0.3,65.4,368482.28,10817.81,61.2,Air+FixedWing,Red,Allies,Su-27,Red Su-27 #001,xu,<51P> Rich,0,0,0,32.25,2.25,0,0,NaN,NaN,0,0.00989117,NaN,0.999984682,-0.001745199,-0.005235964,0,31.62644625,31.62644625,,,53.25,30,0.116171295,0.260943541
2018-07-19T08:07:46Z,1531987666,105,38.9461117,45.0788217,32.25,-0.1,-0.3,65.4,368482.28,10817.81,61.2,Air+FixedWing,Red,Allies,Su-27,Red Su-27 #001,xu,<51P> Rich,0,0,0,32.25,2.25,0,0,NaN,NaN,0,0.00989117,NaN,0.999984682,-0.001745199,-0.005235964,0,31.62644625,31.62644625,,,54.25,30,0.11646243,0.261234678
2018-07-19T08:07:47Z,1531987667,105,38.9461117,45.0788217,32.25,-0.1,-0.2,65.4,368482.28,10817.81,61.2,Air+FixedWing,Red,Allies,Su-27,Red Su-27 #001,xu,<51P> Rich,0,0,0,32.25,2.25,0,0,NaN,NaN,0,0.00989117,NaN,0.999991357,-0.001745211,-0.003774773,0,31.62644625,31.62644625,,,55.25,30,0.116672047,0.261444296
2018-07-19T08:07:48Z,1531987668,105,38.9461118,45.0788217,32.25,-0.1,-0.3,65.4,368482.28,10817.81,61.2,Air+FixedWing,Red,Allies,Su-27,Red Su-27 #001,xu,<51P> Rich,0,0,0,32.25,2.25,0,0,NaN,NaN,0,0.00989117,NaN,0.999984682,-0.001745199,-0.005235964,0,31.62644625,31.62644625,,,56.25,30,0.124025549,0.268797835
2018-07-19T08:07:49Z,1531987669,105,38.9461117,45.0788217,32.25,-0.1,-0.3,65.4,368482.28,10817.81,61.2,Air+FixedWing,Red,Allies,Su-27,Red Su-27 #001,xu,<51P> Rich,0,0,0,32.25,2.25,0,0,NaN,NaN,0.083994945,0.00989117,NaN,0.999464066,-0.001011688,-0.005233233,0,31.62644625,31.62644625,,,57.25,30,0.131379051,0.276151375
2018-07-19T08:07:50Z,1531987670,105,38.9461118,45.0788217,32.24,0,-0.3,65.4,368482.28,10817.81,61.2,Air+FixedWing,Red,Allies,Su-27,Red Su-27 #001,xu,<51P> Rich,0.005115509,0,1.5e-05,32.24488449,2.244884491,0,-0.005115509,NaN,NaN,0.015999024,0.00989117,NaN,1.001029431,0,-0.005241427,1.31e-06,31.62142965,31.62143096,,,58.25,30,0.139239691,0.285530006
2018-07-19T08:07:51Z,1531987671,105,38.9461117,45.0788217,32.25,0,-0.3,65.4,368482.28,10817.81,61.2,Air+FixedWing,Red,Allies,Su-27,Red Su-27 #001,xu,<51P> Rich,0.005115509,0,1.5e-05,32.25,2.25,0,0.005115509,NaN,NaN,0,0.00989117,NaN,0.999464542,0,-0.005233233,1.31e-06,31.62644625,31.62644756,,,59.25,30,0.143682662,0.292305596
2018-07-19T08:07:52Z,1531987672,105,38.9461117,45.0788217,32.25,0,-0.3,65.4,368482.28,10817.81,61.2,Air+FixedWing,Red,Allies,Su-27,Red Su-27 #001,xu,<51P> Rich,0,0,0,32.25,2.25,0,0,NaN,NaN,0.076935251,0.00989117,NaN,0.999985993,-0.000671231,-0.005235964,0,31.62644625,31.62644625,,,60.25,30,0.147100331,0.295723282
2018-07-19T08:07:53Z,1531987673,105,38.9461117,45.0788217,32.25,-0.1,-0.3,65.4,368482.28,10817.81,61.2,Air+FixedWing,Red,Allies,Su-27,Red Su-27 #001,xu,<51P> Rich,0,0,0,32.25,2.25,0,0,NaN,NaN,0.000819623,0.00989117,NaN,0.999985039,-0.001517565,-0.005235964,0,31.62644625,31.62644625,,,61.25,30,0.147100331,0.295723282
2018-07-19T08:07:54Z,1531987674,105,38.9461117,45.0788217,32.25,-0.1,-0.3,65.4,368482.28,10817.81,61.2,Air+FixedWing,Red,Allies,Su-27,Red Su-27 #001,xu,<51P> Rich,0,0,0,32.25,2.25,0,0,NaN,NaN,0.036229705,0.00989117,NaN,0.999985754,-0.000885246,-0.005235964,0,31.62644625,31.62644625,,,62.25,30,0.147100331,0.295723282
2018-07-19T08:07:55Z,1531987675,105,38.9461117,45.0788217,32.25,0,-0.3,65.4,368482.28,10817.81,61.2,Air+FixedWing,Red,Allies,Su-27,Red Su-27 #001,xu,<51P> Rich,0,0,0,32.25,2.25,0,0,NaN,NaN,0.036229711,0.00989117,NaN,0.999986172,-0.000252928,-0.005235964,0,31.62644625,31.62644625,,,63.25,30,0.147100331,0.295723282
2018-07-19T08:07:56Z,1531987676,105,38.9461118,45.0788216,32.25,0.1,-0.2,65.4,368482.28,10817.81,61.2,Air+FixedWing,Red,Allies,Su-27,Red Su-27 #001,xu,<51P> Rich,0,0,0,32.25,2.25,0,0,NaN,NaN,0.200000012,0.035663126,NaN,0.999992251,0.001745318,-0.003490652,0,31.62644625,31.62644625,,,64.25,30,0.157064042,0.305687043
2018-07-19T08:07:57Z,1531987677,105,38.9461118,45.0788217,32.25,0,-0.2,65.4,368482.28,10817.81,61.2,Air+FixedWing,Red,Allies,Su-27,Red Su-27 #001,xu,<51P> Rich,0,0,0,32.25,2.25,0,0,NaN,NaN,0,0.00989117,NaN,0.999508768,0,-0.003796811,0,31.62644625,31.62644625,,,65.25,30,0.163186612,0.311809644
2018-07-19T08:07:58Z,1531987678,105,38.9461118,45.0788216,32.25,0,-0.3,65.4,368482.28,10817.81,61.2,Air+FixedWing,Red,Allies,Su-27,Red Su-27 #001,xu,<51P> Rich,0.004745483,0,1.39e-05,32.24525452,2.245254517,0,-0.004745483,NaN,NaN,0,0.01713201,NaN,0.999936811,0.000959905,-0.004707987,1.13e-06,31.62179252,31.62179365,,,66.25,30,0.174318561,0.323910931
2018-07-19T08:07:59Z,1531987679,105,38.9461117,45.0788217,32.24,-0.2,-0.2,65.4,368482.28,10817.82,61.2,Air+FixedWing,Red,Allies,Su-27,Red Su-27 #001,xu,<51P> Rich,0.011959389,0,3.51e-05,32.23999786,2.239997864,0.010742188,-0.005256653,NaN,NaN,0.361890743,0.051396036,NaN,1.000515071,-0.005079481,-0.00454794,7.15e-06,31.61663751,31.61664466,,,67.25,30,0.187946105,0.338517239
2018-07-19T08:08:00Z,1531987680,105,38.9461118,45.0788217,32.24,-0.1,-0.2,65.4,368482.28,10817.81,61.2,Air+FixedWing,Red,Allies,Su-27,Red Su-27 #001,xu,<51P> Rich,0.010742188,0,3.16e-05,32.23999786,2.239997864,0.010742188,0,NaN,NaN,0,0.031278628,NaN,0.999995769,-0.000785312,-0.002962943,5.77e-06,31.61663751,31.61664327,,,68.25,30,0.193976184,0.34454735
2018-07-19T08:08:01Z,1531987681,105,38.9461117,45.0788217,32.24,-0.1,-0.2,65.4,368482.28,10817.81,61.2,Air+FixedWing,Red,Allies,Su-27,Red Su-27 #001,xu,<51P> Rich,0,0,0,32.23999786,2.239997864,0,0,NaN,NaN,0.086269318,0.013988227,NaN,0.999990664,-0.001865014,-0.003970387,0,31.61663751,31.61663751,,,69.25,30,0.200006264,0.350577461
2018-07-19T08:08:02Z,1531987682,105,38.9461117,45.0788216,32.24,0,-0.2,65.4,368482.28,10817.8,61.2,Air+FixedWing,Red,Allies,Su-27,Red Su-27 #001,xu,<51P> Rich,0.009765625,0,2.87e-05,32.23999786,2.239997864,0.009765625,0,NaN,NaN,0.015685316,0.013988227,NaN,0.999997091,0.001745281,-0.002531181,4.77e-06,31.61663751,31.61664227,,,70.25,30,0.211138213,0.361709466
2018-07-19T08:08:03Z,1531987683,105,38.9461117,45.0788217,32.24,0,-0.2,65.4,368482.28,10817.81,61.2,Air+FixedWing,Red,Allies,Su-27,Red Su-27 #001,xu,<51P> Rich,0.009765625,0,2.87e-05,32.23999786,2.239997864,0.009765625,0,NaN,NaN,0.040380078,0.013988227,NaN,0.999991759,-0.001225208,-0.003970387,4.77e-06,31.61663751,31.61664227,,,71.25,30,0.222270161,0.372841472
2018-07-19T08:08:04Z,1531987684,105,38.9461117,45.0788217,32.24,-0.1,-0.2,65.4,368482.28,10817.81,61.2,Air+FixedWing,Red,Allies,Su-27,Red Su-27 #001,xu,<51P> Rich,0,0,0,32.23999786,2.239997864,0,0,NaN,NaN,0.050488758,0.013988227,NaN,0.999992967,-0.001233989,-0.003490652,0,31.61663751,31.61663751,,,72.25,30,0.222270161,0.372841472
2018-07-19T08:08:05Z,1531987685,105,38.9461117,45.0788217,32.24,-0.1,-0.2,65.4,368482.28,10817.81,61.2,Air+FixedWing,Red,Allies,Su-27,Red Su-27 #001,xu,<51P> Rich,0,0,0,32.23999786,2.239997864,0,0,NaN,NaN,0.021288552,0.013988227,NaN,0.999992669,-0.001488922,-0.003490652,0,31.61663751,31.61663751,,,73.25,30,0.222270161,0.372841472
2018-07-19T08:08:06Z,1531987686,105,38.9461117,45.0788217,32.24,-0.1,-0.2,65.4,368482.28,10817.81,61.2,Air+FixedWing,Red,Allies,Su-27,Red Su-27 #001,xu,<51P> Rich,0,0,0,32.23999786,2.239997864,0,0,NaN,NaN,0.034962918,0.013988227,NaN,0.999993443,-0.000878709,-0.003490652,0,31.61663751,31.61663751,,,74.25,30,0.222270161,0.372841472
2018-07-19T08:08:07Z,1531987687,105,38.9461117,45.0788217,32.24,0,-0.2,65.4,368482.28,10817.81,61.2,Air+FixedWing,Red,Allies,Su-27,Red Su-27 #001,xu,<51P> Rich,0,0,0,32.23999786,2.239997864,0,0,NaN,NaN,0.034962925,0.013988227,NaN,0.999993742,-0.000268494,-0.003490652,0,31.61663751,31.61663751,,,75.25,30,0.222270161,0.372841472
2018-07-19T08:08:08Z,1531987688,105,38.9461117,45.0788216,32.24,0,-0.2,65.4,368482.28,10817.81,61.2,Air+FixedWing,Red,Allies,Su-27,Red Su-27 #001,xu,<51P> Rich,0,0,0,32.23999786,2.239997864,0,0,NaN,NaN,0,0.013988227,NaN,0.999993742,0,-0.003490652,0,31.61663751,31.61663751,,,76.25,30,0.230256125,0.380827476
2018-07-19T08:08:09Z,1531987689,105,38.9461117,45.0788217,32.24,0,-0.2,65.4,368482.28,10817.81,61.2,Air+FixedWing,Red,Allies,Su-27,Red Su-27 #001,xu,<51P> Rich,0,0,0,32.23999786,2.239997864,0,0,NaN,NaN,0.033659172,0.013988227,NaN,0.999993742,-0.000293749,-0.003490652,0,31.61663751,31.61663751,,,77.25,30,0.238242089,0.38881348
2018-07-19T08:08:10Z,1531987690,105,38.9461117,45.0788217,32.24,-0.1,-0.2,65.4,368482.28,10817.81,61.2,Air+FixedWing,Red,Allies,Su-27,Red Su-27 #001,xu,<51P> Rich,0,0,0,32.23999786,2.239997864,0,0,NaN,NaN,0.049505211,0.013988227,NaN,0.999995502,-0.000372341,-0.00305889,0,31.61663751,31.61663751,,,78.25,30,0.238242089,0.38881348
2018-07-19T08:08:11Z,1531987691,105,38.9461117,45.0788217,32.24,-0.1,-0.2,65.4,368482.28,10817.82,61.2,Air+FixedWing,Red,Allies,Su-27,Red Su-27 #001,xu,<51P> Rich,0.008789063,0,2.58e-05,32.23999786,2.239997864,0.008789063,0,NaN,NaN,0.017813133,0.013988227,NaN,0.999988734,-0.002705112,-0.00401836,3.86e-06,31.61663751,31.61664137,,,79.25,30,0.238242089,0.38881348
2018-07-19T08:08:12Z,1531987692,105,38.9461117,45.0788217,32.24,-0.1,-0.2,65.4,368482.28,10817.82,61.2,Air+FixedWing,Red,Allies,Su-27,Red Su-27 #001,xu,<51P> Rich,0.001953125,0,5.74e-06,32.23999786,2.239997864,0.001953125,0,NaN,NaN,0,0.013988227,NaN,0.999990653,-0.00218153,-0.003730519,1.91e-07,31.61663751,31.6166377,,,80.25,30,0.238242089,0.38881348
2018-07-19T08:08:13Z,1531987693,105,38.9461117,45.0788217,32.24,-0.1,-0.2,65.4,368482.28,10817.81,61.2,Air+FixedWing,Red,Allies,Su-27,Red Su-27 #001,xu,<51P> Rich,0.006835938,0,2.01e-05,32.23999786,2.239997864,0.006835938,0,NaN,NaN,0,0.013988227,NaN,0.99999449,-0.001134367,-0.003154837,2.34e-06,31.61663751,31.61663984,,,81.25,30,0.23900866,0.389580055
2018-07-19T08:08:14Z,1531987694,105,38.9461117,45.0788217,32.24,-0.1,-0.2,65.4,368482.28,10817.81,61.2,Air+FixedWing,Red,Allies,Su-27,Red Su-27 #001,xu,<51P> Rich,0,0,0,32.23999786,2.239997864,0,0,NaN,NaN,0,0.013988227,NaN,0.999992251,-0.001745212,-0.003490652,0,31.61663751,31.61663751,,,82.25,30,0.24067512,0.391246523
2018-07-19T08:08:15Z,1531987695,105,38.9461117,45.0788217,32.24,-0.1,-0.2,65.4,368482.28,10817.81,61.2,Air+FixedWing,Red,Allies,Su-27,Red Su-27 #001,xu,<51P> Rich,0,0,0,32.23999786,2.239997864,0,0,NaN,NaN,0,0.013988227,NaN,0.999992251,-0.001745212,-0.003490652,0,31.61663751,31.61663751,,,83.25,30,0.24234158,0.392912991
2018-07-19T08:08:16Z,1531987696,105,38.9461117,45.0788216,32.24,-0.1,-0.2,65.4,368482.28,10817.81,61.2,Air+FixedWing,Red,Allies,Su-27,Red Su-27 #001,xu,<51P> Rich,0,0,0,32.23999786,2.239997864,0,0,NaN,NaN,0,0.013988227,NaN,0.999992251,-0.001745212,-0.003490652,0,31.61663751,31.61663751,,,84.25,30,0.244008039,0.394579459
2018-07-19T08:08:17Z,1531987697,105,38.9461117,45.0788216,32.24,-0.1,-0.2,65.4,368482.28,10817.81,61.2,Air+FixedWing,Red,Allies,Su-27,Red Su-27 #001,xu,<51P> Rich,0,0,0,32.23999786,2.239997864,0,0,NaN,NaN,0,0.013988227,NaN,0.999992251,-0.001745212,-0.003490652,0,31.61663751,31.61663751,,,85.25,30,0.245674498,0.396245926
2018-07-19T08:08:18Z,1531987698,105,38.9461117,45.0788216,32.24,-0.1,-0.2,65.4,368482.28,10817.81,61.2,Air+FixedWing,Red,Allies,Su-27,Red Su-27 #001,xu,<51P> Rich,0,0,0,32.23999786,2.239997864,0,0,NaN,NaN,0,0.013988227,NaN,0.999992251,-0.001745212,-0.003490652,0,31.61663751,31.61663751,,,86.25,30,0.247340957,0.397912394
2018-07-19T08:08:19Z,1531987699,105,38.9461117,45.0788216,32.24,-0.1,-0.2,65.4,368482.28,10817.81,61.2,Air+FixedWing,Red,Allies,Su-27,Red Su-27 #001,xu,<51P> Rich,0,0,0,32.23999786,2.239997864,0,0,NaN,NaN,0,0.013988227,NaN,0.999992251,-0.001745212,-0.003490652,0,31.61663751,31.61663751,,,87.25,30,0.249007418,0.399578862
2018-07-19T08:08:20Z,1531987700,105,38.9461117,45.0788216,32.24,-0.1,-0.2,65.4,368482.28,10817.81,61.2,Air+FixedWing,Red,Allies,Su-27,Red Su-27 #001,xu,<51P> Rich,0,0,0,32.23999786,2.239997864,0,0,NaN,NaN,0,0.013988227,NaN,0.999992251,-0.001745212,-0.003490652,0,31.61663751,31.61663751,,,88.25,30,0.252100127,0.402671588
2018-07-19T08:08:21Z,1531987701,105,38.9461117,45.0788217,32.24,-0.1,-0.2,65.4,368482.28,10817.81,61.2,Air+FixedWing,Red,Allies,Su-27,Red Su-27 #001,xu,<51P> Rich,0,0,0,32.23999786,2.239997864,0,0,NaN,NaN,0,0.013988227,NaN,0.999992251,-0.001745212,-0.003490652,0,31.61663751,31.61663751,,,89.25,30,0.256535166,0.407106648
2018-07-19T08:08:22Z,1531987702,105,38.9461117,45.0788217,32.24,-0.1,-0.2,65.4,368482.28,10817.81,61.2,Air+FixedWing,Red,Allies,Su-27,Red Su-27 #001,xu,<51P> Rich,0,0,0,32.23999786,2.239997864,0,0,NaN,NaN,0,0.013988227,NaN,0.999992251,-0.001745212,-0.003490652,0,31.61663751,31.61663751,,,90.25,30,0.259772746,0.410344245
2018-07-19T08:08:23Z,1531987703,105,38.9461117,45.0788217,32.24,-0.1,-0.2,65.4,368482.28,10817.81,61.2,Air+FixedWing,Red,Allies,Su-27,Red Su-27 #001,xu,<51P> Rich,0,0,0,32.23999786,2.239997864,0,0,NaN,NaN,0,0.013988227,NaN,0.999992251,-0.001745212,-0.003490652,0,31.61663751,31.61663751,,,91.25,30,0.259772746,0.410344245
2018-07-19T08:08:24Z,1531987704,105,38.9461117,45.0788217,32.24,-0.1,-0.2,65.4,368482.28,10817.81,61.2,Air+FixedWing,Red,Allies,Su-27,Red Su-27 #001,xu,<51P> Rich,0,0,0,32.23999786,2.239997864,0,0,NaN,NaN,0,0.013988227,NaN,0.999992571,-0.001657949,-0.003442678,0,31.61663751,31.61663751,,,92.25,30,0.259772746,0.410344245
2018-07-19T08:08:25Z,1531987705,105,38.9461117,45.0788217,32.24,-0.1,-0.2,65.4,368482.28,10817.81,61.2,Air+FixedWing,Red,Allies,Su-27,Red Su-27 #001,xu,<51P> Rich,0.000976563,0,2.87e-06,32.23999786,2.239997864,0.000976563,0,NaN,NaN,0,0.013988227,NaN,0.999991932,-0.001832476,-0.003538625,4.77e-08,31.61663751,31.61663755,,,93.25,30,0.259772746,0.410344245
2018-07-19T08:08:26Z,1531987706,105,38.9461117,45.0788217,32.24,-0.1,-0.2,65.4,368482.28,10817.81,61.2,Air+FixedWing,Red,Allies,Su-27,Red Su-27 #001,xu,<51P> Rich,0,0,0,32.23999786,2.239997864,0,0,NaN,NaN,0,0.013988227,NaN,0.999992251,-0.001745212,-0.003490652,0,31.61663751,31.61663751,,,94.25,30,0.259772746,0.410344245
2018-07-19T08:08:27Z,1531987707,105,38.9461117,45.0788217,32.24,-0.1,-0.2,65.4,368482.28,10817.81,61.2,Air+FixedWing,Red,Allies,Su-27,Red Su-27 #001,xu,<51P> Rich,0,0,0,32.23999786,2.239997864,0,0,NaN,NaN,0,0.013988227,NaN,0.999992251,-0.001745212,-0.003490652,0,31.61663751,31.61663751,,,95.25,30,0.259772746,0.410344245
2018-07-19T08:08:28Z,1531987708,105,38.9461117,45.0788217,32.24,-0.1,-0.2,65.4,368482.28,10817.81,61.2,Air+FixedWing,Red,Allies,Su-27,Red Su-27 #001,xu,<51P> Rich,0,0,0,32.23999786,2.239997864,0,0,NaN,NaN,0,0.013988227,NaN,0.999992251,-0.001745212,-0.003490652,0,31.61663751,31.61663751,,,96.25,30,0.259772746,0.410344245
2018-07-19T08:08:29Z,1531987709,105,38.9461117,45.0788217,32.24,-0.1,-0.2,65.4,368482.28,10817.81,61.2,Air+FixedWing,Red,Allies,Su-27,Red Su-27 #001,xu,<51P> Rich,0,0,0,32.23999786,2.239997864,0,0,NaN,NaN,0,0.013988227,NaN,0.999992251,-0.001745212,-0.003490652,0,31.61663751,31.61663751,,,97.25,30,0.259772746,0.410344245
2018-07-19T08:08:30Z,1531987710,105,38.9461117,45.0788217,32.24,-0.1,-0.2,65.4,368482.28,10817.81,61.2,Air+FixedWing,Red,Allies,Su-27,Red Su-27 #001,xu,<51P> Rich,0,0,0,32.23999786,2.239997864,0,0,NaN,NaN,0,0.013988227,NaN,0.999992251,-0.001745212,-0.003490652,0,31.61663751,31.61663751,,,98.25,30,0.259772746,0.410344245
2018-07-19T08:08:31Z,1531987711,105,38.9461117,45.0788217,32.24,-0.1,-0.2,65.4,368482.28,10817.81,61.2,Air+FixedWing,Red,Allies,Su-27,Red Su-27 #001,xu,<51P> Rich,0,0,0,32.23999786,2.239997864,0,0,NaN,NaN,0,0.013988227,NaN,0.999992571,-0.001657949,-0.003442678,0,31.61663751,31.61663751,,,99.25,30,0.259772746,0.410344245
2018-07-19T08:08:32Z,1531987712,105,38.9461117,45.0788217,32.24,-0.1,-0.2,65.4,368482.28,10817.81,61.2,Air+FixedWing,Red,Allies,Su-27,Red Su-27 #001,xu,<51P> Rich,0.000976563,0,2.87e-06,32.23999786,2.239997864,0.000976563,0,NaN,NaN,0,0.013988227,NaN,0.999991932,-0.001832476,-0.003538625,4.77e-08,31.61663751,31.61663755,,,100.25,30,0.259772746,0.410344245
2018-07-19T08:08:33Z,1531987713,105,38.9461117,45.0788217,32.24,-0.1,-0.2,65.4,368482.28,10817.81,61.2,Air+FixedWing,Red,Allies,Su-27,Red Su-27 #001,xu,<51P> Rich,0,0,0,32.23999786,2.239997864,0,0,NaN,NaN,0,0.013988227,NaN,0.999992251,-0.001745212,-0.003490652,0,31.61663751,31.61663751,,,101.25,30,0.259772746,0.410344245
2018-07-19T08:08:34Z,1531987714,105,38.9461117,45.0788217,32.24,-0.1,-0.2,65.4,368482.28,10817.81,61.2,Air+FixedWing,Red,Allies,Su-27,Red Su-27 #001,xu,<51P> Rich,0,0,0,32.23999786,2.239997864,0,0,NaN,NaN,0,0.013988227,NaN,0.999992251,-0.001745212,-0.003490652,0,31.61663751,31.61663751,,,102.25,30,0.259772746,0.410344245
2018-07-19T08:08:35Z,1531987715,105,38.9461117,45.0788217,32.24,-0.1,-0.2,65.4,368482.28,10817.81,61.2,Air+FixedWing,Red,Allies,Su-27,Red Su-27 #001,xu,<51P> Rich,0,0,0,32.23999786,2.239997864,0,0,NaN,NaN,0,0.013988227,NaN,0.999992251,-0.001745212,-0.003490652,0,31.61663751,31.61663751,,,103.25,30,0.259772746,0.410344245
2018-07-19T08:08:36Z,1531987716,105,38.9461117,45.0788217,32.24,-0.1,-0.2,65.4,368482.28,10817.81,61.2,Air+FixedWing,Red,Allies,Su-27,Red Su-27 #001,xu,<51P> Rich,0,0,0,32.23999786,2.239997864,0,0,NaN,NaN,0,0.013988227,NaN,0.999992251,-0.001745212,-0.003490652,0,31.61663751,31.61663751,,,104.25,30,0.259772746,0.410344245
2018-07-19T08:08:37Z,1531987717,105,38.9461117,45.0788217,32.24,-0.1,-0.2,65.4,368482.28,10817.81,61.2,Air+FixedWing,Red,Allies,Su-27,Red Su-27 #001,xu,<51P> Rich,0,0,0,32.23999786,2.239997864,0,0,NaN,NaN,0,0.013988227,NaN,0.999992571,-0.001657949,-0.003442678,0,31.61663751,31.61663751,,,105.25,30,0.259772746,0.410344245
2018-07-19T08:08:38Z,1531987718,105,38.9461117,45.0788217,32.24,-0.1,-0.2,65.4,368482.28,10817.81,61.2,Air+FixedWing,Red,Allies,Su-27,Red Su-27 #001,xu,<51P> Rich,0.000976563,0,2.87e-06,32.23999786,2.239997864,0.000976563,0,NaN,NaN,0,0.013988227,NaN,0.999991932,-0.001832476,-0.003538625,4.77e-08,31.61663751,31.61663755,,,106.25,30,0.259772746,0.410344245
2018-07-19T08:08:39Z,1531987719,105,38.9461117,45.0788217,32.24,-0.1,-0.2,65.4,368482.28,10817.81,61.2,Air+FixedWing,Red,Allies,Su-27,Red Su-27 #001,xu,<51P> Rich,0,0,0,32.23999786,2.239997864,0,0,NaN,NaN,0,0.013988227,NaN,0.999992251,-0.001745212,-0.003490652,0,31.61663751,31.61663751,,,107.25,30,0.259772746,0.410344245
2018-07-19T08:08:40Z,1531987720,105,38.9461117,45.0788217,32.24,-0.1,-0.2,65.4,368482.28,10817.81,61.2,Air+FixedWing,Red,Allies,Su-27,Red Su-27 #001,xu,<51P> Rich,0,0,0,32.23999786,2.239997864,0,0,NaN,NaN,0,0.013988227,NaN,0.999992251,-0.001745212,-0.003490652,0,31.61663751,31.61663751,,,108.25,30,0.259772746,0.410344245
2018-07-19T08:08:41Z,1531987721,105,38.9461117,45.0788217,32.24,-0.1,-0.2,65.4,368482.28,10817.81,61.2,Air+FixedWing,Red,Allies,Su-27,Red Su-27 #001,xu,<51P> Rich,0,0,0,32.23999786,2.239997864,0,0,NaN,NaN,0,0.013988227,NaN,0.999992251,-0.001745212,-0.003490652,0,31.61663751,31.61663751,,,109.25,30,0.259772746,0.410344245
2018-07-19T08:08:42Z,1531987722,105,38.9461117,45.0788217,32.24,-0.1,-0.2,65.4,368482.28,10817.81,61.2,Air+FixedWing,Red,Allies,Su-27,Red Su-27 #001,xu,<51P> Rich,0,0,0,32.23999786,2.239997864,0,0,NaN,NaN,0,0.013988227,NaN,0.999992251,-0.001745212,-0.003490652,0,31.61663751,31.61663751,,,110.25,30,0.259772746,0.410344245
2018-07-19T08:08:43Z,1531987723,105,38.9461117,45.0788217,32.24,-0.1,-0.2,65.4,368482.28,10817.81,61.2,Air+FixedWing,Red,Allies,Su-27,Red Su-27 #001,xu,<51P> Rich,0,0,0,32.23999786,2.239997864,0,0,NaN,NaN,0,0.013988227,NaN,0.999992571,-0.001657949,-0.003442678,0,31.61663751,31.61663751,,,111.25,30,0.259772746,0.410344245
2018-07-19T08:08:44Z,1531987724,105,38.9461117,45.0788217,32.24,-0.1,-0.2,65.4,368482.28,10817.81,61.2,Air+FixedWing,Red,Allies,Su-27,Red Su-27 #001,xu,<51P> Rich,0.000976563,0,2.87e-06,32.23999786,2.239997864,0.000976563,0,NaN,NaN,0,0.013988227,NaN,0.999991932,-0.001832476,-0.003538625,4.77e-08,31.61663751,31.61663755,,,112.25,30,0.259772746,0.410344245
2018-07-19T08:08:45Z,1531987725,105,38.9461117,45.0788217,32.24,-0.1,-0.2,65.4,368482.28,10817.81,61.2,Air+FixedWing,Red,Allies,Su-27,Red Su-27 #001,xu,<51P> Rich,0,0,0,32.23999786,2.239997864,0,0,NaN,NaN,0,0.013988227,NaN,0.999992251,-0.001745212,-0.003490652,0,31.61663751,31.61663751,,,113.25,30,0.259772746,0.410344245
2018-07-19T08:08:46Z,1531987726,105,38.9461117,45.0788217,32.24,-0.1,-0.2,65.4,368482.28,10817.81,61.2,Air+FixedWing,Red,Allies,Su-27,Red Su-27 #001,xu,<51P> Rich,0,0,0,32.23999786,2.239997864,0,0,NaN,NaN,0,0.013988227,NaN,0.999992251,-0.001745212,-0.003490652,0,31.61663751,31.61663751,,,114.25,30,0.259772746,0.410344245
2018-07-19T08:08:47Z,1531987727,105,38.9461117,45.0788217,32.24,-0.1,-0.2,65.4,368482.28,10817.81,61.2,Air+FixedWing,Red,Allies,Su-27,Red Su-27 #001,xu,<51P> Rich,0,0,0,32.23999786,2.239997864,0,0,NaN,NaN,0,0.013988227,NaN,0.999992251,-0.001745212,-0.003490652,0,31.61663751,31.61663751,,,115.25,30,0.259772746,0.410344245
2018-07-19T08:08:48Z,1531987728,105,38.9461117,45.0788217,32.24,-0.1,-0.2,65.4,368482.28,10817.81,61.2,Air+FixedWing,Red,Allies,Su-27,Red Su-27 #001,xu,<51P> Rich,0,0,0,32.23999786,2.239997864,0,0,NaN,NaN,0,0.013988227,NaN,0.999992251,-0.001745212,-0.003490652,0,31.61663751,31.61663751,,,116.25,30,0.259772746,0.410344245
2018-07-19T08:08:49Z,1531987729,105,38.9461117,45.0788217,32.24,-0.1,-0.2,65.4,368482.28,10817.81,61.2,Air+FixedWing,Red,Allies,Su-27,Red Su-27 #001,xu,<51P> Rich,0,0,0,32.23999786,2.239997864,0,0,NaN,NaN,0,0.013988227,NaN,0.999992571,-0.001657949,-0.003442678,0,31.61663751,31.61663751,,,117.25,30,0.259772746,0.410344245
2018-07-19T08:08:50Z,1531987730,105,38.9461117,45.0788217,32.24,-0.1,-0.2,65.4,368482.28,10817.81,61.2,Air+FixedWing,Red,Allies,Su-27,Red Su-27 #001,xu,<51P> Rich,0.000976563,0,2.87e-06,32.23999786,2.239997864,0.000976563,0,NaN,NaN,0,0.013988227,NaN,0.999991932,-0.001832476,-0.003538625,4.77e-08,31.61663751,31.61663755,,,118.25,30,0.259772746,0.410344245
2018-07-19T08:08:51Z,1531987731,105,38.9461117,45.0788217,32.24,-0.1,-0.2,65.4,368482.28,10817.81,61.2,Air+FixedWing,Red,Allies,Su-27,Red Su-27 #001,xu,<51P> Rich,0,0,0,32.23999786,2.239997864,0,0,NaN,NaN,0,0.013988227,NaN,0.999992251,-0.001745212,-0.003490652,0,31.61663751,31.61663751,,,119.25,30,0.259772746,0.410344245
2018-07-19T08:08:52Z,1531987732,105,38.9461117,45.0788217,32.24,-0.1,-0.2,65.4,368482.28,10817.81,61.2,Air+FixedWing,Red,Allies,Su-27,Red Su-27 #001,xu,<51P> Rich,0,0,0,32.23999786,2.239997864,0,0,NaN,NaN,0,0.013988227,NaN,0.999992251,-0.001745212,-0.003490652,0,31.61663751,31.61663751,,,120.25,30,0.259772746,0.410344245
2018-07-19T08:08:53Z,1531987733,105,38.9461117,45.0788217,32.24,-0.1,-0.2,65.4,368482.28,10817.81,61.2,Air+FixedWing,Red,Allies,Su-27,Red Su-27 #001,xu,<51P> Rich,0,0,0,32.23999786,2.239997864,0,0,NaN,NaN,0,0.013988227,NaN,0.999992251,-0.001745212,-0.003490652,0,31.61663751,31.61663751,,,121.25,30,0.259772746,0.410344245
2018-07-19T08:08:54Z,1531987734,105,38.9461117,45.0788217,32.24,-0.1,-0.2,65.4,368482.28,10817.81,61.2,Air+FixedWing,Red,Allies,Su-27,Red Su-27 #001,xu,<51P> Rich,0,0,0,32.23999786,2.239997864,0,0,NaN,NaN,0,0.013988227,NaN,0.999992251,-0.001745212,-0.003490652,0,31.61663751,31.61663751,,,122.25,30,0.259772746,0.410344245
2018-07-19T08:08:55Z,1531987735,105,38.9461117,45.0788217,32.24,-0.1,-0.2,65.4,368482.28,10817.81,61.2,Air+FixedWing,Red,Allies,Su-27,Red Su-27 #001,xu,<51P> Rich,0,0,0,32.23999786,2.239997864,0,0,NaN,NaN,0,0.013988227,NaN,0.999992571,-0.001657949,-0.003442678,0,31.61663751,31.61663751,,,123.25,30,0.259772746,0.410344245
2018-07-19T08:08:56Z,1531987736,105,38.9461117,45.0788217,32.24,-0.1,-0.2,65.4,368482.28,10817.82,61.2,Air+FixedWing,Red,Allies,Su-27,Red Su-27 #001,xu,<51P> Rich,0.000976563,0,2.87e-06,32.23999786,2.239997864,0.000976563,0,NaN,NaN,0,0.013988227,NaN,0.999991932,-0.001832476,-0.003538625,4.77e-08,31.61663751,31.61663755,,,124.25,30,0.259772746,0.410344245
2018-07-19T08:08:57Z,1531987737,105,38.9461117,45.0788217,32.24,-0.1,-0.2,65.4,368482.28,10817.82,61.2,Air+FixedWing,Red,Allies,Su-27,Red Su-27 #001,xu,<51P> Rich,0,0,0,32.23999786,2.239997864,0,0,NaN,NaN,0,0.013988227,NaN,0.999992251,-0.001745212,-0.003490652,0,31.61663751,31.61663751,,,125.25,30,0.259772746,0.410344245
2018-07-19T08:08:58Z,1531987738,105,38.9461117,45.0788217,32.24,-0.1,-0.2,65.4,368482.28,10817.82,61.2,Air+FixedWing,Red,Allies,Su-27,Red Su-27 #001,xu,<51P> Rich,0,0,0,32.23999786,2.239997864,0,0,NaN,NaN,0,0.013988227,NaN,0.999992251,-0.001745212,-0.003490652,0,31.61663751,31.61663751,,,126.25,30,0.259772746,0.410344245
2018-07-19T08:08:59Z,1531987739,105,38.9461117,45.0788217,32.24,-0.1,-0.2,65.4,368482.28,10817.82,61.2,Air+FixedWing,Red,Allies,Su-27,Red Su-27 #001,xu,<51P> Rich,0,0,0,32.23999786,2.239997864,0,0,NaN,NaN,0,0.013988227,NaN,0.999992251,-0.001745212,-0.003490652,0,31.61663751,31.61663751,,,127.25,30,0.259772746,0.410344245
2018-07-19T08:09:00Z,1531987740,105,38.9461117,45.0788217,32.24,-0.1,-0.2,65.4,368482.28,10817.82,61.2,Air+FixedWing,Red,Allies,Su-27,Red Su-27 #001,xu,<51P> Rich,0,0,0,32.23999786,2.239997864,0,0,NaN,NaN,0,0.013988227,NaN,0.999992251,-0.001745212,-0.003490652,0,31.61663751,31.61663751,,,128.25,30,0.259772746,0.410344245
2018-07-19T08:09:01Z,1531987741,105,38.9461117,45.0788217,32.24,-0.1,-0.2,65.4,368482.28,10817.82,61.2,Air+FixedWing,Red,Allies,Su-27,Red Su-27 #001,xu,<51P> Rich,0,0,0,32.23999786,2.239997864,0,0,NaN,NaN,0,0.013988227,NaN,0.999992251,-0.001745212,-0.003490652,0,31.61663751,31.61663751,,,129.25,30,0.259772746,0.410344245
2018-07-19T08:09:02Z,1531987742,105,38.9461117,45.0788217,32.24,-0.1,-0.2,65.4,368482.28,10817.82,61.2,Air+FixedWing,Red,Allies,Su-27,Red Su-27 #001,xu,<51P> Rich,0,0,0,32.23999786,2.239997864,0,0,NaN,NaN,0,0.013988227,NaN,0.999992571,-0.001657949,-0.003442678,0,31.61663751,31.61663751,,,130.25,30,0.259772746,0.410344245
2018-07-19T08:09:03Z,1531987743,105,38.9461117,45.0788217,32.24,-0.1,-0.2,65.4,368482.28,10817.82,61.2,Air+FixedWing,Red,Allies,Su-27,Red Su-27 #001,xu,<51P> Rich,0.000976563,0,2.87e-06,32.23999786,2.239997864,0.000976563,0,NaN,NaN,0,0.013988227,NaN,0.999991932,-0.001832476,-0.003538625,4.77e-08,31.61663751,31.61663755,,,131.25,30,0.259772746,0.410344245
2018-07-19T08:09:04Z,1531987744,105,38.9461117,45.0788217,32.24,-0.1,-0.2,65.4,368482.28,10817.82,61.2,Air+FixedWing,Red,Allies,Su-27,Red Su-27 #001,xu,<51P> Rich,0,0,0,32.23999786,2.239997864,0,0,NaN,NaN,0,0.013988227,NaN,0.999992251,-0.001745212,-0.003490652,0,31.61663751,31.61663751,,,132.25,30,0.259772746,0.410344245
2018-07-19T08:09:05Z,1531987745,105,38.9461117,45.0788217,32.24,-0.1,-0.2,65.4,368482.28,10817.82,61.2,Air+FixedWing,Red,Allies,Su-27,Red Su-27 #001,xu,<51P> Rich,0,0,0,32.23999786,2.239997864,0,0,NaN,NaN,0,0.013988227,NaN,0.999992251,-0.001745212,-0.003490652,0,31.61663751,31.61663751,,,133.25,30,0.259772746,0.410344245
2018-07-19T08:09:06Z,1531987746,105,38.9461117,45.0788217,32.24,-0.1,-0.2,65.4,368482.28,10817.82,61.2,Air+FixedWing,Red,Allies,Su-27,Red Su-27 #001,xu,<51P> Rich,0,0,0,32.23999786,2.239997864,0,0,NaN,NaN,0,0.013988227,NaN,0.999992251,-0.001745212,-0.003490652,0,31.61663751,31.61663751,,,134.25,30,0.259772746,0.410344245
2018-07-19T08:09:07Z,1531987747,105,38.9461117,45.0788217,32.24,-0.1,-0.2,65.4,368482.28,10817.82,61.2,Air+FixedWing,Red,Allies,Su-27,Red Su-27 #001,xu,<51P> Rich,0,0,0,32.23999786,2.239997864,0,0,NaN,NaN,0,0.013988227,NaN,0.999992251,-0.001745212,-0.003490652,0,31.61663751,31.61663751,,,135.25,30,0.259772746,0.410344245
2018-07-19T08:09:08Z,1531987748,105,38.9461117,45.0788217,32.24,-0.1,-0.2,65.4,368482.28,10817.82,61.2,Air+FixedWing,Red,Allies,Su-27,Red Su-27 #001,xu,<51P> Rich,0,0,0,32.23999786,2.239997864,0,0,NaN,NaN,0,0.013988227,NaN,0.999992571,-0.001657949,-0.003442678,0,31.61663751,31.61663751,,,136.25,30,0.259772746,0.410344245
2018-07-19T08:09:09Z,1531987749,105,38.9461117,45.0788217,32.24,-0.1,-0.2,65.4,368482.28,10817.82,61.2,Air+FixedWing,Red,Allies,Su-27,Red Su-27 #001,xu,<51P> Rich,0.000976563,0,2.87e-06,32.23999786,2.239997864,0.000976563,0,NaN,NaN,0,0.013988227,NaN,0.999991932,-0.001832476,-0.003538625,4.77e-08,31.61663751,31.61663755,,,137.25,30,0.259772746,0.410344245
2018-07-19T08:09:10Z,1531987750,105,38.9461117,45.0788217,32.24,-0.1,-0.2,65.4,368482.28,10817.82,61.2,Air+FixedWing,Red,Allies,Su-27,Red Su-27 #001,xu,<51P> Rich,0,0,0,32.23999786,2.239997864,0,0,NaN,NaN,0,0.013988227,NaN,0.999992251,-0.001745212,-0.003490652,0,31.61663751,31.61663751,,,138.25,30,0.259772746,0.410344245
2018-07-19T08:09:11Z,1531987751,105,38.9461117,45.0788217,32.24,-0.1,-0.2,65.4,368482.28,10817.82,61.2,Air+FixedWing,Red,Allies,Su-27,Red Su-27 #001,xu,<51P> Rich,0,0,0,32.23999786,2.239997864,0,0,NaN,NaN,0,0.013988227,NaN,0.999992251,-0.001745212,-0.003490652,0,31.61663751,31.61663751,,,139.25,30,0.259772746,0.410344245
2018-07-19T08:09:12Z,1531987752,105,38.9461117,45.0788217,32.24,-0.1,-0.2,65.4,368482.28,10817.82,61.2,Air+FixedWing,Red,Allies,Su-27,Red Su-27 #001,xu,<51P> Rich,0,0,0,32.23999786,2.239997864,0,0,NaN,NaN,0,0.013988227,NaN,0.999992251,-0.001745212,-0.003490652,0,31.61663751,31.61663751,,,140.25,30,0.259772746,0.410344245
2018-07-19T08:09:13Z,1531987753,105,38.9461117,45.0788217,32.24,-0.1,-0.2,65.4,368482.28,10817.82,61.2,Air+FixedWing,Red,Allies,Su-27,Red Su-27 #001,xu,<51P> Rich,0,0,0,32.23999786,2.239997864,0,0,NaN,NaN,0,0.013988227,NaN,0.999992251,-0.001745212,-0.003490652,0,31.61663751,31.61663751,,,141.25,30,0.259772746,0.410344245
2018-07-19T08:09:14Z,1531987754,105,38.9461117,45.0788217,32.24,-0.1,-0.2,65.4,368482.28,10817.82,61.2,Air+FixedWing,Red,Allies,Su-27,Red Su-27 #001,xu,<51P> Rich,0,0,0,32.23999786,2.239997864,0,0,NaN,NaN,0,0.013988227,NaN,0.999992571,-0.001657949,-0.003442678,0,31.61663751,31.61663751,,,142.25,30,0.259772746,0.410344245
2018-07-19T08:09:15Z,1531987755,105,38.9461117,45.0788217,32.24,-0.1,-0.2,65.4,368482.28,10817.82,61.2,Air+FixedWing,Red,Allies,Su-27,Red Su-27 #001,xu,<51P> Rich,0.000976563,0,2.87e-06,32.23999786,2.239997864,0.000976563,0,NaN,NaN,0,0.013988227,NaN,0.999991932,-0.001832476,-0.003538625,4.77e-08,31.61663751,31.61663755,,,143.25,30,0.259772746,0.410344245
2018-07-19T08:09:16Z,1531987756,105,38.9461117,45.0788217,32.24,-0.1,-0.2,65.4,368482.28,10817.82,61.2,Air+FixedWing,Red,Allies,Su-27,Red Su-27 #001,xu,<51P> Rich,0,0,0,32.23999786,2.239997864,0,0,NaN,NaN,0,0.013988227,NaN,0.999992251,-0.001745212,-0.003490652,0,31.61663751,31.61663751,,,144.25,30,0.259772746,0.410344245
2018-07-19T08:09:17Z,1531987757,105,38.9461117,45.0788217,32.24,-0.1,-0.2,65.4,368482.28,10817.82,61.2,Air+FixedWing,Red,Allies,Su-27,Red Su-27 #001,xu,<51P> Rich,0,0,0,32.23999786,2.239997864,0,0,NaN,NaN,0,0.013988227,NaN,0.999992251,-0.001745212,-0.003490652,0,31.61663751,31.61663751,,,145.25,30,0.259772746,0.410344245
2018-07-19T08:09:18Z,1531987758,105,38.9461117,45.0788217,32.24,-0.1,-0.2,65.4,368482.28,10817.82,61.2,Air+FixedWing,Red,Allies,Su-27,Red Su-27 #001,xu,<51P> Rich,0,0,0,32.23999786,2.239997864,0,0,NaN,NaN,0,0.013988227,NaN,0.999992251,-0.001745212,-0.003490652,0,31.61663751,31.61663751,,,146.25,30,0.259772746,0.410344245
2018-07-19T08:09:19Z,1531987759,105,38.9461117,45.0788217,32.24,-0.1,-0.2,65.4,368482.28,10817.82,61.2,Air+FixedWing,Red,Allies,Su-27,Red Su-27 #001,xu,<51P> Rich,0,0,0,32.23999786,2.239997864,0,0,NaN,NaN,0,0.013988227,NaN,0.999992251,-0.001745212,-0.003490652,0,31.61663751,31.61663751,,,147.25,30,0.259772746,0.410344245
2018-07-19T08:09:20Z,1531987760,105,38.9461117,45.0788217,32.24,-0.1,-0.2,65.4,368482.28,10817.82,61.2,Air+FixedWing,Red,Allies,Su-27,Red Su-27 #001,xu,<51P> Rich,0,0,0,32.23999786,2.239997864,0,0,NaN,NaN,0,0.013988227,NaN,0.999992571,-0.001657949,-0.003442678,0,31.61663751,31.61663751,,,148.25,30,0.259772746,0.410344245
2018-07-19T08:09:21Z,1531987761,105,38.9461117,45.0788217,32.24,-0.1,-0.2,65.4,368482.28,10817.82,61.2,Air+FixedWing,Red,Allies,Su-27,Red Su-27 #001,xu,<51P> Rich,0.000976563,0,2.87e-06,32.23999786,2.239997864,0.000976563,0,NaN,NaN,0,0.013988227,NaN,0.999991932,-0.001832476,-0.003538625,4.77e-08,31.61663751,31.61663755,,,149.25,30,0.259772746,0.410344245
2018-07-19T08:09:22Z,1531987762,105,38.9461117,45.0788217,32.24,-0.1,-0.2,65.4,368482.28,10817.82,61.2,Air+FixedWing,Red,Allies,Su-27,Red Su-27 #001,xu,<51P> Rich,0,0,0,32.23999786,2.239997864,0,0,NaN,NaN,0,0.013988227,NaN,0.999992251,-0.001745212,-0.003490652,0,31.61663751,31.61663751,,,150.25,30,0.259772746,0.410344245
2018-07-19T08:09:23Z,1531987763,105,38.9461117,45.0788217,32.24,-0.1,-0.2,65.4,368482.28,10817.82,61.2,Air+FixedWing,Red,Allies,Su-27,Red Su-27 #001,xu,<51P> Rich,0,0,0,32.23999786,2.239997864,0,0,NaN,NaN,0,0.013988227,NaN,0.999992251,-0.001745212,-0.003490652,0,31.61663751,31.61663751,,,151.25,30,0.259772746,0.410344245
2018-07-19T08:09:24Z,1531987764,105,38.9461117,45.0788217,32.24,-0.1,-0.2,65.4,368482.28,10817.82,61.2,Air+FixedWing,Red,Allies,Su-27,Red Su-27 #001,xu,<51P> Rich,0,0,0,32.23999786,2.239997864,0,0,NaN,NaN,0,0.013988227,NaN,0.999992251,-0.001745212,-0.003490652,0,31.61663751,31.61663751,,,152.25,30,0.259772746,0.410344245
2018-07-19T08:09:25Z,1531987765,105,38.9461117,45.0788217,32.24,-0.1,-0.2,65.4,368482.28,10817.82,61.2,Air+FixedWing,Red,Allies,Su-27,Red Su-27 #001,xu,<51P> Rich,0,0,0,32.23999786,2.239997864,0,0,NaN,NaN,0,0.013988227,NaN,0.999992251,-0.001745212,-0.003490652,0,31.61663751,31.61663751,,,153.25,30,0.259772746,0.410344245
2018-07-19T08:09:26Z,1531987766,105,38.9461117,45.0788217,32.24,-0.1,-0.2,65.4,368482.28,10817.82,61.2,Air+FixedWing,Red,Allies,Su-27,Red Su-27 #001,xu,<51P> Rich,0,0,0,32.23999786,2.239997864,0,0,NaN,NaN,0,0.013988227,NaN,0.999992251,-0.001745212,-0.003490652,0,31.61663751,31.61663751,,,154.25,30,0.259772746,0.410344245
2018-07-19T08:09:27Z,1531987767,105,38.9461117,45.0788217,32.24,-0.1,-0.2,65.4,368482.28,10817.82,61.2,Air+FixedWing,Red,Allies,Su-27,Red Su-27 #001,xu,<51P> Rich,0,0,0,32.23999786,2.239997864,0,0,NaN,NaN,0,0.013988227,NaN,0.999992571,-0.001657949,-0.003442678,0,31.61663751,31.61663751,,,155.25,30,0.259772746,0.410344245
2018-07-19T08:09:28Z,1531987768,105,38.9461117,45.0788217,32.24,-0.1,-0.2,65.4,368482.28,10817.82,61.2,Air+FixedWing,Red,Allies,Su-27,Red Su-27 #001,xu,<51P> Rich,0.000976563,0,2.87e-06,32.23999786,2.239997864,0.000976563,0,NaN,NaN,0,0.013988227,NaN,0.999991932,-0.001832476,-0.003538625,4.77e-08,31.61663751,31.61663755,,,156.25,30,0.259772746,0.410344245
2018-07-19T08:09:29Z,1531987769,105,38.9461117,45.0788217,32.24,-0.1,-0.2,65.4,368482.28,10817.82,61.2,Air+FixedWing,Red,Allies,Su-27,Red Su-27 #001,xu,<51P> Rich,0,0,0,32.23999786,2.239997864,0,0,NaN,NaN,0,0.013988227,NaN,0.999992251,-0.001745212,-0.003490652,0,31.61663751,31.61663751,,,157.25,30,0.259772746,0.410344245
2018-07-19T08:09:30Z,1531987770,105,38.9461117,45.0788217,32.24,-0.1,-0.2,65.4,368482.28,10817.82,61.2,Air+FixedWing,Red,Allies,Su-27,Red Su-27 #001,xu,<51P> Rich,0,0,0,32.23999786,2.239997864,0,0,NaN,NaN,0,0.013988227,NaN,0.999988734,-0.002705112,-0.00401836,0,31.61663751,31.61663751,,,158.25,30,0.259772746,0.410344245
2018-07-19T08:09:31Z,1531987771,105,38.9461117,45.0788216,32.24,-0.1,-0.2,65.4,368482.28,10817.81,61.2,Air+FixedWing,Red,Allies,Su-27,Red Su-27 #001,xu,<51P> Rich,0.010742188,0,3.16e-05,32.23999786,2.239997864,0.010742188,0,NaN,NaN,0,0.013988227,NaN,0.999995769,-0.000785312,-0.002962943,5.77e-06,31.61663751,31.61664327,,,159.25,30,0.270657318,0.421228873
2018-07-19T08:09:32Z,1531987772,105,38.9461117,45.0788217,32.24,-0.1,-0.2,65.4,368482.28,10817.81,61.2,Air+FixedWing,Red,Allies,Su-27,Red Su-27 #001,xu,<51P> Rich,0,0,0,32.23999786,2.239997864,0,0,NaN,NaN,0,0.00989117,NaN,0.999992251,-0.001745212,-0.003490652,0,31.61663751,31.61663751,,,160.25,30,0.28154189,0.432113501
2018-07-19T08:09:33Z,1531987773,105,38.9461117,45.0788217,32.24,-0.1,-0.2,65.4,368482.28,10817.81,61.2,Air+FixedWing,Red,Allies,Su-27,Red Su-27 #001,xu,<51P> Rich,0,0,0,32.23999786,2.239997864,0,0,NaN,NaN,0,0.013988227,NaN,0.999992251,-0.001745212,-0.003490652,0,31.61663751,31.61663751,,,161.25,30,0.28154189,0.432113501
2018-07-19T08:09:34Z,1531987774,105,38.9461117,45.0788217,32.24,-0.1,-0.2,65.4,368482.28,10817.81,61.2,Air+FixedWing,Red,Allies,Su-27,Red Su-27 #001,xu,<51P> Rich,0,0,0,32.23999786,2.239997864,0,0,NaN,NaN,0,0,NaN,0.999992251,-0.001745212,-0.003490652,0,31.61663751,31.61663751,,,162.25,30,0.28154189,0.432113501
2018-07-19T08:09:35Z,1531987775,105,38.9461117,45.0788217,32.24,-0.1,-0.2,65.4,368482.28,10817.81,61.2,Air+FixedWing,Red,Allies,Su-27,Red Su-27 #001,xu,<51P> Rich,0,0,0,32.23999786,2.239997864,0,0,NaN,NaN,0,0.013988227,NaN,0.999992251,-0.001745212,-0.003490652,0,31.61663751,31.61663751,,,163.25,30,0.28154189,0.432113501
2018-07-19T08:09:36Z,1531987776,105,38.9461117,45.0788217,32.24,-0.1,-0.2,65.4,368482.28,10817.81,61.2,Air+FixedWing,Red,Allies,Su-27,Red Su-27 #001,xu,<51P> Rich,0,0,0,32.23999786,2.239997864,0,0,NaN,NaN,0,0.00989117,NaN,0.999992251,-0.001745212,-0.003490652,0,31.61663751,31.61663751,,,164.25,30,0.28154189,0.432113501
2018-07-19T08:09:37Z,1531987777,105,38.9461117,45.0788217,32.24,-0.1,-0.2,65.4,368482.28,10817.81,61.2,Air+FixedWing,Red,Allies,Su-27,Red Su-27 #001,xu,<51P> Rich,0,0,0,32.23999786,2.239997864,0,0,NaN,NaN,0,0.00989117,NaN,0.999992251,-0.001745212,-0.003490652,0,31.61663751,31.61663751,,,165.25,30,0.28154189,0.432113501
2018-07-19T08:09:38Z,1531987778,105,38.9461117,45.0788217,32.24,-0.1,-0.2,65.4,368482.28,10817.81,61.2,Air+FixedWing,Red,Allies,Su-27,Red Su-27 #001,xu,<51P> Rich,0,0,0,32.23999786,2.239997864,0,0,NaN,NaN,0,0.019782341,NaN,0.999992251,-0.001745212,-0.003490652,0,31.61663751,31.61663751,,,166.25,30,0.28154189,0.432113501
2018-07-19T08:09:39Z,1531987779,105,38.9461117,45.0788217,32.24,-0.1,-0.2,65.4,368482.28,10817.81,61.2,Air+FixedWing,Red,Allies,Su-27,Red Su-27 #001,xu,<51P> Rich,0,0,0,32.23999786,2.239997864,0,0,NaN,NaN,0,0.013988227,NaN,0.999992251,-0.001745212,-0.003490652,0,31.61663751,31.61663751,,,167.25,30,0.28154189,0.432113501
2018-07-19T08:09:40Z,1531987780,105,38.9461117,45.0788217,32.24,-0.1,-0.2,65.4,368482.28,10817.81,61.2,Air+FixedWing,Red,Allies,Su-27,Red Su-27 #001,xu,<51P> Rich,0,0,0,32.23999786,2.239997864,0,0,NaN,NaN,0,0.01713201,NaN,0.999992251,-0.001745212,-0.003490652,0,31.61663751,31.61663751,,,168.25,30,0.28154189,0.432113501
2018-07-19T08:09:41Z,1531987781,105,38.9461117,45.0788217,32.24,-0.1,-0.2,65.4,368482.28,10817.81,61.2,Air+FixedWing,Red,Allies,Su-27,Red Su-27 #001,xu,<51P> Rich,0,0,0,32.23999786,2.239997864,0,0,NaN,NaN,0,0.01713201,NaN,0.999992251,-0.001745212,-0.003490652,0,31.61663751,31.61663751,,,169.25,30,0.28154189,0.432113501
2018-07-19T08:09:42Z,1531987782,105,38.9461117,45.0788217,32.24,-0.1,-0.2,65.4,368482.28,10817.81,61.2,Air+FixedWing,Red,Allies,Su-27,Red Su-27 #001,xu,<51P> Rich,0,0,0,32.23999786,2.239997864,0,0,NaN,NaN,0,0.01713201,NaN,0.999992251,-0.001745212,-0.003490652,0,31.61663751,31.61663751,,,170.25,30,0.28154189,0.432113501
2018-07-19T08:09:43Z,1531987783,105,38.9461117,45.0788217,32.24,-0.1,-0.2,65.4,368482.28,10817.81,61.2,Air+FixedWing,Red,Allies,Su-27,Red Su-27 #001,xu,<51P> Rich,0,0,0,32.23999786,2.239997864,0,0,NaN,NaN,0,0.013988227,NaN,0.999992251,-0.001745212,-0.003490652,0,31.61663751,31.61663751,,,171.25,30,0.28154189,0.432113501
2018-07-19T08:09:44Z,1531987784,105,38.9461117,45.0788217,32.24,-0.1,-0.2,65.4,368482.28,10817.81,61.2,Air+FixedWing,Red,Allies,Su-27,Red Su-27 #001,xu,<51P> Rich,0,0,0,32.23999786,2.239997864,0,0,NaN,NaN,0,0.00989117,NaN,0.999992251,-0.001745212,-0.003490652,0,31.61663751,31.61663751,,,172.25,30,0.28154189,0.432113501
2018-07-19T08:09:45Z,1531987785,105,38.9461117,45.0788217,32.24,-0.1,-0.2,65.4,368482.28,10817.81,61.2,Air+FixedWing,Red,Allies,Su-27,Red Su-27 #001,xu,<51P> Rich,0,0,0,32.23999786,2.239997864,0,0,NaN,NaN,0,0.013988227,NaN,0.999992251,-0.001745212,-0.003490652,0,31.61663751,31.61663751,,,173.25,30,0.28154189,0.432113501
2018-07-19T08:09:46Z,1531987786,105,38.9461117,45.0788217,32.24,-0.1,-0.2,65.4,368482.28,10817.81,61.2,Air+FixedWing,Red,Allies,Su-27,Red Su-27 #001,xu,<51P> Rich,0,0,0,32.23999786,2.239997864,0,0,NaN,NaN,0,0,NaN,0.999992251,-0.001745212,-0.003490652,0,31.61663751,31.61663751,,,174.25,30,0.28154189,0.432113501
2018-07-19T08:09:47Z,1531987787,105,38.9461117,45.0788217,32.24,-0.1,-0.2,65.4,368482.28,10817.81,61.2,Air+FixedWing,Red,Allies,Su-27,Red Su-27 #001,xu,<51P> Rich,0,0,0,32.23999786,2.239997864,0,0,NaN,NaN,0,0.013988227,NaN,0.999992251,-0.001745212,-0.003490652,0,31.61663751,31.61663751,,,175.25,30,0.28154189,0.432113501
2018-07-19T08:09:48Z,1531987788,105,38.9461117,45.0788217,32.24,-0.1,-0.2,65.4,368482.28,10817.81,61.2,Air+FixedWing,Red,Allies,Su-27,Red Su-27 #001,xu,<51P> Rich,0,0,0,32.23999786,2.239997864,0,0,NaN,NaN,0,0.00989117,NaN,0.999992251,-0.001745212,-0.003490652,0,31.61663751,31.61663751,,,176.25,30,0.28154189,0.432113501
2018-07-19T08:09:49Z,1531987789,105,38.9461117,45.0788217,32.24,-0.1,-0.2,65.4,368482.28,10817.81,61.2,Air+FixedWing,Red,Allies,Su-27,Red Su-27 #001,xu,<51P> Rich,0,0,0,32.23999786,2.239997864,0,0,NaN,NaN,0,0.013988227,NaN,0.999992251,-0.001745212,-0.003490652,0,31.61663751,31.61663751,,,177.25,30,0.28154189,0.432113501
2018-07-19T08:09:50Z,1531987790,105,38.9461117,45.0788217,32.24,-0.1,-0.2,65.4,368482.28,10817.81,61.2,Air+FixedWing,Red,Allies,Su-27,Red Su-27 #001,xu,<51P> Rich,0,0,0,32.23999786,2.239997864,0,0,NaN,NaN,0,0.013988227,NaN,0.999992251,-0.001745212,-0.003490652,0,31.61663751,31.61663751,,,178.25,30,0.28154189,0.432113501
2018-07-19T08:09:51Z,1531987791,105,38.9461117,45.0788217,32.24,-0.1,-0.2,65.4,368482.28,10817.81,61.2,Air+FixedWing,Red,Allies,Su-27,Red Su-27 #001,xu,<51P> Rich,0,0,0,32.23999786,2.239997864,0,0,NaN,NaN,0,0.01713201,NaN,0.999992251,-0.001745212,-0.003490652,0,31.61663751,31.61663751,,,179.25,30,0.28154189,0.432113501
2018-07-19T08:09:52Z,1531987792,105,38.9461117,45.0788217,32.24,-0.1,-0.2,65.4,368482.28,10817.81,61.2,Air+FixedWing,Red,Allies,Su-27,Red Su-27 #001,xu,<51P> Rich,0,0,0,32.23999786,2.239997864,0,0,NaN,NaN,0,0.019782341,NaN,0.999992251,-0.001745212,-0.003490652,0,31.61663751,31.61663751,,,180.25,30,0.28154189,0.432113501
2018-07-19T08:09:53Z,1531987793,105,38.9461117,45.0788217,32.24,-0.1,-0.2,65.4,368482.28,10817.81,61.2,Air+FixedWing,Red,Allies,Su-27,Red Su-27 #001,xu,<51P> Rich,0,0,0,32.23999786,2.239997864,0,0,NaN,NaN,0,0.019782341,NaN,0.999992251,-0.001745212,-0.003490652,0,31.61663751,31.61663751,,,181.25,30,0.28154189,0.432113501
2018-07-19T08:09:54Z,1531987794,105,38.9461117,45.0788217,32.24,-0.1,-0.2,65.4,368482.28,10817.81,61.2,Air+FixedWing,Red,Allies,Su-27,Red Su-27 #001,xu,<51P> Rich,0,0,0,32.23999786,2.239997864,0,0,NaN,NaN,0,0.01713201,NaN,0.999992251,-0.001745212,-0.003490652,0,31.61663751,31.61663751,,,182.25,30,0.28154189,0.432113501
2018-07-19T08:09:55Z,1531987795,105,38.9461117,45.0788217,32.24,-0.1,-0.2,65.4,368482.28,10817.81,61.2,Air+FixedWing,Red,Allies,Su-27,Red Su-27 #001,xu,<51P> Rich,0,0,0,32.23999786,2.239997864,0,0,NaN,NaN,0,0.013988227,NaN,0.999992251,-0.001745212,-0.003490652,0,31.61663751,31.61663751,,,183.25,30,0.28154189,0.432113501
