ISOTime,UnixTime,Id,Longitude,Latitude,Altitude,Roll,Pitch,Yaw,U,V,Heading,Type,Color,Coalition,Name,Group,Country,Pilot,TAS,CAS,M,ASL,AGL,GS,VS,AOA,AOS,RRT,TRT,TRD,G,LatG,LonG,Ek,Ep,Em,FFW,FFV,RelativeTime,Elev,GroundDistance,AirDistance
2018-07-19T08:06:25Z,1531987585,10C,38.9494943,45.0799627,32.1,0.4,0.2,65.5,368739.16,10964.2,61.2,Air+FixedWing,Red,Allies,J-11A,Red J-11A #001,xu,<51>Teknetinium,0.399088015,0.371545464,0.001172786,32.09999847,2.099998474,NaN,NaN,NaN,NaN,1.133331475,NaN,NaN,NaN,NaN,NaN,NaN,31.479345,NaN,,,0.639999866,30,NaN,NaN
2018-07-19T08:06:26Z,1531987586,10C,38.9494954,45.0799631,32.26,0.2,-0.2,65.5,368739.25,10964.25,61.2,Air+FixedWing,Red,Allies,J-11A,Red J-11A #001,xu,<51>Teknetinium,0.19351333,0.262722313,0.000568672,32.26238251,2.262382507,0.105256043,0.162384033,NaN,NaN,0.27621285,0.051396036,NaN,0.980515605,0.004915319,-0.017001105,0.00187237,31.63858934,31.64046171,,,1.639999866,30,0.09329215,0.187275432
2018-07-19T08:06:27Z,1531987587,10C,38.9494952,45.079963,32.23,0.1,-0.2,65.5,368739.22,10964.24,61.2,Air+FixedWing,Red,Allies,J-11A,Red J-11A #001,xu,<51>Teknetinium,0.042745232,0,0.000125614,32.23428345,2.234283447,0.032211763,-0.02809906,NaN,NaN,0,0.128965191,NaN,1.004472713,0.000916087,-0.000330027,9.14e-05,31.61103358,31.61112493,,,2.639999866,30,0.108886136,0.21941158
2018-07-19T08:06:28Z,1531987588,10C,38.9494953,45.079963,32.25,0.1,-0.2,65.5,368739.22,10964.24,61.2,Air+FixedWing,Red,Allies,J-11A,Red J-11A #001,xu,<51>Teknetinium,0.015716553,0,4.62e-05,32.25,2.25,0,0.015716553,NaN,NaN,0,0.067085198,NaN,0.998389622,0.00174252,-0.003485057,1.24e-05,31.62644625,31.6264586,,,3.639999866,30,0.115249386,0.236367447
2018-07-19T08:06:29Z,1531987589,10C,38.9494953,45.079963,32.25,0.1,-0.3,65.5,368739.22,10964.24,61.3,Air+FixedWing,Red,Allies,J-11A,Red J-11A #001,xu,<51>Teknetinium,0,0,0,32.25,2.25,0,0,NaN,NaN,0,0.070637103,NaN,0.999984682,0.001745304,-0.005235964,0,31.62644625,31.62644625,,,4.639999866,30,0.116746619,0.237864688
2018-07-19T08:06:30Z,1531987590,10C,38.9494953,45.079963,32.25,0.1,-0.3,65.5,368739.22,10964.24,61.3,Air+FixedWing,Red,Allies,J-11A,Red J-11A #001,xu,<51>Teknetinium,0,0,0,32.25,2.25,0,0,NaN,NaN,0,0,NaN,0.999984682,0.001745304,-0.005235964,0,31.62644625,31.62644625,,,5.639999866,30,0.119058526,0.240176606
2018-07-19T08:06:31Z,1531987591,10C,38.9494953,45.079963,32.25,0,-0.3,65.5,368739.22,10964.24,61.3,Air+FixedWing,Red,Allies,J-11A,Red J-11A #001,xu,<51>Teknetinium,0,0,0,32.25,2.25,0,0,NaN,NaN,0.064914118,0,NaN,0.999985814,0.000838708,-0.005235964,0,31.62644625,31.62644625,,,6.639999866,30,0.121370434,0.242488525
2018-07-19T08:06:32Z,1531987592,10C,38.9494953,45.079963,32.25,0,-0.3,65.5,368739.22,10964.24,61.3,Air+FixedWing,Red,Allies,J-11A,Red J-11A #001,xu,<51>Teknetinium,0,0,0,32.25,2.25,0,0,NaN,NaN,0.019801365,0,NaN,0.999986112,0.000444882,-0.005235964,0,31.62644625,31.62644625,,,7.639999866,30,0.121370434,0.242488525
2018-07-19T08:06:33Z,1531987593,10C,38.9494953,45.079963,32.25,0,-0.3,65.5,368739.22,10964.24,61.3,Air+FixedWing,Red,Allies,J-11A,Red J-11A #001,xu,<51>Teknetinium,0,0,0,32.25,2.25,0,0,NaN,NaN,0.140592614,0,NaN,0.999986172,7.37e-05,-0.005235964,0,31.62644625,31.62644625,,,8.639999866,30,0.121370434,0.242488525
2018-07-19T08:06:34Z,1531987594,10C,38.9494953,45.079963,32.25,0,-0.3,65.5,368739.22,10964.24,61.3,Air+FixedWing,Red,Allies,J-11A,Red J-11A #001,xu,<51>Teknetinium,0,0,0,32.25,2.25,0,0,NaN,NaN,0.059613891,0,NaN,0.999985874,0.000782436,-0.005235964,0,31.62644625,31.62644625,,,9.639999866,30,0.121370434,0.242488525
2018-07-19T08:06:35Z,1531987595,10C,38.9494953,45.079963,32.25,0,-0.3,65.5,368739.22,10964.24,61.3,Air+FixedWing,Red,Allies,J-11A,Red J-11A #001,xu,<51>Teknetinium,0,0,0,32.25,2.25,0,0,NaN,NaN,0.047619052,0,NaN,0.999985993,0.000615012,-0.005235964,0,31.62644625,31.62644625,,,10.63999987,30,0.121370434,0.242488525
2018-07-19T08:06:36Z,1531987596,10C,38.9494953,45.079963,32.25,0.1,-0.3,65.5,368739.22,10964.24,61.3,Air+FixedWing,Red,Allies,J-11A,Red J-11A #001,xu,<51>Teknetinium,0,0,0,32.25,2.25,0,0,NaN,NaN,0.047619052,0,NaN,0.999985158,0.00144611,-0.005235964,0,31.62644625,31.62644625,,,11.63999987,30,0.121370434,0.242488525
2018-07-19T08:06:37Z,1531987597,10C,38.9494953,45.079963,32.25,0.1,-0.3,65.5,368739.22,10964.24,61.3,Air+FixedWing,Red,Allies,J-11A,Red J-11A #001,xu,<51>Teknetinium,0,0,0,32.25,2.25,0,0,NaN,NaN,0.008196227,0,NaN,0.999984801,0.001653978,-0.005235964,0,31.62644625,31.62644625,,,12.63999987,30,0.121370434,0.242488525
2018-07-19T08:06:38Z,1531987598,10C,38.9494953,45.079963,32.25,0.1,-0.3,65.5,368739.22,10964.24,61.3,Air+FixedWing,Red,Allies,J-11A,Red J-11A #001,xu,<51>Teknetinium,0,0,0,32.25,2.25,0,0,NaN,NaN,0.008196227,0,NaN,0.999985039,0.00151128,-0.005235964,0,31.62644625,31.62644625,,,13.63999987,30,0.121370434,0.242488525
2018-07-19T08:06:39Z,1531987599,10C,38.9494953,45.079963,32.25,0.1,-0.3,65.5,368739.22,10964.24,61.3,Air+FixedWing,Red,Allies,J-11A,Red J-11A #001,xu,<51>Teknetinium,0,0,0,32.25,2.25,0,0,NaN,NaN,0.008196227,0,NaN,0.999985278,0.001368581,-0.005235964,0,31.62644625,31.62644625,,,14.63999987,30,0.121370434,0.242488525
2018-07-19T08:06:40Z,1531987600,10C,38.9494953,45.079963,32.25,0.1,-0.3,65.5,368739.22,10964.24,61.3,Air+FixedWing,Red,Allies,J-11A,Red J-11A #001,xu,<51>Teknetinium,0,0,0,32.25,2.25,0,0,NaN,NaN,0.008196227,0,NaN,0.999985456,0.001225883,-0.005235964,0,31.62644625,31.62644625,,,15.63999987,30,0.121370434,0.242488525
2018-07-19T08:06:41Z,1531987601,10C,38.9494953,45.079963,32.25,0.1,-0.3,65.5,368739.22,10964.24,61.3,Air+FixedWing,Red,Allies,J-11A,Red J-11A #001,xu,<51>Teknetinium,0,0,0,32.25,2.25,0,0,NaN,NaN,0.008196227,0,NaN,0.999985635,0.001083185,-0.005235964,0,31.62644625,31.62644625,,,16.63999987,30,0.121370434,0.242488525
2018-07-19T08:06:42Z,1531987602,10C,38.9494953,45.079963,32.25,0.1,-0.3,65.5,368739.22,10964.24,61.3,Air+FixedWing,Red,Allies,J-11A,Red J-11A #001,xu,<51>Teknetinium,0,0,0,32.25,2.25,0,0,NaN,NaN,0.008196227,0,NaN,0.999985695,0.000940487,-0.005235964,0,31.62644625,31.62644625,,,17.63999987,30,0.121370434,0.242488525
2018-07-19T08:06:43Z,1531987603,10C,38.9494953,45.079963,32.25,0,-0.3,65.5,368739.22,10964.24,61.3,Air+FixedWing,Red,Allies,J-11A,Red J-11A #001,xu,<51>Teknetinium,0,0,0,32.25,2.25,0,0,NaN,NaN,0.008196227,0,NaN,0.999985814,0.000797789,-0.005235964,0,31.62644625,31.62644625,,,18.63999987,30,0.121370434,0.242488525
2018-07-19T08:06:44Z,1531987604,10C,38.9494953,45.079963,32.25,0,-0.3,65.5,368739.22,10964.24,61.3,Air+FixedWing,Red,Allies,J-11A,Red J-11A #001,xu,<51>Teknetinium,0,0,0,32.25,2.25,0,0,NaN,NaN,0.008196227,0,NaN,0.999985993,0.00065509,-0.005235964,0,31.62644625,31.62644625,,,19.63999987,30,0.121370434,0.242488525
2018-07-19T08:06:45Z,1531987605,10C,38.9494953,45.079963,32.25,0,-0.3,65.5,368739.22,10964.24,61.3,Air+FixedWing,Red,Allies,J-11A,Red J-11A #001,xu,<51>Teknetinium,0,0,0,32.25,2.25,0,0,NaN,NaN,0.008196227,0,NaN,0.999986053,0.000512392,-0.005235964,0,31.62644625,31.62644625,,,20.63999987,30,0.121370434,0.242488525
2018-07-19T08:06:46Z,1531987606,10C,38.9494953,45.079963,32.25,0,-0.3,65.5,368739.22,10964.24,61.3,Air+FixedWing,Red,Allies,J-11A,Red J-11A #001,xu,<51>Teknetinium,0,0,0,32.25,2.25,0,0,NaN,NaN,0.008196227,0,NaN,0.999986172,0.000369694,-0.005235964,0,31.62644625,31.62644625,,,21.63999987,30,0.121370434,0.242488525
2018-07-19T08:06:47Z,1531987607,10C,38.9494953,45.079963,32.25,0,-0.3,65.5,368739.22,10964.24,61.3,Air+FixedWing,Red,Allies,J-11A,Red J-11A #001,xu,<51>Teknetinium,0,0,0,32.25,2.25,0,0,NaN,NaN,0.008196227,0,NaN,0.999986231,0.000226996,-0.005235964,0,31.62644625,31.62644625,,,22.63999987,30,0.121370434,0.242488525
2018-07-19T08:06:48Z,1531987608,10C,38.9494953,45.079963,32.25,0,-0.3,65.5,368739.22,10964.24,61.3,Air+FixedWing,Red,Allies,J-11A,Red J-11A #001,xu,<51>Teknetinium,0,0,0,32.25,2.25,0,0,NaN,NaN,0.008196227,0,NaN,0.999986172,8.43e-05,-0.005235964,0,31.62644625,31.62644625,,,23.63999987,30,0.121370434,0.242488525
2018-07-19T08:06:49Z,1531987609,10C,38.9494953,45.079963,32.25,0.1,-0.3,65.5,368739.22,10964.24,61.3,Air+FixedWing,Red,Allies,J-11A,Red J-11A #001,xu,<51>Teknetinium,0,0,0,32.25,2.25,0,0,NaN,NaN,0.195659266,0,NaN,0.999984682,0.001720373,-0.005235964,0,31.62644625,31.62644625,,,24.63999987,30,0.121370434,0.242488525
2018-07-19T08:06:50Z,1531987610,10C,38.9494953,45.079963,32.25,0.1,-0.3,65.5,368739.22,10964.24,61.3,Air+FixedWing,Red,Allies,J-11A,Red J-11A #001,xu,<51>Teknetinium,0,0,0,32.25,2.25,0,0,NaN,NaN,0.014261435,0,NaN,0.999985158,0.001471059,-0.005235964,0,31.62644625,31.62644625,,,25.63999987,30,0.121370434,0.242488525
2018-07-19T08:06:51Z,1531987611,10C,38.9494953,45.079963,32.25,0.1,-0.3,65.5,368739.22,10964.24,61.3,Air+FixedWing,Red,Allies,J-11A,Red J-11A #001,xu,<51>Teknetinium,0,0,0,32.25,2.25,0,0,NaN,NaN,0.014261435,0,NaN,0.999985456,0.001221745,-0.005235964,0,31.62644625,31.62644625,,,26.63999987,30,0.121370434,0.242488525
2018-07-19T08:06:52Z,1531987612,10C,38.9494953,45.079963,32.25,0.1,-0.3,65.5,368739.22,10964.24,61.3,Air+FixedWing,Red,Allies,J-11A,Red J-11A #001,xu,<51>Teknetinium,0,0,0,32.25,2.25,0,0,NaN,NaN,0.014261435,0,NaN,0.999985695,0.000972431,-0.005235964,0,31.62644625,31.62644625,,,27.63999987,30,0.121370434,0.242488525
2018-07-19T08:06:53Z,1531987613,10C,38.9494953,45.079963,32.25,0,-0.3,65.5,368739.22,10964.24,61.3,Air+FixedWing,Red,Allies,J-11A,Red J-11A #001,xu,<51>Teknetinium,0,0,0,32.25,2.25,0,0,NaN,NaN,0.014261435,0,NaN,0.999985933,0.000723117,-0.005235964,0,31.62644625,31.62644625,,,28.63999987,30,0.121370434,0.242488525
2018-07-19T08:06:54Z,1531987614,10C,38.9494953,45.079963,32.25,0,-0.3,65.5,368739.22,10964.24,61.3,Air+FixedWing,Red,Allies,J-11A,Red J-11A #001,xu,<51>Teknetinium,0,0,0,32.25,2.25,0,0,NaN,NaN,0.014261435,0,NaN,0.999986112,0.000473803,-0.005235964,0,31.62644625,31.62644625,,,29.63999987,30,0.121370434,0.242488525
2018-07-19T08:06:55Z,1531987615,10C,38.9494953,45.079963,32.25,0,-0.3,65.5,368739.22,10964.24,61.3,Air+FixedWing,Red,Allies,J-11A,Red J-11A #001,xu,<51>Teknetinium,0,0,0,32.25,2.25,0,0,NaN,NaN,0.014261435,0,NaN,0.999986231,0.000224488,-0.005235964,0,31.62644625,31.62644625,,,30.63999987,30,0.121370434,0.242488525
2018-07-19T08:06:56Z,1531987616,10C,38.9494953,45.079963,32.25,0,-0.3,65.5,368739.22,10964.24,61.3,Air+FixedWing,Red,Allies,J-11A,Red J-11A #001,xu,<51>Teknetinium,0,0,0,32.25,2.25,0,0,NaN,NaN,0.002404227,0,NaN,0.999986172,7.86e-05,-0.005235964,0,31.62644625,31.62644625,,,31.63999987,30,0.121370434,0.242488525
2018-07-19T08:06:57Z,1531987617,10C,38.9494953,45.079963,32.25,0,-0.3,65.5,368739.22,10964.24,61.3,Air+FixedWing,Red,Allies,J-11A,Red J-11A #001,xu,<51>Teknetinium,0,0,0,32.25,2.25,0,0,NaN,NaN,0.045045044,0,NaN,0.999985874,0.000864791,-0.005235964,0,31.62644625,31.62644625,,,32.63999987,30,0.121370434,0.242488525
2018-07-19T08:06:58Z,1531987618,10C,38.9494953,45.079963,32.25,0.1,-0.3,65.5,368739.22,10964.24,61.3,Air+FixedWing,Red,Allies,J-11A,Red J-11A #001,xu,<51>Teknetinium,0,0,0,32.25,2.25,0,0,NaN,NaN,0.045045058,0,NaN,0.999984801,0.001650964,-0.005235964,0,31.62644625,31.62644625,,,33.63999987,30,0.121370434,0.242488525
2018-07-19T08:06:59Z,1531987619,10C,38.9494953,45.079963,32.25,0.1,-0.3,65.5,368739.22,10964.24,61.3,Air+FixedWing,Red,Allies,J-11A,Red J-11A #001,xu,<51>Teknetinium,0,0,0,32.25,2.25,0,0,NaN,NaN,0,0,NaN,0.999984443,0.001745304,-0.005296006,0,31.62644625,31.62644625,,,34.63999987,30,0.121370434,0.242488525
2018-07-19T08:07:00Z,1531987620,10C,38.9494953,45.079963,32.25,0.1,-0.3,65.5,368739.22,10964.24,61.3,Air+FixedWing,Red,Allies,J-11A,Red J-11A #001,xu,<51>Teknetinium,0,0,0,32.25,2.25,0,0,NaN,NaN,0,0,NaN,0.999984026,0.001745303,-0.005364235,0,31.62644625,31.62644625,,,35.63999987,30,0.121370434,0.242488525
2018-07-19T08:07:01Z,1531987621,10C,38.9494953,45.079963,32.25,0.1,-0.3,65.5,368739.22,10964.24,61.3,Air+FixedWing,Red,Allies,J-11A,Red J-11A #001,xu,<51>Teknetinium,0,0,0,32.25,2.25,0,0,NaN,NaN,0,0,NaN,0.999983609,0.001745303,-0.005432465,0,31.62644625,31.62644625,,,36.63999987,30,0.121370434,0.242488525
2018-07-19T08:07:02Z,1531987622,10C,38.9494953,45.079963,32.25,0.1,-0.3,65.5,368739.22,10964.24,61.3,Air+FixedWing,Red,Allies,J-11A,Red J-11A #001,xu,<51>Teknetinium,0,0,0,32.25,2.25,0,0,NaN,NaN,0,0.00989117,NaN,0.999983251,0.001745302,-0.005500693,0,31.62644625,31.62644625,,,37.63999987,30,0.121370434,0.242488525
2018-07-19T08:07:03Z,1531987623,10C,38.9494953,45.079963,32.25,0.1,-0.3,65.5,368739.22,10964.24,61.3,Air+FixedWing,Red,Allies,J-11A,Red J-11A #001,xu,<51>Teknetinium,0,0,0,32.25,2.25,0,0,NaN,NaN,0,0,NaN,0.999982893,0.001745301,-0.005568923,0,31.62644625,31.62644625,,,38.63999987,30,0.121370434,0.242488525
2018-07-19T08:07:04Z,1531987624,10C,38.9494953,45.079963,32.25,0.1,-0.3,65.5,368739.22,10964.24,61.3,Air+FixedWing,Red,Allies,J-11A,Red J-11A #001,xu,<51>Teknetinium,0,0,0,32.25,2.25,0,0,NaN,NaN,0,0,NaN,0.999982536,0.001745301,-0.005637152,0,31.62644625,31.62644625,,,39.63999987,30,0.121370434,0.242488525
2018-07-19T08:07:05Z,1531987625,10C,38.9494953,45.079963,32.25,0.1,-0.3,65.5,368739.22,10964.24,61.3,Air+FixedWing,Red,Allies,J-11A,Red J-11A #001,xu,<51>Teknetinium,0,0,0,32.25,2.25,0,0,NaN,NaN,0,0.00989117,NaN,0.999982178,0.0017453,-0.005705381,0,31.62644625,31.62644625,,,40.63999987,30,0.121370434,0.242488525
2018-07-19T08:07:06Z,1531987626,10C,38.9494953,45.079963,32.25,0.1,-0.3,65.5,368739.22,10964.24,61.3,Air+FixedWing,Red,Allies,J-11A,Red J-11A #001,xu,<51>Teknetinium,0,0,0,32.25,2.25,0,0,NaN,NaN,0,0,NaN,0.999981761,0.001745299,-0.00577361,0,31.62644625,31.62644625,,,41.63999987,30,0.121370434,0.242488525
2018-07-19T08:07:07Z,1531987627,10C,38.9494953,45.079963,32.25,0.1,-0.3,65.5,368739.22,10964.24,61.3,Air+FixedWing,Red,Allies,J-11A,Red J-11A #001,xu,<51>Teknetinium,0,0,0,32.25,2.25,0,0,NaN,NaN,0,0,NaN,0.999981344,0.001745299,-0.00584184,0,31.62644625,31.62644625,,,42.63999987,30,0.121370434,0.242488525
2018-07-19T08:07:08Z,1531987628,10C,38.9494953,45.079963,32.25,0.1,-0.3,65.5,368739.22,10964.24,61.3,Air+FixedWing,Red,Allies,J-11A,Red J-11A #001,xu,<51>Teknetinium,0,0,0,32.25,2.25,0,0,NaN,NaN,0,0,NaN,0.999980986,0.001745298,-0.005910068,0,31.62644625,31.62644625,,,43.63999987,30,0.121370434,0.242488525
2018-07-19T08:07:09Z,1531987629,10C,38.9494953,45.079963,32.25,0.1,-0.3,65.5,368739.22,10964.24,61.3,Air+FixedWing,Red,Allies,J-11A,Red J-11A #001,xu,<51>Teknetinium,0,0,0,32.25,2.25,0,0,NaN,NaN,0,0,NaN,0.999980569,0.001745297,-0.005978297,0,31.62644625,31.62644625,,,44.63999987,30,0.121370434,0.242488525
2018-07-19T08:07:10Z,1531987630,10C,38.9494953,45.079963,32.25,0.1,-0.3,65.5,368739.22,10964.24,61.3,Air+FixedWing,Red,Allies,J-11A,Red J-11A #001,xu,<51>Teknetinium,0,0,0,32.25,2.25,0,0,NaN,NaN,0,0.00989117,NaN,0.999980092,0.001745296,-0.006046527,0,31.62644625,31.62644625,,,45.63999987,30,0.121370434,0.242488525
2018-07-19T08:07:11Z,1531987631,10C,38.9494953,45.079963,32.25,0.1,-0.4,65.5,368739.22,10964.24,61.3,Air+FixedWing,Red,Allies,J-11A,Red J-11A #001,xu,<51>Teknetinium,0,0,0,32.25,2.25,0,0,NaN,NaN,0,0.00989117,NaN,0.999979675,0.001745296,-0.006114755,0,31.62644625,31.62644625,,,46.63999987,30,0.121370434,0.242488525
2018-07-19T08:07:12Z,1531987632,10C,38.9494953,45.079963,32.25,0.1,-0.4,65.5,368739.22,10964.24,61.3,Air+FixedWing,Red,Allies,J-11A,Red J-11A #001,xu,<51>Teknetinium,0,0,0,32.25,2.25,0,0,NaN,NaN,0,0.013988227,NaN,0.999979258,0.001745295,-0.006182984,0,31.62644625,31.62644625,,,47.63999987,30,0.121370434,0.242488525
2018-07-19T08:07:13Z,1531987633,10C,38.9494953,45.079963,32.25,0.1,-0.4,65.5,368739.22,10964.24,61.3,Air+FixedWing,Red,Allies,J-11A,Red J-11A #001,xu,<51>Teknetinium,0,0,0,32.25,2.25,0,0,NaN,NaN,0,0,NaN,0.9999789,0.001745294,-0.006251214,0,31.62644625,31.62644625,,,48.63999987,30,0.121370434,0.242488525
2018-07-19T08:07:14Z,1531987634,10C,38.9494953,45.079963,32.25,0.1,-0.4,65.5,368739.22,10964.24,61.3,Air+FixedWing,Red,Allies,J-11A,Red J-11A #001,xu,<51>Teknetinium,0,0,0,32.25,2.25,0,0,NaN,NaN,0,0.00989117,NaN,0.999978483,0.001745294,-0.006319442,0,31.62644625,31.62644625,,,49.63999987,30,0.121370434,0.242488525
2018-07-19T08:07:15Z,1531987635,10C,38.9494953,45.079963,32.25,0.1,-0.4,65.5,368739.22,10964.24,61.3,Air+FixedWing,Red,Allies,J-11A,Red J-11A #001,xu,<51>Teknetinium,0,0,0,32.25,2.25,0,0,NaN,NaN,0,0,NaN,0.999978066,0.001745293,-0.006387671,0,31.62644625,31.62644625,,,50.63999987,30,0.121370434,0.242488525
2018-07-19T08:07:16Z,1531987636,10C,38.9494953,45.079963,32.25,0.1,-0.4,65.5,368739.22,10964.24,61.3,Air+FixedWing,Red,Allies,J-11A,Red J-11A #001,xu,<51>Teknetinium,0,0,0,32.25,2.25,0,0,NaN,NaN,0,0.013988227,NaN,0.999977589,0.001745292,-0.0064559,0,31.62644625,31.62644625,,,51.63999987,30,0.121370434,0.242488525
2018-07-19T08:07:17Z,1531987637,10C,38.9494953,45.079963,32.25,0.1,-0.4,65.5,368739.22,10964.24,61.3,Air+FixedWing,Red,Allies,J-11A,Red J-11A #001,xu,<51>Teknetinium,0,0,0,32.25,2.25,0,0,NaN,NaN,0,0,NaN,0.999977112,0.001745291,-0.006524129,0,31.62644625,31.62644625,,,52.63999987,30,0.121370434,0.242488525
2018-07-19T08:07:18Z,1531987638,10C,38.9494953,45.079963,32.25,0.1,-0.4,65.5,368739.22,10964.24,61.3,Air+FixedWing,Red,Allies,J-11A,Red J-11A #001,xu,<51>Teknetinium,0,0,0,32.25,2.25,0,0,NaN,NaN,0,0,NaN,0.999976635,0.00174529,-0.006592357,0,31.62644625,31.62644625,,,53.63999987,30,0.121370434,0.242488525
2018-07-19T08:07:19Z,1531987639,10C,38.9494953,45.079963,32.25,0.1,-0.4,65.5,368739.22,10964.24,61.3,Air+FixedWing,Red,Allies,J-11A,Red J-11A #001,xu,<51>Teknetinium,0,0,0,32.25,2.25,0,0,NaN,NaN,0,0,NaN,0.999976218,0.00174529,-0.006660586,0,31.62644625,31.62644625,,,54.63999987,30,0.121370434,0.242488525
2018-07-19T08:07:20Z,1531987640,10C,38.9494953,45.079963,32.25,0.1,-0.4,65.5,368739.22,10964.24,61.3,Air+FixedWing,Red,Allies,J-11A,Red J-11A #001,xu,<51>Teknetinium,0,0,0,32.25,2.25,0,0,NaN,NaN,0,0,NaN,0.999975741,0.001745289,-0.006728815,0,31.62644625,31.62644625,,,55.63999987,30,0.121370434,0.242488525
2018-07-19T08:07:21Z,1531987641,10C,38.9494953,45.079963,32.25,0.1,-0.4,65.5,368739.22,10964.24,61.3,Air+FixedWing,Red,Allies,J-11A,Red J-11A #001,xu,<51>Teknetinium,0,0,0,32.25,2.25,0,0,NaN,NaN,0,0,NaN,0.999975324,0.001745288,-0.006797044,0,31.62644625,31.62644625,,,56.63999987,30,0.121370434,0.242488525
2018-07-19T08:07:22Z,1531987642,10C,38.9494953,45.079963,32.25,0.1,-0.4,65.5,368739.22,10964.24,61.3,Air+FixedWing,Red,Allies,J-11A,Red J-11A #001,xu,<51>Teknetinium,0,0,0,32.25,2.25,0,0,NaN,NaN,0,0,NaN,0.999974847,0.001745287,-0.006865272,0,31.62644625,31.62644625,,,57.63999987,30,0.121370434,0.242488525
2018-07-19T08:07:23Z,1531987643,10C,38.9494953,45.079963,32.25,0.1,-0.4,65.5,368739.22,10964.24,61.3,Air+FixedWing,Red,Allies,J-11A,Red J-11A #001,xu,<51>Teknetinium,0,0,0,32.25,2.25,0,0,NaN,NaN,0,0,NaN,0.99997437,0.001745286,-0.006933501,0,31.62644625,31.62644625,,,58.63999987,30,0.121370434,0.242488525
2018-07-19T08:07:24Z,1531987644,10C,38.9494953,45.079963,32.25,0,-0.4,65.5,368739.22,10964.24,61.3,Air+FixedWing,Red,Allies,J-11A,Red J-11A #001,xu,<51>Teknetinium,0,0,0,32.25,2.25,0,0,NaN,NaN,0.199987939,0.048456647,NaN,0.999980509,0,-0.006233325,0,31.62644625,31.62644625,,,59.63999987,30,0.121370434,0.242488525
2018-07-19T08:07:25Z,1531987645,10C,38.9494953,45.079963,32.25,0.1,-0.3,65.5,368739.22,10964.24,61.3,Air+FixedWing,Red,Allies,J-11A,Red J-11A #001,xu,<51>Teknetinium,0,0,0,32.25,2.25,0,0,NaN,NaN,0.080645177,0.05417618,NaN,0.999985456,0.001238603,-0.005235964,0,31.62644625,31.62644625,,,60.63999987,30,0.121370434,0.242488525
2018-07-19T08:07:26Z,1531987646,10C,38.9494953,45.079963,32.25,0.1,-0.3,65.5,368739.22,10964.24,61.3,Air+FixedWing,Red,Allies,J-11A,Red J-11A #001,xu,<51>Teknetinium,0,0,0,32.25,2.25,0,0,NaN,NaN,0,0.041964686,NaN,0.999988616,0.001745311,-0.004426594,0,31.62644625,31.62644625,,,61.63999987,30,0.121370434,0.242488525
2018-07-19T08:07:27Z,1531987647,10C,38.9494953,45.079963,32.25,0.1,-0.3,65.5,368739.22,10964.24,61.3,Air+FixedWing,Red,Allies,J-11A,Red J-11A #001,xu,<51>Teknetinium,0,0,0,32.25,2.25,0,0,NaN,NaN,0,0,NaN,0.999984682,0.001745304,-0.005235964,0,31.62644625,31.62644625,,,62.63999987,30,0.121370434,0.242488525
2018-07-19T08:07:28Z,1531987648,10C,38.9494953,45.079963,32.25,0,-0.3,65.5,368739.22,10964.24,61.3,Air+FixedWing,Red,Allies,J-11A,Red J-11A #001,xu,<51>Teknetinium,0,0,0,32.25,2.25,0,0,NaN,NaN,0.076923011,0.041964686,NaN,0.999093601,0.000670672,-0.005231292,0,31.62644625,31.62644625,,,63.63999987,30,0.121370434,0.242488525
2018-07-19T08:07:29Z,1531987649,10C,38.9494953,45.079963,32.24,0.1,-0.3,65.5,368739.22,10964.24,61.3,Air+FixedWing,Red,Allies,J-11A,Red J-11A #001,xu,<51>Teknetinium,0.008750916,0,2.57e-05,32.24124908,2.241249084,0,-0.008750916,NaN,NaN,0,0,NaN,1.001769344,0.001748419,-0.005245309,3.83e-06,31.61786453,31.61786836,,,64.63999987,30,0.121370434,0.251239441
2018-07-19T08:07:30Z,1531987650,10C,38.9494953,45.079963,32.25,0.1,-0.3,65.5,368739.22,10964.24,61.3,Air+FixedWing,Red,Allies,J-11A,Red J-11A #001,xu,<51>Teknetinium,0.008750916,0,2.57e-05,32.25,2.25,0,0.008750916,NaN,NaN,0.029779625,0,NaN,0.999092827,0.001432383,-0.005231292,3.83e-06,31.62644625,31.62645008,,,65.63999987,30,0.121370434,0.259990357
2018-07-19T08:07:31Z,1531987651,10C,38.9494953,45.079963,32.25,0.1,-0.3,65.5,368739.22,10964.24,61.3,Air+FixedWing,Red,Allies,J-11A,Red J-11A #001,xu,<51>Teknetinium,0,0,0,32.25,2.25,0,0,NaN,NaN,0.029779625,0,NaN,0.999985814,0.000914258,-0.005235964,0,31.62644625,31.62644625,,,66.63999987,30,0.121370434,0.259990357
2018-07-19T08:07:32Z,1531987652,10C,38.9494953,45.079963,32.25,0,-0.3,65.5,368739.22,10964.24,61.3,Air+FixedWing,Red,Allies,J-11A,Red J-11A #001,xu,<51>Teknetinium,0,0,0,32.25,2.25,0,0,NaN,NaN,0.029779625,0,NaN,0.999986172,0.000394853,-0.005235964,0,31.62644625,31.62644625,,,67.63999987,30,0.121370434,0.259990357
2018-07-19T08:07:33Z,1531987653,10C,38.9494953,45.079963,32.25,0.1,-0.3,65.5,368739.22,10964.24,61.3,Air+FixedWing,Red,Allies,J-11A,Red J-11A #001,xu,<51>Teknetinium,0,0,0,32.25,2.25,0,0,NaN,NaN,0.110828437,0,NaN,0.999985576,0.001102298,-0.005235964,0,31.62644625,31.62644625,,,68.63999987,30,0.121370434,0.259990357
2018-07-19T08:07:34Z,1531987654,10C,38.9494953,45.079963,32.25,0.1,-0.3,65.5,368739.22,10964.24,61.3,Air+FixedWing,Red,Allies,J-11A,Red J-11A #001,xu,<51>Teknetinium,0,0,0,32.25,2.25,0,0,NaN,NaN,0.042372893,0,NaN,0.99998337,0.002381304,-0.005235964,0,31.62644625,31.62644625,,,69.63999987,30,0.121370434,0.259990357
2018-07-19T08:07:35Z,1531987655,10C,38.9494953,45.079963,32.25,0.2,-0.3,65.5,368739.22,10964.24,61.3,Air+FixedWing,Red,Allies,J-11A,Red J-11A #001,xu,<51>Teknetinium,0,0,0,32.25,2.25,0,0,NaN,NaN,0.042372893,0,NaN,0.999981344,0.003120838,-0.005235964,0,31.62644625,31.62644625,,,70.63999987,30,0.121370434,0.259990357
2018-07-19T08:07:36Z,1531987656,10C,38.9494953,45.079963,32.25,0.2,-0.3,65.5,368739.22,10964.24,61.3,Air+FixedWing,Red,Allies,J-11A,Red J-11A #001,xu,<51>Teknetinium,0,0,0,32.25,2.25,0,0,NaN,NaN,0.040009647,0,NaN,0.999978781,0.003839746,-0.005235964,0,31.62644625,31.62644625,,,71.63999987,30,0.121370434,0.259990357
2018-07-19T08:07:37Z,1531987657,10C,38.9494952,45.079963,32.25,0.2,-0.3,65.5,368739.22,10964.24,61.3,Air+FixedWing,Red,Allies,J-11A,Red J-11A #001,xu,<51>Teknetinium,0,0,0,32.25,2.25,0,0,NaN,NaN,0,0,NaN,0.999980033,0.003490604,-0.005235964,0,31.62644625,31.62644625,,,72.63999987,30,0.126046924,0.264666871
2018-07-19T08:07:38Z,1531987658,10C,38.9494952,45.079963,32.25,0.1,-0.3,65.5,368739.22,10964.24,61.3,Air+FixedWing,Red,Allies,J-11A,Red J-11A #001,xu,<51>Teknetinium,0,0,0,32.25,2.25,0,0,NaN,NaN,0.109064461,0,NaN,0.998963037,0.002536091,-0.005230624,0,31.62644625,31.62644625,,,73.63999987,30,0.129230917,0.26785088
2018-07-19T08:07:39Z,1531987659,10C,38.9494952,45.079963,32.24,0,-0.2,65.5,368739.22,10964.24,61.3,Air+FixedWing,Red,Allies,J-11A,Red J-11A #001,xu,<51>Teknetinium,0.010002136,0,2.94e-05,32.23999786,2.239997864,0,-0.010002136,NaN,NaN,0.159990351,0,NaN,1.001013609,0.000349419,-0.003494212,5e-06,31.61663751,31.61664251,,,74.63999987,30,0.129230917,0.277853016
2018-07-19T08:07:40Z,1531987660,10C,38.9494953,45.079963,32.24,0.1,-0.2,65.5,368739.22,10964.24,61.3,Air+FixedWing,Red,Allies,J-11A,Red J-11A #001,xu,<51>Teknetinium,0,0,0,32.23999786,2.239997864,0,0,NaN,NaN,0,0.050435277,NaN,0.999992251,0.001745318,-0.003490652,0,31.61663751,31.61663751,,,75.63999987,30,0.134248245,0.28287037
2018-07-19T08:07:41Z,1531987661,10C,38.9494953,45.0799629,32.24,0.1,-0.2,65.5,368739.22,10964.24,61.3,Air+FixedWing,Red,Allies,J-11A,Red J-11A #001,xu,<51>Teknetinium,0,0,0,32.23999786,2.239997864,0,0,NaN,NaN,0,0.047436394,NaN,0.999992193,0.001395926,-0.003681936,0,31.61663751,31.61663751,,,76.63999987,30,0.141069987,0.289692145
2018-07-19T08:07:42Z,1531987662,10C,38.9494952,45.0799629,32.24,0.1,-0.2,65.5,368739.22,10964.24,61.3,Air+FixedWing,Red,Allies,J-11A,Red J-11A #001,xu,<51>Teknetinium,0.00390625,0,1.15e-05,32.23999786,2.239997864,0.00390625,0,NaN,NaN,0,0,NaN,0.999992454,0.002968187,-0.002821156,7.63e-07,31.61663751,31.61663827,,,77.63999987,30,0.150349063,0.298971269
2018-07-19T08:07:43Z,1531987663,10C,38.9494952,45.079963,32.24,0,-0.2,65.5,368739.22,10964.25,61.3,Air+FixedWing,Red,Allies,J-11A,Red J-11A #001,xu,<51>Teknetinium,0.009765625,0,2.87e-05,32.23999786,2.239997864,0.009765625,0,NaN,NaN,0.07617832,0,NaN,0.999991821,-0.000732682,-0.00425579,4.77e-06,31.61663751,31.61664227,,,78.63999987,30,0.161481012,0.310103273
2018-07-19T08:07:44Z,1531987664,10C,38.9494953,45.079963,32.24,0.1,-0.2,65.5,368739.22,10964.24,61.3,Air+FixedWing,Red,Allies,J-11A,Red J-11A #001,xu,<51>Teknetinium,0.005859375,0,1.72e-05,32.23999786,2.239997864,0.005859375,0,NaN,NaN,0,0,NaN,0.999992338,0.002269405,-0.003203725,1.72e-06,31.61663751,31.61663922,,,79.63999987,30,0.167586922,0.316209214
2018-07-19T08:07:45Z,1531987665,10C,38.9494953,45.079963,32.24,0,-0.2,65.5,368739.22,10964.24,61.3,Air+FixedWing,Red,Allies,J-11A,Red J-11A #001,xu,<51>Teknetinium,0,0,0,32.23999786,2.239997864,0,0,NaN,NaN,0.161902804,0,NaN,0.999993742,0,-0.003490652,0,31.61663751,31.61663751,,,80.63999987,30,0.169341495,0.317963796
2018-07-19T08:07:46Z,1531987666,10C,38.9494952,45.079963,32.24,0,-0.2,65.5,368739.22,10964.24,61.3,Air+FixedWing,Red,Allies,J-11A,Red J-11A #001,xu,<51>Teknetinium,0,0,0,32.23999786,2.239997864,0,0,NaN,NaN,0.099556837,0,NaN,0.999993443,0.000793326,-0.003490652,0,31.61663751,31.61663751,,,81.63999987,30,0.177201978,0.325824318
2018-07-19T08:07:47Z,1531987667,10C,38.9494953,45.079963,32.24,0.1,-0.2,65.5,368739.22,10964.24,61.3,Air+FixedWing,Red,Allies,J-11A,Red J-11A #001,xu,<51>Teknetinium,0,0,0,32.23999786,2.239997864,0,0,NaN,NaN,0,0,NaN,0.99999215,0.001133883,-0.0038254,0,31.61663751,31.61663751,,,82.63999987,30,0.181538797,0.330161159
2018-07-19T08:07:48Z,1531987668,10C,38.9494953,45.0799629,32.24,0.2,-0.2,65.5,368739.22,10964.23,61.3,Air+FixedWing,Red,Allies,J-11A,Red J-11A #001,xu,<51>Teknetinium,0.006835938,0,2.01e-05,32.23999786,2.239997864,0.006835938,0,NaN,NaN,0.14286065,0,NaN,0.999988009,0.00421487,-0.002821156,2.34e-06,31.61663751,31.61663984,,,83.63999987,30,0.193215119,0.34183754
2018-07-19T08:07:49Z,1531987669,10C,38.9494952,45.079963,32.24,0.1,-0.2,65.5,368739.22,10964.24,61.3,Air+FixedWing,Red,Allies,J-11A,Red J-11A #001,xu,<51>Teknetinium,0.006835938,0,2.01e-05,32.23999786,2.239997864,0.006835938,0,NaN,NaN,0,0,NaN,0.99999215,0.001133883,-0.0038254,2.34e-06,31.61663751,31.61663984,,,84.63999987,30,0.20640481,0.355027296
2018-07-19T08:07:50Z,1531987670,10C,38.9494953,45.079963,32.24,0.1,-0.2,65.5,368739.22,10964.24,61.3,Air+FixedWing,Red,Allies,J-11A,Red J-11A #001,xu,<51>Teknetinium,0,0,0,32.23999786,2.239997864,0,0,NaN,NaN,0,0,NaN,0.999992251,0.001745318,-0.003490652,0,31.61663751,31.61663751,,,85.63999987,30,0.211022847,0.359645357
2018-07-19T08:07:51Z,1531987671,10C,38.9494952,45.079963,32.24,0.1,-0.2,65.5,368739.22,10964.24,61.3,Air+FixedWing,Red,Allies,J-11A,Red J-11A #001,xu,<51>Teknetinium,0,0,0,32.23999786,2.239997864,0,0,NaN,NaN,0.072212882,0,NaN,0.999993205,0.001018102,-0.003490652,0,31.61663751,31.61663751,,,86.63999987,30,0.216426931,0.365049468
2018-07-19T08:07:52Z,1531987672,10C,38.9494952,45.079963,32.24,0,-0.2,65.5,368739.22,10964.24,61.3,Air+FixedWing,Red,Allies,J-11A,Red J-11A #001,xu,<51>Teknetinium,0,0,0,32.23999786,2.239997864,0,0,NaN,NaN,0.097699026,0,NaN,0.999993742,0.000290886,-0.003490652,0,31.61663751,31.61663751,,,87.63999987,30,0.216426931,0.365049468
2018-07-19T08:07:53Z,1531987673,10C,38.9494952,45.079963,32.24,0,-0.2,65.5,368739.22,10964.24,61.3,Air+FixedWing,Red,Allies,J-11A,Red J-11A #001,xu,<51>Teknetinium,0,0,0,32.23999786,2.239997864,0,0,NaN,NaN,0.128735405,0,NaN,0.999993682,0.000379417,-0.003490652,0,31.61663751,31.61663751,,,88.63999987,30,0.216426931,0.365049468
2018-07-19T08:07:54Z,1531987674,10C,38.9494952,45.079963,32.24,0.1,-0.2,65.5,368739.22,10964.24,61.3,Air+FixedWing,Red,Allies,J-11A,Red J-11A #001,xu,<51>Teknetinium,0,0,0,32.23999786,2.239997864,0,0,NaN,NaN,0.023605134,0,NaN,0.999992669,0.00148189,-0.003490652,0,31.61663751,31.61663751,,,89.63999987,30,0.216426931,0.365049468
2018-07-19T08:07:55Z,1531987675,10C,38.9494952,45.079963,32.24,0.1,-0.2,65.5,368739.22,10964.24,61.3,Air+FixedWing,Red,Allies,J-11A,Red J-11A #001,xu,<51>Teknetinium,0,0,0,32.23999786,2.239997864,0,0,NaN,NaN,0.023605134,0,NaN,0.999993205,0.001070283,-0.003490652,0,31.61663751,31.61663751,,,90.63999987,30,0.216426931,0.365049468
2018-07-19T08:07:56Z,1531987676,10C,38.9494952,45.079963,32.24,0,-0.2,65.5,368739.22,10964.24,61.3,Air+FixedWing,Red,Allies,J-11A,Red J-11A #001,xu,<51>Teknetinium,0,0,0,32.23999786,2.239997864,0,0,NaN,NaN,0.023605134,0,NaN,0.999993503,0.000658676,-0.003490652,0,31.61663751,31.61663751,,,91.63999987,30,0.216426931,0.365049468
2018-07-19T08:07:57Z,1531987677,10C,38.9494952,45.079963,32.24,0,-0.2,65.5,368739.22,10964.24,61.3,Air+FixedWing,Red,Allies,J-11A,Red J-11A #001,xu,<51>Teknetinium,0,0,0,32.23999786,2.239997864,0,0,NaN,NaN,0.023605134,0,NaN,0.999993682,0.000247069,-0.003490652,0,31.61663751,31.61663751,,,92.63999987,30,0.216426931,0.365049468
2018-07-19T08:07:58Z,1531987678,10C,38.9494952,45.079963,32.24,0,-0.2,65.6,368739.22,10964.24,61.3,Air+FixedWing,Red,Allies,J-11A,Red J-11A #001,xu,<51>Teknetinium,0,0,0,32.23999786,2.239997864,0,0,NaN,NaN,0.014329737,0,NaN,0.999993742,0.000166316,-0.003490652,0,31.61663751,31.61663751,,,93.63999987,30,0.216426931,0.365049468
2018-07-19T08:07:59Z,1531987679,10C,38.9494952,45.079963,32.24,0.1,-0.2,65.6,368739.22,10964.24,61.3,Air+FixedWing,Red,Allies,J-11A,Red J-11A #001,xu,<51>Teknetinium,0,0,0,32.23999786,2.239997864,0,0,NaN,NaN,0.084745766,0,NaN,0.999992669,0.001449501,-0.003490652,0,31.61663751,31.61663751,,,94.63999987,30,0.216426931,0.365049468
2018-07-19T08:08:00Z,1531987680,10C,38.9494952,45.079963,32.24,0,-0.2,65.6,368739.22,10964.24,61.3,Air+FixedWing,Red,Allies,J-11A,Red J-11A #001,xu,<51>Teknetinium,0,0,0,32.23999786,2.239997864,0,0,NaN,NaN,0.054805438,0,NaN,0.999993742,0.000219998,-0.003490652,0,31.61663751,31.61663751,,,95.63999987,30,0.216426931,0.365049468
2018-07-19T08:08:01Z,1531987681,10C,38.9494952,45.079963,32.24,0.1,-0.2,65.6,368739.22,10964.24,61.3,Air+FixedWing,Red,Allies,J-11A,Red J-11A #001,xu,<51>Teknetinium,0,0,0,32.23999786,2.239997864,0,0,NaN,NaN,0.042016809,0,NaN,0.999993265,0.000953325,-0.003490652,0,31.61663751,31.61663751,,,96.63999987,30,0.216426931,0.365049468
2018-07-19T08:08:02Z,1531987682,10C,38.9494952,45.079963,32.24,0.1,-0.2,65.6,368739.22,10964.24,61.3,Air+FixedWing,Red,Allies,J-11A,Red J-11A #001,xu,<51>Teknetinium,0,0,0,32.23999786,2.239997864,0,0,NaN,NaN,0.042016802,0,NaN,0.999992311,0.001686652,-0.003490652,0,31.61663751,31.61663751,,,97.63999987,30,0.216426931,0.365049468
2018-07-19T08:08:03Z,1531987683,10C,38.9494952,45.079963,32.24,0,-0.2,65.6,368739.22,10964.24,61.3,Air+FixedWing,Red,Allies,J-11A,Red J-11A #001,xu,<51>Teknetinium,0,0,0,32.23999786,2.239997864,0,0,NaN,NaN,0.060979929,0,NaN,0.999993443,0.000766296,-0.003490652,0,31.61663751,31.61663751,,,98.63999987,30,0.216426931,0.365049468
2018-07-19T08:08:04Z,1531987684,10C,38.9494952,45.079963,32.24,0,-0.2,65.6,368739.22,10964.24,61.3,Air+FixedWing,Red,Allies,J-11A,Red J-11A #001,xu,<51>Teknetinium,0,0,0,32.23999786,2.239997864,0,0,NaN,NaN,0.015584521,0,NaN,0.999993682,0.000370219,-0.003490652,0,31.61663751,31.61663751,,,99.63999987,30,0.216426931,0.365049468
2018-07-19T08:08:05Z,1531987685,10C,38.9494952,45.079963,32.24,0.1,-0.2,65.6,368739.22,10964.24,61.3,Air+FixedWing,Red,Allies,J-11A,Red J-11A #001,xu,<51>Teknetinium,0,0,0,32.23999786,2.239997864,0,0,NaN,NaN,0.075757577,0,NaN,0.999992371,0.001692429,-0.003490652,0,31.61663751,31.61663751,,,100.6399999,30,0.216426931,0.365049468
2018-07-19T08:08:06Z,1531987686,10C,38.9494952,45.079963,32.24,0,-0.2,65.6,368739.22,10964.24,61.3,Air+FixedWing,Red,Allies,J-11A,Red J-11A #001,xu,<51>Teknetinium,0,0,0,32.23999786,2.239997864,0,0,NaN,NaN,0.060606056,0,NaN,0.999993443,0.000793327,-0.003490652,0,31.61663751,31.61663751,,,101.6399999,30,0.216426931,0.365049468
2018-07-19T08:08:07Z,1531987687,10C,38.9494952,45.079963,32.24,0.1,-0.2,65.6,368739.22,10964.24,61.3,Air+FixedWing,Red,Allies,J-11A,Red J-11A #001,xu,<51>Teknetinium,0,0,0,32.23999786,2.239997864,0,0,NaN,NaN,0.046773135,0,NaN,0.999993384,0.000914265,-0.003490652,0,31.61663751,31.61663751,,,102.6399999,30,0.216426931,0.365049468
2018-07-19T08:08:08Z,1531987688,10C,38.9494952,45.079963,32.24,0.1,-0.2,65.6,368739.22,10964.24,61.3,Air+FixedWing,Red,Allies,J-11A,Red J-11A #001,xu,<51>Teknetinium,0,0,0,32.23999786,2.239997864,0,0,NaN,NaN,0.078740162,0,NaN,0.999993026,0.001223097,-0.003490652,0,31.61663751,31.61663751,,,103.6399999,30,0.216426931,0.365049468
2018-07-19T08:08:09Z,1531987689,10C,38.9494952,45.079963,32.24,0.1,-0.2,65.6,368739.22,10964.24,61.3,Air+FixedWing,Red,Allies,J-11A,Red J-11A #001,xu,<51>Teknetinium,0,0,0,32.23999786,2.239997864,0,0,NaN,NaN,0.023495851,0,NaN,0.999992609,0.00149132,-0.003490652,0,31.61663751,31.61663751,,,104.6399999,30,0.216426931,0.365049468
2018-07-19T08:08:10Z,1531987690,10C,38.9494952,45.079963,32.24,0.1,-0.2,65.6,368739.22,10964.24,61.3,Air+FixedWing,Red,Allies,J-11A,Red J-11A #001,xu,<51>Teknetinium,0,0,0,32.23999786,2.239997864,0,0,NaN,NaN,0.023495851,0,NaN,0.999993205,0.001081646,-0.003490652,0,31.61663751,31.61663751,,,105.6399999,30,0.216426931,0.365049468
2018-07-19T08:08:11Z,1531987691,10C,38.9494952,45.079963,32.24,0,-0.2,65.6,368739.22,10964.24,61.3,Air+FixedWing,Red,Allies,J-11A,Red J-11A #001,xu,<51>Teknetinium,0,0,0,32.23999786,2.239997864,0,0,NaN,NaN,0.023495851,0,NaN,0.999993563,0.000671971,-0.003490652,0,31.61663751,31.61663751,,,106.6399999,30,0.216426931,0.365049468
2018-07-19T08:08:12Z,1531987692,10C,38.9494952,45.079963,32.24,0,-0.2,65.6,368739.22,10964.24,61.3,Air+FixedWing,Red,Allies,J-11A,Red J-11A #001,xu,<51>Teknetinium,0,0,0,32.23999786,2.239997864,0,0,NaN,NaN,0.023495851,0,NaN,0.999993801,0.000262297,-0.003490652,0,31.61663751,31.61663751,,,107.6399999,30,0.216426931,0.365049468
2018-07-19T08:08:13Z,1531987693,10C,38.9494952,45.079963,32.24,0.1,-0.2,65.6,368739.22,10964.24,61.3,Air+FixedWing,Red,Allies,J-11A,Red J-11A #001,xu,<51>Teknetinium,0,0,0,32.23999786,2.239997864,0,0,NaN,NaN,0.193415563,0.013988227,NaN,0.999992251,0.001745318,-0.003490652,0,31.61663751,31.61663751,,,108.6399999,30,0.216426931,0.365049468
2018-07-19T08:08:14Z,1531987694,10C,38.9494952,45.079963,32.24,0.1,-0.2,65.6,368739.22,10964.24,61.3,Air+FixedWing,Red,Allies,J-11A,Red J-11A #001,xu,<51>Teknetinium,0,0,0,32.23999786,2.239997864,0,0,NaN,NaN,0,0.013988227,NaN,0.999992251,0.001745318,-0.003490652,0,31.61663751,31.61663751,,,109.6399999,30,0.216426931,0.365049468
2018-07-19T08:08:15Z,1531987695,10C,38.9494952,45.079963,32.24,0.1,-0.2,65.6,368739.22,10964.24,61.3,Air+FixedWing,Red,Allies,J-11A,Red J-11A #001,xu,<51>Teknetinium,0,0,0,32.23999786,2.239997864,0,0,NaN,NaN,0,0.019782341,NaN,0.999992251,0.001745318,-0.003490652,0,31.61663751,31.61663751,,,110.6399999,30,0.216426931,0.365049468
2018-07-19T08:08:16Z,1531987696,10C,38.9494952,45.079963,32.24,0.1,-0.2,65.6,368739.22,10964.24,61.3,Air+FixedWing,Red,Allies,J-11A,Red J-11A #001,xu,<51>Teknetinium,0,0,0,32.23999786,2.239997864,0,0,NaN,NaN,0,0.01713201,NaN,0.999992251,0.001745318,-0.003490652,0,31.61663751,31.61663751,,,111.6399999,30,0.216426931,0.365049468
2018-07-19T08:08:17Z,1531987697,10C,38.9494952,45.079963,32.24,0.1,-0.2,65.6,368739.22,10964.24,61.4,Air+FixedWing,Red,Allies,J-11A,Red J-11A #001,xu,<51>Teknetinium,0,0,0,32.23999786,2.239997864,0,0,NaN,NaN,0,0.019782341,NaN,0.999992251,0.001745318,-0.003490652,0,31.61663751,31.61663751,,,112.6399999,30,0.216426931,0.365049468
2018-07-19T08:08:18Z,1531987698,10C,38.9494952,45.079963,32.24,0.1,-0.2,65.6,368739.22,10964.24,61.4,Air+FixedWing,Red,Allies,J-11A,Red J-11A #001,xu,<51>Teknetinium,0,0,0,32.23999786,2.239997864,0,0,NaN,NaN,0,0.019782341,NaN,0.999992251,0.001745318,-0.003490652,0,31.61663751,31.61663751,,,113.6399999,30,0.216426931,0.365049468
2018-07-19T08:08:19Z,1531987699,10C,38.9494952,45.079963,32.24,0.1,-0.2,65.6,368739.22,10964.24,61.4,Air+FixedWing,Red,Allies,J-11A,Red J-11A #001,xu,<51>Teknetinium,0,0,0,32.23999786,2.239997864,0,0,NaN,NaN,0,0.019782341,NaN,0.999992251,0.001745318,-0.003490652,0,31.61663751,31.61663751,,,114.6399999,30,0.216426931,0.365049468
2018-07-19T08:08:20Z,1531987700,10C,38.9494952,45.079963,32.24,0.1,-0.2,65.6,368739.22,10964.24,61.4,Air+FixedWing,Red,Allies,J-11A,Red J-11A #001,xu,<51>Teknetinium,0,0,0,32.23999786,2.239997864,0,0,NaN,NaN,0,0.02211733,NaN,0.999992251,0.001745318,-0.003490652,0,31.61663751,31.61663751,,,115.6399999,30,0.216426931,0.365049468
2018-07-19T08:08:21Z,1531987701,10C,38.9494952,45.079963,32.24,0.1,-0.2,65.6,368739.22,10964.24,61.4,Air+FixedWing,Red,Allies,J-11A,Red J-11A #001,xu,<51>Teknetinium,0,0,0,32.23999786,2.239997864,0,0,NaN,NaN,0,0.013988227,NaN,0.999992251,0.001745318,-0.003490652,0,31.61663751,31.61663751,,,116.6399999,30,0.216426931,0.365049468
2018-07-19T08:08:22Z,1531987702,10C,38.9494952,45.079963,32.24,0,-0.2,65.6,368739.22,10964.24,61.4,Air+FixedWing,Red,Allies,J-11A,Red J-11A #001,xu,<51>Teknetinium,0,0,0,32.23999786,2.239997864,0,0,NaN,NaN,0.060597438,0.013988227,NaN,0.999993443,0.000782807,-0.003490652,0,31.61663751,31.61663751,,,117.6399999,30,0.216426931,0.365049468
2018-07-19T08:08:23Z,1531987703,10C,38.9494952,45.079963,32.24,0.1,-0.2,65.6,368739.22,10964.24,61.4,Air+FixedWing,Red,Allies,J-11A,Red J-11A #001,xu,<51>Teknetinium,0,0,0,32.23999786,2.239997864,0,0,NaN,NaN,0.083942251,0.013988227,NaN,0.999993265,0.000986484,-0.003490652,0,31.61663751,31.61663751,,,118.6399999,30,0.216426931,0.365049468
2018-07-19T08:08:24Z,1531987704,10C,38.9494952,45.079963,32.24,0.1,-0.2,65.6,368739.22,10964.24,61.4,Air+FixedWing,Red,Allies,J-11A,Red J-11A #001,xu,<51>Teknetinium,0,0,0,32.23999786,2.239997864,0,0,NaN,NaN,0,0.040782342,NaN,0.999992251,0.001745318,-0.003490652,0,31.61663751,31.61663751,,,119.6399999,30,0.216426931,0.365049468
2018-07-19T08:08:25Z,1531987705,10C,38.9494952,45.079963,32.24,0.1,-0.2,65.6,368739.22,10964.24,61.3,Air+FixedWing,Red,Allies,J-11A,Red J-11A #001,xu,<51>Teknetinium,0,0,0,32.23999786,2.239997864,0,0,NaN,NaN,0.007977661,0.043114615,NaN,0.999992371,0.001675509,-0.003490652,0,31.61663751,31.61663751,,,120.6399999,30,0.216426931,0.365049468
2018-07-19T08:08:26Z,1531987706,10C,38.9494952,45.079963,32.24,0.1,-0.2,65.6,368739.22,10964.24,61.3,Air+FixedWing,Red,Allies,J-11A,Red J-11A #001,xu,<51>Teknetinium,0,0,0,32.23999786,2.239997864,0,0,NaN,NaN,0.039997588,0.019782341,NaN,0.999993265,0.000977425,-0.003490652,0,31.61663751,31.61663751,,,121.6399999,30,0.216426931,0.365049468
2018-07-19T08:08:27Z,1531987707,10C,38.9494952,45.079963,32.24,0,-0.2,65.6,368739.22,10964.24,61.3,Air+FixedWing,Red,Allies,J-11A,Red J-11A #001,xu,<51>Teknetinium,0,0,0,32.23999786,2.239997864,0,0,NaN,NaN,0.039997588,0,NaN,0.999993682,0.00027934,-0.003490652,0,31.61663751,31.61663751,,,122.6399999,30,0.216426931,0.365049468
2018-07-19T08:08:28Z,1531987708,10C,38.9494952,45.079963,32.24,0.1,-0.2,65.6,368739.22,10964.24,61.3,Air+FixedWing,Red,Allies,J-11A,Red J-11A #001,xu,<51>Teknetinium,0,0,0,32.23999786,2.239997864,0,0,NaN,NaN,0.161290355,0,NaN,0.999992371,0.001689017,-0.003490652,0,31.61663751,31.61663751,,,123.6399999,30,0.216426931,0.365049468
2018-07-19T08:08:29Z,1531987709,10C,38.9494952,45.079963,32.24,0,-0.2,65.6,368739.22,10964.24,61.3,Air+FixedWing,Red,Allies,J-11A,Red J-11A #001,xu,<51>Teknetinium,0,0,0,32.23999786,2.239997864,0,0,NaN,NaN,0.057155023,0,NaN,0.999993503,0.000767999,-0.003490652,0,31.61663751,31.61663751,,,124.6399999,30,0.216426931,0.365049468
2018-07-19T08:08:30Z,1531987710,10C,38.9494952,45.079963,32.24,0,-0.2,65.6,368739.22,10964.24,61.3,Air+FixedWing,Red,Allies,J-11A,Red J-11A #001,xu,<51>Teknetinium,0,0,0,32.23999786,2.239997864,0,0,NaN,NaN,0.008196227,0,NaN,0.999993801,0.000197745,-0.003490652,0,31.61663751,31.61663751,,,125.6399999,30,0.216426931,0.365049468
2018-07-19T08:08:31Z,1531987711,10C,38.9494952,45.079963,32.24,0.1,-0.2,65.6,368739.22,10964.24,61.3,Air+FixedWing,Red,Allies,J-11A,Red J-11A #001,xu,<51>Teknetinium,0,0,0,32.23999786,2.239997864,0,0,NaN,NaN,0.049261092,0,NaN,0.999993265,0.001057508,-0.003490652,0,31.61663751,31.61663751,,,126.6399999,30,0.216426931,0.365049468
2018-07-19T08:08:32Z,1531987712,10C,38.9494952,45.079963,32.24,0.1,-0.2,65.6,368739.22,10964.24,61.3,Air+FixedWing,Red,Allies,J-11A,Red J-11A #001,xu,<51>Teknetinium,0,0,0,32.23999786,2.239997864,0,0,NaN,NaN,0.006028642,0,NaN,0.999992549,0.001539999,-0.003490652,0,31.61663751,31.61663751,,,127.6399999,30,0.216426931,0.365049468
2018-07-19T08:08:33Z,1531987713,10C,38.9494952,45.079963,32.24,0,-0.2,65.6,368739.22,10964.24,61.3,Air+FixedWing,Red,Allies,J-11A,Red J-11A #001,xu,<51>Teknetinium,0,0,0,32.23999786,2.239997864,0,0,NaN,NaN,0.058794268,0,NaN,0.999993622,0.000513403,-0.003490652,0,31.61663751,31.61663751,,,128.6399999,30,0.216426931,0.365049468
2018-07-19T08:08:34Z,1531987714,10C,38.9494952,45.079963,32.24,0.1,-0.2,65.6,368739.22,10964.24,61.3,Air+FixedWing,Red,Allies,J-11A,Red J-11A #001,xu,<51>Teknetinium,0,0,0,32.23999786,2.239997864,0,0,NaN,NaN,0.119035563,0,NaN,0.999993265,0.00103888,-0.003490652,0,31.61663751,31.61663751,,,129.6399999,30,0.216426931,0.365049468
2018-07-19T08:08:35Z,1531987715,10C,38.9494952,45.079963,32.24,0,-0.2,65.6,368739.22,10964.24,61.3,Air+FixedWing,Red,Allies,J-11A,Red J-11A #001,xu,<51>Teknetinium,0,0,0,32.23999786,2.239997864,0,0,NaN,NaN,0.019397737,0,NaN,0.999993443,0.000754732,-0.003490652,0,31.61663751,31.61663751,,,130.6399999,30,0.216426931,0.365049468
2018-07-19T08:08:36Z,1531987716,10C,38.9494952,45.079963,32.24,0.1,-0.2,65.6,368739.22,10964.24,61.3,Air+FixedWing,Red,Allies,J-11A,Red J-11A #001,xu,<51>Teknetinium,0,0,0,32.23999786,2.239997864,0,0,NaN,NaN,0.032074568,0,NaN,0.999992788,0.001420887,-0.003490652,0,31.61663751,31.61663751,,,131.6399999,30,0.216426931,0.365049468
2018-07-19T08:08:37Z,1531987717,10C,38.9494952,45.079963,32.24,0,-0.2,65.6,368739.22,10964.24,61.3,Air+FixedWing,Red,Allies,J-11A,Red J-11A #001,xu,<51>Teknetinium,0,0,0,32.23999786,2.239997864,0,0,NaN,NaN,0.032074568,0,NaN,0.999993384,0.000861525,-0.003490652,0,31.61663751,31.61663751,,,132.6399999,30,0.216426931,0.365049468
2018-07-19T08:08:38Z,1531987718,10C,38.9494952,45.079963,32.24,0,-0.2,65.6,368739.22,10964.24,61.3,Air+FixedWing,Red,Allies,J-11A,Red J-11A #001,xu,<51>Teknetinium,0,0,0,32.23999786,2.239997864,0,0,NaN,NaN,0.032074568,0,NaN,0.999993742,0.000302162,-0.003490652,0,31.61663751,31.61663751,,,133.6399999,30,0.216426931,0.365049468
2018-07-19T08:08:39Z,1531987719,10C,38.9494952,45.079963,32.24,0,-0.2,65.6,368739.22,10964.24,61.3,Air+FixedWing,Red,Allies,J-11A,Red J-11A #001,xu,<51>Teknetinium,0,0,0,32.23999786,2.239997864,0,0,NaN,NaN,0.060437696,0,NaN,0.999993622,0.000549895,-0.003490652,0,31.61663751,31.61663751,,,134.6399999,30,0.216426931,0.365049468
2018-07-19T08:08:40Z,1531987720,10C,38.9494952,45.079963,32.24,0.1,-0.2,65.6,368739.22,10964.24,61.3,Air+FixedWing,Red,Allies,J-11A,Red J-11A #001,xu,<51>Teknetinium,0,0,0,32.23999786,2.239997864,0,0,NaN,NaN,0.06849315,0,NaN,0.999992251,0.001745318,-0.003490652,0,31.61663751,31.61663751,,,135.6399999,30,0.216426931,0.365049468
2018-07-19T08:08:41Z,1531987721,10C,38.9494952,45.079963,32.24,0,-0.2,65.6,368739.22,10964.24,61.3,Air+FixedWing,Red,Allies,J-11A,Red J-11A #001,xu,<51>Teknetinium,0,0,0,32.23999786,2.239997864,0,0,NaN,NaN,0.054914721,0,NaN,0.999993443,0.00078641,-0.003490652,0,31.61663751,31.61663751,,,136.6399999,30,0.216426931,0.365049468
2018-07-19T08:08:42Z,1531987722,10C,38.9494952,45.079963,32.24,0,-0.2,65.6,368739.22,10964.24,61.3,Air+FixedWing,Red,Allies,J-11A,Red J-11A #001,xu,<51>Teknetinium,0,0,0,32.23999786,2.239997864,0,0,NaN,NaN,0.018195624,0,NaN,0.999993801,0.000148187,-0.003490652,0,31.61663751,31.61663751,,,137.6399999,30,0.216426931,0.365049468
2018-07-19T08:08:43Z,1531987723,10C,38.9494952,45.079963,32.24,0.1,-0.2,65.6,368739.22,10964.24,61.3,Air+FixedWing,Red,Allies,J-11A,Red J-11A #001,xu,<51>Teknetinium,0,0,0,32.23999786,2.239997864,0,0,NaN,NaN,0.047169813,0,NaN,0.999993324,0.000971451,-0.003490652,0,31.61663751,31.61663751,,,138.6399999,30,0.216426931,0.365049468
2018-07-19T08:08:44Z,1531987724,10C,38.9494952,45.079963,32.24,0.1,-0.2,65.6,368739.22,10964.24,61.3,Air+FixedWing,Red,Allies,J-11A,Red J-11A #001,xu,<51>Teknetinium,0,0,0,32.23999786,2.239997864,0,0,NaN,NaN,0.01798146,0,NaN,0.999992549,0.001539999,-0.003490652,0,31.61663751,31.61663751,,,139.6399999,30,0.216426931,0.365049468
2018-07-19T08:08:45Z,1531987725,10C,38.9494952,45.079963,32.24,0.1,-0.2,65.6,368739.22,10964.24,61.4,Air+FixedWing,Red,Allies,J-11A,Red J-11A #001,xu,<51>Teknetinium,0,0,0,32.23999786,2.239997864,0,0,NaN,NaN,0.152381013,0.050435277,NaN,0.999992251,0.001745318,-0.003490652,0,31.61663751,31.61663751,,,140.6399999,30,0.216426931,0.365049468
2018-07-19T08:08:46Z,1531987726,10C,38.9494952,45.079963,32.24,0,-0.2,65.6,368739.22,10964.24,61.4,Air+FixedWing,Red,Allies,J-11A,Red J-11A #001,xu,<51>Teknetinium,0,0,0,32.23999786,2.239997864,0,0,NaN,NaN,0.057482872,0.050435277,NaN,0.999993443,0.000782442,-0.003490652,0,31.61663751,31.61663751,,,141.6399999,30,0.216426931,0.365049468
2018-07-19T08:08:47Z,1531987727,10C,38.9494952,45.079963,32.24,0.1,-0.2,65.6,368739.22,10964.24,61.4,Air+FixedWing,Red,Allies,J-11A,Red J-11A #001,xu,<51>Teknetinium,0,0,0,32.23999786,2.239997864,0,0,NaN,NaN,0.090028163,0.00989117,NaN,0.999993145,0.001066583,-0.003490652,0,31.61663751,31.61663751,,,142.6399999,30,0.216426931,0.365049468
2018-07-19T08:08:48Z,1531987728,10C,38.9494952,45.079963,32.24,0.1,-0.2,65.6,368739.22,10964.24,61.4,Air+FixedWing,Red,Allies,J-11A,Red J-11A #001,xu,<51>Teknetinium,0,0,0,32.23999786,2.239997864,0,0,NaN,NaN,0.135605749,0.00989117,NaN,0.999992549,0.001557372,-0.003490652,0,31.61663751,31.61663751,,,143.6399999,30,0.216426931,0.365049468
2018-07-19T08:08:49Z,1531987729,10C,38.9494952,45.079963,32.24,0.1,-0.2,65.6,368739.22,10964.24,61.4,Air+FixedWing,Red,Allies,J-11A,Red J-11A #001,xu,<51>Teknetinium,0,0,0,32.23999786,2.239997864,0,0,NaN,NaN,0.038467625,0.00989117,NaN,0.999993384,0.000886137,-0.003490652,0,31.61663751,31.61663751,,,144.6399999,30,0.216426931,0.365049468
2018-07-19T08:08:50Z,1531987730,10C,38.9494952,45.079963,32.24,0,-0.2,65.6,368739.22,10964.24,61.4,Air+FixedWing,Red,Allies,J-11A,Red J-11A #001,xu,<51>Teknetinium,0,0,0,32.23999786,2.239997864,0,0,NaN,NaN,0.038467625,0.00989117,NaN,0.999993801,0.000214901,-0.003490652,0,31.61663751,31.61663751,,,145.6399999,30,0.216426931,0.365049468
2018-07-19T08:08:51Z,1531987731,10C,38.9494952,45.079963,32.24,0.1,-0.2,65.6,368739.22,10964.24,61.4,Air+FixedWing,Red,Allies,J-11A,Red J-11A #001,xu,<51>Teknetinium,0,0,0,32.23999786,2.239997864,0,0,NaN,NaN,0.089285714,0.00989117,NaN,0.999993205,0.001059657,-0.003490652,0,31.61663751,31.61663751,,,146.6399999,30,0.216426931,0.365049468
2018-07-19T08:08:52Z,1531987732,10C,38.9494952,45.079963,32.24,0.1,-0.2,65.6,368739.22,10964.24,61.4,Air+FixedWing,Red,Allies,J-11A,Red J-11A #001,xu,<51>Teknetinium,0,0,0,32.23999786,2.239997864,0,0,NaN,NaN,0.035353059,0.00989117,NaN,0.999992788,0.001399976,-0.003490652,0,31.61663751,31.61663751,,,147.6399999,30,0.216426931,0.365049468
2018-07-19T08:08:53Z,1531987733,10C,38.9494952,45.079963,32.24,0,-0.2,65.6,368739.22,10964.24,61.4,Air+FixedWing,Red,Allies,J-11A,Red J-11A #001,xu,<51>Teknetinium,0,0,0,32.23999786,2.239997864,0,0,NaN,NaN,0.035353059,0.00989117,NaN,0.999993443,0.000783293,-0.003490652,0,31.61663751,31.61663751,,,148.6399999,30,0.216426931,0.365049468
2018-07-19T08:08:54Z,1531987734,10C,38.9494952,45.079963,32.24,0,-0.2,65.6,368739.22,10964.24,61.4,Air+FixedWing,Red,Allies,J-11A,Red J-11A #001,xu,<51>Teknetinium,0,0,0,32.23999786,2.239997864,0,0,NaN,NaN,0.035353059,0.00989117,NaN,0.999993742,0.00016661,-0.003490652,0,31.61663751,31.61663751,,,149.6399999,30,0.216426931,0.365049468
2018-07-19T08:08:55Z,1531987735,10C,38.9494952,45.079963,32.24,0.1,-0.2,65.6,368739.22,10964.24,61.4,Air+FixedWing,Red,Allies,J-11A,Red J-11A #001,xu,<51>Teknetinium,0,0,0,32.23999786,2.239997864,0,0,NaN,NaN,0.120343211,0.00989117,NaN,0.999992311,0.001730564,-0.003490652,0,31.61663751,31.61663751,,,150.6399999,30,0.216426931,0.365049468
2018-07-19T08:08:56Z,1531987736,10C,38.9494952,45.079963,32.24,0.1,-0.2,65.6,368739.22,10964.24,61.4,Air+FixedWing,Red,Allies,J-11A,Red J-11A #001,xu,<51>Teknetinium,0,0,0,32.23999786,2.239997864,0,0,NaN,NaN,0.006065208,0.00989117,NaN,0.99999243,0.001625176,-0.003490652,0,31.61663751,31.61663751,,,151.6399999,30,0.216426931,0.365049468
2018-07-19T08:08:57Z,1531987737,10C,38.9494952,45.079963,32.24,0.1,-0.2,65.6,368739.22,10964.24,61.4,Air+FixedWing,Red,Allies,J-11A,Red J-11A #001,xu,<51>Teknetinium,0,0,0,32.23999786,2.239997864,0,0,NaN,NaN,0.006065208,0.00989117,NaN,0.999992669,0.001519789,-0.003490652,0,31.61663751,31.61663751,,,152.6399999,30,0.216426931,0.365049468
2018-07-19T08:08:58Z,1531987738,10C,38.9494952,45.079963,32.24,0.1,-0.2,65.6,368739.22,10964.24,61.4,Air+FixedWing,Red,Allies,J-11A,Red J-11A #001,xu,<51>Teknetinium,0,0,0,32.23999786,2.239997864,0,0,NaN,NaN,0.006065208,0.00989117,NaN,0.999992728,0.001414402,-0.003490652,0,31.61663751,31.61663751,,,153.6399999,30,0.216426931,0.365049468
2018-07-19T08:08:59Z,1531987739,10C,38.9494952,45.079963,32.24,0.1,-0.2,65.6,368739.22,10964.24,61.4,Air+FixedWing,Red,Allies,J-11A,Red J-11A #001,xu,<51>Teknetinium,0,0,0,32.23999786,2.239997864,0,0,NaN,NaN,0.006065208,0.00989117,NaN,0.999992907,0.001309015,-0.003490652,0,31.61663751,31.61663751,,,154.6399999,30,0.216426931,0.365049468
2018-07-19T08:09:00Z,1531987740,10C,38.9494952,45.079963,32.24,0.1,-0.2,65.6,368739.22,10964.24,61.4,Air+FixedWing,Red,Allies,J-11A,Red J-11A #001,xu,<51>Teknetinium,0,0,0,32.23999786,2.239997864,0,0,NaN,NaN,0.006065208,0.00989117,NaN,0.999993026,0.001203628,-0.003490652,0,31.61663751,31.61663751,,,155.6399999,30,0.216426931,0.365049468
2018-07-19T08:09:01Z,1531987741,10C,38.9494952,45.079963,32.24,0.1,-0.2,65.6,368739.22,10964.24,61.4,Air+FixedWing,Red,Allies,J-11A,Red J-11A #001,xu,<51>Teknetinium,0,0,0,32.23999786,2.239997864,0,0,NaN,NaN,0.006065208,0.00989117,NaN,0.999993145,0.00109824,-0.003490652,0,31.61663751,31.61663751,,,156.6399999,30,0.216426931,0.365049468
2018-07-19T08:09:02Z,1531987742,10C,38.9494952,45.079963,32.24,0.1,-0.2,65.6,368739.22,10964.24,61.4,Air+FixedWing,Red,Allies,J-11A,Red J-11A #001,xu,<51>Teknetinium,0,0,0,32.23999786,2.239997864,0,0,NaN,NaN,0.006065208,0.00989117,NaN,0.999993265,0.000992853,-0.003490652,0,31.61663751,31.61663751,,,157.6399999,30,0.216426931,0.365049468
2018-07-19T08:09:03Z,1531987743,10C,38.9494952,45.079963,32.24,0.1,-0.2,65.6,368739.22,10964.24,61.4,Air+FixedWing,Red,Allies,J-11A,Red J-11A #001,xu,<51>Teknetinium,0,0,0,32.23999786,2.239997864,0,0,NaN,NaN,0.006065208,0.00989117,NaN,0.999993384,0.000887466,-0.003490652,0,31.61663751,31.61663751,,,158.6399999,30,0.216426931,0.365049468
2018-07-19T08:09:04Z,1531987744,10C,38.9494952,45.079963,32.24,0,-0.2,65.6,368739.22,10964.24,61.4,Air+FixedWing,Red,Allies,J-11A,Red J-11A #001,xu,<51>Teknetinium,0,0,0,32.23999786,2.239997864,0,0,NaN,NaN,0.006065208,0.00989117,NaN,0.999993503,0.000782079,-0.003490652,0,31.61663751,31.61663751,,,159.6399999,30,0.216426931,0.365049468
2018-07-19T08:09:05Z,1531987745,10C,38.9494952,45.079963,32.24,0,-0.2,65.6,368739.22,10964.24,61.4,Air+FixedWing,Red,Allies,J-11A,Red J-11A #001,xu,<51>Teknetinium,0,0,0,32.23999786,2.239997864,0,0,NaN,NaN,0.006065208,0.00989117,NaN,0.999993563,0.000676692,-0.003490652,0,31.61663751,31.61663751,,,160.6399999,30,0.216426931,0.365049468
2018-07-19T08:09:06Z,1531987746,10C,38.9494952,45.079963,32.24,0,-0.2,65.6,368739.22,10964.24,61.4,Air+FixedWing,Red,Allies,J-11A,Red J-11A #001,xu,<51>Teknetinium,0,0,0,32.23999786,2.239997864,0,0,NaN,NaN,0.006065208,0.00989117,NaN,0.999993622,0.000571304,-0.003490652,0,31.61663751,31.61663751,,,161.6399999,30,0.216426931,0.365049468
2018-07-19T08:09:07Z,1531987747,10C,38.9494952,45.079963,32.24,0,-0.2,65.6,368739.22,10964.24,61.4,Air+FixedWing,Red,Allies,J-11A,Red J-11A #001,xu,<51>Teknetinium,0,0,0,32.23999786,2.239997864,0,0,NaN,NaN,0.006065208,0.00989117,NaN,0.999993682,0.000465917,-0.003490652,0,31.61663751,31.61663751,,,162.6399999,30,0.216426931,0.365049468
2018-07-19T08:09:08Z,1531987748,10C,38.9494952,45.079963,32.24,0,-0.2,65.6,368739.22,10964.24,61.4,Air+FixedWing,Red,Allies,J-11A,Red J-11A #001,xu,<51>Teknetinium,0,0,0,32.23999786,2.239997864,0,0,NaN,NaN,0.006065208,0.00989117,NaN,0.999993682,0.00036053,-0.003490652,0,31.61663751,31.61663751,,,163.6399999,30,0.216426931,0.365049468
2018-07-19T08:09:09Z,1531987749,10C,38.9494952,45.079963,32.24,0,-0.2,65.6,368739.22,10964.24,61.4,Air+FixedWing,Red,Allies,J-11A,Red J-11A #001,xu,<51>Teknetinium,0,0,0,32.23999786,2.239997864,0,0,NaN,NaN,0.006065208,0.00989117,NaN,0.999993682,0.000255143,-0.003490652,0,31.61663751,31.61663751,,,164.6399999,30,0.216426931,0.365049468
2018-07-19T08:09:10Z,1531987750,10C,38.9494952,45.079963,32.24,0,-0.2,65.6,368739.22,10964.24,61.4,Air+FixedWing,Red,Allies,J-11A,Red J-11A #001,xu,<51>Teknetinium,0,0,0,32.23999786,2.239997864,0,0,NaN,NaN,0.006065208,0.00989117,NaN,0.999993742,0.000149755,-0.003490652,0,31.61663751,31.61663751,,,165.6399999,30,0.216426931,0.365049468
2018-07-19T08:09:11Z,1531987751,10C,38.9494952,45.079963,32.24,0,-0.2,65.6,368739.22,10964.24,61.4,Air+FixedWing,Red,Allies,J-11A,Red J-11A #001,xu,<51>Teknetinium,0,0,0,32.23999786,2.239997864,0,0,NaN,NaN,0.006065208,0.00989117,NaN,0.999993742,4.44e-05,-0.003490652,0,31.61663751,31.61663751,,,166.6399999,30,0.216426931,0.365049468
2018-07-19T08:09:12Z,1531987752,10C,38.9494952,45.079963,32.24,0.1,-0.2,65.6,368739.22,10964.24,61.4,Air+FixedWing,Red,Allies,J-11A,Red J-11A #001,xu,<51>Teknetinium,0,0,0,32.23999786,2.239997864,0,0,NaN,NaN,0.165751856,0.00989117,NaN,0.999992251,0.001737334,-0.003490652,0,31.61663751,31.61663751,,,167.6399999,30,0.216426931,0.365049468
2018-07-19T08:09:13Z,1531987753,10C,38.9494952,45.079963,32.24,0.1,-0.2,65.6,368739.22,10964.24,61.4,Air+FixedWing,Red,Allies,J-11A,Red J-11A #001,xu,<51>Teknetinium,0,0,0,32.23999786,2.239997864,0,0,NaN,NaN,0.004589887,0.00989117,NaN,0.999992371,0.001657498,-0.003490652,0,31.61663751,31.61663751,,,168.6399999,30,0.216426931,0.365049468
2018-07-19T08:09:14Z,1531987754,10C,38.9494952,45.079963,32.24,0.1,-0.2,65.6,368739.22,10964.24,61.4,Air+FixedWing,Red,Allies,J-11A,Red J-11A #001,xu,<51>Teknetinium,0,0,0,32.23999786,2.239997864,0,0,NaN,NaN,0.004589887,0.00989117,NaN,0.999992609,0.001577662,-0.003490652,0,31.61663751,31.61663751,,,169.6399999,30,0.216426931,0.365049468
2018-07-19T08:09:15Z,1531987755,10C,38.9494952,45.079963,32.24,0.1,-0.2,65.6,368739.22,10964.24,61.4,Air+FixedWing,Red,Allies,J-11A,Red J-11A #001,xu,<51>Teknetinium,0,0,0,32.23999786,2.239997864,0,0,NaN,NaN,0.004589887,0.00989117,NaN,0.999992669,0.001497827,-0.003490652,0,31.61663751,31.61663751,,,170.6399999,30,0.216426931,0.365049468
2018-07-19T08:09:16Z,1531987756,10C,38.9494952,45.079963,32.24,0.1,-0.2,65.6,368739.22,10964.24,61.4,Air+FixedWing,Red,Allies,J-11A,Red J-11A #001,xu,<51>Teknetinium,0,0,0,32.23999786,2.239997864,0,0,NaN,NaN,0.004589887,0.00989117,NaN,0.999992788,0.001417991,-0.003490652,0,31.61663751,31.61663751,,,171.6399999,30,0.216426931,0.365049468
2018-07-19T08:09:17Z,1531987757,10C,38.9494952,45.079963,32.24,0.1,-0.2,65.6,368739.22,10964.24,61.4,Air+FixedWing,Red,Allies,J-11A,Red J-11A #001,xu,<51>Teknetinium,0,0,0,32.23999786,2.239997864,0,0,NaN,NaN,0.004589887,0.00989117,NaN,0.999992847,0.001338155,-0.003490652,0,31.61663751,31.61663751,,,172.6399999,30,0.216426931,0.365049468
2018-07-19T08:09:18Z,1531987758,10C,38.9494952,45.079963,32.24,0.1,-0.2,65.6,368739.22,10964.24,61.4,Air+FixedWing,Red,Allies,J-11A,Red J-11A #001,xu,<51>Teknetinium,0,0,0,32.23999786,2.239997864,0,0,NaN,NaN,0.004589887,0.00989117,NaN,0.999993026,0.001258319,-0.003490652,0,31.61663751,31.61663751,,,173.6399999,30,0.216426931,0.365049468
2018-07-19T08:09:19Z,1531987759,10C,38.9494952,45.079963,32.24,0.1,-0.2,65.6,368739.22,10964.24,61.4,Air+FixedWing,Red,Allies,J-11A,Red J-11A #001,xu,<51>Teknetinium,0,0,0,32.23999786,2.239997864,0,0,NaN,NaN,0.004589887,0.00989117,NaN,0.999993086,0.001178483,-0.003490652,0,31.61663751,31.61663751,,,174.6399999,30,0.216426931,0.365049468
2018-07-19T08:09:20Z,1531987760,10C,38.9494952,45.079963,32.24,0.1,-0.2,65.6,368739.22,10964.24,61.4,Air+FixedWing,Red,Allies,J-11A,Red J-11A #001,xu,<51>Teknetinium,0,0,0,32.23999786,2.239997864,0,0,NaN,NaN,0.004589887,0.00989117,NaN,0.999993205,0.001098647,-0.003490652,0,31.61663751,31.61663751,,,175.6399999,30,0.216426931,0.365049468
2018-07-19T08:09:21Z,1531987761,10C,38.9494952,45.079963,32.24,0.1,-0.2,65.6,368739.22,10964.24,61.4,Air+FixedWing,Red,Allies,J-11A,Red J-11A #001,xu,<51>Teknetinium,0,0,0,32.23999786,2.239997864,0,0,NaN,NaN,0.004589887,0.00989117,NaN,0.999993205,0.001018811,-0.003490652,0,31.61663751,31.61663751,,,176.6399999,30,0.216426931,0.365049468
2018-07-19T08:09:22Z,1531987762,10C,38.9494952,45.079963,32.24,0.1,-0.2,65.6,368739.22,10964.24,61.4,Air+FixedWing,Red,Allies,J-11A,Red J-11A #001,xu,<51>Teknetinium,0,0,0,32.23999786,2.239997864,0,0,NaN,NaN,0.004589887,0.00989117,NaN,0.999993324,0.000938976,-0.003490652,0,31.61663751,31.61663751,,,177.6399999,30,0.216426931,0.365049468
2018-07-19T08:09:23Z,1531987763,10C,38.9494952,45.079963,32.24,0,-0.2,65.6,368739.22,10964.24,61.4,Air+FixedWing,Red,Allies,J-11A,Red J-11A #001,xu,<51>Teknetinium,0,0,0,32.23999786,2.239997864,0,0,NaN,NaN,0.004589887,0.00989117,NaN,0.999993384,0.00085914,-0.003490652,0,31.61663751,31.61663751,,,178.6399999,30,0.216426931,0.365049468
2018-07-19T08:09:24Z,1531987764,10C,38.9494952,45.079963,32.24,0,-0.2,65.6,368739.22,10964.24,61.4,Air+FixedWing,Red,Allies,J-11A,Red J-11A #001,xu,<51>Teknetinium,0,0,0,32.23999786,2.239997864,0,0,NaN,NaN,0.004589887,0.00989117,NaN,0.999993503,0.000779304,-0.003490652,0,31.61663751,31.61663751,,,179.6399999,30,0.216426931,0.365049468
2018-07-19T08:09:25Z,1531987765,10C,38.9494952,45.079963,32.24,0,-0.2,65.6,368739.22,10964.24,61.4,Air+FixedWing,Red,Allies,J-11A,Red J-11A #001,xu,<51>Teknetinium,0,0,0,32.23999786,2.239997864,0,0,NaN,NaN,0.004589887,0.00989117,NaN,0.999993503,0.000699468,-0.003490652,0,31.61663751,31.61663751,,,180.6399999,30,0.216426931,0.365049468
2018-07-19T08:09:26Z,1531987766,10C,38.9494952,45.079963,32.24,0,-0.2,65.6,368739.22,10964.24,61.4,Air+FixedWing,Red,Allies,J-11A,Red J-11A #001,xu,<51>Teknetinium,0,0,0,32.23999786,2.239997864,0,0,NaN,NaN,0.004589887,0.00989117,NaN,0.999993622,0.000619632,-0.003490652,0,31.61663751,31.61663751,,,181.6399999,30,0.216426931,0.365049468
