ISOTime,UnixTime,Id,Longitude,Latitude,Altitude,Roll,Pitch,Yaw,U,V,Heading,Type,Color,Coalition,Name,Group,Country,Pilot,TAS,CAS,M,ASL,AGL,GS,VS,AOA,AOS,RRT,TRT,TRD,G,LatG,LonG,Ek,Ep,Em,FFW,FFV,RelativeTime,Elev,GroundDistance,AirDistance
2018-07-19T08:07:11Z,1531987631,10D,38.9504994,45.0799993,32.1,-1,0.1,245.7,368817.97,10974.11,241.5,Air+FixedWing,Red,Allies,J-11A,Red J-11A #003,xu,<51>Chimango,0.275809772,0.262722313,0.000810513,32.09999847,2.099998474,NaN,NaN,NaN,NaN,1.209489898,NaN,NaN,NaN,NaN,NaN,NaN,31.479345,NaN,,,0.910000086,30,NaN,NaN
2018-07-19T08:07:12Z,1531987632,10D,38.9504984,45.0799991,32.27,-0.4,-0.2,245.7,368817.88,10974.08,241.5,Air+FixedWing,Red,Allies,J-11A,Red J-11A #003,xu,<51>Chimango,0.195920814,0.262722313,0.000575747,32.27000046,2.270000458,0.097387325,0.170001984,NaN,NaN,0.533316805,0.095898497,NaN,0.979210492,-0.003829456,-0.016378095,0.001919248,31.64606,31.64797925,,,1.910000086,30,0.078461064,0.187234812
2018-07-19T08:07:13Z,1531987633,10D,38.9504987,45.0799992,32.24,-0.2,-0.3,245.7,368817.91,10974.09,241.5,Air+FixedWing,Red,Allies,J-11A,Red J-11A #003,xu,<51>Chimango,0.046725383,0,0.000137311,32.23666382,2.236663818,0.032740341,-0.033336639,NaN,NaN,0.104784333,0.080356275,NaN,1.004754258,-0.00415244,-0.001985316,0.000109163,31.61336792,31.61347709,,,2.910000086,30,0.103862992,0.229146576
2018-07-19T08:07:14Z,1531987634,10D,38.9504986,45.0799991,32.25,-0.2,-0.3,245.7,368817.91,10974.09,241.5,Air+FixedWing,Red,Allies,J-11A,Red J-11A #003,xu,<51>Chimango,0.013336182,0,3.92e-05,32.25,2.25,0,0.013336182,NaN,NaN,0.026802489,0.00989117,NaN,0.998621041,-0.003252073,-0.005228844,8.89e-06,31.62644625,31.62645514,,,3.910000086,30,0.117490443,0.248213906
2018-07-19T08:07:15Z,1531987635,10D,38.9504986,45.0799991,32.25,-0.1,-0.3,245.7,368817.91,10974.09,241.5,Air+FixedWing,Red,Allies,J-11A,Red J-11A #003,xu,<51>Chimango,0,0,0,32.25,2.25,0,0,NaN,NaN,0.070098872,0.00989117,NaN,0.999984682,-0.001745199,-0.005235964,0,31.62644625,31.62644625,,,4.910000086,30,0.11752101,0.248244472
2018-07-19T08:07:16Z,1531987636,10D,38.9504986,45.0799991,32.25,-0.1,-0.3,245.7,368817.91,10974.09,241.5,Air+FixedWing,Red,Allies,J-11A,Red J-11A #003,xu,<51>Chimango,0,0,0,32.25,2.25,0,0,NaN,NaN,0,0.00989117,NaN,0.999984682,-0.001745199,-0.005235964,0,31.62644625,31.62644625,,,5.910000086,30,0.11771205,0.248435514
2018-07-19T08:07:17Z,1531987637,10D,38.9504986,45.0799991,32.25,-0.1,-0.3,245.7,368817.91,10974.09,241.5,Air+FixedWing,Red,Allies,J-11A,Red J-11A #003,xu,<51>Chimango,0,0,0,32.25,2.25,0,0,NaN,NaN,0,0.00989117,NaN,0.999984682,-0.001745199,-0.005235964,0,31.62644625,31.62644625,,,6.910000086,30,0.117903092,0.248626556
2018-07-19T08:07:18Z,1531987638,10D,38.9504986,45.0799991,32.25,-0.1,-0.3,245.7,368817.91,10974.09,241.5,Air+FixedWing,Red,Allies,J-11A,Red J-11A #003,xu,<51>Chimango,0,0,0,32.25,2.25,0,0,NaN,NaN,0,0.00989117,NaN,0.999984682,-0.001745199,-0.005235964,0,31.62644625,31.62644625,,,7.910000086,30,0.118094132,0.248817598
2018-07-19T08:07:19Z,1531987639,10D,38.9504986,45.0799991,32.25,-0.1,-0.3,245.7,368817.91,10974.09,241.5,Air+FixedWing,Red,Allies,J-11A,Red J-11A #003,xu,<51>Chimango,0,0,0,32.25,2.25,0,0,NaN,NaN,0,0.00989117,NaN,0.999984682,-0.001745199,-0.005235964,0,31.62644625,31.62644625,,,8.910000086,30,0.118285174,0.24900864
2018-07-19T08:07:20Z,1531987640,10D,38.9504986,45.0799991,32.25,-0.1,-0.3,245.7,368817.91,10974.09,241.5,Air+FixedWing,Red,Allies,J-11A,Red J-11A #003,xu,<51>Chimango,0,0,0,32.25,2.25,0,0,NaN,NaN,0,0.00989117,NaN,0.999984682,-0.001745199,-0.005235964,0,31.62644625,31.62644625,,,9.910000086,30,0.118476213,0.249199682
2018-07-19T08:07:21Z,1531987641,10D,38.9504986,45.0799991,32.25,-0.1,-0.3,245.7,368817.91,10974.09,241.5,Air+FixedWing,Red,Allies,J-11A,Red J-11A #003,xu,<51>Chimango,0,0,0,32.25,2.25,0,0,NaN,NaN,0,0.00989117,NaN,0.999984682,-0.001745199,-0.005235964,0,31.62644625,31.62644625,,,10.91000009,30,0.118667254,0.249390722
2018-07-19T08:07:22Z,1531987642,10D,38.9504986,45.0799991,32.25,-0.1,-0.3,245.7,368817.91,10974.09,241.5,Air+FixedWing,Red,Allies,J-11A,Red J-11A #003,xu,<51>Chimango,0,0,0,32.25,2.25,0,0,NaN,NaN,0,0.00989117,NaN,0.999984682,-0.001745199,-0.005235964,0,31.62644625,31.62644625,,,11.91000009,30,0.118858296,0.249581766
2018-07-19T08:07:23Z,1531987643,10D,38.9504986,45.0799991,32.25,-0.1,-0.3,245.7,368817.91,10974.09,241.5,Air+FixedWing,Red,Allies,J-11A,Red J-11A #003,xu,<51>Chimango,0,0,0,32.25,2.25,0,0,NaN,NaN,0,0.00989117,NaN,0.999984682,-0.001745199,-0.005235964,0,31.62644625,31.62644625,,,12.91000009,30,0.119049336,0.249772806
2018-07-19T08:07:24Z,1531987644,10D,38.9504986,45.0799991,32.25,-0.1,-0.3,245.7,368817.91,10974.09,241.5,Air+FixedWing,Red,Allies,J-11A,Red J-11A #003,xu,<51>Chimango,0,0,0,32.25,2.25,0,0,NaN,NaN,0,0.00989117,NaN,0.999984682,-0.001745199,-0.005235964,0,31.62644625,31.62644625,,,13.91000009,30,0.119240377,0.249963848
2018-07-19T08:07:25Z,1531987645,10D,38.9504986,45.0799991,32.25,-0.1,-0.3,245.7,368817.91,10974.09,241.5,Air+FixedWing,Red,Allies,J-11A,Red J-11A #003,xu,<51>Chimango,0,0,0,32.25,2.25,0,0,NaN,NaN,0,0.00989117,NaN,0.999984682,-0.001745199,-0.005235964,0,31.62644625,31.62644625,,,14.91000009,30,0.119431417,0.250154889
2018-07-19T08:07:26Z,1531987646,10D,38.9504986,45.0799991,32.25,-0.1,-0.3,245.7,368817.91,10974.09,241.5,Air+FixedWing,Red,Allies,J-11A,Red J-11A #003,xu,<51>Chimango,0,0,0,32.25,2.25,0,0,NaN,NaN,0,0.00989117,NaN,0.999984682,-0.001745199,-0.005235964,0,31.62644625,31.62644625,,,15.91000009,30,0.119622458,0.250345932
2018-07-19T08:07:27Z,1531987647,10D,38.9504986,45.0799991,32.25,-0.1,-0.3,245.7,368817.91,10974.09,241.5,Air+FixedWing,Red,Allies,J-11A,Red J-11A #003,xu,<51>Chimango,0,0,0,32.25,2.25,0,0,NaN,NaN,0,0.00989117,NaN,0.999984682,-0.001745199,-0.005235964,0,31.62644625,31.62644625,,,16.91000009,30,0.1198135,0.250536974
2018-07-19T08:07:28Z,1531987648,10D,38.9504986,45.0799991,32.25,-0.1,-0.3,245.7,368817.91,10974.09,241.5,Air+FixedWing,Red,Allies,J-11A,Red J-11A #003,xu,<51>Chimango,0,0,0,32.25,2.25,0,0,NaN,NaN,0,0.00989117,NaN,0.999984682,-0.001745199,-0.005235964,0,31.62644625,31.62644625,,,17.91000009,30,0.120004541,0.250728015
2018-07-19T08:07:29Z,1531987649,10D,38.9504986,45.0799991,32.25,-0.1,-0.3,245.7,368817.91,10974.09,241.5,Air+FixedWing,Red,Allies,J-11A,Red J-11A #003,xu,<51>Chimango,0,0,0,32.25,2.25,0,0,NaN,NaN,0,0.00989117,NaN,0.999984682,-0.001745199,-0.005235964,0,31.62644625,31.62644625,,,18.91000009,30,0.120195581,0.250919057
2018-07-19T08:07:30Z,1531987650,10D,38.9504986,45.0799991,32.25,-0.1,-0.3,245.7,368817.91,10974.09,241.5,Air+FixedWing,Red,Allies,J-11A,Red J-11A #003,xu,<51>Chimango,0,0,0,32.25,2.25,0,0,NaN,NaN,0,0.00989117,NaN,0.999984682,-0.001745199,-0.005235964,0,31.62644625,31.62644625,,,19.91000009,30,0.120386622,0.251110099
2018-07-19T08:07:31Z,1531987651,10D,38.9504986,45.0799991,32.25,-0.1,-0.3,245.7,368817.91,10974.09,241.5,Air+FixedWing,Red,Allies,J-11A,Red J-11A #003,xu,<51>Chimango,0,0,0,32.25,2.25,0,0,NaN,NaN,0,0.00989117,NaN,0.999984682,-0.001745199,-0.005235964,0,31.62644625,31.62644625,,,20.91000009,30,0.120577664,0.251301142
2018-07-19T08:07:32Z,1531987652,10D,38.9504986,45.0799991,32.25,-0.1,-0.3,245.7,368817.91,10974.09,241.5,Air+FixedWing,Red,Allies,J-11A,Red J-11A #003,xu,<51>Chimango,0,0,0,32.25,2.25,0,0,NaN,NaN,0,0.00989117,NaN,0.999984682,-0.001745199,-0.005235964,0,31.62644625,31.62644625,,,21.91000009,30,0.120768704,0.251492183
2018-07-19T08:07:33Z,1531987653,10D,38.9504986,45.0799991,32.25,-0.1,-0.3,245.7,368817.91,10974.09,241.5,Air+FixedWing,Red,Allies,J-11A,Red J-11A #003,xu,<51>Chimango,0,0,0,32.25,2.25,0,0,NaN,NaN,0,0.00989117,NaN,0.999984682,-0.001745199,-0.005235964,0,31.62644625,31.62644625,,,22.91000009,30,0.120959745,0.251683225
2018-07-19T08:07:34Z,1531987654,10D,38.9504986,45.0799991,32.25,-0.1,-0.3,245.7,368817.91,10974.09,241.5,Air+FixedWing,Red,Allies,J-11A,Red J-11A #003,xu,<51>Chimango,0,0,0,32.25,2.25,0,0,NaN,NaN,0,0.00989117,NaN,0.999984682,-0.001745199,-0.005235964,0,31.62644625,31.62644625,,,23.91000009,30,0.121150785,0.251874265
2018-07-19T08:07:35Z,1531987655,10D,38.9504986,45.0799991,32.25,-0.1,-0.3,245.7,368817.91,10974.09,241.5,Air+FixedWing,Red,Allies,J-11A,Red J-11A #003,xu,<51>Chimango,0,0,0,32.25,2.25,0,0,NaN,NaN,0,0.00989117,NaN,0.999984682,-0.001745199,-0.005235964,0,31.62644625,31.62644625,,,24.91000009,30,0.121341827,0.252065309
2018-07-19T08:07:36Z,1531987656,10D,38.9504986,45.0799991,32.25,-0.1,-0.3,245.7,368817.91,10974.09,241.5,Air+FixedWing,Red,Allies,J-11A,Red J-11A #003,xu,<51>Chimango,0,0,0,32.25,2.25,0,0,NaN,NaN,0,0.00989117,NaN,0.999984682,-0.001745199,-0.005235964,0,31.62644625,31.62644625,,,25.91000009,30,0.121532866,0.252256349
2018-07-19T08:07:37Z,1531987657,10D,38.9504986,45.0799991,32.25,-0.1,-0.3,245.7,368817.91,10974.09,241.5,Air+FixedWing,Red,Allies,J-11A,Red J-11A #003,xu,<51>Chimango,0,0,0,32.25,2.25,0,0,NaN,NaN,0,0.00989117,NaN,0.999984682,-0.001745199,-0.005235964,0,31.62644625,31.62644625,,,26.91000009,30,0.121723907,0.252447391
2018-07-19T08:07:38Z,1531987658,10D,38.9504986,45.0799991,32.25,-0.1,-0.3,245.7,368817.91,10974.09,241.5,Air+FixedWing,Red,Allies,J-11A,Red J-11A #003,xu,<51>Chimango,0,0,0,32.25,2.25,0,0,NaN,NaN,0,0.00989117,NaN,0.999984682,-0.001745199,-0.005235964,0,31.62644625,31.62644625,,,27.91000009,30,0.121914948,0.252638432
2018-07-19T08:07:39Z,1531987659,10D,38.9504986,45.0799991,32.25,-0.1,-0.3,245.7,368817.91,10974.09,241.5,Air+FixedWing,Red,Allies,J-11A,Red J-11A #003,xu,<51>Chimango,0,0,0,32.25,2.25,0,0,NaN,NaN,0,0.00989117,NaN,0.999984682,-0.001745199,-0.005235964,0,31.62644625,31.62644625,,,28.91000009,30,0.122105989,0.252829475
2018-07-19T08:07:40Z,1531987660,10D,38.9504986,45.0799991,32.25,-0.1,-0.3,245.7,368817.91,10974.09,241.5,Air+FixedWing,Red,Allies,J-11A,Red J-11A #003,xu,<51>Chimango,0,0,0,32.25,2.25,0,0,NaN,NaN,0,0.00989117,NaN,0.999984682,-0.001745199,-0.005235964,0,31.62644625,31.62644625,,,29.91000009,30,0.122297029,0.253020516
2018-07-19T08:07:41Z,1531987661,10D,38.9504986,45.0799991,32.25,-0.1,-0.3,245.7,368817.91,10974.09,241.5,Air+FixedWing,Red,Allies,J-11A,Red J-11A #003,xu,<51>Chimango,0,0,0,32.25,2.25,0,0,NaN,NaN,0,0.00989117,NaN,0.999984682,-0.001745199,-0.005235964,0,31.62644625,31.62644625,,,30.91000009,30,0.122488071,0.253211559
2018-07-19T08:07:42Z,1531987662,10D,38.9504986,45.0799991,32.25,-0.1,-0.3,245.7,368817.91,10974.09,241.5,Air+FixedWing,Red,Allies,J-11A,Red J-11A #003,xu,<51>Chimango,0,0,0,32.25,2.25,0,0,NaN,NaN,0,0.00989117,NaN,0.999984682,-0.001745199,-0.005235964,0,31.62644625,31.62644625,,,31.91000009,30,0.122679112,0.2534026
2018-07-19T08:07:43Z,1531987663,10D,38.9504986,45.0799991,32.25,-0.1,-0.3,245.7,368817.91,10974.09,241.5,Air+FixedWing,Red,Allies,J-11A,Red J-11A #003,xu,<51>Chimango,0,0,0,32.25,2.25,0,0,NaN,NaN,0,0.00989117,NaN,0.999984682,-0.001745199,-0.005235964,0,31.62644625,31.62644625,,,32.91000009,30,0.122870153,0.253593643
2018-07-19T08:07:44Z,1531987664,10D,38.9504986,45.0799992,32.25,-0.1,-0.3,245.7,368817.91,10974.09,241.5,Air+FixedWing,Red,Allies,J-11A,Red J-11A #003,xu,<51>Chimango,0,0,0,32.25,2.25,0,0,NaN,NaN,0,0.00989117,NaN,0.999984682,-0.001745199,-0.005235964,0,31.62644625,31.62644625,,,33.91000009,30,0.123061194,0.253784684
2018-07-19T08:07:45Z,1531987665,10D,38.9504986,45.0799992,32.25,-0.1,-0.3,245.7,368817.91,10974.09,241.5,Air+FixedWing,Red,Allies,J-11A,Red J-11A #003,xu,<51>Chimango,0,0,0,32.25,2.25,0,0,NaN,NaN,0,0.00989117,NaN,0.999984682,-0.001745199,-0.005235964,0,31.62644625,31.62644625,,,34.91000009,30,0.123252233,0.253975725
2018-07-19T08:07:46Z,1531987666,10D,38.9504986,45.0799992,32.25,-0.1,-0.3,245.7,368817.91,10974.09,241.5,Air+FixedWing,Red,Allies,J-11A,Red J-11A #003,xu,<51>Chimango,0,0,0,32.25,2.25,0,0,NaN,NaN,0,0.00989117,NaN,0.999984682,-0.001745199,-0.005235964,0,31.62644625,31.62644625,,,35.91000009,30,0.123443276,0.254166768
2018-07-19T08:07:47Z,1531987667,10D,38.9504986,45.0799992,32.25,-0.1,-0.3,245.7,368817.91,10974.09,241.5,Air+FixedWing,Red,Allies,J-11A,Red J-11A #003,xu,<51>Chimango,0,0,0,32.25,2.25,0,0,NaN,NaN,0,0.00989117,NaN,0.999984682,-0.001745199,-0.005235964,0,31.62644625,31.62644625,,,36.91000009,30,0.123634316,0.254357809
2018-07-19T08:07:48Z,1531987668,10D,38.9504986,45.0799992,32.25,-0.1,-0.3,245.7,368817.91,10974.09,241.5,Air+FixedWing,Red,Allies,J-11A,Red J-11A #003,xu,<51>Chimango,0,0,0,32.25,2.25,0,0,NaN,NaN,0,0.00989117,NaN,0.999984682,-0.001745199,-0.005235964,0,31.62644625,31.62644625,,,37.91000009,30,0.123825356,0.25454885
2018-07-19T08:07:49Z,1531987669,10D,38.9504986,45.0799992,32.25,-0.1,-0.3,245.7,368817.91,10974.09,241.5,Air+FixedWing,Red,Allies,J-11A,Red J-11A #003,xu,<51>Chimango,0,0,0,32.25,2.25,0,0,NaN,NaN,0,0.00989117,NaN,0.999984682,-0.001745199,-0.005235964,0,31.62644625,31.62644625,,,38.91000009,30,0.124016398,0.254739893
2018-07-19T08:07:50Z,1531987670,10D,38.9504986,45.0799992,32.25,-0.1,-0.3,245.7,368817.91,10974.09,241.5,Air+FixedWing,Red,Allies,J-11A,Red J-11A #003,xu,<51>Chimango,0,0,0,32.25,2.25,0,0,NaN,NaN,0,0.00989117,NaN,0.999984682,-0.001745199,-0.005235964,0,31.62644625,31.62644625,,,39.91000009,30,0.124207438,0.254930935
2018-07-19T08:07:51Z,1531987671,10D,38.9504986,45.0799992,32.25,-0.1,-0.3,245.7,368817.91,10974.09,241.5,Air+FixedWing,Red,Allies,J-11A,Red J-11A #003,xu,<51>Chimango,0,0,0,32.25,2.25,0,0,NaN,NaN,0,0.00989117,NaN,0.999984682,-0.001745199,-0.005235964,0,31.62644625,31.62644625,,,40.91000009,30,0.124398479,0.255121976
2018-07-19T08:07:52Z,1531987672,10D,38.9504986,45.0799992,32.25,-0.1,-0.3,245.7,368817.91,10974.09,241.5,Air+FixedWing,Red,Allies,J-11A,Red J-11A #003,xu,<51>Chimango,0,0,0,32.25,2.25,0,0,NaN,NaN,0,0.00989117,NaN,0.999984682,-0.001745199,-0.005235964,0,31.62644625,31.62644625,,,41.91000009,30,0.12458952,0.255313018
2018-07-19T08:07:53Z,1531987673,10D,38.9504986,45.0799992,32.25,-0.1,-0.3,245.7,368817.91,10974.09,241.5,Air+FixedWing,Red,Allies,J-11A,Red J-11A #003,xu,<51>Chimango,0,0,0,32.25,2.25,0,0,NaN,NaN,0,0.00989117,NaN,0.999984682,-0.001745199,-0.005235964,0,31.62644625,31.62644625,,,42.91000009,30,0.124780561,0.25550406
2018-07-19T08:07:54Z,1531987674,10D,38.9504986,45.0799992,32.25,-0.1,-0.3,245.7,368817.91,10974.09,241.5,Air+FixedWing,Red,Allies,J-11A,Red J-11A #003,xu,<51>Chimango,0,0,0,32.25,2.25,0,0,NaN,NaN,0,0.00989117,NaN,0.999984682,-0.001745199,-0.005235964,0,31.62644625,31.62644625,,,43.91000009,30,0.124971602,0.255695101
2018-07-19T08:07:55Z,1531987675,10D,38.9504986,45.0799992,32.25,-0.1,-0.3,245.7,368817.91,10974.09,241.5,Air+FixedWing,Red,Allies,J-11A,Red J-11A #003,xu,<51>Chimango,0,0,0,32.25,2.25,0,0,NaN,NaN,0,0.00989117,NaN,0.999984682,-0.001745199,-0.005235964,0,31.62644625,31.62644625,,,44.91000009,30,0.125162642,0.255886144
2018-07-19T08:07:56Z,1531987676,10D,38.9504986,45.0799992,32.25,-0.1,-0.3,245.7,368817.91,10974.09,241.5,Air+FixedWing,Red,Allies,J-11A,Red J-11A #003,xu,<51>Chimango,0,0,0,32.25,2.25,0,0,NaN,NaN,0,0.00989117,NaN,0.999984682,-0.001745199,-0.005235964,0,31.62644625,31.62644625,,,45.91000009,30,0.125353684,0.256077186
2018-07-19T08:07:57Z,1531987677,10D,38.9504986,45.0799992,32.25,-0.1,-0.3,245.7,368817.91,10974.09,241.5,Air+FixedWing,Red,Allies,J-11A,Red J-11A #003,xu,<51>Chimango,0,0,0,32.25,2.25,0,0,NaN,NaN,0,0.00989117,NaN,0.999984682,-0.001745199,-0.005235964,0,31.62644625,31.62644625,,,46.91000009,30,0.125544724,0.256268227
2018-07-19T08:07:58Z,1531987678,10D,38.9504986,45.0799992,32.25,-0.1,-0.3,245.7,368817.91,10974.09,241.5,Air+FixedWing,Red,Allies,J-11A,Red J-11A #003,xu,<51>Chimango,0,0,0,32.25,2.25,0,0,NaN,NaN,0,0.00989117,NaN,0.999984682,-0.001745199,-0.005235964,0,31.62644625,31.62644625,,,47.91000009,30,0.125735764,0.256459269
2018-07-19T08:07:59Z,1531987679,10D,38.9504986,45.0799992,32.25,-0.1,-0.3,245.7,368817.91,10974.09,241.5,Air+FixedWing,Red,Allies,J-11A,Red J-11A #003,xu,<51>Chimango,0,0,0,32.25,2.25,0,0,NaN,NaN,0,0.00989117,NaN,0.999984682,-0.001745199,-0.005235964,0,31.62644625,31.62644625,,,48.91000009,30,0.125926807,0.256650313
2018-07-19T08:08:00Z,1531987680,10D,38.9504986,45.0799992,32.25,-0.1,-0.3,245.7,368817.91,10974.09,241.5,Air+FixedWing,Red,Allies,J-11A,Red J-11A #003,xu,<51>Chimango,0,0,0,32.25,2.25,0,0,NaN,NaN,0,0.00989117,NaN,0.999984682,-0.001745199,-0.005235964,0,31.62644625,31.62644625,,,49.91000009,30,0.126117847,0.256841352
2018-07-19T08:08:01Z,1531987681,10D,38.9504986,45.0799992,32.25,-0.1,-0.3,245.7,368817.91,10974.09,241.5,Air+FixedWing,Red,Allies,J-11A,Red J-11A #003,xu,<51>Chimango,0,0,0,32.25,2.25,0,0,NaN,NaN,0,0.00989117,NaN,0.999984682,-0.001745199,-0.005235964,0,31.62644625,31.62644625,,,50.91000009,30,0.126308887,0.257032395
2018-07-19T08:08:02Z,1531987682,10D,38.9504986,45.0799992,32.25,-0.1,-0.3,245.7,368817.91,10974.09,241.5,Air+FixedWing,Red,Allies,J-11A,Red J-11A #003,xu,<51>Chimango,0,0,0,32.25,2.25,0,0,NaN,NaN,0,0.00989117,NaN,0.999984682,-0.001745199,-0.005235964,0,31.62644625,31.62644625,,,51.91000009,30,0.126499928,0.257223437
2018-07-19T08:08:03Z,1531987683,10D,38.9504986,45.0799992,32.25,-0.1,-0.3,245.7,368817.91,10974.09,241.5,Air+FixedWing,Red,Allies,J-11A,Red J-11A #003,xu,<51>Chimango,0,0,0,32.25,2.25,0,0,NaN,NaN,0,0.00989117,NaN,0.999984682,-0.001745199,-0.005235964,0,31.62644625,31.62644625,,,52.91000009,30,0.126690969,0.257414478
2018-07-19T08:08:04Z,1531987684,10D,38.9504986,45.0799992,32.25,-0.1,-0.3,245.7,368817.91,10974.09,241.5,Air+FixedWing,Red,Allies,J-11A,Red J-11A #003,xu,<51>Chimango,0,0,0,32.25,2.25,0,0,NaN,NaN,0,0.00989117,NaN,0.999984682,-0.001745199,-0.005235964,0,31.62644625,31.62644625,,,53.91000009,30,0.12688201,0.257605519
2018-07-19T08:08:05Z,1531987685,10D,38.9504986,45.0799992,32.25,-0.1,-0.3,245.7,368817.91,10974.09,241.5,Air+FixedWing,Red,Allies,J-11A,Red J-11A #003,xu,<51>Chimango,0,0,0,32.25,2.25,0,0,NaN,NaN,0,0.00989117,NaN,0.999984682,-0.001745199,-0.005235964,0,31.62644625,31.62644625,,,54.91000009,30,0.12707305,0.257796561
2018-07-19T08:08:06Z,1531987686,10D,38.9504986,45.0799992,32.25,-0.1,-0.3,245.7,368817.91,10974.09,241.5,Air+FixedWing,Red,Allies,J-11A,Red J-11A #003,xu,<51>Chimango,0,0,0,32.25,2.25,0,0,NaN,NaN,0,0.00989117,NaN,0.999984682,-0.001745199,-0.005235964,0,31.62644625,31.62644625,,,55.91000009,30,0.127264092,0.257987604
2018-07-19T08:08:07Z,1531987687,10D,38.9504986,45.0799992,32.25,-0.1,-0.3,245.7,368817.91,10974.09,241.5,Air+FixedWing,Red,Allies,J-11A,Red J-11A #003,xu,<51>Chimango,0,0,0,32.25,2.25,0,0,NaN,NaN,0,0.00989117,NaN,0.999984682,-0.001745199,-0.005235964,0,31.62644625,31.62644625,,,56.91000009,30,0.127455132,0.258178644
2018-07-19T08:08:08Z,1531987688,10D,38.9504986,45.0799992,32.25,-0.1,-0.3,245.7,368817.91,10974.09,241.5,Air+FixedWing,Red,Allies,J-11A,Red J-11A #003,xu,<51>Chimango,0,0,0,32.25,2.25,0,0,NaN,NaN,0,0.00989117,NaN,0.999984682,-0.001745199,-0.005235964,0,31.62644625,31.62644625,,,57.91000009,30,0.127646174,0.258369688
2018-07-19T08:08:09Z,1531987689,10D,38.9504986,45.0799992,32.25,-0.1,-0.3,245.7,368817.91,10974.09,241.5,Air+FixedWing,Red,Allies,J-11A,Red J-11A #003,xu,<51>Chimango,0,0,0,32.25,2.25,0,0,NaN,NaN,0,0.00989117,NaN,0.999984682,-0.001745199,-0.005235964,0,31.62644625,31.62644625,,,58.91000009,30,0.127837215,0.25856073
2018-07-19T08:08:10Z,1531987690,10D,38.9504986,45.0799992,32.25,-0.1,-0.3,245.7,368817.91,10974.09,241.5,Air+FixedWing,Red,Allies,J-11A,Red J-11A #003,xu,<51>Chimango,0,0,0,32.25,2.25,0,0,NaN,NaN,0,0.00989117,NaN,0.999984682,-0.001745199,-0.005235964,0,31.62644625,31.62644625,,,59.91000009,30,0.128028256,0.258751771
2018-07-19T08:08:11Z,1531987691,10D,38.9504986,45.0799992,32.25,-0.1,-0.3,245.7,368817.91,10974.09,241.5,Air+FixedWing,Red,Allies,J-11A,Red J-11A #003,xu,<51>Chimango,0,0,0,32.25,2.25,0,0,NaN,NaN,0,0.00989117,NaN,0.999984682,-0.001745199,-0.005235964,0,31.62644625,31.62644625,,,60.91000009,30,0.128219295,0.258942812
2018-07-19T08:08:12Z,1531987692,10D,38.9504986,45.0799992,32.25,-0.1,-0.3,245.7,368817.91,10974.09,241.5,Air+FixedWing,Red,Allies,J-11A,Red J-11A #003,xu,<51>Chimango,0,0,0,32.25,2.25,0,0,NaN,NaN,0,0.00989117,NaN,0.999984682,-0.001745199,-0.005235964,0,31.62644625,31.62644625,,,61.91000009,30,0.128410337,0.259133856
2018-07-19T08:08:13Z,1531987693,10D,38.9504986,45.0799992,32.25,-0.1,-0.3,245.7,368817.91,10974.09,241.5,Air+FixedWing,Red,Allies,J-11A,Red J-11A #003,xu,<51>Chimango,0,0,0,32.25,2.25,0,0,NaN,NaN,0,0.00989117,NaN,0.999984682,-0.001745199,-0.005235964,0,31.62644625,31.62644625,,,62.91000009,30,0.128601377,0.259324895
2018-07-19T08:08:14Z,1531987694,10D,38.9504986,45.0799991,32.25,-0.1,-0.3,245.7,368817.91,10974.09,241.5,Air+FixedWing,Red,Allies,J-11A,Red J-11A #003,xu,<51>Chimango,0,0,0,32.25,2.25,0,0,NaN,NaN,0,0.00989117,NaN,0.999984682,-0.001745199,-0.005235964,0,31.62644625,31.62644625,,,63.91000009,30,0.139712311,0.270435884
2018-07-19T08:08:15Z,1531987695,10D,38.9504986,45.0799991,32.25,-0.1,-0.3,245.7,368817.91,10974.09,241.5,Air+FixedWing,Red,Allies,J-11A,Red J-11A #003,xu,<51>Chimango,0,0,0,32.25,2.25,0,0,NaN,NaN,0,0.00989117,NaN,0.999984682,-0.001745199,-0.005235964,0,31.62644625,31.62644625,,,64.91000009,30,0.139712311,0.270435884
2018-07-19T08:08:16Z,1531987696,10D,38.9504986,45.0799991,32.25,-0.1,-0.3,245.7,368817.91,10974.09,241.5,Air+FixedWing,Red,Allies,J-11A,Red J-11A #003,xu,<51>Chimango,0,0,0,32.25,2.25,0,0,NaN,NaN,0,0.00989117,NaN,0.999984682,-0.001745199,-0.005235964,0,31.62644625,31.62644625,,,65.91000009,30,0.139712311,0.270435884
2018-07-19T08:08:17Z,1531987697,10D,38.9504986,45.0799991,32.25,-0.1,-0.3,245.7,368817.91,10974.09,241.5,Air+FixedWing,Red,Allies,J-11A,Red J-11A #003,xu,<51>Chimango,0,0,0,32.25,2.25,0,0,NaN,NaN,0,0.00989117,NaN,0.999984682,-0.001745199,-0.005235964,0,31.62644625,31.62644625,,,66.91000009,30,0.139712311,0.270435884
2018-07-19T08:08:18Z,1531987698,10D,38.9504986,45.0799991,32.25,-0.1,-0.3,245.7,368817.91,10974.09,241.5,Air+FixedWing,Red,Allies,J-11A,Red J-11A #003,xu,<51>Chimango,0,0,0,32.25,2.25,0,0,NaN,NaN,0,0.00989117,NaN,0.999984682,-0.001745199,-0.005235964,0,31.62644625,31.62644625,,,67.91000009,30,0.139712311,0.270435884
2018-07-19T08:08:19Z,1531987699,10D,38.9504986,45.0799991,32.25,-0.1,-0.3,245.7,368817.91,10974.09,241.5,Air+FixedWing,Red,Allies,J-11A,Red J-11A #003,xu,<51>Chimango,0,0,0,32.25,2.25,0,0,NaN,NaN,0,0.00989117,NaN,0.999984682,-0.001745199,-0.005235964,0,31.62644625,31.62644625,,,68.91000009,30,0.139712311,0.270435884
2018-07-19T08:08:20Z,1531987700,10D,38.9504986,45.0799991,32.25,-0.1,-0.3,245.7,368817.91,10974.09,241.5,Air+FixedWing,Red,Allies,J-11A,Red J-11A #003,xu,<51>Chimango,0,0,0,32.25,2.25,0,0,NaN,NaN,0,0.00989117,NaN,0.999984682,-0.001745199,-0.005235964,0,31.62644625,31.62644625,,,69.91000009,30,0.139712311,0.270435884
2018-07-19T08:08:21Z,1531987701,10D,38.9504986,45.0799991,32.25,-0.1,-0.3,245.7,368817.91,10974.09,241.5,Air+FixedWing,Red,Allies,J-11A,Red J-11A #003,xu,<51>Chimango,0,0,0,32.25,2.25,0,0,NaN,NaN,0,0.00989117,NaN,0.999984682,-0.001745199,-0.005235964,0,31.62644625,31.62644625,,,70.91000009,30,0.139712311,0.270435884
2018-07-19T08:08:22Z,1531987702,10D,38.9504986,45.0799991,32.25,-0.1,-0.3,245.7,368817.91,10974.09,241.5,Air+FixedWing,Red,Allies,J-11A,Red J-11A #003,xu,<51>Chimango,0,0,0,32.25,2.25,0,0,NaN,NaN,0,0.00989117,NaN,0.999984682,-0.001745199,-0.005235964,0,31.62644625,31.62644625,,,71.91000009,30,0.139712311,0.270435884
2018-07-19T08:08:23Z,1531987703,10D,38.9504986,45.0799991,32.25,-0.1,-0.3,245.7,368817.91,10974.09,241.5,Air+FixedWing,Red,Allies,J-11A,Red J-11A #003,xu,<51>Chimango,0,0,0,32.25,2.25,0,0,NaN,NaN,0,0.00989117,NaN,0.999984682,-0.001745199,-0.005235964,0,31.62644625,31.62644625,,,72.91000009,30,0.139712311,0.270435884
2018-07-19T08:08:24Z,1531987704,10D,38.9504986,45.0799991,32.25,-0.1,-0.3,245.8,368817.91,10974.09,241.5,Air+FixedWing,Red,Allies,J-11A,Red J-11A #003,xu,<51>Chimango,0,0,0,32.25,2.25,0,0,NaN,NaN,0,0.00989117,NaN,0.999984682,-0.001745199,-0.005235964,0,31.62644625,31.62644625,,,73.91000009,30,0.139712311,0.270435884
2018-07-19T08:08:25Z,1531987705,10D,38.9504986,45.0799991,32.25,-0.1,-0.3,245.8,368817.91,10974.09,241.5,Air+FixedWing,Red,Allies,J-11A,Red J-11A #003,xu,<51>Chimango,0,0,0,32.25,2.25,0,0,NaN,NaN,0,0.00989117,NaN,0.999984682,-0.001745199,-0.005235964,0,31.62644625,31.62644625,,,74.91000009,30,0.139712311,0.270435884
2018-07-19T08:08:26Z,1531987706,10D,38.9504986,45.0799991,32.25,-0.1,-0.3,245.8,368817.91,10974.09,241.5,Air+FixedWing,Red,Allies,J-11A,Red J-11A #003,xu,<51>Chimango,0,0,0,32.25,2.25,0,0,NaN,NaN,0,0.00989117,NaN,0.999984682,-0.001745199,-0.005235964,0,31.62644625,31.62644625,,,75.91000009,30,0.139712311,0.270435884
2018-07-19T08:08:27Z,1531987707,10D,38.9504986,45.0799991,32.25,-0.1,-0.3,245.8,368817.91,10974.09,241.5,Air+FixedWing,Red,Allies,J-11A,Red J-11A #003,xu,<51>Chimango,0,0,0,32.25,2.25,0,0,NaN,NaN,0,0.00989117,NaN,0.999984682,-0.001745199,-0.005235964,0,31.62644625,31.62644625,,,76.91000009,30,0.139712311,0.270435884
2018-07-19T08:08:28Z,1531987708,10D,38.9504986,45.0799991,32.25,-0.1,-0.3,245.8,368817.91,10974.09,241.5,Air+FixedWing,Red,Allies,J-11A,Red J-11A #003,xu,<51>Chimango,0,0,0,32.25,2.25,0,0,NaN,NaN,0,0.00989117,NaN,0.999984682,-0.001745199,-0.005235964,0,31.62644625,31.62644625,,,77.91000009,30,0.139712311,0.270435884
2018-07-19T08:08:29Z,1531987709,10D,38.9504986,45.0799991,32.25,-0.1,-0.3,245.8,368817.91,10974.09,241.5,Air+FixedWing,Red,Allies,J-11A,Red J-11A #003,xu,<51>Chimango,0,0,0,32.25,2.25,0,0,NaN,NaN,0,0.00989117,NaN,0.999984682,-0.001745199,-0.005235964,0,31.62644625,31.62644625,,,78.91000009,30,0.139712311,0.270435884
2018-07-19T08:08:30Z,1531987710,10D,38.9504986,45.0799991,32.25,-0.1,-0.3,245.8,368817.91,10974.09,241.5,Air+FixedWing,Red,Allies,J-11A,Red J-11A #003,xu,<51>Chimango,0,0,0,32.25,2.25,0,0,NaN,NaN,0,0.00989117,NaN,0.999984682,-0.001745199,-0.005235964,0,31.62644625,31.62644625,,,79.91000009,30,0.139712311,0.270435884
2018-07-19T08:08:31Z,1531987711,10D,38.9504986,45.0799991,32.25,-0.1,-0.3,245.8,368817.91,10974.09,241.5,Air+FixedWing,Red,Allies,J-11A,Red J-11A #003,xu,<51>Chimango,0,0,0,32.25,2.25,0,0,NaN,NaN,0,0.00989117,NaN,0.999984682,-0.001745199,-0.005235964,0,31.62644625,31.62644625,,,80.91000009,30,0.139712311,0.270435884
2018-07-19T08:08:32Z,1531987712,10D,38.9504986,45.0799991,32.25,-0.1,-0.3,245.8,368817.91,10974.09,241.5,Air+FixedWing,Red,Allies,J-11A,Red J-11A #003,xu,<51>Chimango,0,0,0,32.25,2.25,0,0,NaN,NaN,0,0.00989117,NaN,0.999984682,-0.001745199,-0.005235964,0,31.62644625,31.62644625,,,81.91000009,30,0.139712311,0.270435884
2018-07-19T08:08:33Z,1531987713,10D,38.9504986,45.0799991,32.25,-0.1,-0.3,245.8,368817.91,10974.09,241.5,Air+FixedWing,Red,Allies,J-11A,Red J-11A #003,xu,<51>Chimango,0,0,0,32.25,2.25,0,0,NaN,NaN,0,0.00989117,NaN,0.999984682,-0.001745199,-0.005235964,0,31.62644625,31.62644625,,,82.91000009,30,0.139712311,0.270435884
2018-07-19T08:08:34Z,1531987714,10D,38.9504986,45.0799991,32.25,-0.1,-0.3,245.8,368817.91,10974.09,241.5,Air+FixedWing,Red,Allies,J-11A,Red J-11A #003,xu,<51>Chimango,0,0,0,32.25,2.25,0,0,NaN,NaN,0,0.01713201,NaN,0.999984682,-0.001745199,-0.005235964,0,31.62644625,31.62644625,,,83.91000009,30,0.139712311,0.270435884
2018-07-19T08:08:35Z,1531987715,10D,38.9504986,45.0799991,32.25,-0.1,-0.3,245.8,368817.91,10974.09,241.5,Air+FixedWing,Red,Allies,J-11A,Red J-11A #003,xu,<51>Chimango,0,0,0,32.25,2.25,0,0,NaN,NaN,0,0.013988227,NaN,0.999984622,-0.001745199,-0.005265785,0,31.62644625,31.62644625,,,84.91000009,30,0.139712311,0.270435884
2018-07-19T08:08:36Z,1531987716,10D,38.9504986,45.0799991,32.25,-0.1,-0.3,245.8,368817.91,10974.09,241.5,Air+FixedWing,Red,Allies,J-11A,Red J-11A #003,xu,<51>Chimango,0,0,0,32.25,2.25,0,0,NaN,NaN,0,0.01713201,NaN,0.999984384,-0.001745199,-0.005305023,0,31.62644625,31.62644625,,,85.91000009,30,0.139712311,0.270435884
2018-07-19T08:08:37Z,1531987717,10D,38.9504986,45.0799991,32.25,-0.1,-0.3,245.8,368817.91,10974.09,241.5,Air+FixedWing,Red,Allies,J-11A,Red J-11A #003,xu,<51>Chimango,0,0,0,32.25,2.25,0,0,NaN,NaN,0,0.01713201,NaN,0.999984205,-0.001745198,-0.005344261,0,31.62644625,31.62644625,,,86.91000009,30,0.139712311,0.270435884
2018-07-19T08:08:38Z,1531987718,10D,38.9504986,45.0799991,32.25,-0.1,-0.3,245.8,368817.91,10974.09,241.5,Air+FixedWing,Red,Allies,J-11A,Red J-11A #003,xu,<51>Chimango,0,0,0,32.25,2.25,0,0,NaN,NaN,0,0.013988227,NaN,0.999983907,-0.001745198,-0.005383499,0,31.62644625,31.62644625,,,87.91000009,30,0.139712311,0.270435884
2018-07-19T08:08:39Z,1531987719,10D,38.9504986,45.0799991,32.25,-0.1,-0.3,245.8,368817.91,10974.09,241.5,Air+FixedWing,Red,Allies,J-11A,Red J-11A #003,xu,<51>Chimango,0,0,0,32.25,2.25,0,0,NaN,NaN,0,0.019782341,NaN,0.999983668,-0.001745197,-0.005422737,0,31.62644625,31.62644625,,,88.91000009,30,0.139712311,0.270435884
2018-07-19T08:08:40Z,1531987720,10D,38.9504986,45.0799991,32.25,-0.1,-0.3,245.8,368817.91,10974.09,241.5,Air+FixedWing,Red,Allies,J-11A,Red J-11A #003,xu,<51>Chimango,0,0,0,32.25,2.25,0,0,NaN,NaN,0,0.00989117,NaN,0.99998343,-0.001745197,-0.005461975,0,31.62644625,31.62644625,,,89.91000009,30,0.139712311,0.270435884
2018-07-19T08:08:41Z,1531987721,10D,38.9504986,45.0799991,32.25,-0.1,-0.3,245.8,368817.91,10974.09,241.5,Air+FixedWing,Red,Allies,J-11A,Red J-11A #003,xu,<51>Chimango,0,0,0,32.25,2.25,0,0,NaN,NaN,0,0.01713201,NaN,0.999983251,-0.001745197,-0.005501213,0,31.62644625,31.62644625,,,90.91000009,30,0.139712311,0.270435884
2018-07-19T08:08:42Z,1531987722,10D,38.9504986,45.0799991,32.25,-0.1,-0.3,245.8,368817.91,10974.09,241.5,Air+FixedWing,Red,Allies,J-11A,Red J-11A #003,xu,<51>Chimango,0,0,0,32.25,2.25,0,0,NaN,NaN,0,0.013988227,NaN,0.999983013,-0.001745196,-0.005540451,0,31.62644625,31.62644625,,,91.91000009,30,0.139712311,0.270435884
2018-07-19T08:08:43Z,1531987723,10D,38.9504986,45.0799991,32.25,-0.1,-0.3,245.8,368817.91,10974.09,241.5,Air+FixedWing,Red,Allies,J-11A,Red J-11A #003,xu,<51>Chimango,0,0,0,32.25,2.25,0,0,NaN,NaN,0,0.01713201,NaN,0.999982834,-0.001745196,-0.005579689,0,31.62644625,31.62644625,,,92.91000009,30,0.139712311,0.270435884
2018-07-19T08:08:44Z,1531987724,10D,38.9504986,45.0799991,32.25,-0.1,-0.3,245.8,368817.91,10974.09,241.5,Air+FixedWing,Red,Allies,J-11A,Red J-11A #003,xu,<51>Chimango,0,0,0,32.25,2.25,0,0,NaN,NaN,0,0.019782341,NaN,0.999982595,-0.001745195,-0.005618927,0,31.62644625,31.62644625,,,93.91000009,30,0.139712311,0.270435884
2018-07-19T08:08:45Z,1531987725,10D,38.9504986,45.0799991,32.25,-0.1,-0.3,245.8,368817.91,10974.09,241.5,Air+FixedWing,Red,Allies,J-11A,Red J-11A #003,xu,<51>Chimango,0,0,0,32.25,2.25,0,0,NaN,NaN,0,0.019782341,NaN,0.999982417,-0.001745195,-0.005658164,0,31.62644625,31.62644625,,,94.91000009,30,0.139712311,0.270435884
2018-07-19T08:08:46Z,1531987726,10D,38.9504986,45.0799991,32.25,-0.1,-0.3,245.8,368817.91,10974.09,241.5,Air+FixedWing,Red,Allies,J-11A,Red J-11A #003,xu,<51>Chimango,0,0,0,32.25,2.25,0,0,NaN,NaN,0,0.019782341,NaN,0.999982238,-0.001745195,-0.005697403,0,31.62644625,31.62644625,,,95.91000009,30,0.139712311,0.270435884
2018-07-19T08:08:47Z,1531987727,10D,38.9504986,45.0799991,32.25,-0.1,-0.3,245.8,368817.91,10974.09,241.5,Air+FixedWing,Red,Allies,J-11A,Red J-11A #003,xu,<51>Chimango,0,0,0,32.25,2.25,0,0,NaN,NaN,0,0.01713201,NaN,0.999981999,-0.001745194,-0.00573664,0,31.62644625,31.62644625,,,96.91000009,30,0.139712311,0.270435884
2018-07-19T08:08:48Z,1531987728,10D,38.9504986,45.0799991,32.25,-0.1,-0.3,245.8,368817.91,10974.09,241.5,Air+FixedWing,Red,Allies,J-11A,Red J-11A #003,xu,<51>Chimango,0,0,0,32.25,2.25,0,0,NaN,NaN,0,0.019782341,NaN,0.999981701,-0.001745194,-0.005775878,0,31.62644625,31.62644625,,,97.91000009,30,0.139712311,0.270435884
2018-07-19T08:08:49Z,1531987729,10D,38.9504986,45.0799991,32.25,-0.1,-0.3,245.8,368817.91,10974.09,241.5,Air+FixedWing,Red,Allies,J-11A,Red J-11A #003,xu,<51>Chimango,0,0,0,32.25,2.25,0,0,NaN,NaN,0,0.013988227,NaN,0.999981523,-0.001745194,-0.005815116,0,31.62644625,31.62644625,,,98.91000009,30,0.139712311,0.270435884
2018-07-19T08:08:50Z,1531987730,10D,38.9504986,45.0799991,32.25,-0.1,-0.3,245.8,368817.91,10974.09,241.5,Air+FixedWing,Red,Allies,J-11A,Red J-11A #003,xu,<51>Chimango,0,0,0,32.25,2.25,0,0,NaN,NaN,0,0.01713201,NaN,0.999981284,-0.001745193,-0.005854354,0,31.62644625,31.62644625,,,99.91000009,30,0.139712311,0.270435884
2018-07-19T08:08:51Z,1531987731,10D,38.9504986,45.0799991,32.25,-0.1,-0.3,245.8,368817.91,10974.09,241.5,Air+FixedWing,Red,Allies,J-11A,Red J-11A #003,xu,<51>Chimango,0,0,0,32.25,2.25,0,0,NaN,NaN,0,0.00989117,NaN,0.999981046,-0.001745193,-0.005893592,0,31.62644625,31.62644625,,,100.9100001,30,0.139712311,0.270435884
2018-07-19T08:08:52Z,1531987732,10D,38.9504986,45.0799991,32.25,-0.1,-0.3,245.8,368817.91,10974.09,241.5,Air+FixedWing,Red,Allies,J-11A,Red J-11A #003,xu,<51>Chimango,0,0,0,32.25,2.25,0,0,NaN,NaN,0,0.013988227,NaN,0.999980867,-0.001745192,-0.005932829,0,31.62644625,31.62644625,,,101.9100001,30,0.139712311,0.270435884
2018-07-19T08:08:53Z,1531987733,10D,38.9504986,45.0799991,32.25,-0.1,-0.3,245.8,368817.91,10974.09,241.5,Air+FixedWing,Red,Allies,J-11A,Red J-11A #003,xu,<51>Chimango,0,0,0,32.25,2.25,0,0,NaN,NaN,0,0.013988227,NaN,0.999980569,-0.001745192,-0.005972067,0,31.62644625,31.62644625,,,102.9100001,30,0.139712311,0.270435884
2018-07-19T08:08:54Z,1531987734,10D,38.9504986,45.0799991,32.25,-0.1,-0.3,245.8,368817.91,10974.09,241.5,Air+FixedWing,Red,Allies,J-11A,Red J-11A #003,xu,<51>Chimango,0,0,0,32.25,2.25,0,0,NaN,NaN,0,0.01713201,NaN,0.99998033,-0.001745191,-0.006011305,0,31.62644625,31.62644625,,,103.9100001,30,0.139712311,0.270435884
2018-07-19T08:08:55Z,1531987735,10D,38.9504986,45.0799991,32.25,-0.1,-0.3,245.8,368817.91,10974.09,241.5,Air+FixedWing,Red,Allies,J-11A,Red J-11A #003,xu,<51>Chimango,0,0,0,32.25,2.25,0,0,NaN,NaN,0,0.01713201,NaN,0.999980092,-0.001745191,-0.006050543,0,31.62644625,31.62644625,,,104.9100001,30,0.139712311,0.270435884
2018-07-19T08:08:56Z,1531987736,10D,38.9504986,45.0799991,32.25,-0.1,-0.3,245.8,368817.91,10974.09,241.5,Air+FixedWing,Red,Allies,J-11A,Red J-11A #003,xu,<51>Chimango,0,0,0,32.25,2.25,0,0,NaN,NaN,0,0.019782341,NaN,0.999979854,-0.001745191,-0.00608978,0,31.62644625,31.62644625,,,105.9100001,30,0.139712311,0.270435884
2018-07-19T08:08:57Z,1531987737,10D,38.9504986,45.0799991,32.25,-0.1,-0.4,245.8,368817.91,10974.09,241.5,Air+FixedWing,Red,Allies,J-11A,Red J-11A #003,xu,<51>Chimango,0,0,0,32.25,2.25,0,0,NaN,NaN,0,0.013988227,NaN,0.999979615,-0.00174519,-0.006129018,0,31.62644625,31.62644625,,,106.9100001,30,0.139712311,0.270435884
2018-07-19T08:08:58Z,1531987738,10D,38.9504986,45.0799991,32.25,-0.1,-0.4,245.8,368817.91,10974.09,241.5,Air+FixedWing,Red,Allies,J-11A,Red J-11A #003,xu,<51>Chimango,0,0,0,32.25,2.25,0,0,NaN,NaN,0,0.019782341,NaN,0.999979377,-0.00174519,-0.006168256,0,31.62644625,31.62644625,,,107.9100001,30,0.139712311,0.270435884
2018-07-19T08:08:59Z,1531987739,10D,38.9504986,45.0799991,32.25,-0.1,-0.4,245.8,368817.91,10974.09,241.5,Air+FixedWing,Red,Allies,J-11A,Red J-11A #003,xu,<51>Chimango,0,0,0,32.25,2.25,0,0,NaN,NaN,0,0.01713201,NaN,0.999979138,-0.001745189,-0.006207494,0,31.62644625,31.62644625,,,108.9100001,30,0.139712311,0.270435884
2018-07-19T08:09:00Z,1531987740,10D,38.9504986,45.0799991,32.25,-0.1,-0.4,245.8,368817.91,10974.09,241.5,Air+FixedWing,Red,Allies,J-11A,Red J-11A #003,xu,<51>Chimango,0,0,0,32.25,2.25,0,0,NaN,NaN,0,0.019782341,NaN,0.9999789,-0.001745189,-0.006246732,0,31.62644625,31.62644625,,,109.9100001,30,0.139712311,0.270435884
2018-07-19T08:09:01Z,1531987741,10D,38.9504986,45.0799991,32.25,-0.1,-0.4,245.8,368817.91,10974.09,241.5,Air+FixedWing,Red,Allies,J-11A,Red J-11A #003,xu,<51>Chimango,0,0,0,32.25,2.25,0,0,NaN,NaN,0,0.01713201,NaN,0.999978662,-0.001745189,-0.00628597,0,31.62644625,31.62644625,,,110.9100001,30,0.139712311,0.270435884
2018-07-19T08:09:02Z,1531987742,10D,38.9504986,45.0799991,32.25,-0.1,-0.4,245.8,368817.91,10974.09,241.5,Air+FixedWing,Red,Allies,J-11A,Red J-11A #003,xu,<51>Chimango,0,0,0,32.25,2.25,0,0,NaN,NaN,0,0.024228322,NaN,0.999978423,-0.001745188,-0.006325207,0,31.62644625,31.62644625,,,111.9100001,30,0.139712311,0.270435884
2018-07-19T08:09:03Z,1531987743,10D,38.9504986,45.0799991,32.25,-0.1,-0.4,245.8,368817.91,10974.09,241.5,Air+FixedWing,Red,Allies,J-11A,Red J-11A #003,xu,<51>Chimango,0,0,0,32.25,2.25,0,0,NaN,NaN,0,0.019782341,NaN,0.999978125,-0.001745188,-0.006364445,0,31.62644625,31.62644625,,,112.9100001,30,0.139712311,0.270435884
2018-07-19T08:09:04Z,1531987744,10D,38.9504986,45.0799991,32.25,-0.1,-0.4,245.8,368817.91,10974.09,241.5,Air+FixedWing,Red,Allies,J-11A,Red J-11A #003,xu,<51>Chimango,0,0,0,32.25,2.25,0,0,NaN,NaN,0,0.019782341,NaN,0.999977946,-0.001745187,-0.006403683,0,31.62644625,31.62644625,,,113.9100001,30,0.139712311,0.270435884
2018-07-19T08:09:05Z,1531987745,10D,38.9504986,45.0799991,32.25,-0.1,-0.4,245.8,368817.91,10974.09,241.5,Air+FixedWing,Red,Allies,J-11A,Red J-11A #003,xu,<51>Chimango,0,0,0,32.25,2.25,0,0,NaN,NaN,0,0.013988227,NaN,0.999977648,-0.001745187,-0.00644292,0,31.62644625,31.62644625,,,114.9100001,30,0.139712311,0.270435884
2018-07-19T08:09:06Z,1531987746,10D,38.9504986,45.0799991,32.25,-0.1,-0.4,245.8,368817.91,10974.09,241.5,Air+FixedWing,Red,Allies,J-11A,Red J-11A #003,xu,<51>Chimango,0,0,0,32.25,2.25,0,0,NaN,NaN,0,0.013988227,NaN,0.99997741,-0.001745186,-0.006482158,0,31.62644625,31.62644625,,,115.9100001,30,0.139712311,0.270435884
2018-07-19T08:09:07Z,1531987747,10D,38.9504986,45.0799991,32.25,-0.1,-0.4,245.8,368817.91,10974.09,241.5,Air+FixedWing,Red,Allies,J-11A,Red J-11A #003,xu,<51>Chimango,0,0,0,32.25,2.25,0,0,NaN,NaN,0,0.01713201,NaN,0.999977171,-0.001745186,-0.006521396,0,31.62644625,31.62644625,,,116.9100001,30,0.139712311,0.270435884
2018-07-19T08:09:08Z,1531987748,10D,38.9504986,45.0799991,32.25,-0.1,-0.4,245.8,368817.91,10974.09,241.5,Air+FixedWing,Red,Allies,J-11A,Red J-11A #003,xu,<51>Chimango,0,0,0,32.25,2.25,0,0,NaN,NaN,0,0.013988227,NaN,0.999976933,-0.001745186,-0.006560633,0,31.62644625,31.62644625,,,117.9100001,30,0.139712311,0.270435884
2018-07-19T08:09:09Z,1531987749,10D,38.9504986,45.0799991,32.25,-0.1,-0.4,245.8,368817.91,10974.09,241.5,Air+FixedWing,Red,Allies,J-11A,Red J-11A #003,xu,<51>Chimango,0,0,0,32.25,2.25,0,0,NaN,NaN,0,0.019782341,NaN,0.999976635,-0.001745185,-0.006599871,0,31.62644625,31.62644625,,,118.9100001,30,0.139712311,0.270435884
2018-07-19T08:09:10Z,1531987750,10D,38.9504986,45.0799991,32.25,-0.1,-0.4,245.8,368817.91,10974.09,241.5,Air+FixedWing,Red,Allies,J-11A,Red J-11A #003,xu,<51>Chimango,0,0,0,32.25,2.25,0,0,NaN,NaN,0,0.01713201,NaN,0.999976397,-0.001745185,-0.006639109,0,31.62644625,31.62644625,,,119.9100001,30,0.139712311,0.270435884
2018-07-19T08:09:11Z,1531987751,10D,38.9504986,45.0799991,32.25,-0.1,-0.4,245.8,368817.91,10974.09,241.5,Air+FixedWing,Red,Allies,J-11A,Red J-11A #003,xu,<51>Chimango,0,0,0,32.25,2.25,0,0,NaN,NaN,0,0.013988227,NaN,0.999976158,-0.001745184,-0.006678346,0,31.62644625,31.62644625,,,120.9100001,30,0.139712311,0.270435884
2018-07-19T08:09:12Z,1531987752,10D,38.9504986,45.0799991,32.25,-0.1,-0.4,245.8,368817.91,10974.09,241.5,Air+FixedWing,Red,Allies,J-11A,Red J-11A #003,xu,<51>Chimango,0,0,0,32.25,2.25,0,0,NaN,NaN,0,0.019782341,NaN,0.999975801,-0.001745184,-0.006717584,0,31.62644625,31.62644625,,,121.9100001,30,0.139712311,0.270435884
2018-07-19T08:09:13Z,1531987753,10D,38.9504986,45.0799991,32.25,-0.1,-0.4,245.8,368817.91,10974.09,241.5,Air+FixedWing,Red,Allies,J-11A,Red J-11A #003,xu,<51>Chimango,0,0,0,32.25,2.25,0,0,NaN,NaN,0,0.013988227,NaN,0.999975562,-0.001745183,-0.006756822,0,31.62644625,31.62644625,,,122.9100001,30,0.139712311,0.270435884
2018-07-19T08:09:14Z,1531987754,10D,38.9504986,45.0799991,32.25,-0.1,-0.4,245.8,368817.91,10974.09,241.5,Air+FixedWing,Red,Allies,J-11A,Red J-11A #003,xu,<51>Chimango,0,0,0,32.25,2.25,0,0,NaN,NaN,0,0.01713201,NaN,0.999975264,-0.001745183,-0.006796059,0,31.62644625,31.62644625,,,123.9100001,30,0.139712311,0.270435884
2018-07-19T08:09:15Z,1531987755,10D,38.9504986,45.0799991,32.25,-0.1,-0.4,245.8,368817.91,10974.09,241.5,Air+FixedWing,Red,Allies,J-11A,Red J-11A #003,xu,<51>Chimango,0,0,0,32.25,2.25,0,0,NaN,NaN,0,0.013988227,NaN,0.999975026,-0.001745182,-0.006835297,0,31.62644625,31.62644625,,,124.9100001,30,0.139712311,0.270435884
2018-07-19T08:09:16Z,1531987756,10D,38.9504986,45.0799991,32.25,-0.1,-0.4,245.8,368817.91,10974.09,241.5,Air+FixedWing,Red,Allies,J-11A,Red J-11A #003,xu,<51>Chimango,0,0,0,32.25,2.25,0,0,NaN,NaN,0,0.013988227,NaN,0.999974787,-0.001745182,-0.006874535,0,31.62644625,31.62644625,,,125.9100001,30,0.139712311,0.270435884
2018-07-19T08:09:17Z,1531987757,10D,38.9504986,45.0799991,32.25,-0.1,-0.4,245.8,368817.91,10974.09,241.5,Air+FixedWing,Red,Allies,J-11A,Red J-11A #003,xu,<51>Chimango,0,0,0,32.25,2.25,0,0,NaN,NaN,0,0.019782341,NaN,0.999974489,-0.001745181,-0.006913772,0,31.62644625,31.62644625,,,126.9100001,30,0.139712311,0.270435884
2018-07-19T08:09:18Z,1531987758,10D,38.9504986,45.0799991,32.25,-0.1,-0.4,245.8,368817.91,10974.09,241.5,Air+FixedWing,Red,Allies,J-11A,Red J-11A #003,xu,<51>Chimango,0,0,0,32.25,2.25,0,0,NaN,NaN,0,0.019782341,NaN,0.999974251,-0.001745181,-0.00695301,0,31.62644625,31.62644625,,,127.9100001,30,0.139712311,0.270435884
2018-07-19T08:09:19Z,1531987759,10D,38.9504986,45.0799991,32.25,-0.1,-0.4,245.8,368817.91,10974.09,241.5,Air+FixedWing,Red,Allies,J-11A,Red J-11A #003,xu,<51>Chimango,0,0,0,32.25,2.25,0,0,NaN,NaN,0,0.02211733,NaN,0.999975205,-0.001745182,-0.006813915,0,31.62644625,31.62644625,,,128.9100001,30,0.139712311,0.270435884
2018-07-19T08:09:20Z,1531987760,10D,38.9504986,45.0799991,32.25,-0.1,-0.4,245.8,368817.91,10974.09,241.5,Air+FixedWing,Red,Allies,J-11A,Red J-11A #003,xu,<51>Chimango,0,0,0,32.25,2.25,0,0,NaN,NaN,0,0.034264021,NaN,0.999979079,-0.001745189,-0.006216248,0,31.62644625,31.62644625,,,129.9100001,30,0.139712311,0.270435884
2018-07-19T08:09:21Z,1531987761,10D,38.9504986,45.0799991,32.25,-0.1,-0.3,245.8,368817.91,10974.09,241.5,Air+FixedWing,Red,Allies,J-11A,Red J-11A #003,xu,<51>Chimango,0,0,0,32.25,2.25,0,0,NaN,NaN,0,0.03830834,NaN,0.999415905,-0.001744206,-0.005615395,0,31.62644625,31.62644625,,,130.9100001,30,0.139712311,0.270435884
2018-07-19T08:09:22Z,1531987762,10D,38.9504986,45.0799992,32.24,-0.1,-0.3,245.8,368817.91,10974.09,241.5,Air+FixedWing,Red,Allies,J-11A,Red J-11A #003,xu,<51>Chimango,0.005558014,0,1.63e-05,32.24444199,2.244441986,0,-0.005558014,NaN,NaN,0,0.02211733,NaN,1.00156253,-0.000872811,-0.004769049,1.54e-06,31.6209957,31.62099724,,,131.9100001,30,0.150844261,0.282878274
2018-07-19T08:09:23Z,1531987763,10D,38.9504986,45.0799991,32.25,-0.1,-0.3,245.8,368817.91,10974.08,241.5,Air+FixedWing,Red,Allies,J-11A,Red J-11A #003,xu,<51>Chimango,0.013889124,0,4.08e-05,32.25431824,2.254318237,0.009765625,0.009876251,NaN,NaN,0,0.00989117,NaN,0.997946539,-0.003491926,-0.006175647,9.65e-06,31.63068099,31.63069064,,,132.9100001,30,0.161976211,0.297759869
2018-07-19T08:09:24Z,1531987764,10D,38.9504986,45.0799992,32.24,-0.1,-0.3,245.8,368817.91,10974.09,241.5,Air+FixedWing,Red,Allies,J-11A,Red J-11A #003,xu,<51>Chimango,0.01400077,0,4.11e-05,32.24428558,2.244285583,0.009765625,-0.010032654,NaN,NaN,0,0.00989117,NaN,1.000570493,-0.001746221,-0.005239032,9.8e-06,31.62084232,31.62085212,,,133.9100001,30,0.173108161,0.312745719
2018-07-19T08:09:25Z,1531987765,10D,38.9504986,45.0799993,32.24,-0.1,-0.3,245.8,368817.91,10974.1,241.5,Air+FixedWing,Red,Allies,J-11A,Red J-11A #003,xu,<51>Chimango,0.010665457,0,3.13e-05,32.23999786,2.239997864,0.009765625,-0.00428772,NaN,NaN,0.085709029,0.00989117,NaN,1.001449555,0.000751565,-0.004293282,5.69e-06,31.61663751,31.61664319,,,134.9100001,30,0.184240109,0.32467493
2018-07-19T08:09:26Z,1531987766,10D,38.9504986,45.0799992,32.25,-0.1,-0.3,245.8,368817.91,10974.09,241.5,Air+FixedWing,Red,Allies,J-11A,Red J-11A #003,xu,<51>Chimango,0.013978918,0,4.11e-05,32.25,2.25,0.009765625,0.010002136,NaN,NaN,0.171410427,0.00989117,NaN,0.998961324,-0.002369496,-0.00570578,9.77e-06,31.62644625,31.62645602,,,135.9100001,30,0.195372056,0.339640365
2018-07-19T08:09:27Z,1531987767,10D,38.9504986,45.0799992,32.25,0,-0.3,245.8,368817.91,10974.09,241.5,Air+FixedWing,Red,Allies,J-11A,Red J-11A #003,xu,<51>Chimango,0,0,0,32.25,2.25,0,0,NaN,NaN,0.060597438,0.00989117,NaN,0.999988412,-0.000167201,-0.00485584,0,31.62644625,31.62644625,,,136.9100001,30,0.195372056,0.339640365
2018-07-19T08:09:28Z,1531987768,10D,38.9504986,45.0799991,32.25,-0.1,-0.3,245.8,368817.91,10974.08,241.5,Air+FixedWing,Red,Allies,J-11A,Red J-11A #003,xu,<51>Chimango,0.0078125,0,2.3e-05,32.25,2.25,0.0078125,0,NaN,NaN,0.039997588,0.00989117,NaN,0.999977454,-0.003320442,-0.006091245,3.05e-06,31.62644625,31.6264493,,,137.9100001,30,0.204383638,0.348651992
2018-07-19T08:09:29Z,1531987769,10D,38.9504986,45.0799992,32.25,-0.1,-0.3,245.8,368817.91,10974.09,241.5,Air+FixedWing,Red,Allies,J-11A,Red J-11A #003,xu,<51>Chimango,0.009765625,0,2.87e-05,32.25,2.25,0.009765625,0,NaN,NaN,0.038092899,0.00989117,NaN,0.999989687,-0.000362617,-0.004665777,4.77e-06,31.62644625,31.62645102,,,138.9100001,30,0.213395219,0.357663619
2018-07-19T08:09:30Z,1531987770,10D,38.9504986,45.0799992,32.25,0,-0.3,245.8,368817.91,10974.09,241.5,Air+FixedWing,Red,Allies,J-11A,Red J-11A #003,xu,<51>Chimango,0.001953125,0,5.74e-06,32.25,2.25,0.001953125,0,NaN,NaN,0.076918442,0.00989117,NaN,0.999982647,-0.001506604,-0.005806152,1.91e-07,31.62644625,31.62644644,,,139.9100001,30,0.213395219,0.357663619
2018-07-19T08:09:31Z,1531987771,10D,38.9504986,45.0799992,32.25,0,-0.3,245.8,368817.91,10974.1,241.5,Air+FixedWing,Red,Allies,J-11A,Red J-11A #003,xu,<51>Chimango,0.009765625,0,2.87e-05,32.25,2.25,0.009765625,0,NaN,NaN,0,0.00989117,NaN,0.999991148,0.001750281,-0.004285653,4.77e-06,31.62644625,31.62645102,,,140.9100001,30,0.215314519,0.359582928
2018-07-19T08:09:32Z,1531987772,10D,38.9504986,45.0799992,32.25,0,-0.3,245.8,368817.91,10974.09,241.5,Air+FixedWing,Red,Allies,J-11A,Red J-11A #003,xu,<51>Chimango,0.009765625,0,2.87e-05,32.25,2.25,0.009765625,0,NaN,NaN,0.06136242,0.00989117,NaN,0.999983008,-0.001442597,-0.00571112,4.77e-06,31.62644625,31.62645102,,,141.9100001,30,0.217233818,0.361502237
2018-07-19T08:09:33Z,1531987773,10D,38.9504986,45.0799992,32.25,-0.1,-0.3,245.8,368817.91,10974.09,241.5,Air+FixedWing,Red,Allies,J-11A,Red J-11A #003,xu,<51>Chimango,0,0,0,32.25,2.25,0,0,NaN,NaN,0.06136242,0.00989117,NaN,0.999988782,-0.000762996,-0.004760808,0,31.62644625,31.62644625,,,142.9100001,30,0.217233818,0.361502237
2018-07-19T08:09:34Z,1531987774,10D,38.9504987,45.0799991,32.25,-0.2,-0.3,245.8,368817.91,10974.08,241.5,Air+FixedWing,Red,Allies,J-11A,Red J-11A #003,xu,<51>Chimango,0.009765625,0,2.87e-05,32.25,2.25,0.009765625,0,NaN,NaN,0.22856545,0.00989117,NaN,0.999973437,-0.004614899,-0.00571112,4.77e-06,31.62644625,31.62645102,,,143.9100001,30,0.230861269,0.375129757
2018-07-19T08:09:35Z,1531987775,10D,38.9504987,45.0799991,32.25,-0.1,-0.3,245.8,368817.91,10974.08,241.5,Air+FixedWing,Red,Allies,J-11A,Red J-11A #003,xu,<51>Chimango,0,0,0,32.25,2.25,0,0,NaN,NaN,0.199987939,0.00989117,NaN,0.999980666,-0.002620334,-0.00571112,0,31.62644625,31.62644625,,,144.9100001,30,0.234685286,0.378953793
2018-07-19T08:09:36Z,1531987776,10D,38.9504987,45.0799991,32.25,-0.1,-0.3,245.8,368817.91,10974.09,241.5,Air+FixedWing,Red,Allies,J-11A,Red J-11A #003,xu,<51>Chimango,0.009765625,0,2.87e-05,32.25,2.25,0.009765625,0,NaN,NaN,0,0.00989117,NaN,0.999551478,-0.000869301,-0.004758519,4.77e-06,31.62644625,31.62645102,,,145.9100001,30,0.240503712,0.384772249
2018-07-19T08:09:37Z,1531987777,10D,38.9504986,45.0799992,32.25,-0.1,-0.3,245.8,368817.91,10974.09,241.5,Air+FixedWing,Red,Allies,J-11A,Red J-11A #003,xu,<51>Chimango,0.00428772,0,1.26e-05,32.24571228,2.24571228,0,-0.00428772,NaN,NaN,0.085709029,0.01713201,NaN,0.999846855,-0.000121978,-0.004012211,9.19e-07,31.62224143,31.62224235,,,146.9100001,30,0.250862487,0.395983397
2018-07-19T08:09:38Z,1531987778,10D,38.9504986,45.0799991,32.24,-0.1,-0.3,245.8,368817.91,10974.08,241.5,Air+FixedWing,Red,Allies,J-11A,Red J-11A #003,xu,<51>Chimango,0.01131468,0,3.33e-05,32.23999786,2.239997864,0.009765625,-0.005714417,NaN,NaN,0,0.00989117,NaN,1.00055935,-0.003496486,-0.006189327,6.4e-06,31.61663751,31.61664391,,,147.9100001,30,0.262218725,0.408696383
2018-07-19T08:09:39Z,1531987779,10D,38.9504987,45.0799992,32.24,-0.1,-0.3,245.8,368817.91,10974.09,241.5,Air+FixedWing,Red,Allies,J-11A,Red J-11A #003,xu,<51>Chimango,0.009765625,0,2.87e-05,32.23999786,2.239997864,0.009765625,0,NaN,NaN,0,0.01713201,NaN,0.999992712,5.07e-06,-0.004285653,4.77e-06,31.61663751,31.61664227,,,148.9100001,30,0.271220536,0.417698239
2018-07-19T08:09:40Z,1531987780,10D,38.9504987,45.0799991,32.24,-0.2,-0.2,245.8,368817.91,10974.08,241.5,Air+FixedWing,Red,Allies,J-11A,Red J-11A #003,xu,<51>Chimango,0.009765625,0,2.87e-05,32.23999786,2.239997864,0.009765625,0,NaN,NaN,0.114255404,0.052339163,NaN,0.999981869,-0.00449274,-0.004440971,4.77e-06,31.61663751,31.61664227,,,149.9100001,30,0.27825677,0.424734508
2018-07-19T08:09:41Z,1531987781,10D,38.9504987,45.0799991,32.24,-0.1,-0.2,245.8,368817.91,10974.09,241.5,Air+FixedWing,Red,Allies,J-11A,Red J-11A #003,xu,<51>Chimango,0.009765625,0,2.87e-05,32.23999786,2.239997864,0.009765625,0,NaN,NaN,0,0.052339163,NaN,0.999995437,-0.000870076,-0.003015492,4.77e-06,31.61663751,31.61664227,,,150.9100001,30,0.282810743,0.429288505
2018-07-19T08:09:42Z,1531987782,10D,38.9504987,45.0799991,32.24,-0.1,-0.2,245.8,368817.91,10974.09,241.5,Air+FixedWing,Red,Allies,J-11A,Red J-11A #003,xu,<51>Chimango,0,0,0,32.23999786,2.239997864,0,0,NaN,NaN,0,0.019782341,NaN,0.999992251,-0.001745212,-0.003490652,0,31.61663751,31.61663751,,,151.9100001,30,0.287364716,0.433842502
2018-07-19T08:09:43Z,1531987783,10D,38.9504987,45.0799992,32.24,0,-0.2,245.8,368817.91,10974.09,241.5,Air+FixedWing,Red,Allies,J-11A,Red J-11A #003,xu,<51>Chimango,0,0,0,32.23999786,2.239997864,0,0,NaN,NaN,0.16873985,0.019782341,NaN,0.999993682,-0.000272689,-0.003490652,0,31.61663751,31.61663751,,,152.9100001,30,0.298496666,0.444974508
2018-07-19T08:09:44Z,1531987784,10D,38.9504987,45.0799992,32.24,-0.1,-0.2,245.8,368817.91,10974.09,241.5,Air+FixedWing,Red,Allies,J-11A,Red J-11A #003,xu,<51>Chimango,0,0,0,32.23999786,2.239997864,0,0,NaN,NaN,0.012512907,0.019782341,NaN,0.999992251,-0.001745212,-0.003490652,0,31.61663751,31.61663751,,,153.9100001,30,0.30073278,0.447210634
2018-07-19T08:09:45Z,1531987785,10D,38.9504987,45.0799991,32.24,-0.1,-0.2,245.8,368817.91,10974.09,241.5,Air+FixedWing,Red,Allies,J-11A,Red J-11A #003,xu,<51>Chimango,0,0,0,32.23999786,2.239997864,0,0,NaN,NaN,0,0.019782341,NaN,0.9999948,-0.001045103,-0.003110524,0,31.61663751,31.61663751,,,154.9100001,30,0.305593892,0.452071769
2018-07-19T08:09:46Z,1531987786,10D,38.9504987,45.0799991,32.24,-0.2,-0.2,245.8,368817.91,10974.08,241.5,Air+FixedWing,Red,Allies,J-11A,Red J-11A #003,xu,<51>Chimango,0.0078125,0,2.3e-05,32.23999786,2.239997864,0.0078125,0,NaN,NaN,0.161902804,0.019782341,NaN,0.999981719,-0.00455821,-0.004250907,3.05e-06,31.61663751,31.61664056,,,155.9100001,30,0.309628616,0.456106513
2018-07-19T08:09:47Z,1531987787,10D,38.9504987,45.0799992,32.24,-0.1,-0.2,245.8,368817.91,10974.09,241.5,Air+FixedWing,Red,Allies,J-11A,Red J-11A #003,xu,<51>Chimango,0.0078125,0,2.3e-05,32.23999786,2.239997864,0.0078125,0,NaN,NaN,0.180941503,0.019782341,NaN,0.9999948,-0.001045103,-0.003110524,3.05e-06,31.61663751,31.61664056,,,156.9100001,30,0.319295835,0.465773782
2018-07-19T08:09:48Z,1531987788,10D,38.9504987,45.0799991,32.24,-0.1,-0.2,245.8,368817.91,10974.09,241.5,Air+FixedWing,Red,Allies,J-11A,Red J-11A #003,xu,<51>Chimango,0,0,0,32.23999786,2.239997864,0,0,NaN,NaN,0,0.019782341,NaN,0.999992251,-0.001745212,-0.003490652,0,31.61663751,31.61663751,,,157.9100001,30,0.328963054,0.47544105
2018-07-19T08:09:49Z,1531987789,10D,38.9504987,45.0799991,32.24,-0.1,-0.2,245.8,368817.91,10974.09,241.5,Air+FixedWing,Red,Allies,J-11A,Red J-11A #003,xu,<51>Chimango,0,0,0,32.23999786,2.239997864,0,0,NaN,NaN,0,0.02211733,NaN,0.999992251,-0.001745212,-0.003490652,0,31.61663751,31.61663751,,,158.9100001,30,0.328963054,0.47544105
2018-07-19T08:09:50Z,1531987790,10D,38.9504987,45.0799991,32.24,-0.1,-0.2,245.8,368817.91,10974.09,241.5,Air+FixedWing,Red,Allies,J-11A,Red J-11A #003,xu,<51>Chimango,0,0,0,32.23999786,2.239997864,0,0,NaN,NaN,0,0.019782341,NaN,0.999992251,-0.001745212,-0.003490652,0,31.61663751,31.61663751,,,159.9100001,30,0.328963054,0.47544105
2018-07-19T08:09:51Z,1531987791,10D,38.9504987,45.0799991,32.24,-0.1,-0.2,245.8,368817.91,10974.09,241.5,Air+FixedWing,Red,Allies,J-11A,Red J-11A #003,xu,<51>Chimango,0,0,0,32.23999786,2.239997864,0,0,NaN,NaN,0,0.019782341,NaN,0.999992251,-0.001745212,-0.003490652,0,31.61663751,31.61663751,,,160.9100001,30,0.328963054,0.47544105
2018-07-19T08:09:52Z,1531987792,10D,38.9504987,45.0799991,32.24,-0.1,-0.2,245.8,368817.91,10974.09,241.5,Air+FixedWing,Red,Allies,J-11A,Red J-11A #003,xu,<51>Chimango,0,0,0,32.23999786,2.239997864,0,0,NaN,NaN,0,0.019782341,NaN,0.999992251,-0.001745212,-0.003490652,0,31.61663751,31.61663751,,,161.9100001,30,0.328963054,0.47544105
2018-07-19T08:09:53Z,1531987793,10D,38.9504987,45.0799991,32.24,-0.1,-0.2,245.8,368817.91,10974.09,241.5,Air+FixedWing,Red,Allies,J-11A,Red J-11A #003,xu,<51>Chimango,0,0,0,32.23999786,2.239997864,0,0,NaN,NaN,0,0.019782341,NaN,0.999992251,-0.001745212,-0.003490652,0,31.61663751,31.61663751,,,162.9100001,30,0.328963054,0.47544105
2018-07-19T08:09:54Z,1531987794,10D,38.9504987,45.0799991,32.24,-0.1,-0.2,245.8,368817.91,10974.09,241.5,Air+FixedWing,Red,Allies,J-11A,Red J-11A #003,xu,<51>Chimango,0,0,0,32.23999786,2.239997864,0,0,NaN,NaN,0,0.019782341,NaN,0.999992251,-0.001745212,-0.003490652,0,31.61663751,31.61663751,,,163.9100001,30,0.328963054,0.47544105
2018-07-19T08:09:55Z,1531987795,10D,38.9504987,45.0799991,32.24,-0.1,-0.2,245.8,368817.91,10974.09,241.5,Air+FixedWing,Red,Allies,J-11A,Red J-11A #003,xu,<51>Chimango,0,0,0,32.23999786,2.239997864,0,0,NaN,NaN,0,0.02211733,NaN,0.999992251,-0.001745212,-0.003490652,0,31.61663751,31.61663751,,,164.9100001,30,0.328963054,0.47544105
2018-07-19T08:09:56Z,1531987796,10D,38.9504987,45.0799991,32.24,-0.1,-0.2,245.8,368817.91,10974.09,241.5,Air+FixedWing,Red,Allies,J-11A,Red J-11A #003,xu,<51>Chimango,0,0,0,32.23999786,2.239997864,0,0,NaN,NaN,0,0.019782341,NaN,0.999992251,-0.001745212,-0.003490652,0,31.61663751,31.61663751,,,165.9100001,30,0.328963054,0.47544105
2018-07-19T08:09:57Z,1531987797,10D,38.9504987,45.0799991,32.24,-0.1,-0.2,245.8,368817.91,10974.09,241.5,Air+FixedWing,Red,Allies,J-11A,Red J-11A #003,xu,<51>Chimango,0,0,0,32.23999786,2.239997864,0,0,NaN,NaN,0,0.02211733,NaN,0.999992251,-0.001745212,-0.003490652,0,31.61663751,31.61663751,,,166.9100001,30,0.328963054,0.47544105
2018-07-19T08:09:58Z,1531987798,10D,38.9504987,45.0799991,32.24,-0.1,-0.2,245.8,368817.91,10974.09,241.5,Air+FixedWing,Red,Allies,J-11A,Red J-11A #003,xu,<51>Chimango,0,0,0,32.23999786,2.239997864,0,0,NaN,NaN,0,0.019782341,NaN,0.999992251,-0.001745212,-0.003490652,0,31.61663751,31.61663751,,,167.9100001,30,0.328963054,0.47544105
2018-07-19T08:09:59Z,1531987799,10D,38.9504987,45.0799991,32.24,-0.1,-0.2,245.8,368817.91,10974.09,241.5,Air+FixedWing,Red,Allies,J-11A,Red J-11A #003,xu,<51>Chimango,0,0,0,32.23999786,2.239997864,0,0,NaN,NaN,0,0.024228322,NaN,0.999992251,-0.001745212,-0.003490652,0,31.61663751,31.61663751,,,168.9100001,30,0.328963054,0.47544105
2018-07-19T08:10:00Z,1531987800,10D,38.9504987,45.0799991,32.24,-0.1,-0.2,245.8,368817.91,10974.09,241.5,Air+FixedWing,Red,Allies,J-11A,Red J-11A #003,xu,<51>Chimango,0,0,0,32.23999786,2.239997864,0,0,NaN,NaN,0,0.01713201,NaN,0.999992251,-0.001745212,-0.003490652,0,31.61663751,31.61663751,,,169.9100001,30,0.328963054,0.47544105
2018-07-19T08:10:01Z,1531987801,10D,38.9504987,45.0799991,32.24,-0.1,-0.2,245.8,368817.91,10974.09,241.5,Air+FixedWing,Red,Allies,J-11A,Red J-11A #003,xu,<51>Chimango,0,0,0,32.23999786,2.239997864,0,0,NaN,NaN,0,0.019782341,NaN,0.999992251,-0.001745212,-0.003490652,0,31.61663751,31.61663751,,,170.9100001,30,0.328963054,0.47544105
2018-07-19T08:10:02Z,1531987802,10D,38.9504987,45.0799991,32.24,-0.1,-0.2,245.8,368817.91,10974.09,241.6,Air+FixedWing,Red,Allies,J-11A,Red J-11A #003,xu,<51>Chimango,0,0,0,32.23999786,2.239997864,0,0,NaN,NaN,0,0.019782341,NaN,0.999992251,-0.001745212,-0.003490652,0,31.61663751,31.61663751,,,171.9100001,30,0.328963054,0.47544105
2018-07-19T08:10:03Z,1531987803,10D,38.9504987,45.0799991,32.24,-0.1,-0.2,245.8,368817.91,10974.09,241.6,Air+FixedWing,Red,Allies,J-11A,Red J-11A #003,xu,<51>Chimango,0,0,0,32.23999786,2.239997864,0,0,NaN,NaN,0,0.019782341,NaN,0.999992251,-0.001745212,-0.003490652,0,31.61663751,31.61663751,,,172.9100001,30,0.328963054,0.47544105
2018-07-19T08:10:04Z,1531987804,10D,38.9504987,45.0799991,32.24,-0.1,-0.2,245.8,368817.91,10974.09,241.6,Air+FixedWing,Red,Allies,J-11A,Red J-11A #003,xu,<51>Chimango,0,0,0,32.23999786,2.239997864,0,0,NaN,NaN,0,0.019782341,NaN,0.999992251,-0.001745212,-0.003490652,0,31.61663751,31.61663751,,,173.9100001,30,0.328963054,0.47544105
2018-07-19T08:10:05Z,1531987805,10D,38.9504987,45.0799991,32.24,-0.1,-0.2,245.8,368817.91,10974.09,241.6,Air+FixedWing,Red,Allies,J-11A,Red J-11A #003,xu,<51>Chimango,0,0,0,32.23999786,2.239997864,0,0,NaN,NaN,0,0.019782341,NaN,0.999992251,-0.001745212,-0.003490652,0,31.61663751,31.61663751,,,174.9100001,30,0.328963054,0.47544105
2018-07-19T08:10:06Z,1531987806,10D,38.9504987,45.0799991,32.24,-0.1,-0.2,245.8,368817.91,10974.09,241.6,Air+FixedWing,Red,Allies,J-11A,Red J-11A #003,xu,<51>Chimango,0,0,0,32.23999786,2.239997864,0,0,NaN,NaN,0,0.02211733,NaN,0.999992251,-0.001745212,-0.003490652,0,31.61663751,31.61663751,,,175.9100001,30,0.328963054,0.47544105
2018-07-19T08:10:07Z,1531987807,10D,38.9504987,45.0799991,32.24,-0.1,-0.2,245.8,368817.91,10974.09,241.6,Air+FixedWing,Red,Allies,J-11A,Red J-11A #003,xu,<51>Chimango,0,0,0,32.23999786,2.239997864,0,0,NaN,NaN,0,0.019782341,NaN,0.999992251,-0.001745212,-0.003490652,0,31.61663751,31.61663751,,,176.9100001,30,0.328963054,0.47544105
2018-07-19T08:10:08Z,1531987808,10D,38.9504987,45.0799991,32.24,-0.1,-0.2,245.8,368817.91,10974.09,241.6,Air+FixedWing,Red,Allies,J-11A,Red J-11A #003,xu,<51>Chimango,0,0,0,32.23999786,2.239997864,0,0,NaN,NaN,0,0.019782341,NaN,0.999992251,-0.001745212,-0.003490652,0,31.61663751,31.61663751,,,177.9100001,30,0.328963054,0.47544105
2018-07-19T08:10:09Z,1531987809,10D,38.9504987,45.0799991,32.24,-0.1,-0.2,245.8,368817.91,10974.09,241.6,Air+FixedWing,Red,Allies,J-11A,Red J-11A #003,xu,<51>Chimango,0,0,0,32.23999786,2.239997864,0,0,NaN,NaN,0,0.01713201,NaN,0.999992251,-0.001745212,-0.003490652,0,31.61663751,31.61663751,,,178.9100001,30,0.328963054,0.47544105
2018-07-19T08:10:10Z,1531987810,10D,38.9504987,45.0799991,32.24,-0.1,-0.2,245.8,368817.91,10974.09,241.6,Air+FixedWing,Red,Allies,J-11A,Red J-11A #003,xu,<51>Chimango,0,0,0,32.23999786,2.239997864,0,0,NaN,NaN,0,0.019782341,NaN,0.999992251,-0.001745212,-0.003490652,0,31.61663751,31.61663751,,,179.9100001,30,0.328963054,0.47544105
2018-07-19T08:10:11Z,1531987811,10D,38.9504987,45.0799991,32.24,-0.1,-0.2,245.8,368817.91,10974.09,241.6,Air+FixedWing,Red,Allies,J-11A,Red J-11A #003,xu,<51>Chimango,0,0,0,32.23999786,2.239997864,0,0,NaN,NaN,0,0.02211733,NaN,0.999992251,-0.001745212,-0.003490652,0,31.61663751,31.61663751,,,180.9100001,30,0.328963054,0.47544105
2018-07-19T08:10:12Z,1531987812,10D,38.9504987,45.0799991,32.24,-0.1,-0.2,245.8,368817.91,10974.09,241.6,Air+FixedWing,Red,Allies,J-11A,Red J-11A #003,xu,<51>Chimango,0,0,0,32.23999786,2.239997864,0,0,NaN,NaN,0,0.02211733,NaN,0.999992251,-0.001745212,-0.003490652,0,31.61663751,31.61663751,,,181.9100001,30,0.328963054,0.47544105
2018-07-19T08:10:13Z,1531987813,10D,38.9504987,45.0799991,32.24,-0.1,-0.2,245.8,368817.91,10974.09,241.6,Air+FixedWing,Red,Allies,J-11A,Red J-11A #003,xu,<51>Chimango,0,0,0,32.23999786,2.239997864,0,0,NaN,NaN,0,0.02211733,NaN,0.999992251,-0.001745212,-0.003490652,0,31.61663751,31.61663751,,,182.9100001,30,0.328963054,0.47544105
