ISOTime,UnixTime,Id,Longitude,Latitude,Altitude,Roll,Pitch,Yaw,U,V,Heading,Type,Color,Coalition,Name,Group,Country,Pilot,TAS,CAS,M,ASL,AGL,GS,VS,AOA,AOS,RRT,TRT,TRD,G,LatG,LonG,Ek,Ep,Em,FFW,FFV,RelativeTime,Elev,GroundDistance,AirDistance
2018-07-19T08:07:55Z,1531987675,207,38.9479072,45.0800303,32.33,0.1,-0.5,154.1,368613.69,10962.5,149.8,Air+FixedWing,Red,Allies,Su-27,Red Su-27 #002,xu,<51>Seetricks,0.041675607,0,0.000122471,32.32833099,2.328330994,NaN,NaN,NaN,NaN,NaN,NaN,NaN,NaN,NaN,NaN,NaN,31.70326271,NaN,,,0.039999962,30,NaN,NaN
2018-07-19T08:07:56Z,1531987676,207,38.9479069,45.0800307,32.3,0,0.2,154.1,368613.66,10962.54,149.8,Air+FixedWing,Red,Allies,Su-27,Red Su-27 #002,xu,<51>Seetricks,0.059108898,0,0.000173702,32.2980957,2.298095703,0.050790639,-0.030235291,NaN,NaN,0.114310046,NaN,NaN,1.002667468,0.000199441,0.009492103,0.000174693,31.67361202,31.67378672,,,1.039999962,30,0.050386587,0.058762289
2018-07-19T08:07:57Z,1531987677,207,38.9479068,45.0800306,32.29,0,0,154.1,368613.66,10962.53,149.8,Air+FixedWing,Red,Allies,Su-27,Red Su-27 #002,xu,<51>Seetricks,0.010482855,0,3.08e-05,32.29428482,2.294284821,0.009765625,-0.003810883,NaN,NaN,0,0.027976455,NaN,0.990092281,0.002353378,0.003032001,5.49e-06,31.66987482,31.66988032,,,2.039999962,30,0.062390572,0.071356731
2018-07-19T08:07:58Z,1531987678,207,38.9479072,45.0800304,32.19,0,-0.4,154.1,368613.69,10962.51,149.8,Air+FixedWing,Red,Allies,Su-27,Red Su-27 #002,xu,<51>Seetricks,0.107130244,0,0.00031482,32.19333267,2.193332672,0.035854609,-0.100952148,NaN,NaN,0,0.057674951,NaN,1.009077937,-0.000950814,-0.01115916,0.000573844,31.57087458,31.57144843,,,3.039999962,30,0.096040585,0.177769469
2018-07-19T08:07:59Z,1531987679,207,38.9479071,45.0800306,32.18,0,-0.3,154.1,368613.69,10962.53,149.8,Air+FixedWing,Red,Allies,Su-27,Red Su-27 #002,xu,<51>Seetricks,0.020966848,0,6.16e-05,32.18190384,2.181903839,0.017578125,-0.011428833,NaN,NaN,0,0,NaN,1.008969119,-0.003655758,-0.005336743,2.2e-05,31.55966673,31.55968871,,,4.039999962,30,0.116190282,0.200934802
2018-07-19T08:08:00Z,1531987680,207,38.947907,45.0800306,32.26,0,-0.3,154.1,368613.66,10962.53,149.8,Air+FixedWing,Red,Allies,Su-27,Red Su-27 #002,xu,<51>Seetricks,0.082791979,0,0.000243298,32.25857162,2.258571625,0.03125,0.076667786,NaN,NaN,0,0,NaN,0.992322217,0.00275411,-0.003592884,0.000342726,31.63485214,31.63519487,,,5.039999962,30,0.124050756,0.278004492
2018-07-19T08:08:01Z,1531987681,207,38.9479069,45.0800306,32.26,0,-0.3,154.1,368613.66,10962.53,149.8,Air+FixedWing,Red,Allies,Su-27,Red Su-27 #002,xu,<51>Seetricks,0.001426697,0,4.19e-06,32.25999832,2.259998322,0,0.001426697,NaN,NaN,0,0,NaN,0.99882116,0,-0.005229864,1.02e-07,31.63625125,31.63625136,,,6.039999962,30,0.130256395,0.284372051
2018-07-19T08:08:02Z,1531987682,207,38.947907,45.0800306,32.25,0,-0.3,154.1,368613.66,10962.53,149.8,Air+FixedWing,Red,Allies,Su-27,Red Su-27 #002,xu,<51>Seetricks,0.009998322,0,2.94e-05,32.25,2.25,0,-0.009998322,NaN,NaN,0,0,NaN,1.001006153,-5.01e-05,-0.005155238,5e-06,31.62644625,31.62645125,,,7.039999962,30,0.136462033,0.296139667
2018-07-19T08:08:03Z,1531987683,207,38.947907,45.0800306,32.25,0,-0.3,154.1,368613.66,10962.53,149.8,Air+FixedWing,Red,Allies,Su-27,Red Su-27 #002,xu,<51>Seetricks,0.000976563,0,2.87e-06,32.25,2.25,0.000976563,0,NaN,NaN,0,0,NaN,0.999985721,5.01e-05,-0.005322029,4.77e-08,31.62644625,31.6264463,,,8.039999962,30,0.136462033,0.296139667
2018-07-19T08:08:04Z,1531987684,207,38.947907,45.0800306,32.25,0,-0.3,154.1,368613.66,10962.53,149.8,Air+FixedWing,Red,Allies,Su-27,Red Su-27 #002,xu,<51>Seetricks,0,0,0,32.25,2.25,0,0,NaN,NaN,0,0,NaN,0.999986172,0,-0.005235964,0,31.62644625,31.62644625,,,9.039999962,30,0.136462033,0.296139667
2018-07-19T08:08:05Z,1531987685,207,38.947907,45.0800306,32.25,0,-0.3,154.1,368613.66,10962.53,149.8,Air+FixedWing,Red,Allies,Su-27,Red Su-27 #002,xu,<51>Seetricks,0,0,0,32.25,2.25,0,0,NaN,NaN,0,0,NaN,0.999986622,-5.01e-05,-0.0051499,0,31.62644625,31.62644625,,,10.03999996,30,0.136462033,0.296139667
2018-07-19T08:08:06Z,1531987686,207,38.947907,45.0800306,32.25,0,-0.3,154.1,368613.66,10962.53,149.8,Air+FixedWing,Red,Allies,Su-27,Red Su-27 #002,xu,<51>Seetricks,0.000976563,0,2.87e-06,32.25,2.25,0.000976563,0,NaN,NaN,0,0,NaN,0.999985721,5.01e-05,-0.005322029,4.77e-08,31.62644625,31.6264463,,,11.03999996,30,0.136462033,0.296139667
2018-07-19T08:08:07Z,1531987687,207,38.947907,45.0800306,32.25,0,-0.3,154.1,368613.66,10962.53,149.8,Air+FixedWing,Red,Allies,Su-27,Red Su-27 #002,xu,<51>Seetricks,0,0,0,32.25,2.25,0,0,NaN,NaN,0,0,NaN,0.999986172,0,-0.005235964,0,31.62644625,31.62644625,,,12.03999996,30,0.136462033,0.296139667
2018-07-19T08:08:08Z,1531987688,207,38.947907,45.0800306,32.25,0,-0.3,154.1,368613.66,10962.53,149.8,Air+FixedWing,Red,Allies,Su-27,Red Su-27 #002,xu,<51>Seetricks,0,0,0,32.25,2.25,0,0,NaN,NaN,0,0,NaN,0.999986622,-5.01e-05,-0.0051499,0,31.62644625,31.62644625,,,13.03999996,30,0.136462033,0.296139667
2018-07-19T08:08:09Z,1531987689,207,38.947907,45.0800306,32.25,0,-0.3,154.1,368613.66,10962.53,149.8,Air+FixedWing,Red,Allies,Su-27,Red Su-27 #002,xu,<51>Seetricks,0.000976563,0,2.87e-06,32.25,2.25,0.000976563,0,NaN,NaN,0,0,NaN,0.999985721,5.01e-05,-0.005322029,4.77e-08,31.62644625,31.6264463,,,14.03999996,30,0.136462033,0.296139667
2018-07-19T08:08:10Z,1531987690,207,38.947907,45.0800306,32.25,0,-0.3,154.1,368613.66,10962.53,149.8,Air+FixedWing,Red,Allies,Su-27,Red Su-27 #002,xu,<51>Seetricks,0,0,0,32.25,2.25,0,0,NaN,NaN,0,0,NaN,0.999986172,0,-0.005235964,0,31.62644625,31.62644625,,,15.03999996,30,0.136462033,0.296139667
2018-07-19T08:08:11Z,1531987691,207,38.947907,45.0800306,32.25,0,-0.3,154.1,368613.66,10962.53,149.8,Air+FixedWing,Red,Allies,Su-27,Red Su-27 #002,xu,<51>Seetricks,0,0,0,32.25,2.25,0,0,NaN,NaN,0,0,NaN,0.999986622,-5.01e-05,-0.0051499,0,31.62644625,31.62644625,,,16.03999996,30,0.136462033,0.296139667
2018-07-19T08:08:12Z,1531987692,207,38.947907,45.0800306,32.25,0,-0.3,154.1,368613.66,10962.53,149.8,Air+FixedWing,Red,Allies,Su-27,Red Su-27 #002,xu,<51>Seetricks,0.000976563,0,2.87e-06,32.25,2.25,0.000976563,0,NaN,NaN,0,0,NaN,0.999985721,5.01e-05,-0.005322029,4.77e-08,31.62644625,31.6264463,,,17.03999996,30,0.136462033,0.296139667
2018-07-19T08:08:13Z,1531987693,207,38.947907,45.0800306,32.25,0,-0.3,154.1,368613.66,10962.53,149.8,Air+FixedWing,Red,Allies,Su-27,Red Su-27 #002,xu,<51>Seetricks,0,0,0,32.25,2.25,0,0,NaN,NaN,0,0,NaN,0.999986172,0,-0.005235964,0,31.62644625,31.62644625,,,18.03999996,30,0.136462033,0.296139667
2018-07-19T08:08:14Z,1531987694,207,38.947907,45.0800306,32.25,0,-0.3,154.1,368613.66,10962.53,149.8,Air+FixedWing,Red,Allies,Su-27,Red Su-27 #002,xu,<51>Seetricks,0,0,0,32.25,2.25,0,0,NaN,NaN,0,0,NaN,0.999986622,-5.01e-05,-0.0051499,0,31.62644625,31.62644625,,,19.03999996,30,0.136462033,0.296139667
2018-07-19T08:08:15Z,1531987695,207,38.947907,45.0800306,32.25,0,-0.3,154.1,368613.66,10962.53,149.8,Air+FixedWing,Red,Allies,Su-27,Red Su-27 #002,xu,<51>Seetricks,0.000976563,0,2.87e-06,32.25,2.25,0.000976563,0,NaN,NaN,0,0,NaN,0.999985721,5.01e-05,-0.005322029,4.77e-08,31.62644625,31.6264463,,,20.03999996,30,0.136462033,0.296139667
2018-07-19T08:08:16Z,1531987696,207,38.947907,45.0800306,32.25,0,-0.3,154.1,368613.66,10962.53,149.8,Air+FixedWing,Red,Allies,Su-27,Red Su-27 #002,xu,<51>Seetricks,0,0,0,32.25,2.25,0,0,NaN,NaN,0,0,NaN,0.999986172,0,-0.005235964,0,31.62644625,31.62644625,,,21.03999996,30,0.136462033,0.296139667
2018-07-19T08:08:17Z,1531987697,207,38.947907,45.0800306,32.25,0,-0.3,154.1,368613.66,10962.53,149.8,Air+FixedWing,Red,Allies,Su-27,Red Su-27 #002,xu,<51>Seetricks,0,0,0,32.25,2.25,0,0,NaN,NaN,0,0,NaN,0.999986622,-5.01e-05,-0.0051499,0,31.62644625,31.62644625,,,22.03999996,30,0.136462033,0.296139667
2018-07-19T08:08:18Z,1531987698,207,38.947907,45.0800306,32.25,0,-0.3,154.1,368613.66,10962.52,149.8,Air+FixedWing,Red,Allies,Su-27,Red Su-27 #002,xu,<51>Seetricks,0.000976563,0,2.87e-06,32.25,2.25,0.000976563,0,NaN,NaN,0,0,NaN,0.999985721,5.01e-05,-0.005322029,4.77e-08,31.62644625,31.6264463,,,23.03999996,30,0.136462033,0.296139667
2018-07-19T08:08:19Z,1531987699,207,38.947907,45.0800306,32.25,0,-0.3,154.1,368613.66,10962.52,149.8,Air+FixedWing,Red,Allies,Su-27,Red Su-27 #002,xu,<51>Seetricks,0,0,0,32.25,2.25,0,0,NaN,NaN,0,0,NaN,0.999986622,-5.01e-05,-0.0051499,0,31.62644625,31.62644625,,,24.03999996,30,0.136462033,0.296139667
2018-07-19T08:08:20Z,1531987700,207,38.947907,45.0800306,32.25,0,-0.3,154.1,368613.66,10962.52,149.8,Air+FixedWing,Red,Allies,Su-27,Red Su-27 #002,xu,<51>Seetricks,0.000976563,0,2.87e-06,32.25,2.25,0.000976563,0,NaN,NaN,0,0,NaN,0.999985721,5.01e-05,-0.005322029,4.77e-08,31.62644625,31.6264463,,,25.03999996,30,0.136462033,0.296139667
2018-07-19T08:08:21Z,1531987701,207,38.947907,45.0800306,32.25,0,-0.3,154.1,368613.66,10962.52,149.8,Air+FixedWing,Red,Allies,Su-27,Red Su-27 #002,xu,<51>Seetricks,0,0,0,32.25,2.25,0,0,NaN,NaN,0,0,NaN,0.999986172,0,-0.005235964,0,31.62644625,31.62644625,,,26.03999996,30,0.136462033,0.296139667
2018-07-19T08:08:22Z,1531987702,207,38.947907,45.0800306,32.25,0,-0.3,154.1,368613.66,10962.52,149.8,Air+FixedWing,Red,Allies,Su-27,Red Su-27 #002,xu,<51>Seetricks,0,0,0,32.25,2.25,0,0,NaN,NaN,0,0,NaN,0.999986622,-5.01e-05,-0.0051499,0,31.62644625,31.62644625,,,27.03999996,30,0.136462033,0.296139667
2018-07-19T08:08:23Z,1531987703,207,38.947907,45.0800306,32.25,0,-0.3,154.1,368613.66,10962.52,149.8,Air+FixedWing,Red,Allies,Su-27,Red Su-27 #002,xu,<51>Seetricks,0.000976563,0,2.87e-06,32.25,2.25,0.000976563,0,NaN,NaN,0,0,NaN,0.999985721,5.01e-05,-0.005322029,4.77e-08,31.62644625,31.6264463,,,28.03999996,30,0.136462033,0.296139667
2018-07-19T08:08:24Z,1531987704,207,38.947907,45.0800306,32.25,0,-0.3,154.1,368613.66,10962.52,149.8,Air+FixedWing,Red,Allies,Su-27,Red Su-27 #002,xu,<51>Seetricks,0,0,0,32.25,2.25,0,0,NaN,NaN,0,0,NaN,0.999986172,0,-0.005235964,0,31.62644625,31.62644625,,,29.03999996,30,0.136462033,0.296139667
2018-07-19T08:08:25Z,1531987705,207,38.947907,45.0800306,32.25,0,-0.3,154.1,368613.66,10962.52,149.8,Air+FixedWing,Red,Allies,Su-27,Red Su-27 #002,xu,<51>Seetricks,0,0,0,32.25,2.25,0,0,NaN,NaN,0,0,NaN,0.999986622,-5.01e-05,-0.0051499,0,31.62644625,31.62644625,,,30.03999996,30,0.136462033,0.296139667
2018-07-19T08:08:26Z,1531987706,207,38.947907,45.0800306,32.25,0,-0.3,154.1,368613.66,10962.52,149.8,Air+FixedWing,Red,Allies,Su-27,Red Su-27 #002,xu,<51>Seetricks,0.000976563,0,2.87e-06,32.25,2.25,0.000976563,0,NaN,NaN,0,0,NaN,0.999985721,5.01e-05,-0.005322029,4.77e-08,31.62644625,31.6264463,,,31.03999996,30,0.136462033,0.296139667
2018-07-19T08:08:27Z,1531987707,207,38.947907,45.0800306,32.25,0,-0.3,154.1,368613.66,10962.52,149.8,Air+FixedWing,Red,Allies,Su-27,Red Su-27 #002,xu,<51>Seetricks,0,0,0,32.25,2.25,0,0,NaN,NaN,0,0,NaN,0.999986172,0,-0.005235964,0,31.62644625,31.62644625,,,32.03999996,30,0.136462033,0.296139667
2018-07-19T08:08:28Z,1531987708,207,38.947907,45.0800306,32.25,0,-0.3,154.1,368613.66,10962.52,149.8,Air+FixedWing,Red,Allies,Su-27,Red Su-27 #002,xu,<51>Seetricks,0,0,0,32.25,2.25,0,0,NaN,NaN,0,0,NaN,0.999986622,-5.01e-05,-0.0051499,0,31.62644625,31.62644625,,,33.03999996,30,0.136462033,0.296139667
2018-07-19T08:08:29Z,1531987709,207,38.947907,45.0800306,32.25,0,-0.3,154.1,368613.66,10962.52,149.8,Air+FixedWing,Red,Allies,Su-27,Red Su-27 #002,xu,<51>Seetricks,0.000976563,0,2.87e-06,32.25,2.25,0.000976563,0,NaN,NaN,0,0,NaN,0.999985721,5.01e-05,-0.005322029,4.77e-08,31.62644625,31.6264463,,,34.03999996,30,0.136462033,0.296139667
2018-07-19T08:08:30Z,1531987710,207,38.947907,45.0800306,32.25,0,-0.3,154.1,368613.66,10962.52,149.8,Air+FixedWing,Red,Allies,Su-27,Red Su-27 #002,xu,<51>Seetricks,0,0,0,32.25,2.25,0,0,NaN,NaN,0,0,NaN,0.999986172,0,-0.005235964,0,31.62644625,31.62644625,,,35.03999996,30,0.136462033,0.296139667
2018-07-19T08:08:31Z,1531987711,207,38.947907,45.0800306,32.25,0,-0.3,154.1,368613.66,10962.52,149.8,Air+FixedWing,Red,Allies,Su-27,Red Su-27 #002,xu,<51>Seetricks,0,0,0,32.25,2.25,0,0,NaN,NaN,0,0,NaN,0.999986622,-5.01e-05,-0.0051499,0,31.62644625,31.62644625,,,36.03999996,30,0.136462033,0.296139667
2018-07-19T08:08:32Z,1531987712,207,38.947907,45.0800306,32.25,0,-0.3,154.1,368613.66,10962.52,149.8,Air+FixedWing,Red,Allies,Su-27,Red Su-27 #002,xu,<51>Seetricks,0.000976563,0,2.87e-06,32.25,2.25,0.000976563,0,NaN,NaN,0,0,NaN,0.999985721,5.01e-05,-0.005322029,4.77e-08,31.62644625,31.6264463,,,37.03999996,30,0.136462033,0.296139667
2018-07-19T08:08:33Z,1531987713,207,38.947907,45.0800305,32.25,0,-0.3,154.1,368613.66,10962.52,149.8,Air+FixedWing,Red,Allies,Su-27,Red Su-27 #002,xu,<51>Seetricks,0,0,0,32.25,2.25,0,0,NaN,NaN,0,0,NaN,0.999984369,0.000200366,-0.005580223,0,31.62644625,31.62644625,,,38.03999996,30,0.143643939,0.303321608
2018-07-19T08:08:34Z,1531987714,207,38.947907,45.0800306,32.25,0,-0.3,154.1,368613.66,10962.52,149.8,Air+FixedWing,Red,Allies,Su-27,Red Su-27 #002,xu,<51>Seetricks,0.00390625,0,1.15e-05,32.25,2.25,0.00390625,0,NaN,NaN,0,0,NaN,0.999986172,0,-0.005235964,7.63e-07,31.62644625,31.62644701,,,39.03999996,30,0.150825845,0.310503549
2018-07-19T08:08:35Z,1531987715,207,38.947907,45.0800306,32.25,0,-0.3,154.1,368613.66,10962.53,149.8,Air+FixedWing,Red,Allies,Su-27,Red Su-27 #002,xu,<51>Seetricks,0.00390625,0,1.15e-05,32.25,2.25,0.00390625,0,NaN,NaN,0,0,NaN,0.999986622,-5.01e-05,-0.0051499,7.63e-07,31.62644625,31.62644701,,,40.03999996,30,0.150825845,0.310503549
2018-07-19T08:08:36Z,1531987716,207,38.947907,45.0800306,32.25,0,-0.2,154.1,368613.66,10962.53,149.8,Air+FixedWing,Red,Allies,Su-27,Red Su-27 #002,xu,<51>Seetricks,0.002929688,0,8.61e-06,32.25,2.25,0.002929688,0,NaN,NaN,0,0,NaN,0.999407058,-0.000150275,-0.003547552,4.29e-07,31.62644625,31.62644668,,,41.03999996,30,0.150825845,0.310503549
2018-07-19T08:08:37Z,1531987717,207,38.947907,45.0800306,32.24,0,-0.3,154.1,368613.66,10962.53,149.8,Air+FixedWing,Red,Allies,Su-27,Red Su-27 #002,xu,<51>Seetricks,0.005752563,0,1.69e-05,32.24424744,2.244247437,0,-0.005752563,NaN,NaN,0,0,NaN,1.000806931,0,-0.005240262,1.65e-06,31.62080491,31.62080657,,,42.03999996,30,0.150825845,0.316256112
2018-07-19T08:08:38Z,1531987718,207,38.947907,45.0800306,32.25,0,-0.3,154.1,368613.66,10962.53,149.8,Air+FixedWing,Red,Allies,Su-27,Red Su-27 #002,xu,<51>Seetricks,0.002296448,0,6.75e-06,32.24654388,2.246543884,0,0.002296448,NaN,NaN,0,0,NaN,0.999635307,0,-0.005234127,2.64e-07,31.62305696,31.62305722,,,43.03999996,30,0.150825845,0.31855256
2018-07-19T08:08:39Z,1531987719,207,38.947907,45.0800306,32.25,0,-0.3,154.1,368613.66,10962.53,149.8,Air+FixedWing,Red,Allies,Su-27,Red Su-27 #002,xu,<51>Seetricks,0.001144409,0,3.36e-06,32.24539948,2.245399475,0,-0.001144409,NaN,NaN,0,0,NaN,1.000571984,0,-0.005239032,6.55e-08,31.62193468,31.62193474,,,44.03999996,30,0.150825845,0.31969697
2018-07-19T08:08:40Z,1531987720,207,38.947907,45.0800306,32.25,0,-0.3,154.1,368613.66,10962.53,149.8,Air+FixedWing,Red,Allies,Su-27,Red Su-27 #002,xu,<51>Seetricks,0.004600525,0,1.35e-05,32.25,2.25,0,0.004600525,NaN,NaN,0.037866569,0,NaN,0.999516996,-0.00039645,-0.005233508,1.06e-06,31.62644625,31.62644731,,,45.03999996,30,0.150825845,0.324297495
2018-07-19T08:08:41Z,1531987721,207,38.947907,45.0800306,32.25,-0.1,-0.3,154.1,368613.66,10962.53,149.8,Air+FixedWing,Red,Allies,Su-27,Red Su-27 #002,xu,<51>Seetricks,0,0,0,32.25,2.25,0,0,NaN,NaN,0.037866569,0,NaN,0.999985635,-0.001057697,-0.005235964,0,31.62644625,31.62644625,,,46.03999996,30,0.150825845,0.324297495
2018-07-19T08:08:42Z,1531987722,207,38.947907,45.0800306,32.25,-0.1,-0.3,154.1,368613.66,10962.53,149.8,Air+FixedWing,Red,Allies,Su-27,Red Su-27 #002,xu,<51>Seetricks,0,0,0,32.25,2.25,0,0,NaN,NaN,0.037866569,0,NaN,0.999984682,-0.001718757,-0.005235964,0,31.62644625,31.62644625,,,47.03999996,30,0.150825845,0.324297495
2018-07-19T08:08:43Z,1531987723,207,38.947907,45.0800306,32.25,0,-0.3,154.1,368613.66,10962.53,149.8,Air+FixedWing,Red,Allies,Su-27,Red Su-27 #002,xu,<51>Seetricks,0,0,0,32.25,2.25,0,0,NaN,NaN,0,0,NaN,0.999986172,0,-0.005235964,0,31.62644625,31.62644625,,,48.03999996,30,0.152999248,0.326470908
2018-07-19T08:08:44Z,1531987724,207,38.9479069,45.0800306,32.25,0,-0.3,154.1,368613.66,10962.53,149.8,Air+FixedWing,Red,Allies,Su-27,Red Su-27 #002,xu,<51>Seetricks,0,0,0,32.25,2.25,0,0,NaN,NaN,0,0,NaN,0.999942506,-0.000551007,-0.004288998,0,31.62644625,31.62644625,,,49.03999996,30,0.156621587,0.330093266
2018-07-19T08:08:45Z,1531987725,207,38.9479068,45.0800306,32.25,0.1,-0.2,154.1,368613.66,10962.52,149.8,Air+FixedWing,Red,Allies,Su-27,Red Su-27 #002,xu,<51>Seetricks,0.010752766,0,3.16e-05,32.24952316,2.249523163,0.010742188,-0.000476837,NaN,NaN,0.200000012,0.048456647,NaN,0.99906104,0.002845708,-0.00538087,5.78e-06,31.62597863,31.62598441,,,50.03999996,30,0.166172486,0.339656109
2018-07-19T08:08:46Z,1531987726,207,38.947907,45.0800306,32.24,0.1,-0.2,154.1,368613.66,10962.53,149.8,Air+FixedWing,Red,Allies,Su-27,Red Su-27 #002,xu,<51>Seetricks,0.014357086,0,4.22e-05,32.23999786,2.239997864,0.010742188,-0.009525299,NaN,NaN,0.047592758,0.048456647,NaN,1.001360179,0.00022957,-0.00201816,1.03e-05,31.61663751,31.61664781,,,51.03999996,30,0.181519127,0.357718587
2018-07-19T08:08:47Z,1531987727,207,38.9479069,45.0800306,32.24,0,-0.3,154.1,368613.66,10962.52,149.8,Air+FixedWing,Red,Allies,Su-27,Red Su-27 #002,xu,<51>Seetricks,0.011398132,0,3.35e-05,32.24380875,2.243808746,0.010742188,0.003810883,NaN,NaN,0.152395181,0,NaN,0.999199065,0.001102014,-0.00712532,6.5e-06,31.6203747,31.6203812,,,52.03999996,30,0.189379601,0.366454174
2018-07-19T08:08:48Z,1531987728,207,38.947907,45.0800306,32.24,-0.1,-0.2,154.1,368613.66,10962.53,149.8,Air+FixedWing,Red,Allies,Su-27,Red Su-27 #002,xu,<51>Seetricks,0.011398132,0,3.35e-05,32.23999786,2.239997864,0.010742188,-0.003810883,NaN,NaN,0.232007866,0,NaN,1.000383193,-0.002296902,-0.002545289,6.5e-06,31.61663751,31.616644,,,53.03999996,30,0.197240074,0.375189762
2018-07-19T08:08:49Z,1531987729,207,38.9479069,45.0800306,32.24,0,-0.2,154.1,368613.66,10962.53,149.8,Air+FixedWing,Red,Allies,Su-27,Red Su-27 #002,xu,<51>Seetricks,0,0,0,32.23999786,2.239997864,0,0,NaN,NaN,0.104755692,0,NaN,0.999993742,0,-0.003490652,0,31.61663751,31.61663751,,,54.03999996,30,0.201268569,0.379218278
2018-07-19T08:08:50Z,1531987730,207,38.947907,45.0800306,32.24,0,-0.2,154.1,368613.66,10962.53,149.8,Air+FixedWing,Red,Allies,Su-27,Red Su-27 #002,xu,<51>Seetricks,0,0,0,32.23999786,2.239997864,0,0,NaN,NaN,0,0,NaN,0.999993742,0,-0.003490652,0,31.61663751,31.61663751,,,55.03999996,30,0.201495687,0.379445397
2018-07-19T08:08:51Z,1531987731,207,38.9479069,45.0800306,32.24,0,-0.2,154.1,368613.66,10962.53,149.8,Air+FixedWing,Red,Allies,Su-27,Red Su-27 #002,xu,<51>Seetricks,0,0,0,32.23999786,2.239997864,0,0,NaN,NaN,0,0,NaN,0.999993742,0,-0.003490652,0,31.61663751,31.61663751,,,56.03999996,30,0.204622613,0.382572339
2018-07-19T08:08:52Z,1531987732,207,38.9479069,45.0800306,32.24,0,-0.2,154.1,368613.66,10962.53,149.8,Air+FixedWing,Red,Allies,Su-27,Red Su-27 #002,xu,<51>Seetricks,0,0,0,32.23999786,2.239997864,0,0,NaN,NaN,0,0,NaN,0.999993742,0,-0.003490652,0,31.61663751,31.61663751,,,57.03999996,30,0.207141995,0.385091734
2018-07-19T08:08:53Z,1531987733,207,38.947907,45.0800306,32.24,0,-0.2,154.1,368613.66,10962.53,149.8,Air+FixedWing,Red,Allies,Su-27,Red Su-27 #002,xu,<51>Seetricks,0,0,0,32.23999786,2.239997864,0,0,NaN,NaN,0,0,NaN,0.999993742,0,-0.003490652,0,31.61663751,31.61663751,,,58.03999996,30,0.209661378,0.38761113
2018-07-19T08:08:54Z,1531987734,207,38.947907,45.0800306,32.24,-0.1,-0.2,154.1,368613.66,10962.53,149.8,Air+FixedWing,Red,Allies,Su-27,Red Su-27 #002,xu,<51>Seetricks,0,0,0,32.23999786,2.239997864,0,0,NaN,NaN,0.199987939,0,NaN,0.999992251,-0.001745212,-0.003490652,0,31.61663751,31.61663751,,,59.03999996,30,0.211550916,0.389500677
2018-07-19T08:08:55Z,1531987735,207,38.947907,45.0800306,32.24,0,-0.2,154.1,368613.66,10962.53,149.8,Air+FixedWing,Red,Allies,Su-27,Red Su-27 #002,xu,<51>Seetricks,0,0,0,32.23999786,2.239997864,0,0,NaN,NaN,0,0,NaN,0.999993742,0,-0.003490652,0,31.61663751,31.61663751,,,60.03999996,30,0.211550916,0.389500677
2018-07-19T08:08:56Z,1531987736,207,38.9479069,45.0800306,32.24,-0.1,-0.2,154.1,368613.66,10962.53,149.8,Air+FixedWing,Red,Allies,Su-27,Red Su-27 #002,xu,<51>Seetricks,0,0,0,32.23999786,2.239997864,0,0,NaN,NaN,0.180918051,0,NaN,0.999994924,-0.002130013,-0.002543932,0,31.61663751,31.61663751,,,61.03999996,30,0.21941139,0.397361191
2018-07-19T08:08:57Z,1531987737,207,38.9479069,45.0800305,32.24,0.1,-0.2,154.1,368613.66,10962.52,149.8,Air+FixedWing,Red,Allies,Su-27,Red Su-27 #002,xu,<51>Seetricks,0.010742188,0,3.16e-05,32.23999786,2.239997864,0.010742188,0,NaN,NaN,0.200000012,0,NaN,0.999983719,0.002847319,-0.005384091,5.77e-06,31.61663751,31.61664327,,,62.03999996,30,0.230939057,0.408888916
2018-07-19T08:08:58Z,1531987738,207,38.9479069,45.0800306,32.24,0,-0.2,154.1,368613.66,10962.53,149.8,Air+FixedWing,Red,Allies,Su-27,Red Su-27 #002,xu,<51>Seetricks,0.010742188,0,3.16e-05,32.23999786,2.239997864,0.010742188,0,NaN,NaN,0.0476474,0,NaN,0.999997046,-0.000551007,-0.002543932,5.77e-06,31.61663751,31.61664327,,,63.03999996,30,0.24256312,0.420513039
2018-07-19T08:08:59Z,1531987739,207,38.9479069,45.0800306,32.24,0,-0.2,154.1,368613.66,10962.53,149.8,Air+FixedWing,Red,Allies,Su-27,Red Su-27 #002,xu,<51>Seetricks,0,0,0,32.23999786,2.239997864,0,0,NaN,NaN,0,0,NaN,1.000146333,0.000500915,-0.004351849,0,31.61663751,31.61663751,,,64.03999996,30,0.245579934,0.423529868
2018-07-19T08:09:00Z,1531987740,207,38.9479069,45.0800307,32.24,-0.1,-0.2,154.1,368613.66,10962.54,149.8,Air+FixedWing,Red,Allies,Su-27,Red Su-27 #002,xu,<51>Seetricks,0.009884115,0,2.9e-05,32.24152374,2.241523743,0.009765625,0.001525879,NaN,NaN,0.199987939,0,NaN,1.000477689,-0.002747892,-0.001771023,4.88e-06,31.61813388,31.61813877,,,65.03999996,30,0.257210452,0.435260111
2018-07-19T08:09:01Z,1531987741,207,38.9479069,45.0800306,32.25,0,-0.2,154.1,368613.66,10962.53,149.8,Air+FixedWing,Red,Allies,Su-27,Red Su-27 #002,xu,<51>Seetricks,0.011591514,0,3.41e-05,32.2477684,2.247768402,0.009765625,0.006244659,NaN,NaN,0.199987939,0,NaN,0.998569374,0.000500915,-0.004346344,6.72e-06,31.6242578,31.62426452,,,66.03999996,30,0.268342401,0.448024018
2018-07-19T08:09:02Z,1531987742,207,38.9479069,45.0800306,32.24,0,-0.2,154.1,368613.66,10962.53,149.8,Air+FixedWing,Red,Allies,Su-27,Red Su-27 #002,xu,<51>Seetricks,0.007694244,0,2.26e-05,32.24007416,2.240074158,0,-0.007694244,NaN,NaN,0,0,NaN,1.000770551,0,-0.003493363,2.96e-06,31.61671232,31.61671528,,,67.03999996,30,0.268342401,0.455718262
2018-07-19T08:09:03Z,1531987743,207,38.9479069,45.0800306,32.24,0,-0.2,154.1,368613.66,10962.53,149.8,Air+FixedWing,Red,Allies,Su-27,Red Su-27 #002,xu,<51>Seetricks,7.63e-05,0,2.24e-07,32.23999786,2.239997864,0,-7.63e-05,NaN,NaN,0,0,NaN,1.000001521,0,-0.003490679,2.91e-10,31.61663751,31.61663751,,,68.03999996,30,0.268381221,0.455803864
2018-07-19T08:09:04Z,1531987744,207,38.9479069,45.0800306,32.24,0,-0.2,154.1,368613.66,10962.53,149.8,Air+FixedWing,Red,Allies,Su-27,Red Su-27 #002,xu,<51>Seetricks,0,0,0,32.23999786,2.239997864,0,0,NaN,NaN,0,0,NaN,0.999993742,0,-0.003490652,0,31.61663751,31.61663751,,,69.03999996,30,0.268420432,0.455843076
2018-07-19T08:09:05Z,1531987745,207,38.9479069,45.0800306,32.24,0,-0.2,154.1,368613.66,10962.53,149.8,Air+FixedWing,Red,Allies,Su-27,Red Su-27 #002,xu,<51>Seetricks,0,0,0,32.23999786,2.239997864,0,0,NaN,NaN,0,0,NaN,0.999993742,0,-0.003490652,0,31.61663751,31.61663751,,,70.03999996,30,0.268459645,0.455882289
2018-07-19T08:09:06Z,1531987746,207,38.9479069,45.0800306,32.24,0,-0.2,154.1,368613.66,10962.53,149.8,Air+FixedWing,Red,Allies,Su-27,Red Su-27 #002,xu,<51>Seetricks,0,0,0,32.23999786,2.239997864,0,0,NaN,NaN,0,0,NaN,0.999993742,0,-0.003490652,0,31.61663751,31.61663751,,,71.03999996,30,0.268498858,0.455921502
2018-07-19T08:09:07Z,1531987747,207,38.9479069,45.0800306,32.24,0,-0.2,154.1,368613.66,10962.53,149.8,Air+FixedWing,Red,Allies,Su-27,Red Su-27 #002,xu,<51>Seetricks,0,0,0,32.23999786,2.239997864,0,0,NaN,NaN,0,0,NaN,0.999993742,0,-0.003490652,0,31.61663751,31.61663751,,,72.03999996,30,0.268538069,0.455960713
2018-07-19T08:09:08Z,1531987748,207,38.9479069,45.0800306,32.24,0,-0.2,154.1,368613.66,10962.53,149.8,Air+FixedWing,Red,Allies,Su-27,Red Su-27 #002,xu,<51>Seetricks,0,0,0,32.23999786,2.239997864,0,0,NaN,NaN,0,0,NaN,0.999993742,0,-0.003490652,0,31.61663751,31.61663751,,,73.03999996,30,0.268577282,0.455999926
2018-07-19T08:09:09Z,1531987749,207,38.9479069,45.0800306,32.24,0,-0.2,154.1,368613.66,10962.53,149.8,Air+FixedWing,Red,Allies,Su-27,Red Su-27 #002,xu,<51>Seetricks,0,0,0,32.23999786,2.239997864,0,0,NaN,NaN,0,0,NaN,0.999993742,0,-0.003490652,0,31.61663751,31.61663751,,,74.03999996,30,0.268616494,0.456039138
2018-07-19T08:09:10Z,1531987750,207,38.9479069,45.0800306,32.24,0,-0.2,154.1,368613.66,10962.53,149.8,Air+FixedWing,Red,Allies,Su-27,Red Su-27 #002,xu,<51>Seetricks,0,0,0,32.23999786,2.239997864,0,0,NaN,NaN,0,0,NaN,0.999993742,0,-0.003490652,0,31.61663751,31.61663751,,,75.03999996,30,0.268655706,0.456078351
2018-07-19T08:09:11Z,1531987751,207,38.9479069,45.0800306,32.24,0,-0.2,154.1,368613.66,10962.53,149.8,Air+FixedWing,Red,Allies,Su-27,Red Su-27 #002,xu,<51>Seetricks,0,0,0,32.23999786,2.239997864,0,0,NaN,NaN,0,0,NaN,0.999993742,0,-0.003490652,0,31.61663751,31.61663751,,,76.03999996,30,0.268694918,0.456117563
2018-07-19T08:09:12Z,1531987752,207,38.9479069,45.0800306,32.24,0,-0.2,154.1,368613.66,10962.53,149.8,Air+FixedWing,Red,Allies,Su-27,Red Su-27 #002,xu,<51>Seetricks,0,0,0,32.23999786,2.239997864,0,0,NaN,NaN,0,0,NaN,0.999993742,0,-0.003490652,0,31.61663751,31.61663751,,,77.03999996,30,0.26873413,0.456156775
2018-07-19T08:09:13Z,1531987753,207,38.9479069,45.0800306,32.24,0,-0.2,154.1,368613.66,10962.53,149.8,Air+FixedWing,Red,Allies,Su-27,Red Su-27 #002,xu,<51>Seetricks,0,0,0,32.23999786,2.239997864,0,0,NaN,NaN,0,0,NaN,0.999993742,0,-0.003490652,0,31.61663751,31.61663751,,,78.03999996,30,0.268773343,0.456195988
2018-07-19T08:09:14Z,1531987754,207,38.9479069,45.0800306,32.24,0,-0.2,154.1,368613.66,10962.53,149.8,Air+FixedWing,Red,Allies,Su-27,Red Su-27 #002,xu,<51>Seetricks,0,0,0,32.23999786,2.239997864,0,0,NaN,NaN,0,0,NaN,0.999993742,0,-0.003490652,0,31.61663751,31.61663751,,,79.03999996,30,0.268812555,0.456235201
2018-07-19T08:09:15Z,1531987755,207,38.9479069,45.0800306,32.24,0,-0.2,154.1,368613.66,10962.53,149.8,Air+FixedWing,Red,Allies,Su-27,Red Su-27 #002,xu,<51>Seetricks,0,0,0,32.23999786,2.239997864,0,0,NaN,NaN,0,0,NaN,0.999993742,0,-0.003490652,0,31.61663751,31.61663751,,,80.03999996,30,0.268851767,0.456274413
2018-07-19T08:09:16Z,1531987756,207,38.9479069,45.0800306,32.24,0,-0.2,154.1,368613.66,10962.53,149.8,Air+FixedWing,Red,Allies,Su-27,Red Su-27 #002,xu,<51>Seetricks,0,0,0,32.23999786,2.239997864,0,0,NaN,NaN,0,0,NaN,0.999993742,0,-0.003490652,0,31.61663751,31.61663751,,,81.03999996,30,0.26889098,0.456313626
2018-07-19T08:09:17Z,1531987757,207,38.9479069,45.0800306,32.24,0,-0.2,154.1,368613.66,10962.53,149.8,Air+FixedWing,Red,Allies,Su-27,Red Su-27 #002,xu,<51>Seetricks,0,0,0,32.23999786,2.239997864,0,0,NaN,NaN,0,0,NaN,0.999993742,0,-0.003490652,0,31.61663751,31.61663751,,,82.03999996,30,0.268930191,0.456352837
2018-07-19T08:09:18Z,1531987758,207,38.9479069,45.0800306,32.24,0,-0.2,154.1,368613.66,10962.53,149.8,Air+FixedWing,Red,Allies,Su-27,Red Su-27 #002,xu,<51>Seetricks,0,0,0,32.23999786,2.239997864,0,0,NaN,NaN,0,0,NaN,0.999993742,0,-0.003490652,0,31.61663751,31.61663751,,,83.03999996,30,0.268969403,0.456392049
2018-07-19T08:09:19Z,1531987759,207,38.9479069,45.0800306,32.24,0,-0.2,154.1,368613.66,10962.53,149.8,Air+FixedWing,Red,Allies,Su-27,Red Su-27 #002,xu,<51>Seetricks,0,0,0,32.23999786,2.239997864,0,0,NaN,NaN,0,0,NaN,0.999993742,0,-0.003490652,0,31.61663751,31.61663751,,,84.03999996,30,0.269008615,0.456431262
2018-07-19T08:09:20Z,1531987760,207,38.9479069,45.0800306,32.24,0,-0.2,154.1,368613.66,10962.53,149.8,Air+FixedWing,Red,Allies,Su-27,Red Su-27 #002,xu,<51>Seetricks,0,0,0,32.23999786,2.239997864,0,0,NaN,NaN,0,0,NaN,0.999993742,0,-0.003490652,0,31.61663751,31.61663751,,,85.03999996,30,0.269047828,0.456470475
2018-07-19T08:09:21Z,1531987761,207,38.9479069,45.0800306,32.24,0,-0.2,154.1,368613.66,10962.53,149.8,Air+FixedWing,Red,Allies,Su-27,Red Su-27 #002,xu,<51>Seetricks,0,0,0,32.23999786,2.239997864,0,0,NaN,NaN,0,0,NaN,0.999993742,0,-0.003490652,0,31.61663751,31.61663751,,,86.03999996,30,0.26908704,0.456509687
2018-07-19T08:09:22Z,1531987762,207,38.9479069,45.0800306,32.24,0,-0.2,154.1,368613.66,10962.53,149.8,Air+FixedWing,Red,Allies,Su-27,Red Su-27 #002,xu,<51>Seetricks,0,0,0,32.23999786,2.239997864,0,0,NaN,NaN,0,0,NaN,0.999993742,0,-0.003490652,0,31.61663751,31.61663751,,,87.03999996,30,0.269126252,0.4565489
2018-07-19T08:09:23Z,1531987763,207,38.9479069,45.0800306,32.24,0,-0.2,154.1,368613.66,10962.53,149.8,Air+FixedWing,Red,Allies,Su-27,Red Su-27 #002,xu,<51>Seetricks,0,0,0,32.23999786,2.239997864,0,0,NaN,NaN,0,0,NaN,0.999993742,0,-0.003490652,0,31.61663751,31.61663751,,,88.03999996,30,0.269165464,0.456588111
2018-07-19T08:09:24Z,1531987764,207,38.9479069,45.0800306,32.24,0,-0.2,154.1,368613.66,10962.53,149.8,Air+FixedWing,Red,Allies,Su-27,Red Su-27 #002,xu,<51>Seetricks,0,0,0,32.23999786,2.239997864,0,0,NaN,NaN,0,0,NaN,0.999993742,0,-0.003490652,0,31.61663751,31.61663751,,,89.03999996,30,0.269204677,0.456627324
2018-07-19T08:09:25Z,1531987765,207,38.9479069,45.0800306,32.24,0,-0.2,154.1,368613.66,10962.53,149.8,Air+FixedWing,Red,Allies,Su-27,Red Su-27 #002,xu,<51>Seetricks,0,0,0,32.23999786,2.239997864,0,0,NaN,NaN,0,0,NaN,0.999993742,0,-0.003490652,0,31.61663751,31.61663751,,,90.03999996,30,0.269243889,0.456666537
2018-07-19T08:09:26Z,1531987766,207,38.9479069,45.0800306,32.24,0,-0.2,154.1,368613.66,10962.53,149.8,Air+FixedWing,Red,Allies,Su-27,Red Su-27 #002,xu,<51>Seetricks,0,0,0,32.23999786,2.239997864,0,0,NaN,NaN,0,0,NaN,0.999993742,0,-0.003490652,0,31.61663751,31.61663751,,,91.03999996,30,0.269283101,0.456705749
2018-07-19T08:09:27Z,1531987767,207,38.9479069,45.0800306,32.24,0,-0.2,154.1,368613.66,10962.53,149.8,Air+FixedWing,Red,Allies,Su-27,Red Su-27 #002,xu,<51>Seetricks,0,0,0,32.23999786,2.239997864,0,0,NaN,NaN,0,0,NaN,0.999993742,0,-0.003490652,0,31.61663751,31.61663751,,,92.03999996,30,0.269322313,0.456744961
2018-07-19T08:09:28Z,1531987768,207,38.9479069,45.0800306,32.24,0,-0.2,154.1,368613.66,10962.53,149.8,Air+FixedWing,Red,Allies,Su-27,Red Su-27 #002,xu,<51>Seetricks,0,0,0,32.23999786,2.239997864,0,0,NaN,NaN,0,0,NaN,0.999993742,0,-0.003490652,0,31.61663751,31.61663751,,,93.03999996,30,0.269361525,0.456784173
2018-07-19T08:09:29Z,1531987769,207,38.9479069,45.0800306,32.24,0,-0.2,154.1,368613.66,10962.53,149.8,Air+FixedWing,Red,Allies,Su-27,Red Su-27 #002,xu,<51>Seetricks,0,0,0,32.23999786,2.239997864,0,0,NaN,NaN,0,0,NaN,0.999993742,0,-0.003490652,0,31.61663751,31.61663751,,,94.03999996,30,0.269400738,0.456823386
2018-07-19T08:09:30Z,1531987770,207,38.9479069,45.0800306,32.24,0,-0.2,154.1,368613.66,10962.53,149.8,Air+FixedWing,Red,Allies,Su-27,Red Su-27 #002,xu,<51>Seetricks,0,0,0,32.23999786,2.239997864,0,0,NaN,NaN,0,0,NaN,0.999993742,0,-0.003490652,0,31.61663751,31.61663751,,,95.03999996,30,0.26943995,0.456862598
2018-07-19T08:09:31Z,1531987771,207,38.9479069,45.0800306,32.24,0,-0.2,154.1,368613.66,10962.53,149.8,Air+FixedWing,Red,Allies,Su-27,Red Su-27 #002,xu,<51>Seetricks,0,0,0,32.23999786,2.239997864,0,0,NaN,NaN,0,0,NaN,0.999993742,0,-0.003490652,0,31.61663751,31.61663751,,,96.03999996,30,0.269479162,0.456901811
2018-07-19T08:09:32Z,1531987772,207,38.9479069,45.0800306,32.24,0,-0.2,154.1,368613.66,10962.53,149.8,Air+FixedWing,Red,Allies,Su-27,Red Su-27 #002,xu,<51>Seetricks,0,0,0,32.23999786,2.239997864,0,0,NaN,NaN,0,0,NaN,0.999993742,0,-0.003490652,0,31.61663751,31.61663751,,,97.03999996,30,0.269518374,0.456941023
2018-07-19T08:09:33Z,1531987773,207,38.9479069,45.0800306,32.24,0,-0.2,154.1,368613.66,10962.53,149.8,Air+FixedWing,Red,Allies,Su-27,Red Su-27 #002,xu,<51>Seetricks,0,0,0,32.23999786,2.239997864,0,0,NaN,NaN,0,0,NaN,0.999993742,0,-0.003490652,0,31.61663751,31.61663751,,,98.03999996,30,0.269557586,0.456980235
2018-07-19T08:09:34Z,1531987774,207,38.9479069,45.0800306,32.24,0,-0.2,154.1,368613.66,10962.53,149.8,Air+FixedWing,Red,Allies,Su-27,Red Su-27 #002,xu,<51>Seetricks,0,0,0,32.23999786,2.239997864,0,0,NaN,NaN,0,0,NaN,0.999993742,0,-0.003490652,0,31.61663751,31.61663751,,,99.03999996,30,0.269596798,0.457019448
2018-07-19T08:09:35Z,1531987775,207,38.9479069,45.0800306,32.24,0,-0.2,154.1,368613.66,10962.53,149.8,Air+FixedWing,Red,Allies,Su-27,Red Su-27 #002,xu,<51>Seetricks,0,0,0,32.23999786,2.239997864,0,0,NaN,NaN,0,0,NaN,0.999993742,0,-0.003490652,0,31.61663751,31.61663751,,,100.04,30,0.26963601,0.45705866
2018-07-19T08:09:36Z,1531987776,207,38.9479069,45.0800306,32.24,0,-0.2,154.1,368613.66,10962.53,149.8,Air+FixedWing,Red,Allies,Su-27,Red Su-27 #002,xu,<51>Seetricks,0,0,0,32.23999786,2.239997864,0,0,NaN,NaN,0,0,NaN,0.999993742,0,-0.003490652,0,31.61663751,31.61663751,,,101.04,30,0.269675223,0.457097873
2018-07-19T08:09:37Z,1531987777,207,38.9479069,45.0800306,32.24,0,-0.2,154.1,368613.66,10962.53,149.8,Air+FixedWing,Red,Allies,Su-27,Red Su-27 #002,xu,<51>Seetricks,0,0,0,32.23999786,2.239997864,0,0,NaN,NaN,0,0,NaN,0.999993742,0,-0.003490652,0,31.61663751,31.61663751,,,102.04,30,0.269714435,0.457137085
2018-07-19T08:09:38Z,1531987778,207,38.9479069,45.0800306,32.24,0,-0.2,154.1,368613.66,10962.53,149.8,Air+FixedWing,Red,Allies,Su-27,Red Su-27 #002,xu,<51>Seetricks,0,0,0,32.23999786,2.239997864,0,0,NaN,NaN,0,0,NaN,0.999993742,0,-0.003490652,0,31.61663751,31.61663751,,,103.04,30,0.269753647,0.457176297
2018-07-19T08:09:39Z,1531987779,207,38.9479069,45.0800306,32.24,0,-0.2,154.1,368613.66,10962.53,149.8,Air+FixedWing,Red,Allies,Su-27,Red Su-27 #002,xu,<51>Seetricks,0,0,0,32.23999786,2.239997864,0,0,NaN,NaN,0,0,NaN,0.999993742,0,-0.003490652,0,31.61663751,31.61663751,,,104.04,30,0.26979286,0.45721551
2018-07-19T08:09:40Z,1531987780,207,38.9479069,45.0800306,32.24,0,-0.2,154.1,368613.66,10962.53,149.8,Air+FixedWing,Red,Allies,Su-27,Red Su-27 #002,xu,<51>Seetricks,0,0,0,32.23999786,2.239997864,0,0,NaN,NaN,0,0,NaN,0.999993742,0,-0.003490652,0,31.61663751,31.61663751,,,105.04,30,0.269832072,0.457254722
2018-07-19T08:09:41Z,1531987781,207,38.9479069,45.0800306,32.24,0,-0.2,154.1,368613.66,10962.53,149.8,Air+FixedWing,Red,Allies,Su-27,Red Su-27 #002,xu,<51>Seetricks,0,0,0,32.23999786,2.239997864,0,0,NaN,NaN,0,0,NaN,0.999993742,0,-0.003490652,0,31.61663751,31.61663751,,,106.04,30,0.269871283,0.457293934
2018-07-19T08:09:42Z,1531987782,207,38.9479069,45.0800306,32.24,0,-0.2,154.1,368613.66,10962.53,149.8,Air+FixedWing,Red,Allies,Su-27,Red Su-27 #002,xu,<51>Seetricks,0,0,0,32.23999786,2.239997864,0,0,NaN,NaN,0,0,NaN,0.999993742,0,-0.003490652,0,31.61663751,31.61663751,,,107.04,30,0.269910496,0.457333147
2018-07-19T08:09:43Z,1531987783,207,38.9479069,45.0800306,32.24,0,-0.2,154.1,368613.66,10962.53,149.8,Air+FixedWing,Red,Allies,Su-27,Red Su-27 #002,xu,<51>Seetricks,0,0,0,32.23999786,2.239997864,0,0,NaN,NaN,0,0,NaN,0.999993742,0,-0.003490652,0,31.61663751,31.61663751,,,108.04,30,0.269949708,0.45737236
2018-07-19T08:09:44Z,1531987784,207,38.9479069,45.0800306,32.24,0,-0.2,154.1,368613.66,10962.53,149.8,Air+FixedWing,Red,Allies,Su-27,Red Su-27 #002,xu,<51>Seetricks,0,0,0,32.23999786,2.239997864,0,0,NaN,NaN,0,0,NaN,0.999993742,0,-0.003490652,0,31.61663751,31.61663751,,,109.04,30,0.26998892,0.457411572
2018-07-19T08:09:45Z,1531987785,207,38.9479069,45.0800306,32.24,0,-0.2,154.1,368613.66,10962.53,149.8,Air+FixedWing,Red,Allies,Su-27,Red Su-27 #002,xu,<51>Seetricks,0,0,0,32.23999786,2.239997864,0,0,NaN,NaN,0,0,NaN,0.999993742,0,-0.003490652,0,31.61663751,31.61663751,,,110.04,30,0.270028133,0.457450784
2018-07-19T08:09:46Z,1531987786,207,38.9479069,45.0800306,32.24,0,-0.2,154.1,368613.66,10962.53,149.8,Air+FixedWing,Red,Allies,Su-27,Red Su-27 #002,xu,<51>Seetricks,0,0,0,32.23999786,2.239997864,0,0,NaN,NaN,0,0,NaN,0.999993742,0,-0.003490652,0,31.61663751,31.61663751,,,111.04,30,0.270067345,0.457489997
2018-07-19T08:09:47Z,1531987787,207,38.9479069,45.0800306,32.24,0,-0.2,154.1,368613.66,10962.53,149.8,Air+FixedWing,Red,Allies,Su-27,Red Su-27 #002,xu,<51>Seetricks,0,0,0,32.23999786,2.239997864,0,0,NaN,NaN,0,0,NaN,0.999993742,0,-0.003490652,0,31.61663751,31.61663751,,,112.04,30,0.270106557,0.457529209
2018-07-19T08:09:48Z,1531987788,207,38.9479069,45.0800306,32.24,0,-0.2,154.1,368613.66,10962.53,149.8,Air+FixedWing,Red,Allies,Su-27,Red Su-27 #002,xu,<51>Seetricks,0,0,0,32.23999786,2.239997864,0,0,NaN,NaN,0,0,NaN,0.999993742,0,-0.003490652,0,31.61663751,31.61663751,,,113.04,30,0.270145769,0.457568422
2018-07-19T08:09:49Z,1531987789,207,38.9479069,45.0800306,32.24,0,-0.2,154.1,368613.66,10962.53,149.8,Air+FixedWing,Red,Allies,Su-27,Red Su-27 #002,xu,<51>Seetricks,0,0,0,32.23999786,2.239997864,0,0,NaN,NaN,0,0,NaN,0.999993742,0,-0.003490652,0,31.61663751,31.61663751,,,114.04,30,0.270184981,0.457607634
2018-07-19T08:09:50Z,1531987790,207,38.9479069,45.0800306,32.24,0,-0.2,154.1,368613.66,10962.53,149.8,Air+FixedWing,Red,Allies,Su-27,Red Su-27 #002,xu,<51>Seetricks,0,0,0,32.23999786,2.239997864,0,0,NaN,NaN,0,0,NaN,0.999993742,0,-0.003490652,0,31.61663751,31.61663751,,,115.04,30,0.270224194,0.457646847
2018-07-19T08:09:51Z,1531987791,207,38.9479069,45.0800306,32.24,0,-0.2,154.1,368613.66,10962.53,149.8,Air+FixedWing,Red,Allies,Su-27,Red Su-27 #002,xu,<51>Seetricks,0,0,0,32.23999786,2.239997864,0,0,NaN,NaN,0,0,NaN,0.999993742,0,-0.003490652,0,31.61663751,31.61663751,,,116.04,30,0.270263405,0.457686058
2018-07-19T08:09:52Z,1531987792,207,38.9479069,45.0800306,32.24,0,-0.2,154.1,368613.66,10962.53,149.8,Air+FixedWing,Red,Allies,Su-27,Red Su-27 #002,xu,<51>Seetricks,0,0,0,32.23999786,2.239997864,0,0,NaN,NaN,0,0,NaN,0.999993742,0,-0.003490652,0,31.61663751,31.61663751,,,117.04,30,0.270302618,0.45772527
2018-07-19T08:09:53Z,1531987793,207,38.9479069,45.0800306,32.24,0,-0.2,154.1,368613.66,10962.53,149.8,Air+FixedWing,Red,Allies,Su-27,Red Su-27 #002,xu,<51>Seetricks,0,0,0,32.23999786,2.239997864,0,0,NaN,NaN,0,0,NaN,0.999993742,0,-0.003490652,0,31.61663751,31.61663751,,,118.04,30,0.270341829,0.457764483
2018-07-19T08:09:54Z,1531987794,207,38.9479069,45.0800306,32.24,0,-0.2,154.1,368613.66,10962.53,149.8,Air+FixedWing,Red,Allies,Su-27,Red Su-27 #002,xu,<51>Seetricks,0,0,0,32.23999786,2.239997864,0,0,NaN,NaN,0,0,NaN,0.999993742,0,-0.003490652,0,31.61663751,31.61663751,,,119.04,30,0.270381042,0.457803695
2018-07-19T08:09:55Z,1531987795,207,38.9479069,45.0800306,32.24,0,-0.2,154.1,368613.66,10962.53,149.8,Air+FixedWing,Red,Allies,Su-27,Red Su-27 #002,xu,<51>Seetricks,0,0,0,32.23999786,2.239997864,0,0,NaN,NaN,0,0,NaN,0.999993742,0,-0.003490652,0,31.61663751,31.61663751,,,120.04,30,0.270420254,0.457842907
2018-07-19T08:09:56Z,1531987796,207,38.9479069,45.0800306,32.24,0,-0.2,154.1,368613.66,10962.53,149.8,Air+FixedWing,Red,Allies,Su-27,Red Su-27 #002,xu,<51>Seetricks,0,0,0,32.23999786,2.239997864,0,0,NaN,NaN,0,0,NaN,0.999993742,0,-0.003490652,0,31.61663751,31.61663751,,,121.04,30,0.270459466,0.45788212
2018-07-19T08:09:57Z,1531987797,207,38.9479069,45.0800306,32.24,0,-0.2,154.1,368613.66,10962.53,149.8,Air+FixedWing,Red,Allies,Su-27,Red Su-27 #002,xu,<51>Seetricks,0,0,0,32.23999786,2.239997864,0,0,NaN,NaN,0,0,NaN,0.999993742,0,-0.003490652,0,31.61663751,31.61663751,,,122.04,30,0.270498679,0.457921333
2018-07-19T08:09:58Z,1531987798,207,38.9479069,45.0800306,32.24,0,-0.2,154.1,368613.66,10962.53,149.8,Air+FixedWing,Red,Allies,Su-27,Red Su-27 #002,xu,<51>Seetricks,0,0,0,32.23999786,2.239997864,0,0,NaN,NaN,0,0,NaN,0.999993742,0,-0.003490652,0,31.61663751,31.61663751,,,123.04,30,0.270537891,0.457960545
2018-07-19T08:09:59Z,1531987799,207,38.9479069,45.0800306,32.24,0,-0.2,154.1,368613.66,10962.53,149.8,Air+FixedWing,Red,Allies,Su-27,Red Su-27 #002,xu,<51>Seetricks,0,0,0,32.23999786,2.239997864,0,0,NaN,NaN,0,0,NaN,0.999993742,0,-0.003490652,0,31.61663751,31.61663751,,,124.04,30,0.270577103,0.457999758
2018-07-19T08:10:00Z,1531987800,207,38.9479069,45.0800306,32.24,0,-0.2,154.1,368613.66,10962.53,149.8,Air+FixedWing,Red,Allies,Su-27,Red Su-27 #002,xu,<51>Seetricks,0,0,0,32.23999786,2.239997864,0,0,NaN,NaN,0,0,NaN,0.999993742,0,-0.003490652,0,31.61663751,31.61663751,,,125.04,30,0.270616315,0.45803897
2018-07-19T08:10:01Z,1531987801,207,38.9479069,45.0800306,32.24,0,-0.2,154.1,368613.66,10962.53,149.8,Air+FixedWing,Red,Allies,Su-27,Red Su-27 #002,xu,<51>Seetricks,0,0,0,32.23999786,2.239997864,0,0,NaN,NaN,0,0,NaN,0.999993742,0,-0.003490652,0,31.61663751,31.61663751,,,126.04,30,0.270655528,0.458078183
2018-07-19T08:10:02Z,1531987802,207,38.9479069,45.0800306,32.24,0,-0.2,154.1,368613.66,10962.53,149.8,Air+FixedWing,Red,Allies,Su-27,Red Su-27 #002,xu,<51>Seetricks,0,0,0,32.23999786,2.239997864,0,0,NaN,NaN,0,0,NaN,0.999993742,0,-0.003490652,0,31.61663751,31.61663751,,,127.04,30,0.27069474,0.458117395
2018-07-19T08:10:03Z,1531987803,207,38.9479069,45.0800306,32.24,0,-0.2,154.1,368613.66,10962.53,149.8,Air+FixedWing,Red,Allies,Su-27,Red Su-27 #002,xu,<51>Seetricks,0,0,0,32.23999786,2.239997864,0,0,NaN,NaN,0,0,NaN,0.999993742,0,-0.003490652,0,31.61663751,31.61663751,,,128.04,30,0.270733951,0.458156607
2018-07-19T08:10:04Z,1531987804,207,38.9479069,45.0800306,32.24,0,-0.2,154.1,368613.66,10962.53,149.8,Air+FixedWing,Red,Allies,Su-27,Red Su-27 #002,xu,<51>Seetricks,0,0,0,32.23999786,2.239997864,0,0,NaN,NaN,0,0,NaN,0.999993742,0,-0.003490652,0,31.61663751,31.61663751,,,129.04,30,0.270773163,0.458195819
2018-07-19T08:10:05Z,1531987805,207,38.9479069,45.0800306,32.24,0,-0.2,154.1,368613.66,10962.53,149.8,Air+FixedWing,Red,Allies,Su-27,Red Su-27 #002,xu,<51>Seetricks,0,0,0,32.23999786,2.239997864,0,0,NaN,NaN,0,0,NaN,0.999993742,0,-0.003490652,0,31.61663751,31.61663751,,,130.04,30,0.270812376,0.458235032
2018-07-19T08:10:06Z,1531987806,207,38.9479069,45.0800306,32.24,0,-0.2,154.1,368613.66,10962.53,149.8,Air+FixedWing,Red,Allies,Su-27,Red Su-27 #002,xu,<51>Seetricks,0,0,0,32.23999786,2.239997864,0,0,NaN,NaN,0,0,NaN,0.999993742,0,-0.003490652,0,31.61663751,31.61663751,,,131.04,30,0.270851588,0.458274244
2018-07-19T08:10:07Z,1531987807,207,38.9479069,45.0800306,32.24,0,-0.2,154.1,368613.66,10962.53,149.8,Air+FixedWing,Red,Allies,Su-27,Red Su-27 #002,xu,<51>Seetricks,0,0,0,32.23999786,2.239997864,0,0,NaN,NaN,0,0,NaN,0.999993742,0,-0.003490652,0,31.61663751,31.61663751,,,132.04,30,0.2708908,0.458313456
2018-07-19T08:10:08Z,1531987808,207,38.9479069,45.0800306,32.24,0,-0.2,154.1,368613.66,10962.53,149.8,Air+FixedWing,Red,Allies,Su-27,Red Su-27 #002,xu,<51>Seetricks,0,0,0,32.23999786,2.239997864,0,0,NaN,NaN,0,0,NaN,0.999993742,0,-0.003490652,0,31.61663751,31.61663751,,,133.04,30,0.270930013,0.458352669
2018-07-19T08:10:09Z,1531987809,207,38.9479069,45.0800306,32.24,0,-0.2,154.1,368613.66,10962.53,149.8,Air+FixedWing,Red,Allies,Su-27,Red Su-27 #002,xu,<51>Seetricks,0,0,0,32.23999786,2.239997864,0,0,NaN,NaN,0,0,NaN,0.999993742,0,-0.003490652,0,31.61663751,31.61663751,,,134.04,30,0.270969225,0.458391881
2018-07-19T08:10:10Z,1531987810,207,38.9479069,45.0800306,32.24,0,-0.2,154.1,368613.66,10962.53,149.8,Air+FixedWing,Red,Allies,Su-27,Red Su-27 #002,xu,<51>Seetricks,0,0,0,32.23999786,2.239997864,0,0,NaN,NaN,0,0,NaN,0.999993742,0,-0.003490652,0,31.61663751,31.61663751,,,135.04,30,0.271008437,0.458431094
2018-07-19T08:10:11Z,1531987811,207,38.9479069,45.0800306,32.24,0,-0.2,154.1,368613.66,10962.53,149.8,Air+FixedWing,Red,Allies,Su-27,Red Su-27 #002,xu,<51>Seetricks,0,0,0,32.23999786,2.239997864,0,0,NaN,NaN,0,0,NaN,0.999993742,0,-0.003490652,0,31.61663751,31.61663751,,,136.04,30,0.27104765,0.458470307
2018-07-19T08:10:12Z,1531987812,207,38.9479069,45.0800306,32.24,0,-0.2,154.1,368613.66,10962.53,149.8,Air+FixedWing,Red,Allies,Su-27,Red Su-27 #002,xu,<51>Seetricks,0,0,0,32.23999786,2.239997864,0,0,NaN,NaN,0,0,NaN,0.999993742,0,-0.003490652,0,31.61663751,31.61663751,,,137.04,30,0.271086861,0.458509518
2018-07-19T08:10:13Z,1531987813,207,38.9479069,45.0800306,32.24,0,-0.2,154.1,368613.66,10962.53,149.8,Air+FixedWing,Red,Allies,Su-27,Red Su-27 #002,xu,<51>Seetricks,0,0,0,32.23999786,2.239997864,0,0,NaN,NaN,0,0,NaN,0.999993742,0,-0.003490652,0,31.61663751,31.61663751,,,138.04,30,0.271126074,0.458548731
2018-07-19T08:10:14Z,1531987814,207,38.9479069,45.0800306,32.24,0,-0.2,154.1,368613.66,10962.53,149.8,Air+FixedWing,Red,Allies,Su-27,Red Su-27 #002,xu,<51>Seetricks,0,0,0,32.23999786,2.239997864,0,0,NaN,NaN,0,0,NaN,0.999993742,0,-0.003490652,0,31.61663751,31.61663751,,,139.04,30,0.271165286,0.458587943
2018-07-19T08:10:15Z,1531987815,207,38.9479069,45.0800306,32.24,0,-0.2,154.1,368613.66,10962.53,149.8,Air+FixedWing,Red,Allies,Su-27,Red Su-27 #002,xu,<51>Seetricks,0,0,0,32.23999786,2.239997864,0,0,NaN,NaN,0,0,NaN,0.999993742,0,-0.003490652,0,31.61663751,31.61663751,,,140.04,30,0.271204498,0.458627155
2018-07-19T08:10:16Z,1531987816,207,38.9479069,45.0800306,32.24,0,-0.2,154.1,368613.66,10962.53,149.8,Air+FixedWing,Red,Allies,Su-27,Red Su-27 #002,xu,<51>Seetricks,0,0,0,32.23999786,2.239997864,0,0,NaN,NaN,0,0,NaN,0.999993742,0,-0.003490652,0,31.61663751,31.61663751,,,141.04,30,0.27124371,0.458666368
2018-07-19T08:10:17Z,1531987817,207,38.9479069,45.0800306,32.24,0,-0.2,154.1,368613.66,10962.53,149.8,Air+FixedWing,Red,Allies,Su-27,Red Su-27 #002,xu,<51>Seetricks,0,0,0,32.23999786,2.239997864,0,0,NaN,NaN,0,0,NaN,0.999993742,0,-0.003490652,0,31.61663751,31.61663751,,,142.04,30,0.271282922,0.45870558
2018-07-19T08:10:18Z,1531987818,207,38.9479069,45.0800306,32.24,0,-0.2,154.1,368613.66,10962.53,149.8,Air+FixedWing,Red,Allies,Su-27,Red Su-27 #002,xu,<51>Seetricks,0,0,0,32.23999786,2.239997864,0,0,NaN,NaN,0,0,NaN,0.999993742,0,-0.003490652,0,31.61663751,31.61663751,,,143.04,30,0.271322134,0.458744792
2018-07-19T08:10:19Z,1531987819,207,38.9479069,45.0800306,32.24,0,-0.2,154.1,368613.66,10962.53,149.8,Air+FixedWing,Red,Allies,Su-27,Red Su-27 #002,xu,<51>Seetricks,0,0,0,32.23999786,2.239997864,0,0,NaN,NaN,0,0,NaN,0.999993742,0,-0.003490652,0,31.61663751,31.61663751,,,144.04,30,0.271361346,0.458784005
2018-07-19T08:10:20Z,1531987820,207,38.9479069,45.0800306,32.24,0,-0.2,154.1,368613.66,10962.53,149.8,Air+FixedWing,Red,Allies,Su-27,Red Su-27 #002,xu,<51>Seetricks,0,0,0,32.23999786,2.239997864,0,0,NaN,NaN,0,0,NaN,0.999993742,0,-0.003490652,0,31.61663751,31.61663751,,,145.04,30,0.271400559,0.458823218
2018-07-19T08:10:21Z,1531987821,207,38.9479069,45.0800306,32.24,0,-0.2,154.1,368613.66,10962.53,149.8,Air+FixedWing,Red,Allies,Su-27,Red Su-27 #002,xu,<51>Seetricks,0,0,0,32.23999786,2.239997864,0,0,NaN,NaN,0,0,NaN,0.999993742,0,-0.003490652,0,31.61663751,31.61663751,,,146.04,30,0.271439771,0.45886243
2018-07-19T08:10:22Z,1531987822,207,38.9479069,45.0800306,32.24,0,-0.2,154.1,368613.66,10962.53,149.8,Air+FixedWing,Red,Allies,Su-27,Red Su-27 #002,xu,<51>Seetricks,0,0,0,32.23999786,2.239997864,0,0,NaN,NaN,0,0,NaN,0.999993742,0,-0.003490652,0,31.61663751,31.61663751,,,147.04,30,0.271478983,0.458901642
2018-07-19T08:10:23Z,1531987823,207,38.9479069,45.0800306,32.24,0,-0.2,154.1,368613.66,10962.53,149.8,Air+FixedWing,Red,Allies,Su-27,Red Su-27 #002,xu,<51>Seetricks,0,0,0,32.23999786,2.239997864,0,0,NaN,NaN,0,0,NaN,0.999993742,0,-0.003490652,0,31.61663751,31.61663751,,,148.04,30,0.271518195,0.458940855
2018-07-19T08:10:24Z,1531987824,207,38.9479069,45.0800306,32.24,0,-0.2,154.1,368613.66,10962.53,149.8,Air+FixedWing,Red,Allies,Su-27,Red Su-27 #002,xu,<51>Seetricks,0,0,0,32.23999786,2.239997864,0,0,NaN,NaN,0,0,NaN,0.999993742,0,-0.003490652,0,31.61663751,31.61663751,,,149.04,30,0.271557408,0.458980067
2018-07-19T08:10:25Z,1531987825,207,38.9479069,45.0800306,32.24,0,-0.2,154.1,368613.66,10962.53,149.8,Air+FixedWing,Red,Allies,Su-27,Red Su-27 #002,xu,<51>Seetricks,0,0,0,32.23999786,2.239997864,0,0,NaN,NaN,0,0,NaN,0.999993742,0,-0.003490652,0,31.61663751,31.61663751,,,150.04,30,0.27159662,0.45901928
2018-07-19T08:10:26Z,1531987826,207,38.9479069,45.0800306,32.24,0,-0.2,154.1,368613.66,10962.53,149.8,Air+FixedWing,Red,Allies,Su-27,Red Su-27 #002,xu,<51>Seetricks,0,0,0,32.23999786,2.239997864,0,0,NaN,NaN,0,0,NaN,0.999993742,0,-0.003490652,0,31.61663751,31.61663751,,,151.04,30,0.271635832,0.459058492
2018-07-19T08:10:27Z,1531987827,207,38.9479069,45.0800306,32.24,0,-0.2,154.1,368613.66,10962.53,149.8,Air+FixedWing,Red,Allies,Su-27,Red Su-27 #002,xu,<51>Seetricks,0,0,0,32.23999786,2.239997864,0,0,NaN,NaN,0,0,NaN,0.999993742,0,-0.003490652,0,31.61663751,31.61663751,,,152.04,30,0.271675044,0.459097705
2018-07-19T08:10:28Z,1531987828,207,38.9479069,45.0800306,32.24,0,-0.2,154.1,368613.66,10962.53,149.8,Air+FixedWing,Red,Allies,Su-27,Red Su-27 #002,xu,<51>Seetricks,0,0,0,32.23999786,2.239997864,0,0,NaN,NaN,0,0,NaN,0.999993742,0,-0.003490652,0,31.61663751,31.61663751,,,153.04,30,0.271714256,0.459136917
2018-07-19T08:10:29Z,1531987829,207,38.9479069,45.0800306,32.24,0,-0.2,154.1,368613.66,10962.53,149.8,Air+FixedWing,Red,Allies,Su-27,Red Su-27 #002,xu,<51>Seetricks,0,0,0,32.23999786,2.239997864,0,0,NaN,NaN,0,0,NaN,0.999993742,0,-0.003490652,0,31.61663751,31.61663751,,,154.04,30,0.271753468,0.459176129
2018-07-19T08:10:30Z,1531987830,207,38.9479069,45.0800306,32.24,0,-0.2,154.1,368613.66,10962.53,149.8,Air+FixedWing,Red,Allies,Su-27,Red Su-27 #002,xu,<51>Seetricks,0,0,0,32.23999786,2.239997864,0,0,NaN,NaN,0,0,NaN,0.999993742,0,-0.003490652,0,31.61663751,31.61663751,,,155.04,30,0.27179268,0.459215341
2018-07-19T08:10:31Z,1531987831,207,38.9479069,45.0800306,32.24,0,-0.2,154.1,368613.66,10962.53,149.8,Air+FixedWing,Red,Allies,Su-27,Red Su-27 #002,xu,<51>Seetricks,0,0,0,32.23999786,2.239997864,0,0,NaN,NaN,0,0,NaN,0.999993742,0,-0.003490652,0,31.61663751,31.61663751,,,156.04,30,0.271831893,0.459254554
2018-07-19T08:10:32Z,1531987832,207,38.9479069,45.0800306,32.24,0,-0.2,154.1,368613.66,10962.53,149.8,Air+FixedWing,Red,Allies,Su-27,Red Su-27 #002,xu,<51>Seetricks,0,0,0,32.23999786,2.239997864,0,0,NaN,NaN,0,0,NaN,0.999993742,0,-0.003490652,0,31.61663751,31.61663751,,,157.04,30,0.271871105,0.459293765
2018-07-19T08:10:33Z,1531987833,207,38.9479069,45.0800306,32.24,0,-0.2,154.1,368613.66,10962.53,149.8,Air+FixedWing,Red,Allies,Su-27,Red Su-27 #002,xu,<51>Seetricks,0,0,0,32.23999786,2.239997864,0,0,NaN,NaN,0,0,NaN,0.999993742,0,-0.003490652,0,31.61663751,31.61663751,,,158.04,30,0.271910317,0.459332978
2018-07-19T08:10:34Z,1531987834,207,38.9479069,45.0800306,32.24,0,-0.2,154.1,368613.66,10962.53,149.8,Air+FixedWing,Red,Allies,Su-27,Red Su-27 #002,xu,<51>Seetricks,0,0,0,32.23999786,2.239997864,0,0,NaN,NaN,0,0,NaN,0.999993742,0,-0.003490652,0,31.61663751,31.61663751,,,159.04,30,0.27194953,0.459372191
2018-07-19T08:10:35Z,1531987835,207,38.9479069,45.0800306,32.24,0,-0.2,154.1,368613.66,10962.53,149.8,Air+FixedWing,Red,Allies,Su-27,Red Su-27 #002,xu,<51>Seetricks,0,0,0,32.23999786,2.239997864,0,0,NaN,NaN,0,0,NaN,0.999993742,0,-0.003490652,0,31.61663751,31.61663751,,,160.04,30,0.271988741,0.459411403
2018-07-19T08:10:36Z,1531987836,207,38.9479069,45.0800306,32.24,0,-0.2,154.1,368613.66,10962.53,149.8,Air+FixedWing,Red,Allies,Su-27,Red Su-27 #002,xu,<51>Seetricks,0,0,0,32.23999786,2.239997864,0,0,NaN,NaN,0,0,NaN,0.999993742,0,-0.003490652,0,31.61663751,31.61663751,,,161.04,30,0.272027954,0.459450616
2018-07-19T08:10:37Z,1531987837,207,38.9479069,45.0800306,32.24,0,-0.2,154.1,368613.66,10962.53,149.8,Air+FixedWing,Red,Allies,Su-27,Red Su-27 #002,xu,<51>Seetricks,0,0,0,32.23999786,2.239997864,0,0,NaN,NaN,0,0,NaN,0.999993742,0,-0.003490652,0,31.61663751,31.61663751,,,162.04,30,0.272067166,0.459489827
2018-07-19T08:10:38Z,1531987838,207,38.9479069,45.0800306,32.24,0,-0.2,154.1,368613.66,10962.53,149.8,Air+FixedWing,Red,Allies,Su-27,Red Su-27 #002,xu,<51>Seetricks,0,0,0,32.23999786,2.239997864,0,0,NaN,NaN,0,0,NaN,0.999993742,0,-0.003490652,0,31.61663751,31.61663751,,,163.04,30,0.272106378,0.45952904
2018-07-19T08:10:39Z,1531987839,207,38.9479069,45.0800306,32.24,0,-0.2,154.1,368613.66,10962.53,149.8,Air+FixedWing,Red,Allies,Su-27,Red Su-27 #002,xu,<51>Seetricks,0,0,0,32.23999786,2.239997864,0,0,NaN,NaN,0,0,NaN,0.999993742,0,-0.003490652,0,31.61663751,31.61663751,,,164.04,30,0.272145591,0.459568253
2018-07-19T08:10:40Z,1531987840,207,38.9479069,45.0800306,32.24,0,-0.2,154.1,368613.66,10962.53,149.8,Air+FixedWing,Red,Allies,Su-27,Red Su-27 #002,xu,<51>Seetricks,0,0,0,32.23999786,2.239997864,0,0,NaN,NaN,0,0,NaN,0.999993742,0,-0.003490652,0,31.61663751,31.61663751,,,165.04,30,0.272184803,0.459607465
2018-07-19T08:10:41Z,1531987841,207,38.9479069,45.0800306,32.24,0,-0.2,154.1,368613.66,10962.53,149.8,Air+FixedWing,Red,Allies,Su-27,Red Su-27 #002,xu,<51>Seetricks,0,0,0,32.23999786,2.239997864,0,0,NaN,NaN,0,0,NaN,0.999993742,0,-0.003490652,0,31.61663751,31.61663751,,,166.04,30,0.272224014,0.459646677
2018-07-19T08:10:42Z,1531987842,207,38.9479069,45.0800306,32.24,0,-0.2,154.1,368613.66,10962.53,149.8,Air+FixedWing,Red,Allies,Su-27,Red Su-27 #002,xu,<51>Seetricks,0,0,0,32.23999786,2.239997864,0,0,NaN,NaN,0,0,NaN,0.999993742,0,-0.003490652,0,31.61663751,31.61663751,,,167.04,30,0.272263227,0.45968589
2018-07-19T08:10:43Z,1531987843,207,38.947907,45.0800306,32.24,0,-0.2,154.1,368613.66,10962.53,149.8,Air+FixedWing,Red,Allies,Su-27,Red Su-27 #002,xu,<51>Seetricks,0,0,0,32.23999786,2.239997864,0,0,NaN,NaN,0,0,NaN,0.999993742,0,-0.003490652,0,31.61663751,31.61663751,,,168.04,30,0.272302439,0.459725103
2018-07-19T08:10:44Z,1531987844,207,38.947907,45.0800306,32.24,0,-0.2,154.1,368613.66,10962.53,149.8,Air+FixedWing,Red,Allies,Su-27,Red Su-27 #002,xu,<51>Seetricks,0,0,0,32.23999786,2.239997864,0,0,NaN,NaN,0,0,NaN,0.999993742,0,-0.003490652,0,31.61663751,31.61663751,,,169.04,30,0.27234165,0.459764314
2018-07-19T08:10:45Z,1531987845,207,38.947907,45.0800306,32.24,0,-0.2,154.1,368613.66,10962.53,149.8,Air+FixedWing,Red,Allies,Su-27,Red Su-27 #002,xu,<51>Seetricks,0,0,0,32.23999786,2.239997864,0,0,NaN,NaN,0,0,NaN,0.999993742,0,-0.003490652,0,31.61663751,31.61663751,,,170.04,30,0.272380863,0.459803527
2018-07-19T08:10:46Z,1531987846,207,38.947907,45.0800306,32.24,0,-0.2,154.1,368613.66,10962.53,149.8,Air+FixedWing,Red,Allies,Su-27,Red Su-27 #002,xu,<51>Seetricks,0,0,0,32.23999786,2.239997864,0,0,NaN,NaN,0,0,NaN,0.999993742,0,-0.003490652,0,31.61663751,31.61663751,,,171.04,30,0.272420075,0.459842739
2018-07-19T08:10:47Z,1531987847,207,38.947907,45.0800306,32.24,0,-0.2,154.1,368613.66,10962.53,149.8,Air+FixedWing,Red,Allies,Su-27,Red Su-27 #002,xu,<51>Seetricks,0,0,0,32.23999786,2.239997864,0,0,NaN,NaN,0,0,NaN,0.999993742,0,-0.003490652,0,31.61663751,31.61663751,,,172.04,30,0.272459288,0.459881951
2018-07-19T08:10:48Z,1531987848,207,38.947907,45.0800306,32.24,0,-0.2,154.1,368613.66,10962.53,149.8,Air+FixedWing,Red,Allies,Su-27,Red Su-27 #002,xu,<51>Seetricks,0,0,0,32.23999786,2.239997864,0,0,NaN,NaN,0,0,NaN,0.999993742,0,-0.003490652,0,31.61663751,31.61663751,,,173.04,30,0.2724985,0.459921165
2018-07-19T08:10:49Z,1531987849,207,38.947907,45.0800306,32.24,0,-0.2,154.1,368613.66,10962.53,149.8,Air+FixedWing,Red,Allies,Su-27,Red Su-27 #002,xu,<51>Seetricks,0,0,0,32.23999786,2.239997864,0,0,NaN,NaN,0,0,NaN,0.999993742,0,-0.003490652,0,31.61663751,31.61663751,,,174.04,30,0.272537712,0.459960377
2018-07-19T08:10:50Z,1531987850,207,38.947907,45.0800306,32.24,0,-0.2,154.1,368613.66,10962.53,149.8,Air+FixedWing,Red,Allies,Su-27,Red Su-27 #002,xu,<51>Seetricks,0,0,0,32.23999786,2.239997864,0,0,NaN,NaN,0,0,NaN,0.999993742,0,-0.003490652,0,31.61663751,31.61663751,,,175.04,30,0.272576925,0.459999589
2018-07-19T08:10:51Z,1531987851,207,38.947907,45.0800306,32.24,0,-0.2,154.1,368613.66,10962.53,149.8,Air+FixedWing,Red,Allies,Su-27,Red Su-27 #002,xu,<51>Seetricks,0,0,0,32.23999786,2.239997864,0,0,NaN,NaN,0,0,NaN,0.999993742,0,-0.003490652,0,31.61663751,31.61663751,,,176.04,30,0.272616136,0.460038801
2018-07-19T08:10:52Z,1531987852,207,38.947907,45.0800306,32.24,0,-0.2,154.1,368613.66,10962.53,149.8,Air+FixedWing,Red,Allies,Su-27,Red Su-27 #002,xu,<51>Seetricks,0,0,0,32.23999786,2.239997864,0,0,NaN,NaN,0,0,NaN,0.999993742,0,-0.003490652,0,31.61663751,31.61663751,,,177.04,30,0.272655349,0.460078014
2018-07-19T08:10:53Z,1531987853,207,38.947907,45.0800306,32.24,0,-0.2,154.1,368613.66,10962.53,149.8,Air+FixedWing,Red,Allies,Su-27,Red Su-27 #002,xu,<51>Seetricks,0,0,0,32.23999786,2.239997864,0,0,NaN,NaN,0,0,NaN,0.999993742,0,-0.003490652,0,31.61663751,31.61663751,,,178.04,30,0.272694561,0.460117226
2018-07-19T08:10:54Z,1531987854,207,38.947907,45.0800306,32.24,0,-0.2,154.1,368613.66,10962.53,149.8,Air+FixedWing,Red,Allies,Su-27,Red Su-27 #002,xu,<51>Seetricks,0,0,0,32.23999786,2.239997864,0,0,NaN,NaN,0,0,NaN,0.999993742,0,-0.003490652,0,31.61663751,31.61663751,,,179.04,30,0.272733773,0.460156438
2018-07-19T08:10:55Z,1531987855,207,38.947907,45.0800306,32.24,0,-0.2,154.1,368613.66,10962.53,149.8,Air+FixedWing,Red,Allies,Su-27,Red Su-27 #002,xu,<51>Seetricks,0,0,0,32.23999786,2.239997864,0,0,NaN,NaN,0,0,NaN,0.999993742,0,-0.003490652,0,31.61663751,31.61663751,,,180.04,30,0.272772985,0.46019565
2018-07-19T08:10:56Z,1531987856,207,38.947907,45.0800306,32.24,0,-0.2,154.1,368613.66,10962.53,149.8,Air+FixedWing,Red,Allies,Su-27,Red Su-27 #002,xu,<51>Seetricks,0,0,0,32.23999786,2.239997864,0,0,NaN,NaN,0,0,NaN,0.999993742,0,-0.003490652,0,31.61663751,31.61663751,,,181.04,30,0.272812197,0.460234863
2018-07-19T08:10:57Z,1531987857,207,38.947907,45.0800306,32.24,0,-0.2,154.1,368613.66,10962.53,149.8,Air+FixedWing,Red,Allies,Su-27,Red Su-27 #002,xu,<51>Seetricks,0,0,0,32.23999786,2.239997864,0,0,NaN,NaN,0,0,NaN,0.999993742,0,-0.003490652,0,31.61663751,31.61663751,,,182.04,30,0.27285141,0.460274076
2018-07-19T08:10:58Z,1531987858,207,38.947907,45.0800306,32.24,0,-0.2,154.1,368613.66,10962.53,149.8,Air+FixedWing,Red,Allies,Su-27,Red Su-27 #002,xu,<51>Seetricks,0,0,0,32.23999786,2.239997864,0,0,NaN,NaN,0,0,NaN,0.999993742,0,-0.003490652,0,31.61663751,31.61663751,,,183.04,30,0.272890621,0.460313288
2018-07-19T08:10:59Z,1531987859,207,38.947907,45.0800306,32.24,0,-0.2,154.1,368613.66,10962.53,149.8,Air+FixedWing,Red,Allies,Su-27,Red Su-27 #002,xu,<51>Seetricks,0,0,0,32.23999786,2.239997864,0,0,NaN,NaN,0,0,NaN,0.999993742,0,-0.003490652,0,31.61663751,31.61663751,,,184.04,30,0.272929834,0.4603525
2018-07-19T08:11:00Z,1531987860,207,38.947907,45.0800306,32.24,0,-0.2,154.1,368613.66,10962.53,149.8,Air+FixedWing,Red,Allies,Su-27,Red Su-27 #002,xu,<51>Seetricks,0,0,0,32.23999786,2.239997864,0,0,NaN,NaN,0,0,NaN,0.999993742,0,-0.003490652,0,31.61663751,31.61663751,,,185.04,30,0.272969045,0.460391712
2018-07-19T08:11:01Z,1531987861,207,38.947907,45.0800306,32.24,0,-0.2,154.1,368613.66,10962.53,149.8,Air+FixedWing,Red,Allies,Su-27,Red Su-27 #002,xu,<51>Seetricks,0,0,0,32.23999786,2.239997864,0,0,NaN,NaN,0,0,NaN,0.999993742,0,-0.003490652,0,31.61663751,31.61663751,,,186.04,30,0.273008258,0.460430925
2018-07-19T08:11:02Z,1531987862,207,38.947907,45.0800306,32.24,0,-0.2,154.1,368613.66,10962.53,149.8,Air+FixedWing,Red,Allies,Su-27,Red Su-27 #002,xu,<51>Seetricks,0,0,0,32.23999786,2.239997864,0,0,NaN,NaN,0,0,NaN,0.999993742,0,-0.003490652,0,31.61663751,31.61663751,,,187.04,30,0.273047471,0.460470138
2018-07-19T08:11:03Z,1531987863,207,38.947907,45.0800306,32.24,0,-0.2,154.1,368613.66,10962.53,149.8,Air+FixedWing,Red,Allies,Su-27,Red Su-27 #002,xu,<51>Seetricks,0,0,0,32.23999786,2.239997864,0,0,NaN,NaN,0,0,NaN,0.999993742,0,-0.003490652,0,31.61663751,31.61663751,,,188.04,30,0.273086683,0.46050935
2018-07-19T08:11:04Z,1531987864,207,38.947907,45.0800306,32.24,0,-0.2,154.1,368613.66,10962.53,149.8,Air+FixedWing,Red,Allies,Su-27,Red Su-27 #002,xu,<51>Seetricks,0,0,0,32.23999786,2.239997864,0,0,NaN,NaN,0,0,NaN,0.999993742,0,-0.003490652,0,31.61663751,31.61663751,,,189.04,30,0.273125895,0.460548562
