ISOTime,UnixTime,Id,Longitude,Latitude,Altitude,Roll,Pitch,Yaw,U,V,Heading,Type,Color,Coalition,Name,Group,Country,Pilot,TAS,CAS,M,ASL,AGL,GS,VS,AOA,AOS,RRT,TRT,TRD,G,LatG,LonG,Ek,Ep,Em,FFW,FFV,RelativeTime,Elev,GroundDistance,AirDistance
2018-07-19T08:41:14Z,1531989674,36F05,38.946112,45.0788217,32.29,-0.2,-0.4,65.4,368482.28,10817.81,61.1,Air+FixedWing,Red,Allies,Su-27,Red Su-27 #001,xu,<51P> Rich,0.161815502,0,0.000475523,32.28523636,2.285236359,NaN,NaN,NaN,NaN,NaN,NaN,NaN,NaN,NaN,NaN,NaN,31.66100131,NaN,,,0.339999914,30,NaN,NaN
2018-07-19T08:41:15Z,1531989675,36F05,38.946112,45.0788217,32.32,-0.2,-0.2,65.4,368482.28,10817.82,61.2,Air+FixedWing,Red,Allies,Su-27,Red Su-27 #001,xu,<51P> Rich,0.039171496,0,0.000115112,32.32380676,2.323806763,0.006835938,0.038570404,NaN,NaN,0.199987939,NaN,NaN,0.993486366,-0.004828369,-0.001240123,7.67e-05,31.69882596,31.69890268,,,1.339999914,30,0.004240743,0.038802837
2018-07-19T08:41:16Z,1531989676,36F05,38.9461121,45.0788218,32.3,-0.2,-0.5,65.4,368482.31,10817.83,61.2,Air+FixedWing,Red,Allies,Su-27,Red Su-27 #001,xu,<51P> Rich,0.041116616,0,0.000120828,32.29857254,2.29857254,0.032462442,-0.025234222,NaN,NaN,0,0.200281344,NaN,0.996594453,-0.002938906,-0.015673592,8.45e-05,31.67407964,31.67416417,,,2.339999914,30,0.018313413,0.067695881
2018-07-19T08:41:17Z,1531989677,36F05,38.9461117,45.0788217,32.24,-0.1,-0.4,65.4,368482.28,10817.81,61.2,Air+FixedWing,Red,Allies,Su-27,Red Su-27 #001,xu,<51P> Rich,0.068397457,0,0.000200998,32.24095154,2.240951538,0.036851489,-0.057621002,NaN,NaN,0.095232474,0.03830834,NaN,1.006798848,-0.001546972,-0.003276887,0.000233911,31.61757274,31.61780665,,,3.339999914,30,0.050612009,0.13375184
2018-07-19T08:41:18Z,1531989678,36F05,38.9461118,45.0788217,32.25,-0.1,-0.3,65.4,368482.28,10817.81,61.2,Air+FixedWing,Red,Allies,Su-27,Red Su-27 #001,xu,<51P> Rich,0.009048462,0,2.66e-05,32.25,2.25,0,0.009048462,NaN,NaN,0,0.052339163,NaN,0.999510509,-0.001744372,-0.005233482,4.09e-06,31.62644625,31.62645034,,,4.339999914,30,0.055775371,0.144169865
2018-07-19T08:41:19Z,1531989679,36F05,38.9461117,45.0788217,32.25,-0.1,-0.3,65.4,368482.28,10817.81,61.2,Air+FixedWing,Red,Allies,Su-27,Red Su-27 #001,xu,<51P> Rich,0.004398346,0,1.29e-05,32.25439835,2.254398346,0,0.004398346,NaN,NaN,0,0.03830834,NaN,1.000107212,-0.001745413,-0.005236606,9.67e-07,31.63075955,31.63076052,,,5.339999914,30,0.060938734,0.15095264
2018-07-19T08:41:20Z,1531989680,36F05,38.9461118,45.0788217,32.26,-0.1,-0.3,65.4,368482.28,10817.81,61.2,Air+FixedWing,Red,Allies,Su-27,Red Su-27 #001,xu,<51P> Rich,0.005599976,0,1.65e-05,32.25999832,2.259998322,0,0.005599976,NaN,NaN,0,0.00989117,NaN,0.998394123,-0.001742423,-0.005227636,1.57e-06,31.63625125,31.63625282,,,6.339999914,30,0.068666143,0.160495867
2018-07-19T08:41:21Z,1531989681,36F05,38.9461117,45.0788217,32.25,-0.1,-0.3,65.4,368482.28,10817.81,61.2,Air+FixedWing,Red,Allies,Su-27,Red Su-27 #001,xu,<51P> Rich,0.009998322,0,2.94e-05,32.25,2.25,0,-0.009998322,NaN,NaN,0,0.00989117,NaN,1.001004211,-0.001746978,-0.005241303,5e-06,31.62644625,31.62645125,,,7.339999914,30,0.074664211,0.172155353
2018-07-19T08:41:22Z,1531989682,36F05,38.9461117,45.0788217,32.25,-0.1,-0.3,65.4,368482.28,10817.81,61.2,Air+FixedWing,Red,Allies,Su-27,Red Su-27 #001,xu,<51P> Rich,0,0,0,32.25,2.25,0,0,NaN,NaN,0,0.00989117,NaN,0.999984682,-0.001745199,-0.005235964,0,31.62644625,31.62644625,,,8.339999914,30,0.076101725,0.173592874
2018-07-19T08:41:23Z,1531989683,36F05,38.9461117,45.0788217,32.25,-0.1,-0.3,65.4,368482.28,10817.81,61.2,Air+FixedWing,Red,Allies,Su-27,Red Su-27 #001,xu,<51P> Rich,0,0,0,32.25,2.25,0,0,NaN,NaN,0,0.00989117,NaN,0.999984682,-0.001745199,-0.005235964,0,31.62644625,31.62644625,,,9.339999914,30,0.076475863,0.173967015
2018-07-19T08:41:24Z,1531989684,36F05,38.9461117,45.0788217,32.25,-0.1,-0.3,65.4,368482.28,10817.81,61.2,Air+FixedWing,Red,Allies,Su-27,Red Su-27 #001,xu,<51P> Rich,0,0,0,32.25,2.25,0,0,NaN,NaN,0,0.00989117,NaN,0.999984682,-0.001745199,-0.005235964,0,31.62644625,31.62644625,,,10.33999991,30,0.076850001,0.174341154
2018-07-19T08:41:25Z,1531989685,36F05,38.9461117,45.0788217,32.25,-0.1,-0.3,65.4,368482.28,10817.81,61.2,Air+FixedWing,Red,Allies,Su-27,Red Su-27 #001,xu,<51P> Rich,0,0,0,32.25,2.25,0,0,NaN,NaN,0,0.00989117,NaN,0.999984682,-0.001745199,-0.005235964,0,31.62644625,31.62644625,,,11.33999991,30,0.077224138,0.174715294
2018-07-19T08:41:26Z,1531989686,36F05,38.9461117,45.0788217,32.25,-0.1,-0.3,65.4,368482.28,10817.81,61.2,Air+FixedWing,Red,Allies,Su-27,Red Su-27 #001,xu,<51P> Rich,0,0,0,32.25,2.25,0,0,NaN,NaN,0,0.00989117,NaN,0.999984682,-0.001745199,-0.005235964,0,31.62644625,31.62644625,,,12.33999991,30,0.077598276,0.175089434
2018-07-19T08:41:27Z,1531989687,36F05,38.9461117,45.0788217,32.25,-0.1,-0.3,65.4,368482.28,10817.81,61.2,Air+FixedWing,Red,Allies,Su-27,Red Su-27 #001,xu,<51P> Rich,0,0,0,32.25,2.25,0,0,NaN,NaN,0,0.00989117,NaN,0.999984682,-0.001745199,-0.005235964,0,31.62644625,31.62644625,,,13.33999991,30,0.077972415,0.175463574
2018-07-19T08:41:28Z,1531989688,36F05,38.9461117,45.0788217,32.25,-0.1,-0.3,65.4,368482.28,10817.81,61.2,Air+FixedWing,Red,Allies,Su-27,Red Su-27 #001,xu,<51P> Rich,0,0,0,32.25,2.25,0,0,NaN,NaN,0,0.00989117,NaN,0.999984682,-0.001745199,-0.005235964,0,31.62644625,31.62644625,,,14.33999991,30,0.078346553,0.175837714
2018-07-19T08:41:29Z,1531989689,36F05,38.9461117,45.0788217,32.25,-0.1,-0.3,65.4,368482.28,10817.81,61.2,Air+FixedWing,Red,Allies,Su-27,Red Su-27 #001,xu,<51P> Rich,0,0,0,32.25,2.25,0,0,NaN,NaN,0,0.00989117,NaN,0.999984682,-0.001745199,-0.005235964,0,31.62644625,31.62644625,,,15.33999991,30,0.078720691,0.176211853
2018-07-19T08:41:30Z,1531989690,36F05,38.9461117,45.0788217,32.25,-0.1,-0.3,65.4,368482.28,10817.81,61.2,Air+FixedWing,Red,Allies,Su-27,Red Su-27 #001,xu,<51P> Rich,0,0,0,32.25,2.25,0,0,NaN,NaN,0,0.00989117,NaN,0.999984682,-0.001745199,-0.005235964,0,31.62644625,31.62644625,,,16.33999991,30,0.079094829,0.176585994
2018-07-19T08:41:31Z,1531989691,36F05,38.9461117,45.0788217,32.25,-0.1,-0.3,65.4,368482.28,10817.81,61.2,Air+FixedWing,Red,Allies,Su-27,Red Su-27 #001,xu,<51P> Rich,0,0,0,32.25,2.25,0,0,NaN,NaN,0,0.00989117,NaN,0.999984682,-0.001745199,-0.005235964,0,31.62644625,31.62644625,,,17.33999991,30,0.079468968,0.176960134
2018-07-19T08:41:32Z,1531989692,36F05,38.9461118,45.0788217,32.25,-0.1,-0.3,65.4,368482.28,10817.81,61.2,Air+FixedWing,Red,Allies,Su-27,Red Su-27 #001,xu,<51P> Rich,0,0,0,32.25,2.25,0,0,NaN,NaN,0,0.00989117,NaN,0.999984682,-0.001745199,-0.005235964,0,31.62644625,31.62644625,,,18.33999991,30,0.079843105,0.177334274
2018-07-19T08:41:33Z,1531989693,36F05,38.9461118,45.0788217,32.25,-0.1,-0.3,65.4,368482.28,10817.81,61.2,Air+FixedWing,Red,Allies,Su-27,Red Su-27 #001,xu,<51P> Rich,0,0,0,32.25,2.25,0,0,NaN,NaN,0,0.00989117,NaN,0.999984682,-0.001745199,-0.005235964,0,31.62644625,31.62644625,,,19.33999991,30,0.080217243,0.177708414
2018-07-19T08:41:34Z,1531989694,36F05,38.9461118,45.0788217,32.25,-0.1,-0.3,65.4,368482.28,10817.81,61.2,Air+FixedWing,Red,Allies,Su-27,Red Su-27 #001,xu,<51P> Rich,0,0,0,32.25,2.25,0,0,NaN,NaN,0,0.00989117,NaN,0.999984682,-0.001745199,-0.005235964,0,31.62644625,31.62644625,,,20.33999991,30,0.080591382,0.178082554
2018-07-19T08:41:35Z,1531989695,36F05,38.9461118,45.0788217,32.25,-0.1,-0.3,65.4,368482.28,10817.81,61.2,Air+FixedWing,Red,Allies,Su-27,Red Su-27 #001,xu,<51P> Rich,0,0,0,32.25,2.25,0,0,NaN,NaN,0,0.00989117,NaN,0.999984682,-0.001745199,-0.005235964,0,31.62644625,31.62644625,,,21.33999991,30,0.08096552,0.178456694
2018-07-19T08:41:36Z,1531989696,36F05,38.9461118,45.0788217,32.25,-0.1,-0.3,65.4,368482.28,10817.81,61.2,Air+FixedWing,Red,Allies,Su-27,Red Su-27 #001,xu,<51P> Rich,0,0,0,32.25,2.25,0,0,NaN,NaN,0,0.00989117,NaN,0.999984682,-0.001745199,-0.005235964,0,31.62644625,31.62644625,,,22.33999991,30,0.081339658,0.178830834
2018-07-19T08:41:37Z,1531989697,36F05,38.9461118,45.0788217,32.25,-0.1,-0.3,65.4,368482.28,10817.81,61.2,Air+FixedWing,Red,Allies,Su-27,Red Su-27 #001,xu,<51P> Rich,0,0,0,32.25,2.25,0,0,NaN,NaN,0,0.00989117,NaN,0.999984682,-0.001745199,-0.005235964,0,31.62644625,31.62644625,,,23.33999991,30,0.081713795,0.179204973
2018-07-19T08:41:38Z,1531989698,36F05,38.9461118,45.0788217,32.25,-0.1,-0.3,65.4,368482.28,10817.81,61.2,Air+FixedWing,Red,Allies,Su-27,Red Su-27 #001,xu,<51P> Rich,0,0,0,32.25,2.25,0,0,NaN,NaN,0,0.00989117,NaN,0.999984682,-0.001745199,-0.005235964,0,31.62644625,31.62644625,,,24.33999991,30,0.082087933,0.179579113
2018-07-19T08:41:39Z,1531989699,36F05,38.9461118,45.0788217,32.25,-0.1,-0.3,65.4,368482.28,10817.81,61.2,Air+FixedWing,Red,Allies,Su-27,Red Su-27 #001,xu,<51P> Rich,0,0,0,32.25,2.25,0,0,NaN,NaN,0,0.00989117,NaN,0.999984682,-0.001745199,-0.005235964,0,31.62644625,31.62644625,,,25.33999991,30,0.082462071,0.179953253
2018-07-19T08:41:40Z,1531989700,36F05,38.9461118,45.0788217,32.25,-0.1,-0.3,65.4,368482.28,10817.81,61.2,Air+FixedWing,Red,Allies,Su-27,Red Su-27 #001,xu,<51P> Rich,0,0,0,32.25,2.25,0,0,NaN,NaN,0,0.00989117,NaN,0.999984682,-0.001745199,-0.005235964,0,31.62644625,31.62644625,,,26.33999991,30,0.082836209,0.180327393
2018-07-19T08:41:41Z,1531989701,36F05,38.9461118,45.0788217,32.25,-0.1,-0.3,65.4,368482.28,10817.81,61.2,Air+FixedWing,Red,Allies,Su-27,Red Su-27 #001,xu,<51P> Rich,0,0,0,32.25,2.25,0,0,NaN,NaN,0,0.00989117,NaN,0.999984682,-0.001745199,-0.005235964,0,31.62644625,31.62644625,,,27.33999991,30,0.083210347,0.180701533
2018-07-19T08:41:42Z,1531989702,36F05,38.9461118,45.0788217,32.25,-0.1,-0.3,65.4,368482.28,10817.81,61.2,Air+FixedWing,Red,Allies,Su-27,Red Su-27 #001,xu,<51P> Rich,0,0,0,32.25,2.25,0,0,NaN,NaN,0,0.00989117,NaN,0.999984682,-0.001745199,-0.005235964,0,31.62644625,31.62644625,,,28.33999991,30,0.083584486,0.181075673
2018-07-19T08:41:43Z,1531989703,36F05,38.9461118,45.0788217,32.25,-0.1,-0.3,65.4,368482.28,10817.81,61.2,Air+FixedWing,Red,Allies,Su-27,Red Su-27 #001,xu,<51P> Rich,0,0,0,32.25,2.25,0,0,NaN,NaN,0,0.00989117,NaN,0.999984682,-0.001745199,-0.005235964,0,31.62644625,31.62644625,,,29.33999991,30,0.083740445,0.181231633
2018-07-19T08:41:44Z,1531989704,36F05,38.9461118,45.0788217,32.25,-0.1,-0.3,65.4,368482.28,10817.81,61.2,Air+FixedWing,Red,Allies,Su-27,Red Su-27 #001,xu,<51P> Rich,0,0,0,32.25,2.25,0,0,NaN,NaN,0,0.00989117,NaN,0.999984682,-0.001745199,-0.005235964,0,31.62644625,31.62644625,,,30.33999991,30,0.084054746,0.181545935
2018-07-19T08:41:45Z,1531989705,36F05,38.9461118,45.0788217,32.25,-0.1,-0.3,65.4,368482.28,10817.81,61.2,Air+FixedWing,Red,Allies,Su-27,Red Su-27 #001,xu,<51P> Rich,0,0,0,32.25,2.25,0,0,NaN,NaN,0,0.00989117,NaN,0.999984682,-0.001745199,-0.005235964,0,31.62644625,31.62644625,,,31.33999991,30,0.084369046,0.181860236
2018-07-19T08:41:46Z,1531989706,36F05,38.9461118,45.0788217,32.25,-0.1,-0.3,65.4,368482.28,10817.81,61.2,Air+FixedWing,Red,Allies,Su-27,Red Su-27 #001,xu,<51P> Rich,0,0,0,32.25,2.25,0,0,NaN,NaN,0,0.00989117,NaN,0.999984682,-0.001745199,-0.005235964,0,31.62644625,31.62644625,,,32.33999991,30,0.084683346,0.182174539
2018-07-19T08:41:47Z,1531989707,36F05,38.9461118,45.0788217,32.25,-0.1,-0.3,65.4,368482.28,10817.81,61.2,Air+FixedWing,Red,Allies,Su-27,Red Su-27 #001,xu,<51P> Rich,0,0,0,32.25,2.25,0,0,NaN,NaN,0,0.00989117,NaN,0.999984682,-0.001745199,-0.005235964,0,31.62644625,31.62644625,,,33.33999991,30,0.084997645,0.182488839
2018-07-19T08:41:48Z,1531989708,36F05,38.9461118,45.0788217,32.25,-0.1,-0.3,65.4,368482.28,10817.81,61.2,Air+FixedWing,Red,Allies,Su-27,Red Su-27 #001,xu,<51P> Rich,0,0,0,32.25,2.25,0,0,NaN,NaN,0,0.00989117,NaN,0.999984682,-0.001745199,-0.005235964,0,31.62644625,31.62644625,,,34.33999991,30,0.085311945,0.18280314
2018-07-19T08:41:49Z,1531989709,36F05,38.9461118,45.0788217,32.25,-0.1,-0.3,65.4,368482.28,10817.81,61.2,Air+FixedWing,Red,Allies,Su-27,Red Su-27 #001,xu,<51P> Rich,0,0,0,32.25,2.25,0,0,NaN,NaN,0,0.00989117,NaN,0.999984682,-0.001745199,-0.005235964,0,31.62644625,31.62644625,,,35.33999991,30,0.085626245,0.183117443
2018-07-19T08:41:50Z,1531989710,36F05,38.9461118,45.0788217,32.25,-0.1,-0.3,65.4,368482.28,10817.81,61.2,Air+FixedWing,Red,Allies,Su-27,Red Su-27 #001,xu,<51P> Rich,0,0,0,32.25,2.25,0,0,NaN,NaN,0,0.00989117,NaN,0.999984682,-0.001745199,-0.005235964,0,31.62644625,31.62644625,,,36.33999991,30,0.085940545,0.183431744
2018-07-19T08:41:51Z,1531989711,36F05,38.9461118,45.0788217,32.25,-0.1,-0.3,65.4,368482.28,10817.81,61.2,Air+FixedWing,Red,Allies,Su-27,Red Su-27 #001,xu,<51P> Rich,0,0,0,32.25,2.25,0,0,NaN,NaN,0,0.00989117,NaN,0.999984682,-0.001745199,-0.005235964,0,31.62644625,31.62644625,,,37.33999991,30,0.086254845,0.183746045
2018-07-19T08:41:52Z,1531989712,36F05,38.9461118,45.0788217,32.25,-0.1,-0.3,65.4,368482.28,10817.81,61.2,Air+FixedWing,Red,Allies,Su-27,Red Su-27 #001,xu,<51P> Rich,0,0,0,32.25,2.25,0,0,NaN,NaN,0,0.00989117,NaN,0.999984682,-0.001745199,-0.005235964,0,31.62644625,31.62644625,,,38.33999991,30,0.086569145,0.184060347
2018-07-19T08:41:53Z,1531989713,36F05,38.9461118,45.0788217,32.25,-0.1,-0.3,65.4,368482.28,10817.81,61.2,Air+FixedWing,Red,Allies,Su-27,Red Su-27 #001,xu,<51P> Rich,0,0,0,32.25,2.25,0,0,NaN,NaN,0,0.00989117,NaN,0.999984682,-0.001745199,-0.005235964,0,31.62644625,31.62644625,,,39.33999991,30,0.086883445,0.184374649
2018-07-19T08:41:54Z,1531989714,36F05,38.9461118,45.0788217,32.25,-0.1,-0.3,65.4,368482.28,10817.81,61.2,Air+FixedWing,Red,Allies,Su-27,Red Su-27 #001,xu,<51P> Rich,0,0,0,32.25,2.25,0,0,NaN,NaN,0,0.00989117,NaN,0.999984682,-0.001745199,-0.005235964,0,31.62644625,31.62644625,,,40.33999991,30,0.087197744,0.18468895
2018-07-19T08:41:55Z,1531989715,36F05,38.9461117,45.0788217,32.25,-0.1,-0.3,65.4,368482.28,10817.81,61.2,Air+FixedWing,Red,Allies,Su-27,Red Su-27 #001,xu,<51P> Rich,0,0,0,32.25,2.25,0,0,NaN,NaN,0,0.00989117,NaN,0.999984682,-0.001745199,-0.005235964,0,31.62644625,31.62644625,,,41.33999991,30,0.087512045,0.185003252
2018-07-19T08:41:56Z,1531989716,36F05,38.9461117,45.0788217,32.25,-0.1,-0.3,65.4,368482.28,10817.81,61.2,Air+FixedWing,Red,Allies,Su-27,Red Su-27 #001,xu,<51P> Rich,0,0,0,32.25,2.25,0,0,NaN,NaN,0,0.00989117,NaN,0.999984682,-0.001745199,-0.005235964,0,31.62644625,31.62644625,,,42.33999991,30,0.087826345,0.185317553
2018-07-19T08:41:57Z,1531989717,36F05,38.9461117,45.0788217,32.25,-0.1,-0.3,65.4,368482.28,10817.81,61.2,Air+FixedWing,Red,Allies,Su-27,Red Su-27 #001,xu,<51P> Rich,0,0,0,32.25,2.25,0,0,NaN,NaN,0,0.00989117,NaN,0.999984682,-0.001745199,-0.005235964,0,31.62644625,31.62644625,,,43.33999991,30,0.088140644,0.185631854
2018-07-19T08:41:58Z,1531989718,36F05,38.9461117,45.0788217,32.25,-0.1,-0.3,65.4,368482.28,10817.81,61.2,Air+FixedWing,Red,Allies,Su-27,Red Su-27 #001,xu,<51P> Rich,0,0,0,32.25,2.25,0,0,NaN,NaN,0,0.00989117,NaN,0.999984682,-0.001745199,-0.005235964,0,31.62644625,31.62644625,,,44.33999991,30,0.088454944,0.185946156
2018-07-19T08:41:59Z,1531989719,36F05,38.9461117,45.0788217,32.25,-0.1,-0.3,65.4,368482.28,10817.81,61.2,Air+FixedWing,Red,Allies,Su-27,Red Su-27 #001,xu,<51P> Rich,0,0,0,32.25,2.25,0,0,NaN,NaN,0,0.00989117,NaN,0.999984682,-0.001745199,-0.005235964,0,31.62644625,31.62644625,,,45.33999991,30,0.088769245,0.186260457
2018-07-19T08:42:00Z,1531989720,36F05,38.9461117,45.0788217,32.25,-0.1,-0.3,65.4,368482.28,10817.81,61.2,Air+FixedWing,Red,Allies,Su-27,Red Su-27 #001,xu,<51P> Rich,0,0,0,32.25,2.25,0,0,NaN,NaN,0,0.00989117,NaN,0.999984682,-0.001745199,-0.005235964,0,31.62644625,31.62644625,,,46.33999991,30,0.089083544,0.186574759
2018-07-19T08:42:01Z,1531989721,36F05,38.9461117,45.0788217,32.25,-0.1,-0.3,65.4,368482.28,10817.81,61.2,Air+FixedWing,Red,Allies,Su-27,Red Su-27 #001,xu,<51P> Rich,0,0,0,32.25,2.25,0,0,NaN,NaN,0,0.00989117,NaN,0.999984682,-0.001745199,-0.005235964,0,31.62644625,31.62644625,,,47.33999991,30,0.089397844,0.18688906
2018-07-19T08:42:02Z,1531989722,36F05,38.9461117,45.0788217,32.25,-0.1,-0.3,65.4,368482.28,10817.81,61.2,Air+FixedWing,Red,Allies,Su-27,Red Su-27 #001,xu,<51P> Rich,0,0,0,32.25,2.25,0,0,NaN,NaN,0,0.00989117,NaN,0.999984682,-0.001745199,-0.005235964,0,31.62644625,31.62644625,,,48.33999991,30,0.089712144,0.187203361
2018-07-19T08:42:03Z,1531989723,36F05,38.9461117,45.0788217,32.25,-0.1,-0.3,65.4,368482.28,10817.81,61.2,Air+FixedWing,Red,Allies,Su-27,Red Su-27 #001,xu,<51P> Rich,0,0,0,32.25,2.25,0,0,NaN,NaN,0,0.00989117,NaN,0.999984682,-0.001745199,-0.005235964,0,31.62644625,31.62644625,,,49.33999991,30,0.090026444,0.187517663
2018-07-19T08:42:04Z,1531989724,36F05,38.9461117,45.0788217,32.25,-0.1,-0.3,65.4,368482.28,10817.81,61.2,Air+FixedWing,Red,Allies,Su-27,Red Su-27 #001,xu,<51P> Rich,0,0,0,32.25,2.25,0,0,NaN,NaN,0,0.00989117,NaN,0.999984682,-0.001745199,-0.005235964,0,31.62644625,31.62644625,,,50.33999991,30,0.090340743,0.187831964
2018-07-19T08:42:05Z,1531989725,36F05,38.9461117,45.0788217,32.25,-0.1,-0.3,65.4,368482.28,10817.81,61.2,Air+FixedWing,Red,Allies,Su-27,Red Su-27 #001,xu,<51P> Rich,0,0,0,32.25,2.25,0,0,NaN,NaN,0,0.00989117,NaN,0.999984682,-0.001745199,-0.005235964,0,31.62644625,31.62644625,,,51.33999991,30,0.090655044,0.188146267
2018-07-19T08:42:06Z,1531989726,36F05,38.9461117,45.0788217,32.25,-0.1,-0.3,65.4,368482.28,10817.81,61.2,Air+FixedWing,Red,Allies,Su-27,Red Su-27 #001,xu,<51P> Rich,0,0,0,32.25,2.25,0,0,NaN,NaN,0,0.00989117,NaN,0.999984682,-0.001745199,-0.005235964,0,31.62644625,31.62644625,,,52.33999991,30,0.090969343,0.188460568
2018-07-19T08:42:07Z,1531989727,36F05,38.9461117,45.0788217,32.25,-0.1,-0.3,65.4,368482.28,10817.81,61.2,Air+FixedWing,Red,Allies,Su-27,Red Su-27 #001,xu,<51P> Rich,0,0,0,32.25,2.25,0,0,NaN,NaN,0,0.044234663,NaN,0.999984682,-0.001745199,-0.005235964,0,31.62644625,31.62644625,,,53.33999991,30,0.091283643,0.188774868
2018-07-19T08:42:08Z,1531989728,36F05,38.9461118,45.0788217,32.25,-0.1,-0.3,65.4,368482.28,10817.81,61.2,Air+FixedWing,Red,Allies,Su-27,Red Su-27 #001,xu,<51P> Rich,0,0,0,32.25,2.25,0,0,NaN,NaN,0,0.00989117,NaN,0.999984682,-0.001745199,-0.005235964,0,31.62644625,31.62644625,,,54.33999991,30,0.096659944,0.194151197
2018-07-19T08:42:09Z,1531989729,36F05,38.9461117,45.0788217,32.25,-0.1,-0.3,65.4,368482.28,10817.81,61.2,Air+FixedWing,Red,Allies,Su-27,Red Su-27 #001,xu,<51P> Rich,0,0,0,32.25,2.25,0,0,NaN,NaN,0.06369042,0.044234663,NaN,0.999985516,-0.001111592,-0.005235964,0,31.62644625,31.62644625,,,55.33999991,30,0.102111678,0.199602958
2018-07-19T08:42:10Z,1531989730,36F05,38.9461117,45.0788217,32.25,0,-0.3,65.4,368482.28,10817.81,61.2,Air+FixedWing,Red,Allies,Su-27,Red Su-27 #001,xu,<51P> Rich,0,0,0,32.25,2.25,0,0,NaN,NaN,0.063690433,0.00989117,NaN,0.999705713,0,-0.005234496,0,31.62644625,31.62644625,,,56.33999991,30,0.102111678,0.199602958
2018-07-19T08:42:11Z,1531989731,36F05,38.9461117,45.0788217,32.25,0,-0.3,65.4,368482.28,10817.81,61.2,Air+FixedWing,Red,Allies,Su-27,Red Su-27 #001,xu,<51P> Rich,0.002750397,0,8.08e-06,32.2472496,2.247249603,0,-0.002750397,NaN,NaN,0,0.00989117,NaN,1.000547089,0,-0.005238901,3.78e-07,31.62374903,31.62374941,,,57.33999991,30,0.102111678,0.202353355
2018-07-19T08:42:12Z,1531989732,36F05,38.9461118,45.0788217,32.25,-0.1,-0.3,65.4,368482.28,10817.81,61.2,Air+FixedWing,Red,Allies,Su-27,Red Su-27 #001,xu,<51P> Rich,0.002750397,0,8.08e-06,32.25,2.25,0,0.002750397,NaN,NaN,0,0.00989117,NaN,0.999704224,-0.00174471,-0.005234496,3.78e-07,31.62644625,31.62644663,,,58.33999991,30,0.106729805,0.207728483
2018-07-19T08:42:13Z,1531989733,36F05,38.9461118,45.0788217,32.25,-0.1,-0.3,65.4,368482.28,10817.81,61.2,Air+FixedWing,Red,Allies,Su-27,Red Su-27 #001,xu,<51P> Rich,0,0,0,32.25,2.25,0,0,NaN,NaN,0.157640766,0.00989117,NaN,0.999984741,-0.001708067,-0.005235964,0,31.62644625,31.62644625,,,59.33999991,30,0.109972318,0.210971012
2018-07-19T08:42:14Z,1531989734,36F05,38.9461117,45.0788217,32.25,-0.1,-0.3,65.4,368482.28,10817.81,61.2,Air+FixedWing,Red,Allies,Su-27,Red Su-27 #001,xu,<51P> Rich,0,0,0,32.25,2.25,0,0,NaN,NaN,0,0.00989117,NaN,0.999984682,-0.001745199,-0.005235964,0,31.62644625,31.62644625,,,60.33999991,30,0.116348545,0.217347272
2018-07-19T08:42:15Z,1531989735,36F05,38.9461118,45.0788217,32.25,-0.1,-0.3,65.4,368482.28,10817.81,61.2,Air+FixedWing,Red,Allies,Su-27,Red Su-27 #001,xu,<51P> Rich,0,0,0,32.25,2.25,0,0,NaN,NaN,0,0.00989117,NaN,0.999984682,-0.001745199,-0.005235964,0,31.62644625,31.62644625,,,61.33999991,30,0.11972221,0.220720954
2018-07-19T08:42:16Z,1531989736,36F05,38.9461118,45.0788216,32.25,0,-0.3,65.4,368482.28,10817.81,61.2,Air+FixedWing,Red,Allies,Su-27,Red Su-27 #001,xu,<51P> Rich,0,0,0,32.25,2.25,0,0,NaN,NaN,0.104755472,0.051396036,NaN,0.999989111,4.16e-05,-0.004756233,0,31.62644625,31.62644625,,,62.33999991,30,0.126280877,0.227279654
2018-07-19T08:42:17Z,1531989737,36F05,38.9461118,45.0788217,32.25,0,-0.2,65.4,368482.28,10817.82,61.2,Air+FixedWing,Red,Allies,Su-27,Red Su-27 #001,xu,<51P> Rich,0.009765625,0,2.87e-05,32.25,2.25,0.009765625,0,NaN,NaN,0.199987939,0.051396036,NaN,0.999990392,-0.001745281,-0.004450122,4.77e-06,31.62644625,31.62645102,,,63.33999991,30,0.132111891,0.233110698
2018-07-19T08:42:18Z,1531989738,36F05,38.9461118,45.0788216,32.25,0,-0.2,65.4,368482.28,10817.81,61.2,Air+FixedWing,Red,Allies,Su-27,Red Su-27 #001,xu,<51P> Rich,0.009765625,0,2.87e-05,32.25,2.25,0.009765625,0,NaN,NaN,0,0.013988227,NaN,0.999072736,0.000872641,-0.003007696,4.77e-06,31.62644625,31.62645102,,,64.33999991,30,0.14209226,0.243091117
2018-07-19T08:42:19Z,1531989739,36F05,38.9461118,45.0788216,32.24,0,-0.2,65.4,368482.28,10817.81,61.2,Air+FixedWing,Red,Allies,Su-27,Red Su-27 #001,xu,<51P> Rich,0.009048462,0,2.66e-05,32.24095154,2.240951538,0,-0.009048462,NaN,NaN,0.019069888,0.013988227,NaN,1.001353256,-0.000166437,-0.003495397,4.09e-06,31.61757274,31.61757683,,,65.33999991,30,0.142846449,0.252170956
2018-07-19T08:42:20Z,1531989740,36F05,38.9461117,45.0788217,32.25,0,-0.2,65.4,368482.28,10817.81,61.2,Air+FixedWing,Red,Allies,Su-27,Red Su-27 #001,xu,<51P> Rich,0.004283905,0,1.26e-05,32.24523544,2.245235443,0,0.004283905,NaN,NaN,0.11266928,0.013988227,NaN,0.999022827,0,-0.003487263,9.18e-07,31.62177382,31.62177473,,,66.33999991,30,0.155176133,0.265223715
2018-07-19T08:42:21Z,1531989741,36F05,38.9461118,45.0788217,32.24,0,-0.2,65.4,368482.28,10817.81,61.2,Air+FixedWing,Red,Allies,Su-27,Red Su-27 #001,xu,<51P> Rich,0.005237579,0,1.54e-05,32.23999786,2.239997864,0,-0.005237579,NaN,NaN,0.18047693,0.013988227,NaN,1.000527822,-0.000170356,-0.003492516,1.37e-06,31.61663751,31.61663888,,,67.33999991,30,0.163036773,0.274669483
2018-07-19T08:42:22Z,1531989742,36F05,38.9461118,45.0788217,32.24,0,-0.2,65.4,368482.28,10817.81,61.2,Air+FixedWing,Red,Allies,Su-27,Red Su-27 #001,xu,<51P> Rich,0,0,0,32.23999786,2.239997864,0,0,NaN,NaN,0.164275761,0.013988227,NaN,0.999995249,0.000785377,-0.00305889,0,31.61663751,31.61663751,,,68.33999991,30,0.166779931,0.278412659
2018-07-19T08:42:23Z,1531989743,36F05,38.9461117,45.0788217,32.24,0,-0.2,65.4,368482.28,10817.82,61.2,Air+FixedWing,Red,Allies,Su-27,Red Su-27 #001,xu,<51P> Rich,0.008789063,0,2.58e-05,32.23999786,2.239997864,0.008789063,0,NaN,NaN,0,0.013988227,NaN,0.999990727,-0.001570753,-0.004354175,3.86e-06,31.61663751,31.61664137,,,69.33999991,30,0.170897413,0.282530163
2018-07-19T08:42:24Z,1531989744,36F05,38.9461117,45.0788217,32.24,0,-0.2,65.4,368482.28,10817.81,61.2,Air+FixedWing,Red,Allies,Su-27,Red Su-27 #001,xu,<51P> Rich,0.008789063,0,2.58e-05,32.23999786,2.239997864,0.008789063,0,NaN,NaN,0,0.013988227,NaN,0.999995249,0.000785377,-0.00305889,3.86e-06,31.61663751,31.61664137,,,70.33999991,30,0.172010608,0.283643363
2018-07-19T08:42:25Z,1531989745,36F05,38.9461117,45.0788216,32.24,0,-0.2,65.4,368482.28,10817.81,61.2,Air+FixedWing,Red,Allies,Su-27,Red Su-27 #001,xu,<51P> Rich,0,0,0,32.23999786,2.239997864,0,0,NaN,NaN,0,0.013988227,NaN,0.999993742,0,-0.003490652,0,31.61663751,31.61663751,,,71.33999991,30,0.182029362,0.293662168
2018-07-19T08:42:26Z,1531989746,36F05,38.9461117,45.0788217,32.24,0,-0.2,65.4,368482.28,10817.81,61.2,Air+FixedWing,Red,Allies,Su-27,Red Su-27 #001,xu,<51P> Rich,0,0,0,32.23999786,2.239997864,0,0,NaN,NaN,0.10683341,0.013988227,NaN,0.999993622,-0.000548496,-0.003490652,0,31.61663751,31.61663751,,,72.33999991,30,0.19316131,0.304794174
2018-07-19T08:42:27Z,1531989747,36F05,38.9461117,45.0788217,32.24,0,-0.2,65.4,368482.28,10817.81,61.2,Air+FixedWing,Red,Allies,Su-27,Red Su-27 #001,xu,<51P> Rich,0,0,0,32.23999786,2.239997864,0,0,NaN,NaN,0.151505989,0.013988227,NaN,0.999993682,-0.000370197,-0.003490652,0,31.61663751,31.61663751,,,73.33999991,30,0.19316131,0.304794174
2018-07-19T08:42:28Z,1531989748,36F05,38.9461117,45.0788216,32.24,0,-0.2,65.4,368482.28,10817.81,61.2,Air+FixedWing,Red,Allies,Su-27,Red Su-27 #001,xu,<51P> Rich,0,0,0,32.23999786,2.239997864,0,0,NaN,NaN,0.199987939,0.013988227,NaN,0.999993742,0,-0.003490652,0,31.61663751,31.61663751,,,74.33999991,30,0.199030883,0.310663776
2018-07-19T08:42:29Z,1531989749,36F05,38.9461117,45.0788217,32.24,0,-0.2,65.4,368482.28,10817.81,61.2,Air+FixedWing,Red,Allies,Su-27,Red Su-27 #001,xu,<51P> Rich,0,0,0,32.23999786,2.239997864,0,0,NaN,NaN,0.171410427,0.013988227,NaN,0.999993742,0,-0.003490652,0,31.61663751,31.61663751,,,75.33999991,30,0.203663573,0.315296489
2018-07-19T08:42:30Z,1531989750,36F05,38.9461117,45.0788216,32.24,0,-0.2,65.4,368482.28,10817.81,61.2,Air+FixedWing,Red,Allies,Su-27,Red Su-27 #001,xu,<51P> Rich,0,0,0,32.23999786,2.239997864,0,0,NaN,NaN,0,0.013988227,NaN,0.999993742,0,-0.003490652,0,31.61663751,31.61663751,,,76.33999991,30,0.20910586,0.320738803
2018-07-19T08:42:31Z,1531989751,36F05,38.9461117,45.0788217,32.24,0,-0.2,65.4,368482.28,10817.81,61.2,Air+FixedWing,Red,Allies,Su-27,Red Su-27 #001,xu,<51P> Rich,0,0,0,32.23999786,2.239997864,0,0,NaN,NaN,0.019069888,0.013988227,NaN,0.999993742,-0.000166211,-0.003490652,0,31.61663751,31.61663751,,,77.33999991,30,0.215785029,0.327418006
2018-07-19T08:42:32Z,1531989752,36F05,38.9461117,45.0788217,32.24,-0.1,-0.2,65.4,368482.28,10817.81,61.2,Air+FixedWing,Red,Allies,Su-27,Red Su-27 #001,xu,<51P> Rich,0,0,0,32.23999786,2.239997864,0,0,NaN,NaN,0,0.013988227,NaN,0.999993622,-0.000581737,-0.003490652,0,31.61663751,31.61663751,,,78.33999991,30,0.218205016,0.329838005
2018-07-19T08:42:33Z,1531989753,36F05,38.9461117,45.0788217,32.24,-0.1,-0.2,65.4,368482.28,10817.81,61.2,Air+FixedWing,Red,Allies,Su-27,Red Su-27 #001,xu,<51P> Rich,0,0,0,32.23999786,2.239997864,0,0,NaN,NaN,0,0.013988227,NaN,0.999993622,-0.000581737,-0.003490652,0,31.61663751,31.61663751,,,79.33999991,30,0.220625004,0.332258004
2018-07-19T08:42:34Z,1531989754,36F05,38.9461117,45.0788217,32.24,-0.1,-0.2,65.4,368482.28,10817.81,61.2,Air+FixedWing,Red,Allies,Su-27,Red Su-27 #001,xu,<51P> Rich,0,0,0,32.23999786,2.239997864,0,0,NaN,NaN,0,0.013988227,NaN,0.999993622,-0.000581737,-0.003490652,0,31.61663751,31.61663751,,,80.33999991,30,0.220625004,0.332258004
2018-07-19T08:42:35Z,1531989755,36F05,38.9461117,45.0788217,32.24,-0.1,-0.2,65.4,368482.28,10817.81,61.2,Air+FixedWing,Red,Allies,Su-27,Red Su-27 #001,xu,<51P> Rich,0,0,0,32.23999786,2.239997864,0,0,NaN,NaN,0,0.013988227,NaN,0.999993622,-0.000581737,-0.003490652,0,31.61663751,31.61663751,,,81.33999991,30,0.220625004,0.332258004
2018-07-19T08:42:36Z,1531989756,36F05,38.9461117,45.0788217,32.24,-0.1,-0.2,65.4,368482.28,10817.81,61.2,Air+FixedWing,Red,Allies,Su-27,Red Su-27 #001,xu,<51P> Rich,0,0,0,32.23999786,2.239997864,0,0,NaN,NaN,0,0.013988227,NaN,0.999993622,-0.000581737,-0.003490652,0,31.61663751,31.61663751,,,82.33999991,30,0.220625004,0.332258004
2018-07-19T08:42:37Z,1531989757,36F05,38.9461117,45.0788217,32.24,-0.1,-0.2,65.4,368482.28,10817.81,61.2,Air+FixedWing,Red,Allies,Su-27,Red Su-27 #001,xu,<51P> Rich,0,0,0,32.23999786,2.239997864,0,0,NaN,NaN,0,0.013988227,NaN,0.999993622,-0.000581737,-0.003490652,0,31.61663751,31.61663751,,,83.33999991,30,0.220625004,0.332258004
2018-07-19T08:42:38Z,1531989758,36F05,38.9461117,45.0788217,32.24,-0.1,-0.2,65.4,368482.28,10817.81,61.2,Air+FixedWing,Red,Allies,Su-27,Red Su-27 #001,xu,<51P> Rich,0,0,0,32.23999786,2.239997864,0,0,NaN,NaN,0,0.013988227,NaN,0.999993622,-0.000581737,-0.003490652,0,31.61663751,31.61663751,,,84.33999991,30,0.220625004,0.332258004
