ISOTime,UnixTime,Id,Longitude,Latitude,Altitude,Roll,Pitch,Yaw,U,V,Heading,Type,Color,Coalition,Name,Group,Country,Pilot,TAS,CAS,M,ASL,AGL,GS,VS,AOA,AOS,RRT,TRT,TRD,G,LatG,LonG,Ek,Ep,Em,FFW,FFV,RelativeTime,Elev,GroundDistance,AirDistance
2018-07-19T08:01:16Z,1531987276,105,42.0423553,42.2448501,15.43,-0,-0.5,324.5,646764.44,-281387.72,318.4,Air+FixedWing,Blue,Enemies,J-11A,Blue J-11A #002,cn,=36=Drigo,0.207122954617599,0.262722313404083,0.000608550867305208,15.4290466308594,2.42904663085938,NaN,NaN,NaN,NaN,0.419045765958622,NaN,NaN,NaN,NaN,NaN,NaN,15.1307260142517,NaN,,,0.649999856948853,13,NaN,NaN
2018-07-19T08:01:17Z,1531987277,105,42.0423552,42.2448503,15.52,0,-0.5,324.5,646764.44,-281387.69,318.4,Air+FixedWing,Blue,Enemies,J-11A,Blue J-11A #002,cn,=36=Drigo,0.0934741070453248,0,0.000274637861691443,15.5171422958374,2.5171422958374,0.03125,0.0880956649780273,NaN,NaN,0.104755691857757,0.0383083399245797,NaN,0.989577781253836,0.00423135084921562,-0.0134019821876266,0.000436870434396042,15.2171183495474,15.2175552199818,,,1.64999985694885,13,0.0240237829836646,0.0913126014728449
2018-07-19T08:01:18Z,1531987278,105,42.0423552,42.2448502,15.5,0,-0.4,324.5,646764.44,-281387.72,318.4,Air+FixedWing,Blue,Enemies,J-11A,Blue J-11A #002,cn,=36=Drigo,0.0339755785630464,0,9.98242095029671e-05,15.5038089752197,2.50380897521973,0.03125,-0.0133333206176758,NaN,NaN,0,0.0261695779877396,NaN,0.999958590223381,-0.00423135084921562,-0.00288007934488303,5.77169969346869e-05,15.2040428286839,15.2041005456808,,,2.64999985694885,13,0.0309149889742725,0.106321478061342
2018-07-19T08:01:19Z,1531987279,105,42.0423552,42.2448503,15.49,0,-0.4,324.5,646764.44,-281387.69,318.4,Air+FixedWing,Blue,Enemies,J-11A,Blue J-11A #002,cn,=36=Drigo,0.0341651374637745,0,0.000100381140030348,15.4899997711182,2.48999977111816,0.03125,-0.0138092041015625,NaN,NaN,0,0.0139882274201861,NaN,1.00033068804711,0.00423135084921562,-0.0117497409085293,5.83628308959305e-05,15.1905006255436,15.1905589883745,,,3.64999985694885,13,0.0378061949648803,0.121754660015938
2018-07-19T08:01:20Z,1531987280,105,42.0423553,42.2448502,15.48,0,-0.4,324.5,646764.44,-281387.72,318.4,Air+FixedWing,Blue,Enemies,J-11A,Blue J-11A #002,cn,=36=Drigo,0.0328110816293688,0,9.64027559394178e-05,15.4799995422363,2.47999954223633,0.03125,-0.0100002288818359,NaN,NaN,0,0.0383083399245797,NaN,1.00101190345325,-0.00211713978268416,-0.00460679522422818,5.38283538844553e-05,15.1806937510872,15.1807475794411,,,4.64999985694885,13,0.0516564706343783,0.138837856479338
2018-07-19T08:01:21Z,1531987281,105,42.0423553,42.2448502,15.48,-0,-0.4,324.5,646764.44,-281387.72,318.3,Air+FixedWing,Blue,Enemies,J-11A,Blue J-11A #002,cn,=36=Drigo,0,0,0,15.4799995422363,2.47999954223633,0,0,NaN,NaN,0.0666626462993244,0.0523391626455858,NaN,0.999975442890712,-0.00058172651087458,-0.00698126060888171,0,15.1806937510872,15.1806937510872,,,5.64999985694885,13,0.0516564706343783,0.138837856479338
2018-07-19T08:01:22Z,1531987282,105,42.0423553,42.2448502,15.48,-0.1,-0.4,324.5,646764.44,-281387.72,318.3,Air+FixedWing,Blue,Enemies,J-11A,Blue J-11A #002,cn,=36=Drigo,0,0,0,15.4799995422363,2.47999954223633,0,0,NaN,NaN,0.083546873927596,0.0197823405926261,NaN,0.999974966065178,-0.00112592303391561,-0.00698126060888171,0,15.1806937510872,15.1806937510872,,,6.64999985694885,13,0.0516564706343783,0.138837856479338
2018-07-19T08:01:23Z,1531987283,105,42.0423553,42.2448502,15.48,-0,-0.4,324.5,646764.44,-281387.72,318.3,Air+FixedWing,Blue,Enemies,J-11A,Blue J-11A #002,cn,=36=Drigo,0,0,0,15.4799995422363,2.47999954223633,0,0,NaN,NaN,0.00512778452970691,0.0139882274201861,NaN,0.999975442890712,-0.000536979240075446,-0.00698126060888171,0,15.1806937510872,15.1806937510872,,,7.64999985694885,13,0.0516564706343783,0.138837856479338
2018-07-19T08:01:24Z,1531987284,105,42.0423553,42.2448502,15.48,-0.1,-0.4,324.5,646764.44,-281387.72,318.3,Air+FixedWing,Blue,Enemies,J-11A,Blue J-11A #002,cn,=36=Drigo,0,0,0,15.4799995422363,2.47999954223633,0,0,NaN,NaN,0.0675369105130861,0.0139882274201861,NaN,0.999975085271561,-0.000990508191125006,-0.00698126060888171,0,15.1806937510872,15.1806937510872,,,8.64999985694885,13,0.0516564706343783,0.138837856479338
2018-07-19T08:01:25Z,1531987285,105,42.0423553,42.2448502,15.48,-0,-0.4,324.5,646764.44,-281387.72,318.3,Air+FixedWing,Blue,Enemies,J-11A,Blue J-11A #002,cn,=36=Drigo,0,0,0,15.4799995422363,2.47999954223633,0,0,NaN,NaN,0.0901665278525284,0.0139882274201861,NaN,0.999975264081136,-0.000793264291722034,-0.00698126060888171,0,15.1806937510872,15.1806937510872,,,9.64999985694885,13,0.0516564706343783,0.138837856479338
2018-07-19T08:01:26Z,1531987286,105,42.0423553,42.2448502,15.48,-0,-0.4,324.5,646764.44,-281387.72,318.3,Air+FixedWing,Blue,Enemies,J-11A,Blue J-11A #002,cn,=36=Drigo,0,0,0,15.4799995422363,2.47999954223633,0,0,NaN,NaN,0.00311456626152581,0.0139882274201861,NaN,0.999975562097095,-3.82236243426028e-05,-0.00698126060888171,0,15.1806937510872,15.1806937510872,,,10.6499998569489,13,0.0516564706343783,0.138837856479338
2018-07-19T08:01:27Z,1531987287,105,42.0423553,42.2448502,15.48,-0,-0.4,324.5,646764.44,-281387.72,318.3,Air+FixedWing,Blue,Enemies,J-11A,Blue J-11A #002,cn,=36=Drigo,0,0,0,15.4799995422363,2.47999954223633,0,0,NaN,NaN,0.00311456626152581,0.0139882274201861,NaN,0.999975562097095,-9.28288061324812e-05,-0.00698126060888171,0,15.1806937510872,15.1806937510872,,,11.6499998569489,13,0.0516564706343783,0.138837856479338
2018-07-19T08:01:28Z,1531987288,105,42.0423553,42.2448502,15.48,-0,-0.4,324.5,646764.44,-281387.72,318.3,Air+FixedWing,Blue,Enemies,J-11A,Blue J-11A #002,cn,=36=Drigo,0,0,0,15.4799995422363,2.47999954223633,0,0,NaN,NaN,0.00311456626152581,0.0139882274201861,NaN,0.999975621700287,-0.000147433980646579,-0.00698126060888171,0,15.1806937510872,15.1806937510872,,,12.6499998569489,13,0.0516564706343783,0.138837856479338
2018-07-19T08:01:29Z,1531987289,105,42.0423553,42.2448502,15.48,-0,-0.4,324.5,646764.44,-281387.72,318.3,Air+FixedWing,Blue,Enemies,J-11A,Blue J-11A #002,cn,=36=Drigo,0,0,0,15.4799995422363,2.47999954223633,0,0,NaN,NaN,0.00311456626152581,0.0139882274201861,NaN,0.999975502493903,-0.000202039162436458,-0.00698126060888171,0,15.1806937510872,15.1806937510872,,,13.6499998569489,13,0.0516564706343783,0.138837856479338
2018-07-19T08:01:30Z,1531987290,105,42.0423553,42.2448502,15.48,-0,-0.4,324.5,646764.44,-281387.72,318.3,Air+FixedWing,Blue,Enemies,J-11A,Blue J-11A #002,cn,=36=Drigo,0,0,0,15.4799995422363,2.47999954223633,0,0,NaN,NaN,0.00311456626152581,0.0139882274201861,NaN,0.999975562097095,-0.000256644329674776,-0.00698126060888171,0,15.1806937510872,15.1806937510872,,,14.6499998569489,13,0.0516564706343783,0.138837856479338
2018-07-19T08:01:31Z,1531987291,105,42.0423553,42.2448502,15.48,-0,-0.4,324.5,646764.44,-281387.72,318.3,Air+FixedWing,Blue,Enemies,J-11A,Blue J-11A #002,cn,=36=Drigo,0,0,0,15.4799995422363,2.47999954223633,0,0,NaN,NaN,0.00311456626152581,0.0139882274201861,NaN,0.999975562097095,-0.000311249496913094,-0.00698126060888171,0,15.1806937510872,15.1806937510872,,,15.6499998569489,13,0.0516564706343783,0.138837856479338
2018-07-19T08:01:32Z,1531987292,105,42.0423553,42.2448502,15.48,-0,-0.4,324.5,646764.44,-281387.72,318.3,Air+FixedWing,Blue,Enemies,J-11A,Blue J-11A #002,cn,=36=Drigo,0,0,0,15.4799995422363,2.47999954223633,0,0,NaN,NaN,0.00311456626152581,0.0139882274201861,NaN,0.999975502493903,-0.000365854693254532,-0.00698126060888171,0,15.1806937510872,15.1806937510872,,,16.6499998569489,13,0.0516564706343783,0.138837856479338
2018-07-19T08:01:33Z,1531987293,105,42.0423553,42.2448502,15.48,-0,-0.4,324.5,646764.44,-281387.72,318.3,Air+FixedWing,Blue,Enemies,J-11A,Blue J-11A #002,cn,=36=Drigo,0,0,0,15.4799995422363,2.47999954223633,0,0,NaN,NaN,0.00311456626152581,0.0139882274201861,NaN,0.999975502493903,-0.00042045986049285,-0.00698126060888171,0,15.1806937510872,15.1806937510872,,,17.6499998569489,13,0.0516564706343783,0.138837856479338
2018-07-19T08:01:34Z,1531987294,105,42.0423553,42.2448502,15.48,-0,-0.4,324.5,646764.44,-281387.72,318.3,Air+FixedWing,Blue,Enemies,J-11A,Blue J-11A #002,cn,=36=Drigo,0,0,0,15.4799995422363,2.47999954223633,0,0,NaN,NaN,0.00311456626152581,0.0139882274201861,NaN,0.999975502493903,-0.000475065027731168,-0.00698126060888171,0,15.1806937510872,15.1806937510872,,,18.6499998569489,13,0.0516564706343783,0.138837856479338
2018-07-19T08:01:35Z,1531987295,105,42.0423553,42.2448502,15.48,-0,-0.4,324.5,646764.44,-281387.72,318.3,Air+FixedWing,Blue,Enemies,J-11A,Blue J-11A #002,cn,=36=Drigo,0,0,0,15.4799995422363,2.47999954223633,0,0,NaN,NaN,0.00311456626152581,0.0139882274201861,NaN,0.999975442890712,-0.000529670224072607,-0.00698126060888171,0,15.1806937510872,15.1806937510872,,,19.6499998569489,13,0.0516564706343783,0.138837856479338
2018-07-19T08:01:36Z,1531987296,105,42.0423553,42.2448502,15.48,-0,-0.4,324.5,646764.44,-281387.72,318.3,Air+FixedWing,Blue,Enemies,J-11A,Blue J-11A #002,cn,=36=Drigo,0,0,0,15.4799995422363,2.47999954223633,0,0,NaN,NaN,0.00311456626152581,0.0139882274201861,NaN,0.999975442890712,-0.000584275304001562,-0.00698126060888171,0,15.1806937510872,15.1806937510872,,,20.6499998569489,13,0.0516564706343783,0.138837856479338
2018-07-19T08:01:37Z,1531987297,105,42.0423553,42.2448502,15.48,-0,-0.4,324.5,646764.44,-281387.72,318.3,Air+FixedWing,Blue,Enemies,J-11A,Blue J-11A #002,cn,=36=Drigo,0,0,0,15.4799995422363,2.47999954223633,0,0,NaN,NaN,0.00311456626152581,0.0139882274201861,NaN,0.99997538328752,-0.000638880500343001,-0.00698126060888171,0,15.1806937510872,15.1806937510872,,,21.6499998569489,13,0.0516564706343783,0.138837856479338
2018-07-19T08:01:38Z,1531987298,105,42.0423553,42.2448502,15.48,-0,-0.4,324.5,646764.44,-281387.72,318.3,Air+FixedWing,Blue,Enemies,J-11A,Blue J-11A #002,cn,=36=Drigo,0,0,0,15.4799995422363,2.47999954223633,0,0,NaN,NaN,0.00311456626152581,0.0139882274201861,NaN,0.99997538328752,-0.00069348569668444,-0.00698126060888171,0,15.1806937510872,15.1806937510872,,,22.6499998569489,13,0.0516564706343783,0.138837856479338
2018-07-19T08:01:39Z,1531987299,105,42.0423553,42.2448502,15.48,-0,-0.4,324.5,646764.44,-281387.72,318.3,Air+FixedWing,Blue,Enemies,J-11A,Blue J-11A #002,cn,=36=Drigo,0,0,0,15.4799995422363,2.47999954223633,0,0,NaN,NaN,0.00311456626152581,0.0139882274201861,NaN,0.999975323684328,-0.000748090893025879,-0.00698126060888171,0,15.1806937510872,15.1806937510872,,,23.6499998569489,13,0.0516564706343783,0.138837856479338
2018-07-19T08:01:40Z,1531987300,105,42.0423553,42.2448502,15.48,-0,-0.4,324.5,646764.44,-281387.72,318.3,Air+FixedWing,Blue,Enemies,J-11A,Blue J-11A #002,cn,=36=Drigo,0,0,0,15.4799995422363,2.47999954223633,0,0,NaN,NaN,0.00311456626152581,0.0139882274201861,NaN,0.999975264081136,-0.000802696031161076,-0.00698126060888171,0,15.1806937510872,15.1806937510872,,,24.6499998569489,13,0.0516564706343783,0.138837856479338
2018-07-19T08:01:41Z,1531987301,105,42.0423553,42.2448502,15.48,-0,-0.4,324.5,646764.44,-281387.72,318.3,Air+FixedWing,Blue,Enemies,J-11A,Blue J-11A #002,cn,=36=Drigo,0,0,0,15.4799995422363,2.47999954223633,0,0,NaN,NaN,0.00311456626152581,0.0139882274201861,NaN,0.999975204477945,-0.000857301169296273,-0.00698126060888171,0,15.1806937510872,15.1806937510872,,,25.6499998569489,13,0.0516564706343783,0.138837856479338
2018-07-19T08:01:42Z,1531987302,105,42.0423553,42.2448502,15.48,-0.1,-0.4,324.5,646764.44,-281387.72,318.3,Air+FixedWing,Blue,Enemies,J-11A,Blue J-11A #002,cn,=36=Drigo,0,0,0,15.4799995422363,2.47999954223633,0,0,NaN,NaN,0.00311456626152581,0.0139882274201861,NaN,0.999975204477945,-0.000911906365637712,-0.00698126060888171,0,15.1806937510872,15.1806937510872,,,26.6499998569489,13,0.0516564706343783,0.138837856479338
2018-07-19T08:01:43Z,1531987303,105,42.0423553,42.2448502,15.48,-0.1,-0.4,324.5,646764.44,-281387.72,318.3,Air+FixedWing,Blue,Enemies,J-11A,Blue J-11A #002,cn,=36=Drigo,0,0,0,15.4799995422363,2.47999954223633,0,0,NaN,NaN,0.00311456626152581,0.0139882274201861,NaN,0.999975144874753,-0.000966511445566667,-0.00698126060888171,0,15.1806937510872,15.1806937510872,,,27.6499998569489,13,0.0516564706343783,0.138837856479338
2018-07-19T08:01:44Z,1531987304,105,42.0423553,42.2448502,15.48,-0.1,-0.4,324.5,646764.44,-281387.72,318.3,Air+FixedWing,Blue,Enemies,J-11A,Blue J-11A #002,cn,=36=Drigo,0,0,0,15.4799995422363,2.47999954223633,0,0,NaN,NaN,0.00311456626152581,0.0139882274201861,NaN,0.99997502566837,-0.00102111652549562,-0.00698126060888171,0,15.1806937510872,15.1806937510872,,,28.6499998569489,13,0.0516564706343783,0.138837856479338
2018-07-19T08:01:45Z,1531987305,105,42.0423553,42.2448502,15.48,-0.1,-0.4,324.5,646764.44,-281387.72,318.3,Air+FixedWing,Blue,Enemies,J-11A,Blue J-11A #002,cn,=36=Drigo,0,0,0,15.4799995422363,2.47999954223633,0,0,NaN,NaN,0.00311456626152581,0.0139882274201861,NaN,0.99997502566837,-0.00107572166363082,-0.00698126060888171,0,15.1806937510872,15.1806937510872,,,29.6499998569489,13,0.0516564706343783,0.138837856479338
2018-07-19T08:01:46Z,1531987306,105,42.0423553,42.2448502,15.48,-0.1,-0.4,324.5,646764.44,-281387.72,318.3,Air+FixedWing,Blue,Enemies,J-11A,Blue J-11A #002,cn,=36=Drigo,0,0,0,15.4799995422363,2.47999954223633,0,0,NaN,NaN,0.00311456626152581,0.0139882274201861,NaN,0.999974966065178,-0.00113032703459098,-0.00698126060888171,0,15.1806937510872,15.1806937510872,,,30.6499998569489,13,0.0516564706343783,0.138837856479338
2018-07-19T08:01:47Z,1531987307,105,42.0423553,42.2448502,15.48,-0.1,-0.4,324.5,646764.44,-281387.72,318.3,Air+FixedWing,Blue,Enemies,J-11A,Blue J-11A #002,cn,=36=Drigo,0,0,0,15.4799995422363,2.47999954223633,0,0,NaN,NaN,0.00311456626152581,0.0139882274201861,NaN,0.999974906461986,-0.00118493217272618,-0.00698126060888171,0,15.1806937510872,15.1806937510872,,,31.6499998569489,13,0.0516564706343783,0.138837856479338
2018-07-19T08:01:48Z,1531987308,105,42.0423553,42.2448502,15.48,-0.1,-0.4,324.5,646764.44,-281387.72,318.3,Air+FixedWing,Blue,Enemies,J-11A,Blue J-11A #002,cn,=36=Drigo,0,0,0,15.4799995422363,2.47999954223633,0,0,NaN,NaN,0.00311456626152581,0.0139882274201861,NaN,0.999974787255603,-0.00123953719444889,-0.00698126060888171,0,15.1806937510872,15.1806937510872,,,32.6499998569489,13,0.0516564706343783,0.138837856479338
2018-07-19T08:01:49Z,1531987309,105,42.0423553,42.2448502,15.48,-0.1,-0.4,324.5,646764.44,-281387.72,318.3,Air+FixedWing,Blue,Enemies,J-11A,Blue J-11A #002,cn,=36=Drigo,0,0,0,15.4799995422363,2.47999954223633,0,0,NaN,NaN,0.00311456626152581,0.0139882274201861,NaN,0.999974727652411,-0.00129414233258409,-0.00698126060888171,0,15.1806937510872,15.1806937510872,,,33.6499998569489,13,0.0516564706343783,0.138837856479338
2018-07-19T08:01:50Z,1531987310,105,42.0423553,42.2448502,15.48,-0.1,-0.4,324.5,646764.44,-281387.72,318.3,Air+FixedWing,Blue,Enemies,J-11A,Blue J-11A #002,cn,=36=Drigo,0,0,0,15.4799995422363,2.47999954223633,0,0,NaN,NaN,0.00311456626152581,0.0139882274201861,NaN,0.999974608446028,-0.0013487473543068,-0.00698126060888171,0,15.1806937510872,15.1806937510872,,,34.6499998569489,13,0.0516564706343783,0.138837856479338
2018-07-19T08:01:51Z,1531987311,105,42.0423553,42.2448502,15.48,-0.1,-0.4,324.5,646764.44,-281387.72,318.3,Air+FixedWing,Blue,Enemies,J-11A,Blue J-11A #002,cn,=36=Drigo,0,0,0,15.4799995422363,2.47999954223633,0,0,NaN,NaN,0.00311456626152581,0.0139882274201861,NaN,0.999974608446028,-0.001403352492442,-0.00698126060888171,0,15.1806937510872,15.1806937510872,,,35.6499998569489,13,0.0516564706343783,0.138837856479338
2018-07-19T08:01:52Z,1531987312,105,42.0423553,42.2448502,15.48,-0.1,-0.4,324.5,646764.44,-281387.72,318.3,Air+FixedWing,Blue,Enemies,J-11A,Blue J-11A #002,cn,=36=Drigo,0,0,0,15.4799995422363,2.47999954223633,0,0,NaN,NaN,0.00311456626152581,0.0139882274201861,NaN,0.999974548842836,-0.00145795774698968,-0.00698126060888171,0,15.1806937510872,15.1806937510872,,,36.6499998569489,13,0.0516564706343783,0.138837856479338
2018-07-19T08:01:53Z,1531987313,105,42.0423553,42.2448502,15.48,-0.1,-0.4,324.5,646764.44,-281387.72,318.3,Air+FixedWing,Blue,Enemies,J-11A,Blue J-11A #002,cn,=36=Drigo,0,0,0,15.4799995422363,2.47999954223633,0,0,NaN,NaN,0.00311456626152581,0.0139882274201861,NaN,0.999974429636453,-0.00151256288512488,-0.00698126060888171,0,15.1806937510872,15.1806937510872,,,37.6499998569489,13,0.0516564706343783,0.138837856479338
2018-07-19T08:01:54Z,1531987314,105,42.0423553,42.2448502,15.48,-0.1,-0.4,324.5,646764.44,-281387.72,318.3,Air+FixedWing,Blue,Enemies,J-11A,Blue J-11A #002,cn,=36=Drigo,0,0,0,15.4799995422363,2.47999954223633,0,0,NaN,NaN,0.00311456626152581,0.0139882274201861,NaN,0.999974370033261,-0.00156716790684759,-0.00698126060888171,0,15.1806937510872,15.1806937510872,,,38.6499998569489,13,0.0516564706343783,0.138837856479338
2018-07-19T08:01:55Z,1531987315,105,42.0423553,42.2448502,15.48,-0.1,-0.4,324.5,646764.44,-281387.72,318.3,Air+FixedWing,Blue,Enemies,J-11A,Blue J-11A #002,cn,=36=Drigo,0,0,0,15.4799995422363,2.47999954223633,0,0,NaN,NaN,0.00311456626152581,0.0139882274201861,NaN,0.999974310430069,-0.00162177304498279,-0.00698126060888171,0,15.1806937510872,15.1806937510872,,,39.6499998569489,13,0.0516564706343783,0.138837856479338
2018-07-19T08:01:56Z,1531987316,105,42.0423553,42.2448502,15.48,-0.1,-0.4,324.5,646764.44,-281387.72,318.3,Air+FixedWing,Blue,Enemies,J-11A,Blue J-11A #002,cn,=36=Drigo,0,0,0,15.4799995422363,2.47999954223633,0,0,NaN,NaN,0.00311456626152581,0.0139882274201861,NaN,0.999974131620494,-0.0016763780667055,-0.00698126060888171,0,15.1806937510872,15.1806937510872,,,40.6499998569489,13,0.0516564706343783,0.138837856479338
2018-07-19T08:01:57Z,1531987317,105,42.0423553,42.2448502,15.48,-0.1,-0.4,324.5,646764.44,-281387.72,318.3,Air+FixedWing,Blue,Enemies,J-11A,Blue J-11A #002,cn,=36=Drigo,0,0,0,15.4799995422363,2.47999954223633,0,0,NaN,NaN,0.00311456626152581,0.0139882274201861,NaN,0.999974131620494,-0.00173098332125318,-0.00698126060888171,0,15.1806937510872,15.1806937510872,,,41.6499998569489,13,0.0516564706343783,0.138837856479338
2018-07-19T08:01:58Z,1531987318,105,42.0423553,42.2448502,15.48,0,-0.4,324.5,646764.44,-281387.72,318.3,Air+FixedWing,Blue,Enemies,J-11A,Blue J-11A #002,cn,=36=Drigo,0,0,0,15.4799995422363,2.47999954223633,0,0,NaN,NaN,0.129403963602268,0.0370093733476075,NaN,0.999976456166713,0,-0.00685037206858397,0,15.1806937510872,15.1806937510872,,,42.6499998569489,13,0.0516564706343783,0.138837856479338
2018-07-19T08:01:59Z,1531987319,105,42.0423553,42.2448501,15.48,0,-0.3,324.5,646764.44,-281387.72,318.3,Air+FixedWing,Blue,Enemies,J-11A,Blue J-11A #002,cn,=36=Drigo,0,0,0,15.4799995422363,2.47999954223633,0,0,NaN,NaN,0,0.0279764548403722,NaN,0.999986171723233,0,-0.00523596443235874,0,15.1806937510872,15.1806937510872,,,43.6499998569489,13,0.0613041611454438,0.148485570514517
2018-07-19T08:02:00Z,1531987320,105,42.0423553,42.2448502,15.48,0,-0.3,324.5,646764.44,-281387.72,318.3,Air+FixedWing,Blue,Enemies,J-11A,Blue J-11A #002,cn,=36=Drigo,0,0,0,15.4799995422363,2.47999954223633,0,0,NaN,NaN,0,0.0139882274201861,NaN,0.999986171723233,0,-0.00523596443235874,0,15.1806937510872,15.1806937510872,,,44.6499998569489,13,0.0709540963368328,0.158135529265625
2018-07-19T08:02:01Z,1531987321,105,42.0423554,42.2448502,15.48,0,-0.3,324.5,646764.44,-281387.72,318.3,Air+FixedWing,Blue,Enemies,J-11A,Blue J-11A #002,cn,=36=Drigo,0,0,0,15.4799995422363,2.47999954223633,0,0,NaN,NaN,0,0.0242283218322616,NaN,0.999986171723233,0,-0.00523596443235874,0,15.1806937510872,15.1806937510872,,,45.6499998569489,13,0.075116087794089,0.16229753062187
2018-07-19T08:02:02Z,1531987322,105,42.0423554,42.2448502,15.48,0,-0.3,324.5,646764.44,-281387.72,318.3,Air+FixedWing,Blue,Enemies,J-11A,Blue J-11A #002,cn,=36=Drigo,0,0,0,15.4799995422363,2.47999954223633,0,0,NaN,NaN,0,0,NaN,0.999986171723233,0,-0.00523596443235874,0,15.1806937510872,15.1806937510872,,,46.6499998569489,13,0.0780090257897004,0.165190475539977
2018-07-19T08:02:03Z,1531987323,105,42.0423554,42.2448502,15.48,0,-0.3,324.5,646764.44,-281387.72,318.3,Air+FixedWing,Blue,Enemies,J-11A,Blue J-11A #002,cn,=36=Drigo,0,0,0,15.4799995422363,2.47999954223633,0,0,NaN,NaN,0,0,NaN,0.999986171723233,0,-0.00523596443235874,0,15.1806937510872,15.1806937510872,,,47.6499998569489,13,0.0789082564311887,0.166089708466311
2018-07-19T08:02:04Z,1531987324,105,42.0423553,42.2448502,15.48,0,-0.3,324.5,646764.44,-281387.72,318.3,Air+FixedWing,Blue,Enemies,J-11A,Blue J-11A #002,cn,=36=Drigo,0,0,0,15.4799995422363,2.47999954223633,0,0,NaN,NaN,0,0,NaN,0.999986171723233,0,-0.00523596443235874,0,15.1806937510872,15.1806937510872,,,48.6499998569489,13,0.0867565824560367,0.17393805359749
2018-07-19T08:02:05Z,1531987325,105,42.0423551,42.2448502,15.48,0,-0.3,324.5,646764.44,-281387.72,318.3,Air+FixedWing,Blue,Enemies,J-11A,Blue J-11A #002,cn,=36=Drigo,0,0,0,15.4799995422363,2.47999954223633,0,0,NaN,NaN,0,0,NaN,0.999986171723233,0,-0.00523596443235874,0,15.1806937510872,15.1806937510872,,,49.6499998569489,13,0.101989104499689,0.189170612226625
2018-07-19T08:02:06Z,1531987326,105,42.0423553,42.2448502,15.48,0,-0.3,324.5,646764.44,-281387.72,318.3,Air+FixedWing,Blue,Enemies,J-11A,Blue J-11A #002,cn,=36=Drigo,0,0,0,15.4799995422363,2.47999954223633,0,0,NaN,NaN,0,0,NaN,0.999986171723233,0,-0.00523596443235874,0,15.1806937510872,15.1806937510872,,,50.6499998569489,13,0.116197284623607,0.203378826305358
2018-07-19T08:02:07Z,1531987327,105,42.0423553,42.2448502,15.48,0.1,-0.3,324.5,646764.44,-281387.72,318.3,Air+FixedWing,Blue,Enemies,J-11A,Blue J-11A #002,cn,=36=Drigo,0,0,0,15.4799995422363,2.47999954223633,0,0,NaN,NaN,0.0653594742201338,0,NaN,0.999985635288816,0.00108368611295141,-0.00523596443235874,0,15.1806937510872,15.1806937510872,,,51.6499998569489,13,0.116907692832601,0.204089236487354
2018-07-19T08:02:08Z,1531987328,105,42.0423554,42.2448502,15.48,0.2,-0.3,324.5,646764.44,-281387.72,318.3,Air+FixedWing,Blue,Enemies,J-11A,Blue J-11A #002,cn,=36=Drigo,0,0,0,15.4799995422363,2.47999954223633,0,0,NaN,NaN,0.191409901651312,0,NaN,0.99998074777524,0.0033243851285554,-0.00523596443235874,0,15.1806937510872,15.1806937510872,,,52.6499998569489,13,0.125148435753497,0.212329999518071
2018-07-19T08:02:09Z,1531987329,105,42.0423553,42.2448502,15.48,0.1,-0.3,324.5,646764.44,-281387.72,318.3,Air+FixedWing,Blue,Enemies,J-11A,Blue J-11A #002,cn,=36=Drigo,0,0,0,15.4799995422363,2.47999954223633,0,0,NaN,NaN,0.0321838513691001,0,NaN,0.999985098854399,0.00146437026602393,-0.00523596443235874,0,15.1806937510872,15.1806937510872,,,53.6499998569489,13,0.133389178674393,0.220570762548788
2018-07-19T08:02:10Z,1531987330,105,42.0423553,42.2448502,15.48,0,-0.3,324.5,646764.44,-281387.72,318.3,Air+FixedWing,Blue,Enemies,J-11A,Blue J-11A #002,cn,=36=Drigo,0,0,0,15.4799995422363,2.47999954223633,0,0,NaN,NaN,0.0487948714305711,0,NaN,0.99998599291176,0.000613053561180233,-0.00523596443235874,0,15.1806937510872,15.1806937510872,,,54.6499998569489,13,0.133389178674393,0.220570762548788
2018-07-19T08:02:11Z,1531987331,105,42.0423553,42.2448501,15.48,-0.1,-0.3,324.5,646764.44,-281387.72,318.3,Air+FixedWing,Blue,Enemies,J-11A,Blue J-11A #002,cn,=36=Drigo,0,0,0,15.4799995422363,2.47999954223633,0,0,NaN,NaN,0.221462053648493,0,NaN,0.99998468162763,-0.00174519903829523,-0.00523596443235874,0,15.1806937510872,15.1806937510872,,,55.6499998569489,13,0.144548759993326,0.231730370933118
2018-07-19T08:02:12Z,1531987332,105,42.0423553,42.2448502,15.48,0,-0.3,324.5,646764.44,-281387.72,318.3,Air+FixedWing,Blue,Enemies,J-11A,Blue J-11A #002,cn,=36=Drigo,0,0,0,15.4799995422363,2.47999954223633,0,0,NaN,NaN,0,0,NaN,0.999986171723233,0,-0.00523596443235874,0,15.1806937510872,15.1806937510872,,,56.6499998569489,13,0.156126597254362,0.243308236532651
2018-07-19T08:02:13Z,1531987333,105,42.0423554,42.2448502,15.48,0,-0.3,324.5,646764.44,-281387.72,318.3,Air+FixedWing,Blue,Enemies,J-11A,Blue J-11A #002,cn,=36=Drigo,0,0,0,15.4799995422363,2.47999954223633,0,0,NaN,NaN,0,0,NaN,0.999986171723233,0,-0.00523596443235874,0,15.1806937510872,15.1806937510872,,,57.6499998569489,13,0.158713609210109,0.245895254753227
2018-07-19T08:02:14Z,1531987334,105,42.0423553,42.2448502,15.48,0.1,-0.3,324.5,646764.44,-281387.72,318.3,Air+FixedWing,Blue,Enemies,J-11A,Blue J-11A #002,cn,=36=Drigo,0,0,0,15.4799995422363,2.47999954223633,0,0,NaN,NaN,0.17894866173766,0,NaN,0.999984979646751,0.00156159958615325,-0.00523596443235874,0,15.1806937510872,15.1806937510872,,,58.6499998569489,13,0.163697929667047,0.250879587394
2018-07-19T08:02:15Z,1531987335,105,42.0423553,42.2448502,15.48,0,-0.3,324.5,646764.44,-281387.72,318.3,Air+FixedWing,Blue,Enemies,J-11A,Blue J-11A #002,cn,=36=Drigo,0,0,0,15.4799995422363,2.47999954223633,0,0,NaN,NaN,0.0181159411878082,0,NaN,0.999986112119409,0.000208677819338293,-0.00523596443235874,0,15.1806937510872,15.1806937510872,,,59.6499998569489,13,0.163697929667047,0.250879587394
2018-07-19T08:02:16Z,1531987336,105,42.0423553,42.2448502,15.48,0,-0.3,324.5,646764.44,-281387.72,318.3,Air+FixedWing,Blue,Enemies,J-11A,Blue J-11A #002,cn,=36=Drigo,0,0,0,15.4799995422363,2.47999954223633,0,0,NaN,NaN,0.0181159428553349,0,NaN,0.999986052515585,0.000524856315848778,-0.00523596443235874,0,15.1806937510872,15.1806937510872,,,60.6499998569489,13,0.163697929667047,0.250879587394
2018-07-19T08:02:17Z,1531987337,105,42.0423553,42.2448502,15.48,0,-0.3,324.5,646764.44,-281387.72,318.3,Air+FixedWing,Blue,Enemies,J-11A,Blue J-11A #002,cn,=36=Drigo,0,0,0,15.4799995422363,2.47999954223633,0,0,NaN,NaN,0.0181159428553349,0,NaN,0.999985873704112,0.000841034695945545,-0.00523596443235874,0,15.1806937510872,15.1806937510872,,,61.6499998569489,13,0.163697929667047,0.250879587394
2018-07-19T08:02:18Z,1531987338,105,42.0423553,42.2448502,15.48,0.1,-0.3,324.5,646764.44,-281387.72,318.3,Air+FixedWing,Blue,Enemies,J-11A,Blue J-11A #002,cn,=36=Drigo,0,0,0,15.4799995422363,2.47999954223633,0,0,NaN,NaN,0.0181159428553349,0,NaN,0.999985516081168,0.00115721301783545,-0.00523596443235874,0,15.1806937510872,15.1806937510872,,,62.6499998569489,13,0.163697929667047,0.250879587394
2018-07-19T08:02:19Z,1531987339,105,42.0423553,42.2448502,15.48,0.1,-0.3,324.5,646764.44,-281387.72,318.3,Air+FixedWing,Blue,Enemies,J-11A,Blue J-11A #002,cn,=36=Drigo,0,0,0,15.4799995422363,2.47999954223633,0,0,NaN,NaN,0.0181159295151217,0,NaN,0.999985098854399,0.00147339116510478,-0.00523596443235874,0,15.1806937510872,15.1806937510872,,,63.6499998569489,13,0.163697929667047,0.250879587394
2018-07-19T08:02:20Z,1531987340,105,42.0423553,42.2448502,15.48,0.1,-0.3,324.5,646764.44,-281387.72,318.3,Air+FixedWing,Blue,Enemies,J-11A,Blue J-11A #002,cn,=36=Drigo,0,0,0,15.4799995422363,2.47999954223633,0,0,NaN,NaN,0.036937663031429,0,NaN,0.999691070053,0.00130862012861571,-0.00523442363715914,0,15.1806937510872,15.1806937510872,,,64.6499998569489,13,0.163697929667047,0.250879587394
2018-07-19T08:02:21Z,1531987341,105,42.0423553,42.2448502,15.48,0,-0.3,324.5,646764.44,-281387.72,318.3,Air+FixedWing,Blue,Enemies,J-11A,Blue J-11A #002,cn,=36=Drigo,0.00288581848144531,0,8.47886847653963e-06,15.4771137237549,2.47711372375488,0,-0.00288581848144531,NaN,NaN,0,0,NaN,0.99977310497471,0,-0.00523484880701759,4.16397415392567e-07,15.1778637299061,15.1778641463035,,,65.6499998569489,13,0.163697929667047,0.253765406297402
2018-07-19T08:02:22Z,1531987342,105,42.0423553,42.2448502,15.47,0,-0.3,324.5,646764.44,-281387.72,318.3,Air+FixedWing,Blue,Enemies,J-11A,Blue J-11A #002,cn,=36=Drigo,0.00497531890869141,0,1.46180615872283e-05,15.4721384048462,2.47213840484619,0,-0.00497531890869141,NaN,NaN,0,0,NaN,1.00027538236226,0,-0.00523747874991446,1.23768991215911e-06,15.1729846087885,15.1729858464784,,,66.6499998569489,13,0.163697929667047,0.258740724973328
2018-07-19T08:02:23Z,1531987343,105,42.0423553,42.2448501,15.47,-0.1,-0.2,324.5,646764.44,-281387.72,318.3,Air+FixedWing,Blue,Enemies,J-11A,Blue J-11A #002,cn,=36=Drigo,0.00213909149169922,0,6.28489770942513e-06,15.4699993133545,2.46999931335449,0,-0.00213909149169922,NaN,NaN,0.199987938897973,0.0419646855956116,NaN,1.000207574299,-0.00174558803629627,-0.0042396292593357,2.28785620492999e-07,15.1708868766308,15.1708871054164,,,67.6499998569489,13,0.174829878698508,0.270076359840098
2018-07-19T08:02:24Z,1531987344,105,42.0423553,42.2448501,15.47,0,-0.2,324.5,646764.44,-281387.72,318.3,Air+FixedWing,Blue,Enemies,J-11A,Blue J-11A #002,cn,=36=Drigo,0,0,0,15.4699993133545,2.46999931335449,0,0,NaN,NaN,0,0.0242283218322616,NaN,0.99999284744305,0,-0.00375925120897591,0,15.1708868766308,15.1708868766308,,,68.6499998569489,13,0.174829878698508,0.270076359840098
2018-07-19T08:02:25Z,1531987345,105,42.0423553,42.2448501,15.47,0,-0.3,324.5,646764.44,-281387.72,318.3,Air+FixedWing,Blue,Enemies,J-11A,Blue J-11A #002,cn,=36=Drigo,0,0,0,15.4699993133545,2.46999931335449,0,0,NaN,NaN,0,0.0139882274201861,NaN,0.999989867210989,0,-0.00446977745741606,0,15.1708868766308,15.1708868766308,,,69.6499998569489,13,0.174829878698508,0.270076359840098
2018-07-19T08:02:26Z,1531987346,105,42.0423553,42.2448501,15.47,0,-0.2,324.5,646764.44,-281387.72,318.3,Air+FixedWing,Blue,Enemies,J-11A,Blue J-11A #002,cn,=36=Drigo,0,0,0,15.4699993133545,2.46999931335449,0,0,NaN,NaN,0,0.0312786278555019,NaN,0.999993741512668,0,-0.00349065172486007,0,15.1708868766308,15.1708868766308,,,70.6499998569489,13,0.174829878698508,0.270076359840098
2018-07-19T08:02:27Z,1531987347,105,42.0423553,42.2448501,15.47,0,-0.2,324.5,646764.44,-281387.72,318.3,Air+FixedWing,Blue,Enemies,J-11A,Blue J-11A #002,cn,=36=Drigo,0,0,0,15.4699993133545,2.46999931335449,0,0,NaN,NaN,0,0.0139882274201861,NaN,0.999993741512668,0,-0.00349065172486007,0,15.1708868766308,15.1708868766308,,,71.6499998569489,13,0.174829878698508,0.270076359840098
2018-07-19T08:02:28Z,1531987348,105,42.0423553,42.2448501,15.47,0,-0.2,324.5,646764.44,-281387.72,318.3,Air+FixedWing,Blue,Enemies,J-11A,Blue J-11A #002,cn,=36=Drigo,0,0,0,15.4699993133545,2.46999931335449,0,0,NaN,NaN,0,0.0139882274201861,NaN,0.999993741512668,0,-0.00349065172486007,0,15.1708868766308,15.1708868766308,,,72.6499998569489,13,0.174829878698508,0.270076359840098
2018-07-19T08:02:29Z,1531987349,105,42.0423553,42.2448501,15.47,0,-0.2,324.5,646764.44,-281387.72,318.3,Air+FixedWing,Blue,Enemies,J-11A,Blue J-11A #002,cn,=36=Drigo,0,0,0,15.4699993133545,2.46999931335449,0,0,NaN,NaN,0,0.0139882274201861,NaN,0.999993741512668,0,-0.00349065172486007,0,15.1708868766308,15.1708868766308,,,73.6499998569489,13,0.174829878698508,0.270076359840098
2018-07-19T08:02:30Z,1531987350,105,42.0423553,42.2448501,15.47,0,-0.2,324.5,646764.44,-281387.72,318.3,Air+FixedWing,Blue,Enemies,J-11A,Blue J-11A #002,cn,=36=Drigo,0,0,0,15.4699993133545,2.46999931335449,0,0,NaN,NaN,0,0.0139882274201861,NaN,0.999993741512668,0,-0.00349065172486007,0,15.1708868766308,15.1708868766308,,,74.6499998569489,13,0.174829878698508,0.270076359840098
2018-07-19T08:02:31Z,1531987351,105,42.0423553,42.2448501,15.47,0,-0.2,324.5,646764.44,-281387.72,318.3,Air+FixedWing,Blue,Enemies,J-11A,Blue J-11A #002,cn,=36=Drigo,0,0,0,15.4699993133545,2.46999931335449,0,0,NaN,NaN,0,0.0139882274201861,NaN,0.999993741512668,0,-0.00349065172486007,0,15.1708868766308,15.1708868766308,,,75.6499998569489,13,0.174829878698508,0.270076359840098
2018-07-19T08:02:32Z,1531987352,105,42.0423553,42.2448501,15.47,0,-0.2,324.5,646764.44,-281387.72,318.3,Air+FixedWing,Blue,Enemies,J-11A,Blue J-11A #002,cn,=36=Drigo,0,0,0,15.4699993133545,2.46999931335449,0,0,NaN,NaN,0,0.0139882274201861,NaN,0.999993741512668,0,-0.00349065172486007,0,15.1708868766308,15.1708868766308,,,76.6499998569489,13,0.174829878698508,0.270076359840098
2018-07-19T08:02:33Z,1531987353,105,42.0423553,42.2448501,15.47,0,-0.2,324.5,646764.44,-281387.72,318.3,Air+FixedWing,Blue,Enemies,J-11A,Blue J-11A #002,cn,=36=Drigo,0,0,0,15.4699993133545,2.46999931335449,0,0,NaN,NaN,0,0.0139882274201861,NaN,0.999993741512668,0,-0.00349065172486007,0,15.1708868766308,15.1708868766308,,,77.6499998569489,13,0.174829878698508,0.270076359840098
2018-07-19T08:02:34Z,1531987354,105,42.0423553,42.2448501,15.47,0,-0.2,324.5,646764.44,-281387.72,318.3,Air+FixedWing,Blue,Enemies,J-11A,Blue J-11A #002,cn,=36=Drigo,0,0,0,15.4699993133545,2.46999931335449,0,0,NaN,NaN,0,0.0139882274201861,NaN,0.999993741512668,0,-0.00349065172486007,0,15.1708868766308,15.1708868766308,,,78.6499998569489,13,0.174829878698508,0.270076359840098
2018-07-19T08:02:35Z,1531987355,105,42.0423553,42.2448501,15.47,0,-0.2,324.5,646764.44,-281387.72,318.3,Air+FixedWing,Blue,Enemies,J-11A,Blue J-11A #002,cn,=36=Drigo,0,0,0,15.4699993133545,2.46999931335449,0,0,NaN,NaN,0,0.0139882274201861,NaN,0.999993741512668,0,-0.00349065172486007,0,15.1708868766308,15.1708868766308,,,79.6499998569489,13,0.174829878698508,0.270076359840098
2018-07-19T08:02:36Z,1531987356,105,42.0423553,42.2448501,15.47,0,-0.2,324.5,646764.44,-281387.72,318.3,Air+FixedWing,Blue,Enemies,J-11A,Blue J-11A #002,cn,=36=Drigo,0,0,0,15.4699993133545,2.46999931335449,0,0,NaN,NaN,0,0.0139882274201861,NaN,0.999993741512668,0,-0.00349065172486007,0,15.1708868766308,15.1708868766308,,,80.6499998569489,13,0.174829878698508,0.270076359840098
2018-07-19T08:02:37Z,1531987357,105,42.0423553,42.2448501,15.47,0,-0.2,324.5,646764.44,-281387.72,318.3,Air+FixedWing,Blue,Enemies,J-11A,Blue J-11A #002,cn,=36=Drigo,0,0,0,15.4699993133545,2.46999931335449,0,0,NaN,NaN,0,0.0139882274201861,NaN,0.999993741512668,0,-0.00349065172486007,0,15.1708868766308,15.1708868766308,,,81.6499998569489,13,0.174829878698508,0.270076359840098
2018-07-19T08:02:38Z,1531987358,105,42.0423553,42.2448501,15.47,0,-0.2,324.5,646764.44,-281387.72,318.3,Air+FixedWing,Blue,Enemies,J-11A,Blue J-11A #002,cn,=36=Drigo,0,0,0,15.4699993133545,2.46999931335449,0,0,NaN,NaN,0,0.0139882274201861,NaN,0.999993741512668,0,-0.00349065172486007,0,15.1708868766308,15.1708868766308,,,82.6499998569489,13,0.174829878698508,0.270076359840098
2018-07-19T08:02:39Z,1531987359,105,42.0423553,42.2448501,15.47,0,-0.2,324.5,646764.44,-281387.72,318.3,Air+FixedWing,Blue,Enemies,J-11A,Blue J-11A #002,cn,=36=Drigo,0,0,0,15.4699993133545,2.46999931335449,0,0,NaN,NaN,0,0.0139882274201861,NaN,0.999993741512668,0,-0.00349065172486007,0,15.1708868766308,15.1708868766308,,,83.6499998569489,13,0.174829878698508,0.270076359840098
2018-07-19T08:02:40Z,1531987360,105,42.0423553,42.2448501,15.47,0,-0.2,324.5,646764.44,-281387.72,318.3,Air+FixedWing,Blue,Enemies,J-11A,Blue J-11A #002,cn,=36=Drigo,0,0,0,15.4699993133545,2.46999931335449,0,0,NaN,NaN,0,0.0139882274201861,NaN,0.999993741512668,0,-0.00349065172486007,0,15.1708868766308,15.1708868766308,,,84.6499998569489,13,0.174829878698508,0.270076359840098
2018-07-19T08:02:41Z,1531987361,105,42.0423553,42.2448501,15.47,0,-0.2,324.5,646764.44,-281387.72,318.3,Air+FixedWing,Blue,Enemies,J-11A,Blue J-11A #002,cn,=36=Drigo,0,0,0,15.4699993133545,2.46999931335449,0,0,NaN,NaN,0,0.0139882274201861,NaN,0.999993741512668,0,-0.00349065172486007,0,15.1708868766308,15.1708868766308,,,85.6499998569489,13,0.174829878698508,0.270076359840098
2018-07-19T08:02:42Z,1531987362,105,42.0423553,42.2448501,15.47,0,-0.2,324.5,646764.44,-281387.72,318.3,Air+FixedWing,Blue,Enemies,J-11A,Blue J-11A #002,cn,=36=Drigo,0,0,0,15.4699993133545,2.46999931335449,0,0,NaN,NaN,0,0.0139882274201861,NaN,0.999993741512668,0,-0.00349065172486007,0,15.1708868766308,15.1708868766308,,,86.6499998569489,13,0.174829878698508,0.270076359840098
2018-07-19T08:02:43Z,1531987363,105,42.0423553,42.2448501,15.47,0,-0.2,324.5,646764.44,-281387.72,318.3,Air+FixedWing,Blue,Enemies,J-11A,Blue J-11A #002,cn,=36=Drigo,0,0,0,15.4699993133545,2.46999931335449,0,0,NaN,NaN,0,0.0139882274201861,NaN,0.999993741512668,0,-0.00349065172486007,0,15.1708868766308,15.1708868766308,,,87.6499998569489,13,0.174829878698508,0.270076359840098
2018-07-19T08:02:44Z,1531987364,105,42.0423553,42.2448501,15.47,0,-0.2,324.5,646764.44,-281387.72,318.3,Air+FixedWing,Blue,Enemies,J-11A,Blue J-11A #002,cn,=36=Drigo,0,0,0,15.4699993133545,2.46999931335449,0,0,NaN,NaN,0,0.0139882274201861,NaN,0.999993741512668,0,-0.00349065172486007,0,15.1708868766308,15.1708868766308,,,88.6499998569489,13,0.174829878698508,0.270076359840098
2018-07-19T08:02:45Z,1531987365,105,42.0423553,42.2448501,15.47,0,-0.2,324.5,646764.44,-281387.72,318.3,Air+FixedWing,Blue,Enemies,J-11A,Blue J-11A #002,cn,=36=Drigo,0,0,0,15.4699993133545,2.46999931335449,0,0,NaN,NaN,0,0.0139882274201861,NaN,0.999993741512668,0,-0.00349065172486007,0,15.1708868766308,15.1708868766308,,,89.6499998569489,13,0.174829878698508,0.270076359840098
2018-07-19T08:02:46Z,1531987366,105,42.0423553,42.2448501,15.47,0,-0.2,324.5,646764.44,-281387.72,318.3,Air+FixedWing,Blue,Enemies,J-11A,Blue J-11A #002,cn,=36=Drigo,0,0,0,15.4699993133545,2.46999931335449,0,0,NaN,NaN,0,0.0139882274201861,NaN,0.999993741512668,0,-0.00349065172486007,0,15.1708868766308,15.1708868766308,,,90.6499998569489,13,0.174829878698508,0.270076359840098
2018-07-19T08:02:47Z,1531987367,105,42.0423553,42.2448501,15.47,0,-0.2,324.5,646764.44,-281387.72,318.3,Air+FixedWing,Blue,Enemies,J-11A,Blue J-11A #002,cn,=36=Drigo,0,0,0,15.4699993133545,2.46999931335449,0,0,NaN,NaN,0,0.0139882274201861,NaN,0.999993741512668,0,-0.00349065172486007,0,15.1708868766308,15.1708868766308,,,91.6499998569489,13,0.174829878698508,0.270076359840098
2018-07-19T08:02:48Z,1531987368,105,42.0423553,42.2448501,15.47,0,-0.2,324.5,646764.44,-281387.72,318.3,Air+FixedWing,Blue,Enemies,J-11A,Blue J-11A #002,cn,=36=Drigo,0,0,0,15.4699993133545,2.46999931335449,0,0,NaN,NaN,0,0.0139882274201861,NaN,0.999993741512668,0,-0.00349065172486007,0,15.1708868766308,15.1708868766308,,,92.6499998569489,13,0.174829878698508,0.270076359840098
2018-07-19T08:02:49Z,1531987369,105,42.0423553,42.2448501,15.47,0,-0.2,324.5,646764.44,-281387.72,318.3,Air+FixedWing,Blue,Enemies,J-11A,Blue J-11A #002,cn,=36=Drigo,0,0,0,15.4699993133545,2.46999931335449,0,0,NaN,NaN,0,0.0139882274201861,NaN,0.999993741512668,0,-0.00349065172486007,0,15.1708868766308,15.1708868766308,,,93.6499998569489,13,0.174829878698508,0.270076359840098
2018-07-19T08:02:50Z,1531987370,105,42.0423553,42.2448501,15.47,0,-0.2,324.5,646764.44,-281387.72,318.3,Air+FixedWing,Blue,Enemies,J-11A,Blue J-11A #002,cn,=36=Drigo,0,0,0,15.4699993133545,2.46999931335449,0,0,NaN,NaN,0,0.0139882274201861,NaN,0.999993741512668,0,-0.00349065172486007,0,15.1708868766308,15.1708868766308,,,94.6499998569489,13,0.174829878698508,0.270076359840098
2018-07-19T08:02:51Z,1531987371,105,42.0423553,42.2448501,15.47,0,-0.2,324.5,646764.44,-281387.72,318.3,Air+FixedWing,Blue,Enemies,J-11A,Blue J-11A #002,cn,=36=Drigo,0,0,0,15.4699993133545,2.46999931335449,0,0,NaN,NaN,0,0.0139882274201861,NaN,0.999993741512668,0,-0.00349065172486007,0,15.1708868766308,15.1708868766308,,,95.6499998569489,13,0.174829878698508,0.270076359840098
2018-07-19T08:02:52Z,1531987372,105,42.0423553,42.2448501,15.47,0,-0.2,324.5,646764.44,-281387.72,318.3,Air+FixedWing,Blue,Enemies,J-11A,Blue J-11A #002,cn,=36=Drigo,0,0,0,15.4699993133545,2.46999931335449,0,0,NaN,NaN,0,0.0139882274201861,NaN,0.999993741512668,0,-0.00349065172486007,0,15.1708868766308,15.1708868766308,,,96.6499998569489,13,0.174829878698508,0.270076359840098
2018-07-19T08:02:53Z,1531987373,105,42.0423553,42.2448501,15.47,0,-0.2,324.5,646764.44,-281387.72,318.3,Air+FixedWing,Blue,Enemies,J-11A,Blue J-11A #002,cn,=36=Drigo,0,0,0,15.4699993133545,2.46999931335449,0,0,NaN,NaN,0,0.0139882274201861,NaN,0.999993741512668,0,-0.00349065172486007,0,15.1708868766308,15.1708868766308,,,97.6499998569489,13,0.174829878698508,0.270076359840098
2018-07-19T08:02:54Z,1531987374,105,42.0423553,42.2448501,15.47,0,-0.2,324.5,646764.44,-281387.72,318.3,Air+FixedWing,Blue,Enemies,J-11A,Blue J-11A #002,cn,=36=Drigo,0,0,0,15.4699993133545,2.46999931335449,0,0,NaN,NaN,0,0.0139882274201861,NaN,0.999993741512668,0,-0.00349065172486007,0,15.1708868766308,15.1708868766308,,,98.6499998569489,13,0.174829878698508,0.270076359840098
2018-07-19T08:02:55Z,1531987375,105,42.0423553,42.2448501,15.47,0,-0.2,324.5,646764.44,-281387.72,318.3,Air+FixedWing,Blue,Enemies,J-11A,Blue J-11A #002,cn,=36=Drigo,0,0,0,15.4699993133545,2.46999931335449,0,0,NaN,NaN,0,0.0139882274201861,NaN,0.999993741512668,0,-0.00349065172486007,0,15.1708868766308,15.1708868766308,,,99.6499998569489,13,0.174829878698508,0.270076359840098
2018-07-19T08:02:56Z,1531987376,105,42.0423553,42.2448501,15.47,0,-0.2,324.5,646764.44,-281387.72,318.3,Air+FixedWing,Blue,Enemies,J-11A,Blue J-11A #002,cn,=36=Drigo,0,0,0,15.4699993133545,2.46999931335449,0,0,NaN,NaN,0,0.0139882274201861,NaN,0.999993741512668,0,-0.00349065172486007,0,15.1708868766308,15.1708868766308,,,100.649999856949,13,0.174829878698508,0.270076359840098
2018-07-19T08:02:57Z,1531987377,105,42.0423553,42.2448501,15.47,0,-0.2,324.5,646764.44,-281387.72,318.3,Air+FixedWing,Blue,Enemies,J-11A,Blue J-11A #002,cn,=36=Drigo,0,0,0,15.4699993133545,2.46999931335449,0,0,NaN,NaN,0,0.0139882274201861,NaN,0.999993741512668,0,-0.00349065172486007,0,15.1708868766308,15.1708868766308,,,101.649999856949,13,0.174829878698508,0.270076359840098
2018-07-19T08:02:58Z,1531987378,105,42.0423553,42.2448501,15.47,0,-0.2,324.5,646764.44,-281387.72,318.3,Air+FixedWing,Blue,Enemies,J-11A,Blue J-11A #002,cn,=36=Drigo,0,0,0,15.4699993133545,2.46999931335449,0,0,NaN,NaN,0,0.0139882274201861,NaN,0.999993741512668,0,-0.00349065172486007,0,15.1708868766308,15.1708868766308,,,102.649999856949,13,0.174829878698508,0.270076359840098
2018-07-19T08:02:59Z,1531987379,105,42.0423553,42.2448501,15.47,0,-0.2,324.5,646764.44,-281387.72,318.3,Air+FixedWing,Blue,Enemies,J-11A,Blue J-11A #002,cn,=36=Drigo,0,0,0,15.4699993133545,2.46999931335449,0,0,NaN,NaN,0,0.0139882274201861,NaN,0.999993741512668,0,-0.00349065172486007,0,15.1708868766308,15.1708868766308,,,103.649999856949,13,0.174829878698508,0.270076359840098
2018-07-19T08:03:00Z,1531987380,105,42.0423553,42.2448501,15.47,0,-0.2,324.5,646764.44,-281387.72,318.3,Air+FixedWing,Blue,Enemies,J-11A,Blue J-11A #002,cn,=36=Drigo,0,0,0,15.4699993133545,2.46999931335449,0,0,NaN,NaN,0,0.0139882274201861,NaN,0.999993741512668,0,-0.00349065172486007,0,15.1708868766308,15.1708868766308,,,104.649999856949,13,0.174829878698508,0.270076359840098
2018-07-19T08:03:01Z,1531987381,105,42.0423553,42.2448501,15.47,0,-0.2,324.5,646764.44,-281387.72,318.3,Air+FixedWing,Blue,Enemies,J-11A,Blue J-11A #002,cn,=36=Drigo,0,0,0,15.4699993133545,2.46999931335449,0,0,NaN,NaN,0,0.0139882274201861,NaN,0.999993741512668,0,-0.00349065172486007,0,15.1708868766308,15.1708868766308,,,105.649999856949,13,0.174829878698508,0.270076359840098
2018-07-19T08:03:02Z,1531987382,105,42.0423553,42.2448501,15.47,0,-0.2,324.4,646764.44,-281387.72,318.3,Air+FixedWing,Blue,Enemies,J-11A,Blue J-11A #002,cn,=36=Drigo,0,0,0,15.4699993133545,2.46999931335449,0,0,NaN,NaN,0,0.0139882274201861,NaN,0.999993741512668,0,-0.00349065172486007,0,15.1708868766308,15.1708868766308,,,106.649999856949,13,0.174829878698508,0.270076359840098
2018-07-19T08:03:03Z,1531987383,105,42.0423553,42.2448501,15.47,0,-0.2,324.4,646764.44,-281387.72,318.3,Air+FixedWing,Blue,Enemies,J-11A,Blue J-11A #002,cn,=36=Drigo,0,0,0,15.4699993133545,2.46999931335449,0,0,NaN,NaN,0,0.0139882274201861,NaN,0.999993741512668,0,-0.00349065172486007,0,15.1708868766308,15.1708868766308,,,107.649999856949,13,0.174829878698508,0.270076359840098
2018-07-19T08:03:04Z,1531987384,105,42.0423553,42.2448501,15.47,0,-0.2,324.4,646764.44,-281387.72,318.3,Air+FixedWing,Blue,Enemies,J-11A,Blue J-11A #002,cn,=36=Drigo,0,0,0,15.4699993133545,2.46999931335449,0,0,NaN,NaN,0,0.0139882274201861,NaN,0.999993741512668,0,-0.00349065172486007,0,15.1708868766308,15.1708868766308,,,108.649999856949,13,0.174829878698508,0.270076359840098
2018-07-19T08:03:05Z,1531987385,105,42.0423553,42.2448501,15.47,0,-0.2,324.4,646764.44,-281387.72,318.3,Air+FixedWing,Blue,Enemies,J-11A,Blue J-11A #002,cn,=36=Drigo,0,0,0,15.4699993133545,2.46999931335449,0,0,NaN,NaN,0,0.0139882274201861,NaN,0.999993741512668,0,-0.00349065172486007,0,15.1708868766308,15.1708868766308,,,109.649999856949,13,0.174829878698508,0.270076359840098
2018-07-19T08:03:06Z,1531987386,105,42.0423553,42.2448501,15.47,0,-0.2,324.4,646764.44,-281387.72,318.3,Air+FixedWing,Blue,Enemies,J-11A,Blue J-11A #002,cn,=36=Drigo,0,0,0,15.4699993133545,2.46999931335449,0,0,NaN,NaN,0,0.0139882274201861,NaN,0.999993741512668,0,-0.00349065172486007,0,15.1708868766308,15.1708868766308,,,110.649999856949,13,0.174829878698508,0.270076359840098
2018-07-19T08:03:07Z,1531987387,105,42.0423553,42.2448501,15.47,0,-0.2,324.4,646764.44,-281387.72,318.3,Air+FixedWing,Blue,Enemies,J-11A,Blue J-11A #002,cn,=36=Drigo,0,0,0,15.4699993133545,2.46999931335449,0,0,NaN,NaN,0,0.0139882274201861,NaN,0.999993741512668,0,-0.00349065172486007,0,15.1708868766308,15.1708868766308,,,111.649999856949,13,0.174829878698508,0.270076359840098
2018-07-19T08:03:08Z,1531987388,105,42.0423553,42.2448501,15.47,0,-0.2,324.4,646764.44,-281387.72,318.3,Air+FixedWing,Blue,Enemies,J-11A,Blue J-11A #002,cn,=36=Drigo,0,0,0,15.4699993133545,2.46999931335449,0,0,NaN,NaN,0,0.0139882274201861,NaN,0.999993741512668,0,-0.00349065172486007,0,15.1708868766308,15.1708868766308,,,112.649999856949,13,0.174829878698508,0.270076359840098
2018-07-19T08:03:09Z,1531987389,105,42.0423553,42.2448501,15.47,0,-0.2,324.4,646764.44,-281387.72,318.3,Air+FixedWing,Blue,Enemies,J-11A,Blue J-11A #002,cn,=36=Drigo,0,0,0,15.4699993133545,2.46999931335449,0,0,NaN,NaN,0,0.0139882274201861,NaN,0.999993741512668,0,-0.00349065172486007,0,15.1708868766308,15.1708868766308,,,113.649999856949,13,0.174829878698508,0.270076359840098
2018-07-19T08:03:10Z,1531987390,105,42.0423553,42.2448501,15.47,0,-0.2,324.4,646764.44,-281387.72,318.3,Air+FixedWing,Blue,Enemies,J-11A,Blue J-11A #002,cn,=36=Drigo,0,0,0,15.4699993133545,2.46999931335449,0,0,NaN,NaN,0,0.0139882274201861,NaN,0.999993741512668,0,-0.00349065172486007,0,15.1708868766308,15.1708868766308,,,114.649999856949,13,0.174829878698508,0.270076359840098
2018-07-19T08:03:11Z,1531987391,105,42.0423553,42.2448501,15.47,0,-0.2,324.4,646764.44,-281387.72,318.3,Air+FixedWing,Blue,Enemies,J-11A,Blue J-11A #002,cn,=36=Drigo,0,0,0,15.4699993133545,2.46999931335449,0,0,NaN,NaN,0,0.0139882274201861,NaN,0.999993741512668,0,-0.00349065172486007,0,15.1708868766308,15.1708868766308,,,115.649999856949,13,0.174829878698508,0.270076359840098
2018-07-19T08:03:12Z,1531987392,105,42.0423553,42.2448501,15.47,0,-0.2,324.4,646764.44,-281387.72,318.3,Air+FixedWing,Blue,Enemies,J-11A,Blue J-11A #002,cn,=36=Drigo,0,0,0,15.4699993133545,2.46999931335449,0,0,NaN,NaN,0,0.0139882274201861,NaN,0.999993741512668,0,-0.00349065172486007,0,15.1708868766308,15.1708868766308,,,116.649999856949,13,0.174829878698508,0.270076359840098
2018-07-19T08:03:13Z,1531987393,105,42.0423553,42.2448501,15.47,0,-0.2,324.4,646764.44,-281387.72,318.3,Air+FixedWing,Blue,Enemies,J-11A,Blue J-11A #002,cn,=36=Drigo,0,0,0,15.4699993133545,2.46999931335449,0,0,NaN,NaN,0,0.0139882274201861,NaN,0.999993741512668,0,-0.00349065172486007,0,15.1708868766308,15.1708868766308,,,117.649999856949,13,0.174829878698508,0.270076359840098
2018-07-19T08:03:14Z,1531987394,105,42.0423553,42.2448501,15.47,0,-0.2,324.4,646764.44,-281387.72,318.3,Air+FixedWing,Blue,Enemies,J-11A,Blue J-11A #002,cn,=36=Drigo,0,0,0,15.4699993133545,2.46999931335449,0,0,NaN,NaN,0,0.0139882274201861,NaN,0.999993741512668,0,-0.00349065172486007,0,15.1708868766308,15.1708868766308,,,118.649999856949,13,0.174829878698508,0.270076359840098
2018-07-19T08:03:15Z,1531987395,105,42.0423553,42.2448501,15.47,0,-0.2,324.4,646764.44,-281387.72,318.3,Air+FixedWing,Blue,Enemies,J-11A,Blue J-11A #002,cn,=36=Drigo,0,0,0,15.4699993133545,2.46999931335449,0,0,NaN,NaN,0,0.0139882274201861,NaN,0.999993741512668,0,-0.00349065172486007,0,15.1708868766308,15.1708868766308,,,119.649999856949,13,0.174829878698508,0.270076359840098
2018-07-19T08:03:16Z,1531987396,105,42.0423553,42.2448501,15.47,0,-0.2,324.4,646764.44,-281387.72,318.3,Air+FixedWing,Blue,Enemies,J-11A,Blue J-11A #002,cn,=36=Drigo,0,0,0,15.4699993133545,2.46999931335449,0,0,NaN,NaN,0,0.0139882274201861,NaN,0.999993741512668,0,-0.00349065172486007,0,15.1708868766308,15.1708868766308,,,120.649999856949,13,0.174829878698508,0.270076359840098
2018-07-19T08:03:17Z,1531987397,105,42.0423553,42.2448501,15.47,0,-0.2,324.4,646764.44,-281387.72,318.3,Air+FixedWing,Blue,Enemies,J-11A,Blue J-11A #002,cn,=36=Drigo,0,0,0,15.4699993133545,2.46999931335449,0,0,NaN,NaN,0,0.0139882274201861,NaN,0.999993741512668,0,-0.00349065172486007,0,15.1708868766308,15.1708868766308,,,121.649999856949,13,0.174829878698508,0.270076359840098
2018-07-19T08:03:18Z,1531987398,105,42.0423553,42.2448501,15.47,0,-0.2,324.4,646764.44,-281387.72,318.3,Air+FixedWing,Blue,Enemies,J-11A,Blue J-11A #002,cn,=36=Drigo,0,0,0,15.4699993133545,2.46999931335449,0,0,NaN,NaN,0,0.0139882274201861,NaN,0.999993741512668,0,-0.00349065172486007,0,15.1708868766308,15.1708868766308,,,122.649999856949,13,0.174829878698508,0.270076359840098
2018-07-19T08:03:19Z,1531987399,105,42.0423553,42.2448501,15.47,0,-0.2,324.4,646764.44,-281387.72,318.3,Air+FixedWing,Blue,Enemies,J-11A,Blue J-11A #002,cn,=36=Drigo,0,0,0,15.4699993133545,2.46999931335449,0,0,NaN,NaN,0,0.0139882274201861,NaN,0.999993741512668,0,-0.00349065172486007,0,15.1708868766308,15.1708868766308,,,123.649999856949,13,0.174829878698508,0.270076359840098
2018-07-19T08:03:20Z,1531987400,105,42.0423553,42.2448501,15.47,0,-0.2,324.4,646764.44,-281387.72,318.3,Air+FixedWing,Blue,Enemies,J-11A,Blue J-11A #002,cn,=36=Drigo,0,0,0,15.4699993133545,2.46999931335449,0,0,NaN,NaN,0,0.0139882274201861,NaN,0.999993741512668,0,-0.00349065172486007,0,15.1708868766308,15.1708868766308,,,124.649999856949,13,0.174829878698508,0.270076359840098
2018-07-19T08:03:21Z,1531987401,105,42.0423553,42.2448501,15.47,0,-0.2,324.4,646764.44,-281387.72,318.3,Air+FixedWing,Blue,Enemies,J-11A,Blue J-11A #002,cn,=36=Drigo,0,0,0,15.4699993133545,2.46999931335449,0,0,NaN,NaN,0,0.0139882274201861,NaN,0.999993741512668,0,-0.00349065172486007,0,15.1708868766308,15.1708868766308,,,125.649999856949,13,0.174829878698508,0.270076359840098
2018-07-19T08:03:22Z,1531987402,105,42.0423553,42.2448501,15.47,0,-0.2,324.4,646764.44,-281387.72,318.3,Air+FixedWing,Blue,Enemies,J-11A,Blue J-11A #002,cn,=36=Drigo,0,0,0,15.4699993133545,2.46999931335449,0,0,NaN,NaN,0,0.0139882274201861,NaN,0.999993741512668,0,-0.00349065172486007,0,15.1708868766308,15.1708868766308,,,126.649999856949,13,0.174829878698508,0.270076359840098
2018-07-19T08:03:23Z,1531987403,105,42.0423553,42.2448501,15.47,0,-0.2,324.4,646764.44,-281387.72,318.3,Air+FixedWing,Blue,Enemies,J-11A,Blue J-11A #002,cn,=36=Drigo,0,0,0,15.4699993133545,2.46999931335449,0,0,NaN,NaN,0,0.0139882274201861,NaN,0.999993741512668,0,-0.00349065172486007,0,15.1708868766308,15.1708868766308,,,127.649999856949,13,0.174829878698508,0.270076359840098
2018-07-19T08:03:24Z,1531987404,105,42.0423553,42.2448501,15.47,0,-0.2,324.4,646764.44,-281387.72,318.3,Air+FixedWing,Blue,Enemies,J-11A,Blue J-11A #002,cn,=36=Drigo,0,0,0,15.4699993133545,2.46999931335449,0,0,NaN,NaN,0,0.0139882274201861,NaN,0.999993741512668,0,-0.00349065172486007,0,15.1708868766308,15.1708868766308,,,128.649999856949,13,0.174829878698508,0.270076359840098
2018-07-19T08:03:25Z,1531987405,105,42.0423553,42.2448501,15.47,0,-0.2,324.4,646764.44,-281387.72,318.3,Air+FixedWing,Blue,Enemies,J-11A,Blue J-11A #002,cn,=36=Drigo,0,0,0,15.4699993133545,2.46999931335449,0,0,NaN,NaN,0,0.0139882274201861,NaN,0.999993741512668,0,-0.00349065172486007,0,15.1708868766308,15.1708868766308,,,129.649999856949,13,0.174829878698508,0.270076359840098
2018-07-19T08:03:26Z,1531987406,105,42.0423553,42.2448501,15.47,0,-0.2,324.4,646764.44,-281387.72,318.3,Air+FixedWing,Blue,Enemies,J-11A,Blue J-11A #002,cn,=36=Drigo,0,0,0,15.4699993133545,2.46999931335449,0,0,NaN,NaN,0,0.0139882274201861,NaN,0.999993741512668,0,-0.00349065172486007,0,15.1708868766308,15.1708868766308,,,130.649999856949,13,0.174829878698508,0.270076359840098
2018-07-19T08:03:27Z,1531987407,105,42.0423553,42.2448501,15.47,0,-0.2,324.4,646764.44,-281387.72,318.3,Air+FixedWing,Blue,Enemies,J-11A,Blue J-11A #002,cn,=36=Drigo,0,0,0,15.4699993133545,2.46999931335449,0,0,NaN,NaN,0,0.0139882274201861,NaN,0.999993741512668,0,-0.00349065172486007,0,15.1708868766308,15.1708868766308,,,131.649999856949,13,0.174829878698508,0.270076359840098
2018-07-19T08:03:28Z,1531987408,105,42.0423553,42.2448501,15.47,0,-0.2,324.4,646764.44,-281387.72,318.3,Air+FixedWing,Blue,Enemies,J-11A,Blue J-11A #002,cn,=36=Drigo,0,0,0,15.4699993133545,2.46999931335449,0,0,NaN,NaN,0,0.0139882274201861,NaN,0.999993741512668,0,-0.00349065172486007,0,15.1708868766308,15.1708868766308,,,132.649999856949,13,0.174829878698508,0.270076359840098
2018-07-19T08:03:29Z,1531987409,105,42.0423553,42.2448501,15.47,0,-0.2,324.4,646764.44,-281387.72,318.3,Air+FixedWing,Blue,Enemies,J-11A,Blue J-11A #002,cn,=36=Drigo,0,0,0,15.4699993133545,2.46999931335449,0,0,NaN,NaN,0,0.0139882274201861,NaN,0.999993741512668,0,-0.00349065172486007,0,15.1708868766308,15.1708868766308,,,133.649999856949,13,0.174829878698508,0.270076359840098
2018-07-19T08:03:30Z,1531987410,105,42.0423553,42.2448501,15.47,0,-0.2,324.4,646764.44,-281387.72,318.3,Air+FixedWing,Blue,Enemies,J-11A,Blue J-11A #002,cn,=36=Drigo,0,0,0,15.4699993133545,2.46999931335449,0,0,NaN,NaN,0,0.0139882274201861,NaN,0.999993741512668,0,-0.00349065172486007,0,15.1708868766308,15.1708868766308,,,134.649999856949,13,0.174829878698508,0.270076359840098
2018-07-19T08:03:31Z,1531987411,105,42.0423553,42.2448501,15.47,0,-0.2,324.4,646764.44,-281387.72,318.3,Air+FixedWing,Blue,Enemies,J-11A,Blue J-11A #002,cn,=36=Drigo,0,0,0,15.4699993133545,2.46999931335449,0,0,NaN,NaN,0,0.0139882274201861,NaN,0.999993741512668,0,-0.00349065172486007,0,15.1708868766308,15.1708868766308,,,135.649999856949,13,0.174829878698508,0.270076359840098
2018-07-19T08:03:32Z,1531987412,105,42.0423553,42.2448501,15.47,0,-0.2,324.4,646764.44,-281387.72,318.3,Air+FixedWing,Blue,Enemies,J-11A,Blue J-11A #002,cn,=36=Drigo,0,0,0,15.4699993133545,2.46999931335449,0,0,NaN,NaN,0,0.0139882274201861,NaN,0.999993741512668,0,-0.00349065172486007,0,15.1708868766308,15.1708868766308,,,136.649999856949,13,0.174829878698508,0.270076359840098
2018-07-19T08:03:33Z,1531987413,105,42.0423553,42.2448501,15.47,0,-0.2,324.4,646764.44,-281387.72,318.3,Air+FixedWing,Blue,Enemies,J-11A,Blue J-11A #002,cn,=36=Drigo,0,0,0,15.4699993133545,2.46999931335449,0,0,NaN,NaN,0,0.0139882274201861,NaN,0.999993741512668,0,-0.00349065172486007,0,15.1708868766308,15.1708868766308,,,137.649999856949,13,0.174829878698508,0.270076359840098
2018-07-19T08:03:34Z,1531987414,105,42.0423553,42.2448501,15.47,0,-0.2,324.4,646764.44,-281387.72,318.3,Air+FixedWing,Blue,Enemies,J-11A,Blue J-11A #002,cn,=36=Drigo,0,0,0,15.4699993133545,2.46999931335449,0,0,NaN,NaN,0,0.0139882274201861,NaN,0.999993741512668,0,-0.00349065172486007,0,15.1708868766308,15.1708868766308,,,138.649999856949,13,0.174829878698508,0.270076359840098
2018-07-19T08:03:35Z,1531987415,105,42.0423553,42.2448501,15.47,0,-0.2,324.4,646764.44,-281387.72,318.3,Air+FixedWing,Blue,Enemies,J-11A,Blue J-11A #002,cn,=36=Drigo,0,0,0,15.4699993133545,2.46999931335449,0,0,NaN,NaN,0,0.0139882274201861,NaN,0.999993741512668,0,-0.00349065172486007,0,15.1708868766308,15.1708868766308,,,139.649999856949,13,0.174829878698508,0.270076359840098
2018-07-19T08:03:36Z,1531987416,105,42.0423553,42.2448501,15.47,0,-0.2,324.4,646764.44,-281387.72,318.3,Air+FixedWing,Blue,Enemies,J-11A,Blue J-11A #002,cn,=36=Drigo,0,0,0,15.4699993133545,2.46999931335449,0,0,NaN,NaN,0,0.0139882274201861,NaN,0.999993741512668,0,-0.00349065172486007,0,15.1708868766308,15.1708868766308,,,140.649999856949,13,0.174829878698508,0.270076359840098
2018-07-19T08:03:37Z,1531987417,105,42.0423553,42.2448501,15.47,0,-0.2,324.4,646764.44,-281387.72,318.3,Air+FixedWing,Blue,Enemies,J-11A,Blue J-11A #002,cn,=36=Drigo,0,0,0,15.4699993133545,2.46999931335449,0,0,NaN,NaN,0,0.0139882274201861,NaN,0.999993741512668,0,-0.00349065172486007,0,15.1708868766308,15.1708868766308,,,141.649999856949,13,0.174829878698508,0.270076359840098
2018-07-19T08:03:38Z,1531987418,105,42.0423553,42.2448501,15.47,0,-0.2,324.5,646764.44,-281387.72,318.3,Air+FixedWing,Blue,Enemies,J-11A,Blue J-11A #002,cn,=36=Drigo,0,0,0,15.4699993133545,2.46999931335449,0,0,NaN,NaN,0,0.0139882274201861,NaN,0.999993741512668,0,-0.00349065172486007,0,15.1708868766308,15.1708868766308,,,142.649999856949,13,0.174829878698508,0.270076359840098
2018-07-19T08:03:39Z,1531987419,105,42.0423553,42.2448501,15.47,0,-0.2,324.5,646764.44,-281387.72,318.3,Air+FixedWing,Blue,Enemies,J-11A,Blue J-11A #002,cn,=36=Drigo,0,0,0,15.4699993133545,2.46999931335449,0,0,NaN,NaN,0,0.0139882274201861,NaN,0.999993741512668,0,-0.00349065172486007,0,15.1708868766308,15.1708868766308,,,143.649999856949,13,0.174829878698508,0.270076359840098
2018-07-19T08:03:40Z,1531987420,105,42.0423553,42.2448501,15.47,0,-0.2,324.5,646764.44,-281387.72,318.3,Air+FixedWing,Blue,Enemies,J-11A,Blue J-11A #002,cn,=36=Drigo,0,0,0,15.4699993133545,2.46999931335449,0,0,NaN,NaN,0,0.0139882274201861,NaN,0.999993741512668,0,-0.00349065172486007,0,15.1708868766308,15.1708868766308,,,144.649999856949,13,0.174829878698508,0.270076359840098
2018-07-19T08:03:41Z,1531987421,105,42.0423553,42.2448501,15.47,0,-0.2,324.5,646764.44,-281387.72,318.3,Air+FixedWing,Blue,Enemies,J-11A,Blue J-11A #002,cn,=36=Drigo,0,0,0,15.4699993133545,2.46999931335449,0,0,NaN,NaN,0,0.0139882274201861,NaN,0.999993741512668,0,-0.00349065172486007,0,15.1708868766308,15.1708868766308,,,145.649999856949,13,0.174829878698508,0.270076359840098
2018-07-19T08:03:42Z,1531987422,105,42.0423553,42.2448501,15.47,0,-0.2,324.5,646764.44,-281387.72,318.3,Air+FixedWing,Blue,Enemies,J-11A,Blue J-11A #002,cn,=36=Drigo,0,0,0,15.4699993133545,2.46999931335449,0,0,NaN,NaN,0,0.0139882274201861,NaN,0.999993741512668,0,-0.00349065172486007,0,15.1708868766308,15.1708868766308,,,146.649999856949,13,0.174829878698508,0.270076359840098
2018-07-19T08:03:43Z,1531987423,105,42.0423553,42.2448501,15.47,0,-0.2,324.5,646764.44,-281387.72,318.3,Air+FixedWing,Blue,Enemies,J-11A,Blue J-11A #002,cn,=36=Drigo,0,0,0,15.4699993133545,2.46999931335449,0,0,NaN,NaN,0,0.0139882274201861,NaN,0.999993741512668,0,-0.00349065172486007,0,15.1708868766308,15.1708868766308,,,147.649999856949,13,0.174829878698508,0.270076359840098
2018-07-19T08:03:44Z,1531987424,105,42.0423553,42.2448501,15.47,0,-0.2,324.5,646764.44,-281387.72,318.3,Air+FixedWing,Blue,Enemies,J-11A,Blue J-11A #002,cn,=36=Drigo,0,0,0,15.4699993133545,2.46999931335449,0,0,NaN,NaN,0,0.0139882274201861,NaN,0.999993741512668,0,-0.00349065172486007,0,15.1708868766308,15.1708868766308,,,148.649999856949,13,0.174829878698508,0.270076359840098
2018-07-19T08:03:45Z,1531987425,105,42.0423553,42.2448501,15.47,0,-0.2,324.5,646764.44,-281387.72,318.3,Air+FixedWing,Blue,Enemies,J-11A,Blue J-11A #002,cn,=36=Drigo,0,0,0,15.4699993133545,2.46999931335449,0,0,NaN,NaN,0,0.0139882274201861,NaN,0.999993741512668,0,-0.00349065172486007,0,15.1708868766308,15.1708868766308,,,149.649999856949,13,0.174829878698508,0.270076359840098
2018-07-19T08:03:46Z,1531987426,105,42.0423553,42.2448501,15.47,0,-0.2,324.5,646764.44,-281387.72,318.3,Air+FixedWing,Blue,Enemies,J-11A,Blue J-11A #002,cn,=36=Drigo,0,0,0,15.4699993133545,2.46999931335449,0,0,NaN,NaN,0,0.0139882274201861,NaN,0.999993741512668,0,-0.00349065172486007,0,15.1708868766308,15.1708868766308,,,150.649999856949,13,0.174829878698508,0.270076359840098
2018-07-19T08:03:47Z,1531987427,105,42.0423553,42.2448501,15.47,0,-0.2,324.5,646764.44,-281387.72,318.3,Air+FixedWing,Blue,Enemies,J-11A,Blue J-11A #002,cn,=36=Drigo,0,0,0,15.4699993133545,2.46999931335449,0,0,NaN,NaN,0,0.0139882274201861,NaN,0.999993741512668,0,-0.00349065172486007,0,15.1708868766308,15.1708868766308,,,151.649999856949,13,0.174829878698508,0.270076359840098
