ISOTime,UnixTime,Id,Longitude,Latitude,Altitude,Roll,Pitch,Yaw,U,V,Heading,Type,Color,Coalition,Name,Group,Country,Pilot,TAS,CAS,M,ASL,AGL,GS,VS,AOA,AOS,RRT,TRT,TRD,G,LatG,LonG,Ek,Ep,Em,FFW,FFV,RelativeTime,Elev,GroundDistance,AirDistance
2018-07-19T08:01:34Z,1531987294,107,42.0483309,42.2443055,15.59,0.3,0,55.1,647264.5,-281395.44,48.9,Air+FixedWing,Blue,Enemies,F-15C,Blue F-15C #001,us,=36=Merlin,0.173264495354808,0,0.000509071774586929,15.589973449707,2.58997344970703,NaN,NaN,NaN,NaN,0.848464561554084,NaN,NaN,NaN,NaN,NaN,NaN,15.2885413130569,NaN,,,0.549999952316284,13,NaN,NaN
2018-07-19T08:01:35Z,1531987295,107,42.0483309,42.2443055,15.59,0.3,0,55.1,647264.5,-281395.44,48.9,Air+FixedWing,Blue,Enemies,F-15C,Blue F-15C #001,us,=36=Merlin,0.000117301940917969,0,3.44647107443513e-07,15.5898561477661,2.58985614776611,0,-0.000117301940917969,NaN,NaN,0,0.213062828619869,NaN,0.999986171723233,0.00523596412027094,0,6.87987267156132e-10,15.2884262791491,15.288426279837,,,1.54999995231628,13,0,0.000117302697892403
2018-07-19T08:01:36Z,1531987296,107,42.0483309,42.2443055,15.59,0.3,0,55.1,647264.5,-281395.44,48.9,Air+FixedWing,Blue,Enemies,F-15C,Blue F-15C #001,us,=36=Merlin,0.000117301940917969,0,3.44647106988101e-07,15.5897388458252,2.5897388458252,0,-0.000117301940917969,NaN,NaN,0,0.0242283218322616,NaN,0.999986171723233,0.00523596412027094,0,6.87987267156132e-10,15.2883112452412,15.2883112459292,,,2.54999995231628,13,0,0.000234604422058359
2018-07-19T08:01:37Z,1531987297,107,42.0483309,42.2443055,15.59,0.3,0,55.1,647264.5,-281395.44,48.9,Air+FixedWing,Blue,Enemies,F-15C,Blue F-15C #001,us,=36=Merlin,0.000117301940917969,0,3.44647106532688e-07,15.5896215438843,2.58962154388428,0,-0.000117301940917969,NaN,NaN,0,0.0242283218322616,NaN,0.999986171723233,0.00523596412027094,0,6.87987267156132e-10,15.2881962113333,15.2881962120213,,,3.54999995231628,13,0,0.000351905750981847
2018-07-19T08:01:38Z,1531987298,107,42.0483309,42.2443055,15.59,0.3,0,55.1,647264.5,-281395.44,48.9,Air+FixedWing,Blue,Enemies,F-15C,Blue F-15C #001,us,=36=Merlin,0.000117301940917969,0,3.44647106077276e-07,15.5895042419434,2.58950424194336,0,-0.000117301940917969,NaN,NaN,0,0.0242283218322616,NaN,0.999986171723233,0.00523596412027094,0,6.87987267156132e-10,15.2880811774254,15.2880811781134,,,4.54999995231628,13,0,0.000469208217994182
2018-07-19T08:01:39Z,1531987299,107,42.0483309,42.2443055,15.59,0.3,0,55.1,647264.5,-281395.44,48.9,Air+FixedWing,Blue,Enemies,F-15C,Blue F-15C #001,us,=36=Merlin,0.000117301940917969,0,3.44647105621863e-07,15.5893869400024,2.58938694000244,0,-0.000117301940917969,NaN,NaN,0,0.0242283218322616,NaN,0.999986074476885,0.00523596361108554,0,6.87987267156132e-10,15.2879661435175,15.2879661442055,,,5.54999995231628,13,0,0.000586510429022524
2018-07-19T08:01:40Z,1531987300,107,42.0483309,42.2443055,15.59,0.3,0,55.1,647264.5,-281395.44,48.9,Air+FixedWing,Blue,Enemies,F-15C,Blue F-15C #001,us,=36=Merlin,0.000118255615234375,0,3.47449114147811e-07,15.5892686843872,2.58926868438721,0,-0.000118255615234375,NaN,NaN,0,0.0242283218322616,NaN,0.999986268969581,0.00523596462945634,0,6.99219526723027e-10,15.2878501743746,15.2878501750738,,,6.54999995231628,13,0,0.000704766223748109
2018-07-19T08:01:41Z,1531987301,107,42.0483309,42.2443055,15.59,0.3,0,55.1,647264.5,-281395.44,48.9,Air+FixedWing,Blue,Enemies,F-15C,Blue F-15C #001,us,=36=Merlin,0.000117301940917969,0,3.44647104707336e-07,15.5891513824463,2.58915138244629,0,-0.000117301940917969,NaN,NaN,0,0.0242283218322616,NaN,0.999986171723233,0.00523596412027094,0,6.87987267156132e-10,15.2877351404667,15.2877351411547,,,7.54999995231628,13,0,0.000822067321790683
2018-07-19T08:01:42Z,1531987302,107,42.0483309,42.2443055,15.59,0.3,0,55.1,647264.5,-281395.44,48.9,Air+FixedWing,Blue,Enemies,F-15C,Blue F-15C #001,us,=36=Merlin,0.000117301940917969,0,3.44647104251924e-07,15.5890340805054,2.58903408050537,0,-0.000117301940917969,NaN,NaN,0,0.0242283218322616,NaN,0.999986171723233,0.00523596412027094,0,6.87987267156132e-10,15.2876201065588,15.2876201072468,,,8.54999995231628,13,0,0.000939369301939847
2018-07-19T08:01:43Z,1531987303,107,42.0483309,42.2443055,15.59,0.3,0,55.1,647264.5,-281395.44,48.9,Air+FixedWing,Blue,Enemies,F-15C,Blue F-15C #001,us,=36=Merlin,0.000117301940917969,0,3.44647103796511e-07,15.5889167785645,2.58891677856445,0,-0.000117301940917969,NaN,NaN,0,0.0242283218322616,NaN,0.999986171723233,0.00523596412027094,0,6.87987267156132e-10,15.2875050726509,15.2875050733389,,,9.54999995231628,13,0,0.00105667199983225
2018-07-19T08:01:44Z,1531987304,107,42.0483309,42.2443055,15.59,0.3,0,55.1,647264.5,-281395.44,48.9,Air+FixedWing,Blue,Enemies,F-15C,Blue F-15C #001,us,=36=Merlin,0.000117301940917969,0,3.44647103341099e-07,15.5887994766235,2.58879947662354,0,-0.000117301940917969,NaN,NaN,0,0.0242283218322616,NaN,0.999986171723233,0.00523596412027094,0,6.87987267156132e-10,15.287390038743,15.287390039431,,,10.5499999523163,13,0,0.00117397372399821
2018-07-19T08:01:45Z,1531987305,107,42.0483309,42.2443055,15.59,0.3,0,55.1,647264.5,-281395.44,48.9,Air+FixedWing,Blue,Enemies,F-15C,Blue F-15C #001,us,=36=Merlin,0.000117301940917969,0,3.44647102885686e-07,15.5886821746826,2.58868217468262,0,-0.000117301940917969,NaN,NaN,0,0.0242283218322616,NaN,0.999986171723233,0.00523596412027094,0,6.87987267156132e-10,15.2872750048351,15.2872750055231,,,11.5499999523163,13,0,0.00129127505292169
2018-07-19T08:01:46Z,1531987306,107,42.0483309,42.2443055,15.59,0.3,0,55.1,647264.5,-281395.44,48.9,Air+FixedWing,Blue,Enemies,F-15C,Blue F-15C #001,us,=36=Merlin,0.000117301940917969,0,3.44647102430274e-07,15.5885648727417,2.5885648727417,0,-0.000117301940917969,NaN,NaN,0,0.0242283218322616,NaN,0.999986171723233,0.00523596412027094,0,6.87987267156132e-10,15.2871599709272,15.2871599716152,,,12.5499999523163,13,0,0.00140857751993403
2018-07-19T08:01:47Z,1531987307,107,42.0483309,42.2443055,15.59,0.3,0,55.1,647264.5,-281395.44,48.9,Air+FixedWing,Blue,Enemies,F-15C,Blue F-15C #001,us,=36=Merlin,0.000117301940917969,0,3.44647101974861e-07,15.5884475708008,2.58844757080078,0,-0.000117301940917969,NaN,NaN,0,0.0242283218322616,NaN,0.999986171723233,0.00523596412027094,0,6.87987267156132e-10,15.2870449370193,15.2870449377073,,,13.5499999523163,13,0,0.00152587947497967
2018-07-19T08:01:48Z,1531987308,107,42.0483309,42.2443055,15.59,0.3,0,55.1,647264.5,-281395.44,48.9,Air+FixedWing,Blue,Enemies,F-15C,Blue F-15C #001,us,=36=Merlin,0.000117301940917969,0,3.44647101519449e-07,15.5883302688599,2.58833026885986,0,-0.000117301940917969,NaN,NaN,0,0.0242283218322616,NaN,0.999986171723233,0.00523596412027094,0,6.87987267156132e-10,15.2869299031115,15.2869299037994,,,14.5499999523163,13,0,0.00164318131587259
2018-07-19T08:01:49Z,1531987309,107,42.0483309,42.2443055,15.59,0.3,0,55.1,647264.5,-281395.44,48.9,Air+FixedWing,Blue,Enemies,F-15C,Blue F-15C #001,us,=36=Merlin,0.000117301940917969,0,3.44647101064037e-07,15.5882129669189,2.58821296691895,0,-0.000117301940917969,NaN,NaN,0,0.0242283218322616,NaN,0.999986171723233,0.00523596412027094,0,6.87987267156132e-10,15.2868148692036,15.2868148698916,,,15.5499999523163,13,0,0.00176048352690093
2018-07-19T08:01:50Z,1531987310,107,42.0483309,42.2443055,15.59,0.3,0,55.1,647264.5,-281395.44,48.9,Air+FixedWing,Blue,Enemies,F-15C,Blue F-15C #001,us,=36=Merlin,0.000117301940917969,0,3.44647100608624e-07,15.588095664978,2.58809566497803,0,-0.000117301940917969,NaN,NaN,0,0.0242283218322616,NaN,0.999986171723233,0.00523596412027094,0,6.87987267156132e-10,15.2866998352957,15.2866998359837,,,16.5499999523163,13,0,0.00187778525106688
2018-07-19T08:01:51Z,1531987311,107,42.0483309,42.2443055,15.59,0.3,0,55.1,647264.5,-281395.44,48.9,Air+FixedWing,Blue,Enemies,F-15C,Blue F-15C #001,us,=36=Merlin,0.000117301940917969,0,3.44647100153212e-07,15.5879783630371,2.58797836303711,0,-0.000117301940917969,NaN,NaN,0,0.0242283218322616,NaN,0.999986171723233,0.00523596412027094,0,6.87987267156132e-10,15.2865848013878,15.2865848020758,,,17.5499999523163,13,0,0.0019950873228411
2018-07-19T08:01:52Z,1531987312,107,42.0483309,42.2443055,15.59,0.3,0,55.1,647264.5,-281395.44,48.9,Air+FixedWing,Blue,Enemies,F-15C,Blue F-15C #001,us,=36=Merlin,0.000117301940917969,0,3.44647099697799e-07,15.5878610610962,2.58786106109619,0,-0.000117301940917969,NaN,NaN,0,0.0242283218322616,NaN,0.999986074476885,0.00523596361108554,0,6.87987267156132e-10,15.2864697674799,15.2864697681679,,,18.5499999523163,13,0,0.00211238904700706
2018-07-19T08:01:53Z,1531987313,107,42.0483309,42.2443055,15.59,0.3,0,55.1,647264.5,-281395.44,48.9,Air+FixedWing,Blue,Enemies,F-15C,Blue F-15C #001,us,=36=Merlin,0.000118255615234375,0,3.47449108175584e-07,15.587742805481,2.58774280548096,0,-0.000118255615234375,NaN,NaN,0,0.0242283218322616,NaN,0.999986268969581,0.00523596462945634,0,6.99219526723027e-10,15.286353798337,15.2863537990362,,,19.5499999523163,13,0,0.0022306443548685
2018-07-19T08:01:54Z,1531987314,107,42.0483309,42.2443055,15.59,0.3,0,55.1,647264.5,-281395.44,48.9,Air+FixedWing,Blue,Enemies,F-15C,Blue F-15C #001,us,=36=Merlin,0.000117301940917969,0,3.44647098783272e-07,15.58762550354,2.58762550354004,0,-0.000117301940917969,NaN,NaN,0,0.0242283218322616,NaN,0.999986171723233,0.00523596412027094,0,6.87987267156132e-10,15.2862387644291,15.2862387651171,,,20.5499999523163,13,0,0.00234794682188083
2018-07-19T08:01:55Z,1531987315,107,42.0483309,42.2443055,15.59,0.3,0,55.1,647264.5,-281395.44,48.9,Air+FixedWing,Blue,Enemies,F-15C,Blue F-15C #001,us,=36=Merlin,0.000117301940917969,0,3.4464709832786e-07,15.5875082015991,2.58750820159912,0,-0.000117301940917969,NaN,NaN,0,0.0242283218322616,NaN,0.999986171723233,0.00523596412027094,0,6.87987267156132e-10,15.2861237305212,15.2861237312092,,,21.5499999523163,13,0,0.00246524815080432
2018-07-19T08:01:56Z,1531987316,107,42.0483309,42.2443055,15.59,0.3,0,55.1,647264.5,-281395.44,48.9,Air+FixedWing,Blue,Enemies,F-15C,Blue F-15C #001,us,=36=Merlin,0.000117301940917969,0,3.44647097872447e-07,15.5873908996582,2.5873908996582,0,-0.000117301940917969,NaN,NaN,0,0.0242283218322616,NaN,0.999986171723233,0.00523596412027094,0,6.87987267156132e-10,15.2860086966133,15.2860086973013,,,22.5499999523163,13,0,0.00258255061781666
2018-07-19T08:01:57Z,1531987317,107,42.0483309,42.2443055,15.59,0.3,0,55.1,647264.5,-281395.44,48.9,Air+FixedWing,Blue,Enemies,F-15C,Blue F-15C #001,us,=36=Merlin,0.000117301940917969,0,3.44647097417035e-07,15.5872735977173,2.58727359771729,0,-0.000117301940917969,NaN,NaN,0,0.0242283218322616,NaN,0.999986171723233,0.00523596412027094,0,6.87987267156132e-10,15.2858936627054,15.2858936633934,,,23.5499999523163,13,0,0.002699852828845
2018-07-19T08:01:58Z,1531987318,107,42.0483309,42.2443055,15.59,0.3,0,55.1,647264.5,-281395.44,48.9,Air+FixedWing,Blue,Enemies,F-15C,Blue F-15C #001,us,=36=Merlin,0.000117301940917969,0,3.44647096961623e-07,15.5871562957764,2.58715629577637,0,-0.000117301940917969,NaN,NaN,0,0.0242283218322616,NaN,0.999986171723233,0.00523596412027094,0,6.87987267156132e-10,15.2857786287975,15.2857786294855,,,24.5499999523163,13,0,0.00281715392688757
2018-07-19T08:01:59Z,1531987319,107,42.0483309,42.2443055,15.59,0.3,0,55.1,647264.5,-281395.44,48.9,Air+FixedWing,Blue,Enemies,F-15C,Blue F-15C #001,us,=36=Merlin,0.000117301940917969,0,3.4464709650621e-07,15.5870389938354,2.58703899383545,0,-0.000117301940917969,NaN,NaN,0,0.0242283218322616,NaN,0.999986171723233,0.00523596412027094,0,6.87987267156132e-10,15.2856635948896,15.2856635955776,,,25.5499999523163,13,0,0.00293445662477997
2018-07-19T08:02:00Z,1531987320,107,42.0483309,42.2443055,15.59,0.3,0,55.1,647264.5,-281395.44,48.9,Air+FixedWing,Blue,Enemies,F-15C,Blue F-15C #001,us,=36=Merlin,0.000117301940917969,0,3.44647096050798e-07,15.5869216918945,2.58692169189453,0,-0.000117301940917969,NaN,NaN,0,0.0242283218322616,NaN,0.999986171723233,0.00523596412027094,0,6.87987267156132e-10,15.2855485609818,15.2855485616697,,,26.5499999523163,13,0,0.00305175834894593
2018-07-19T08:02:01Z,1531987321,107,42.0483309,42.2443055,15.59,0.3,0,55.1,647264.5,-281395.44,48.9,Air+FixedWing,Blue,Enemies,F-15C,Blue F-15C #001,us,=36=Merlin,0.000117301940917969,0,3.44647095595385e-07,15.5868043899536,2.58680438995361,0,-0.000117301940917969,NaN,NaN,0,0.0242283218322616,NaN,0.999986171723233,0.00523596412027094,0,6.87987267156132e-10,15.2854335270739,15.2854335277618,,,27.5499999523163,13,0,0.00316905944698851
2018-07-19T08:02:02Z,1531987322,107,42.0483309,42.2443055,15.59,0.3,0,55.1,647264.5,-281395.44,48.9,Air+FixedWing,Blue,Enemies,F-15C,Blue F-15C #001,us,=36=Merlin,0.000117301940917969,0,3.44647095139973e-07,15.5866870880127,2.5866870880127,0,-0.000117301940917969,NaN,NaN,0,0.0242283218322616,NaN,0.999986171723233,0.00523596412027094,0,6.87987267156132e-10,15.285318493166,15.285318493854,,,28.5499999523163,13,0,0.00328636214488091
2018-07-19T08:02:03Z,1531987323,107,42.0483309,42.2443055,15.59,0.3,0,55.1,647264.5,-281395.44,48.9,Air+FixedWing,Blue,Enemies,F-15C,Blue F-15C #001,us,=36=Merlin,0.000117301940917969,0,3.44647094684561e-07,15.5865697860718,2.58656978607178,0,-0.000117301940917969,NaN,NaN,0,0.0242283218322616,NaN,0.999986171723233,0.00523596412027094,0,6.87987267156132e-10,15.2852034592581,15.2852034599461,,,29.5499999523163,13,0,0.00340366412503007
2018-07-19T08:02:04Z,1531987324,107,42.0483309,42.2443055,15.59,0.3,0,55.1,647264.5,-281395.44,48.9,Air+FixedWing,Blue,Enemies,F-15C,Blue F-15C #001,us,=36=Merlin,0.000117301940917969,0,3.44647094229148e-07,15.5864524841309,2.58645248413086,0,-0.000117301940917969,NaN,NaN,0,0.0242283218322616,NaN,0.999986171723233,0.00523596412027094,0,6.87987267156132e-10,15.2850884253502,15.2850884260382,,,30.5499999523163,13,0,0.00352096545395356
2018-07-19T08:02:05Z,1531987325,107,42.0483309,42.2443055,15.59,0.3,0,55.1,647264.5,-281395.44,48.9,Air+FixedWing,Blue,Enemies,F-15C,Blue F-15C #001,us,=36=Merlin,0.000117301940917969,0,3.44647093773736e-07,15.5863351821899,2.58633518218994,0,-0.000117301940917969,NaN,NaN,0,0.0242283218322616,NaN,0.999986074476885,0.00523596361108554,0,6.87987267156132e-10,15.2849733914423,15.2849733921303,,,31.5499999523163,13,0,0.0036382679209659
2018-07-19T08:02:06Z,1531987326,107,42.0483309,42.2443055,15.59,0.3,0,55.1,647264.5,-281395.44,48.9,Air+FixedWing,Blue,Enemies,F-15C,Blue F-15C #001,us,=36=Merlin,0.000118255615234375,0,3.47449102203358e-07,15.5862169265747,2.58621692657471,0,-0.000118255615234375,NaN,NaN,0,0.0242283218322616,NaN,0.999986268969581,0.00523596462945634,0,6.99219526723027e-10,15.2848574222994,15.2848574229986,,,32.5499999523163,13,0,0.00375652322882734
2018-07-19T08:02:07Z,1531987327,107,42.0483309,42.2443055,15.59,0.3,0,55.1,647264.5,-281395.44,48.9,Air+FixedWing,Blue,Enemies,F-15C,Blue F-15C #001,us,=36=Merlin,0.000117301940917969,0,3.44647092859209e-07,15.5860996246338,2.58609962463379,0,-0.000117301940917969,NaN,NaN,0,0.0242283218322616,NaN,0.999986171723233,0.00523596412027094,0,6.87987267156132e-10,15.2847423883915,15.2847423890795,,,33.5499999523163,13,0,0.00387382592671974
2018-07-19T08:02:08Z,1531987328,107,42.0483309,42.2443055,15.59,0.3,0,55.1,647264.5,-281395.44,48.9,Air+FixedWing,Blue,Enemies,F-15C,Blue F-15C #001,us,=36=Merlin,0.000117301940917969,0,3.44647092403796e-07,15.5859823226929,2.58598232269287,0,-0.000117301940917969,NaN,NaN,0,0.0242283218322616,NaN,0.999986171723233,0.00523596412027094,0,6.87987267156132e-10,15.2846273544836,15.2846273551716,,,34.5499999523163,13,0,0.00399112765088569
2018-07-19T08:02:09Z,1531987329,107,42.0483309,42.2443055,15.59,0.3,0,55.1,647264.5,-281395.44,48.9,Air+FixedWing,Blue,Enemies,F-15C,Blue F-15C #001,us,=36=Merlin,0.000117301940917969,0,3.44647091948384e-07,15.585865020752,2.58586502075195,0,-0.000117301940917969,NaN,NaN,0,0.0242283218322616,NaN,0.999986171723233,0.00523596412027094,0,6.87987267156132e-10,15.2845123205757,15.2845123212637,,,35.5499999523163,13,0,0.00410842874892827
2018-07-19T08:02:10Z,1531987330,107,42.0483309,42.2443055,15.59,0.3,0,55.1,647264.5,-281395.44,48.9,Air+FixedWing,Blue,Enemies,F-15C,Blue F-15C #001,us,=36=Merlin,0.000117301940917969,0,3.44647091492972e-07,15.585747718811,2.58574771881104,0,-0.000117301940917969,NaN,NaN,0,0.0242283218322616,NaN,0.999986171723233,0.00523596412027094,0,6.87987267156132e-10,15.2843972866678,15.2843972873558,,,36.5499999523163,13,0,0.00422573144682067
2018-07-19T08:02:11Z,1531987331,107,42.0483309,42.2443055,15.59,0.3,0,55.1,647264.5,-281395.44,48.9,Air+FixedWing,Blue,Enemies,F-15C,Blue F-15C #001,us,=36=Merlin,0.000117301940917969,0,3.44647091037559e-07,15.5856304168701,2.58563041687012,0,-0.000117301940917969,NaN,NaN,0,0.0242283218322616,NaN,0.999986171723233,0.00523596412027094,0,6.87987267156132e-10,15.2842822527599,15.2842822534479,,,37.5499999523163,13,0,0.00434303342696984
2018-07-19T08:02:12Z,1531987332,107,42.0483309,42.2443055,15.59,0.3,0,55.1,647264.5,-281395.44,48.9,Air+FixedWing,Blue,Enemies,F-15C,Blue F-15C #001,us,=36=Merlin,0.000117301940917969,0,3.44647090582147e-07,15.5855131149292,2.5855131149292,0,-0.000117301940917969,NaN,NaN,0,0.0242283218322616,NaN,0.999986171723233,0.00523596412027094,0,6.87987267156132e-10,15.284167218852,15.28416721954,,,38.5499999523163,13,0,0.00446033475589332
2018-07-19T08:02:13Z,1531987333,107,42.0483309,42.2443055,15.59,0.3,0,55.1,647264.5,-281395.44,48.9,Air+FixedWing,Blue,Enemies,F-15C,Blue F-15C #001,us,=36=Merlin,0.000117301940917969,0,3.44647090126734e-07,15.5853958129883,2.58539581298828,0,-0.000117301940917969,NaN,NaN,0,0.0242283218322616,NaN,0.999986171723233,0.00523596412027094,0,6.87987267156132e-10,15.2840521849442,15.2840521856321,,,39.5499999523163,13,0,0.00457763722290566
2018-07-19T08:02:14Z,1531987334,107,42.0483309,42.2443055,15.59,0.3,0,55.1,647264.5,-281395.44,48.9,Air+FixedWing,Blue,Enemies,F-15C,Blue F-15C #001,us,=36=Merlin,0.000117301940917969,0,3.44647089671322e-07,15.5852785110474,2.58527851104736,0,-0.000117301940917969,NaN,NaN,0,0.0242283218322616,NaN,0.999986171723233,0.00523596412027094,0,6.87987267156132e-10,15.2839371510363,15.2839371517242,,,40.5499999523163,13,0,0.0046949391779513
2018-07-19T08:02:15Z,1531987335,107,42.0483309,42.2443055,15.59,0.3,0,55.1,647264.5,-281395.44,48.9,Air+FixedWing,Blue,Enemies,F-15C,Blue F-15C #001,us,=36=Merlin,0.000117301940917969,0,3.4464708921591e-07,15.5851612091064,2.58516120910645,0,-0.000117301940917969,NaN,NaN,0,0.0242283218322616,NaN,0.999986171723233,0.00523596412027094,0,6.87987267156132e-10,15.2838221171284,15.2838221178164,,,41.5499999523163,13,0,0.00481224101884422
2018-07-19T08:02:16Z,1531987336,107,42.0483309,42.2443055,15.59,0.3,0,55.1,647264.5,-281395.44,48.9,Air+FixedWing,Blue,Enemies,F-15C,Blue F-15C #001,us,=36=Merlin,0.000117301940917969,0,3.44647088760497e-07,15.5850439071655,2.58504390716553,0,-0.000117301940917969,NaN,NaN,0,0.0242283218322616,NaN,0.999986171723233,0.00523596412027094,0,6.87987267156132e-10,15.2837070832205,15.2837070839085,,,42.5499999523163,13,0,0.00492954297388985
2018-07-19T08:02:17Z,1531987337,107,42.0483309,42.2443055,15.58,0.3,0,55.1,647264.5,-281395.44,48.9,Air+FixedWing,Blue,Enemies,F-15C,Blue F-15C #001,us,=36=Merlin,0.000117301940917969,0,3.44647088305085e-07,15.5849266052246,2.58492660522461,0,-0.000117301940917969,NaN,NaN,0,0.0242283218322616,NaN,0.999986074476885,0.00523596361108554,0,6.87987267156132e-10,15.2835920493126,15.2835920500006,,,43.5499999523163,13,0,0.00504684495403902
2018-07-19T08:02:18Z,1531987338,107,42.0483309,42.2443055,15.58,0.3,0,55.1,647264.5,-281395.44,48.9,Air+FixedWing,Blue,Enemies,F-15C,Blue F-15C #001,us,=36=Merlin,0.000118255615234375,0,3.47449096690246e-07,15.5848083496094,2.58480834960938,0,-0.000118255615234375,NaN,NaN,0,0.0242283218322616,NaN,0.999986268969581,0.00523596462945634,0,6.99219526723027e-10,15.2834760801697,15.2834760808689,,,44.5499999523163,13,0,0.0051651007487646
2018-07-19T08:02:19Z,1531987339,107,42.0483309,42.2443055,15.58,0.3,0,55.1,647264.5,-281395.44,48.9,Air+FixedWing,Blue,Enemies,F-15C,Blue F-15C #001,us,=36=Merlin,0.000117301940917969,0,3.44647087390558e-07,15.5846910476685,2.58469104766846,0,-0.000117301940917969,NaN,NaN,0,0.0242283218322616,NaN,0.999986171723233,0.00523596412027094,0,6.87987267156132e-10,15.2833610462618,15.2833610469498,,,45.5499999523163,13,0,0.00528240272891377
2018-07-19T08:02:20Z,1531987340,107,42.0483309,42.2443055,15.58,0.3,0,55.1,647264.5,-281395.44,48.9,Air+FixedWing,Blue,Enemies,F-15C,Blue F-15C #001,us,=36=Merlin,0.000117301940917969,0,3.44647086935146e-07,15.5845737457275,2.58457374572754,0,-0.000117301940917969,NaN,NaN,0,0.0242283218322616,NaN,0.999986171723233,0.00523596412027094,0,6.87987267156132e-10,15.2832460123539,15.2832460130419,,,46.5499999523163,13,0,0.00539970454470313
2018-07-19T08:02:21Z,1531987341,107,42.0483309,42.2443055,15.58,0.3,0,55.1,647264.5,-281395.44,48.9,Air+FixedWing,Blue,Enemies,F-15C,Blue F-15C #001,us,=36=Merlin,0.000117301940917969,0,3.44647086479733e-07,15.5844564437866,2.58445644378662,0,-0.000117301940917969,NaN,NaN,0,0.0242283218322616,NaN,0.999986171723233,0.00523596412027094,0,6.87987267156132e-10,15.283130978446,15.283130979134,,,47.5499999523163,13,0,0.00551700652485229
2018-07-19T08:02:22Z,1531987342,107,42.0483309,42.2443055,15.58,0.3,0,55.1,647264.5,-281395.44,48.9,Air+FixedWing,Blue,Enemies,F-15C,Blue F-15C #001,us,=36=Merlin,0.000117301940917969,0,3.44647086024321e-07,15.5843391418457,2.5843391418457,0,-0.000117301940917969,NaN,NaN,0,0.0242283218322616,NaN,0.999986171723233,0.00523596412027094,0,6.87987267156132e-10,15.2830159445381,15.2830159452261,,,48.5499999523163,13,0,0.00563430847989793
2018-07-19T08:02:23Z,1531987343,107,42.0483309,42.2443055,15.58,0.3,0,55.1,647264.5,-281395.44,48.9,Air+FixedWing,Blue,Enemies,F-15C,Blue F-15C #001,us,=36=Merlin,0.000117301940917969,0,3.44647085568908e-07,15.5842218399048,2.58422183990479,0,-0.000117301940917969,NaN,NaN,0,0.0242283218322616,NaN,0.999986171723233,0.00523596412027094,0,6.87987267156132e-10,15.2829009106302,15.2829009113182,,,49.5499999523163,13,0,0.00575161032079085
2018-07-19T08:02:24Z,1531987344,107,42.0483309,42.2443055,15.58,0.3,0,55.1,647264.5,-281395.44,48.9,Air+FixedWing,Blue,Enemies,F-15C,Blue F-15C #001,us,=36=Merlin,0.000117301940917969,0,3.44647085113496e-07,15.5841045379639,2.58410453796387,0,-0.000117301940917969,NaN,NaN,0,0.0242283218322616,NaN,0.999986171723233,0.00523596412027094,0,6.87987267156132e-10,15.2827858767223,15.2827858774103,,,50.5499999523163,13,0,0.00586891227583649
2018-07-19T08:02:25Z,1531987345,107,42.0483309,42.2443055,15.58,0.3,0,55.1,647264.5,-281395.44,48.9,Air+FixedWing,Blue,Enemies,F-15C,Blue F-15C #001,us,=36=Merlin,0.000117301940917969,0,3.44647084658084e-07,15.5839872360229,2.58398723602295,0,-0.000117301940917969,NaN,NaN,0,0.0242283218322616,NaN,0.999986171723233,0.00523596412027094,0,6.87987267156132e-10,15.2826708428144,15.2826708435024,,,51.5499999523163,13,0,0.00598621425598565
2018-07-19T08:02:26Z,1531987346,107,42.0483309,42.2443055,15.58,0.3,0,55.1,647264.5,-281395.44,48.9,Air+FixedWing,Blue,Enemies,F-15C,Blue F-15C #001,us,=36=Merlin,0.000117301940917969,0,3.44647084202671e-07,15.583869934082,2.58386993408203,0,-0.000117301940917969,NaN,NaN,0,0.0242283218322616,NaN,0.999986171723233,0.00523596412027094,0,6.87987267156132e-10,15.2825558089066,15.2825558095945,,,52.5499999523163,13,0,0.00610351607177501
2018-07-19T08:02:27Z,1531987347,107,42.0483309,42.2443055,15.58,0.3,0,55.1,647264.5,-281395.44,48.9,Air+FixedWing,Blue,Enemies,F-15C,Blue F-15C #001,us,=36=Merlin,0.000117301940917969,0,3.44647083747259e-07,15.5837526321411,2.58375263214111,0,-0.000117301940917969,NaN,NaN,0,0.0242283218322616,NaN,0.999986171723233,0.00523596412027094,0,6.87987267156132e-10,15.2824407749987,15.2824407756867,,,53.5499999523163,13,0,0.00622081805192418
2018-07-19T08:02:28Z,1531987348,107,42.0483309,42.2443055,15.58,0.3,0,55.1,647264.5,-281395.44,48.9,Air+FixedWing,Blue,Enemies,F-15C,Blue F-15C #001,us,=36=Merlin,0.000117301940917969,0,3.44647083291847e-07,15.5836353302002,2.5836353302002,0,-0.000117301940917969,NaN,NaN,0,0.0242283218322616,NaN,0.999986171723233,0.00523596412027094,0,6.87987267156132e-10,15.2823257410908,15.2823257417788,,,54.5499999523163,13,0,0.00633811977609013
2018-07-19T08:02:29Z,1531987349,107,42.0483309,42.2443055,15.58,0.3,0,55.1,647264.5,-281395.44,48.9,Air+FixedWing,Blue,Enemies,F-15C,Blue F-15C #001,us,=36=Merlin,0.000117301940917969,0,3.44647082836434e-07,15.5835180282593,2.58351802825928,0,-0.000117301940917969,NaN,NaN,0,0.0242283218322616,NaN,0.999986171723233,0.00523596412027094,0,6.87987267156132e-10,15.2822107071829,15.2822107078709,,,55.5499999523163,13,0,0.00645542184786435
2018-07-19T08:02:30Z,1531987350,107,42.0483309,42.2443055,15.58,0.3,0,55.1,647264.5,-281395.44,48.9,Air+FixedWing,Blue,Enemies,F-15C,Blue F-15C #001,us,=36=Merlin,0.000117301940917969,0,3.44647082381022e-07,15.5834007263184,2.58340072631836,0,-0.000117301940917969,NaN,NaN,0,0.0242283218322616,NaN,0.999986074476885,0.00523596361108554,0,6.87987267156132e-10,15.282095673275,15.282095673963,,,56.5499999523163,13,0,0.00657272357203031
2018-07-19T08:02:31Z,1531987351,107,42.0483309,42.2443055,15.58,0.3,0,55.1,647264.5,-281395.44,48.9,Air+FixedWing,Blue,Enemies,F-15C,Blue F-15C #001,us,=36=Merlin,0.000118255615234375,0,3.4744909071802e-07,15.5832824707031,2.58328247070312,0,-0.000118255615234375,NaN,NaN,0,0.0242283218322616,NaN,0.999986268969581,0.00523596462945634,0,6.99219526723027e-10,15.2819797041321,15.2819797048313,,,57.5499999523163,13,0,0.0066909796227404
2018-07-19T08:02:32Z,1531987352,107,42.0483309,42.2443055,15.58,0.3,0,55.1,647264.5,-281395.44,48.9,Air+FixedWing,Blue,Enemies,F-15C,Blue F-15C #001,us,=36=Merlin,0.000117301940917969,0,3.44647081466495e-07,15.5831651687622,2.58316516876221,0,-0.000117301940917969,NaN,NaN,0,0.0242283218322616,NaN,0.999986171723233,0.00523596412027094,0,6.87987267156132e-10,15.2818646702242,15.2818646709122,,,58.5499999523163,13,0,0.00680828157778603
2018-07-19T08:02:33Z,1531987353,107,42.0483309,42.2443055,15.58,0.3,0,55.1,647264.5,-281395.44,48.9,Air+FixedWing,Blue,Enemies,F-15C,Blue F-15C #001,us,=36=Merlin,0.000117301940917969,0,3.44647081011083e-07,15.5830478668213,2.58304786682129,0,-0.000117301940917969,NaN,NaN,0,0.0242283218322616,NaN,0.999986171723233,0.00523596412027094,0,6.87987267156132e-10,15.2817496363163,15.2817496370043,,,59.5499999523163,13,0,0.00692558267582861
2018-07-19T08:02:34Z,1531987354,107,42.0483309,42.2443055,15.58,0.3,0,55.1,647264.5,-281395.44,48.9,Air+FixedWing,Blue,Enemies,F-15C,Blue F-15C #001,us,=36=Merlin,0.000117301940917969,0,3.4464708055567e-07,15.5829305648804,2.58293056488037,0,-0.000117301940917969,NaN,NaN,0,0.0242283218322616,NaN,0.999986171723233,0.00523596412027094,0,6.87987267156132e-10,15.2816346024084,15.2816346030964,,,60.5499999523163,13,0,0.00704288537372101
2018-07-19T08:02:35Z,1531987355,107,42.0483309,42.2443055,15.58,0.3,0,55.1,647264.5,-281395.44,48.9,Air+FixedWing,Blue,Enemies,F-15C,Blue F-15C #001,us,=36=Merlin,0.000117301940917969,0,3.44647080100258e-07,15.5828132629395,2.58281326293945,0,-0.000117301940917969,NaN,NaN,0,0.0242283218322616,NaN,0.999986171723233,0.00523596412027094,0,6.87987267156132e-10,15.2815195685005,15.2815195691885,,,61.5499999523163,13,0,0.00716018735387018
2018-07-19T08:02:36Z,1531987356,107,42.0483309,42.2443055,15.58,0.3,0,55.1,647264.5,-281395.44,48.9,Air+FixedWing,Blue,Enemies,F-15C,Blue F-15C #001,us,=36=Merlin,0.000117301940917969,0,3.44647079644846e-07,15.5826959609985,2.58269596099854,0,-0.000117301940917969,NaN,NaN,0,0.0242283218322616,NaN,0.999986171723233,0.00523596412027094,0,6.87987267156132e-10,15.2814045345926,15.2814045352806,,,62.5499999523163,13,0,0.00727748845191275
2018-07-19T08:02:37Z,1531987357,107,42.0483309,42.2443055,15.58,0.3,0,55.1,647264.5,-281395.44,48.9,Air+FixedWing,Blue,Enemies,F-15C,Blue F-15C #001,us,=36=Merlin,0.000117301940917969,0,3.44647079189433e-07,15.5825786590576,2.58257865905762,0,-0.000117301940917969,NaN,NaN,0,0.0242283218322616,NaN,0.999986171723233,0.00523596412027094,0,6.87987267156132e-10,15.2812895006847,15.2812895013727,,,63.5499999523163,13,0,0.00739479114980515
2018-07-19T08:02:38Z,1531987358,107,42.0483309,42.2443055,15.58,0.3,0,55.1,647264.5,-281395.44,48.9,Air+FixedWing,Blue,Enemies,F-15C,Blue F-15C #001,us,=36=Merlin,0.000117301940917969,0,3.44647078734021e-07,15.5824613571167,2.5824613571167,0,-0.000117301940917969,NaN,NaN,0,0.0242283218322616,NaN,0.999986171723233,0.00523596412027094,0,6.87987267156132e-10,15.2811744667768,15.2811744674648,,,64.5499999523163,13,0,0.00751209287397111
2018-07-19T08:02:39Z,1531987359,107,42.0483309,42.2443055,15.58,0.3,0,55.1,647264.5,-281395.44,48.9,Air+FixedWing,Blue,Enemies,F-15C,Blue F-15C #001,us,=36=Merlin,0.000117301940917969,0,3.44647078278609e-07,15.5823440551758,2.58234405517578,0,-0.000117301940917969,NaN,NaN,0,0.0242283218322616,NaN,0.999986171723233,0.00523596412027094,0,6.87987267156132e-10,15.281059432869,15.2810594335569,,,65.5499999523163,13,0,0.00762939494574533
2018-07-19T08:02:40Z,1531987360,107,42.0483309,42.2443055,15.58,0.3,0,55.1,647264.5,-281395.44,48.9,Air+FixedWing,Blue,Enemies,F-15C,Blue F-15C #001,us,=36=Merlin,0.000117301940917969,0,3.44647077823196e-07,15.5822267532349,2.58222675323486,0,-0.000117301940917969,NaN,NaN,0,0.0242283218322616,NaN,0.999986171723233,0.00523596412027094,0,6.87987267156132e-10,15.2809443989611,15.2809443996491,,,66.5499999523163,13,0,0.00774669666991128
2018-07-19T08:02:41Z,1531987361,107,42.0483309,42.2443055,15.58,0.3,0,55.1,647264.5,-281395.44,48.9,Air+FixedWing,Blue,Enemies,F-15C,Blue F-15C #001,us,=36=Merlin,0.000117301940917969,0,3.44647077367784e-07,15.5821094512939,2.58210945129395,0,-0.000117301940917969,NaN,NaN,0,0.0242283218322616,NaN,0.999986171723233,0.00523596412027094,0,6.87987267156132e-10,15.2808293650532,15.2808293657412,,,67.5499999523163,13,0,0.00786399888093963
2018-07-19T08:02:42Z,1531987362,107,42.0483309,42.2443055,15.58,0.3,0,55.1,647264.5,-281395.44,48.9,Air+FixedWing,Blue,Enemies,F-15C,Blue F-15C #001,us,=36=Merlin,0.000117301940917969,0,3.44647076912372e-07,15.581992149353,2.58199214935303,0,-0.000117301940917969,NaN,NaN,0,0.0242283218322616,NaN,0.999986171723233,0.00523596412027094,0,6.87987267156132e-10,15.2807143311453,15.2807143318333,,,68.5499999523163,13,0,0.00798130109196797
2018-07-19T08:02:43Z,1531987363,107,42.0483309,42.2443055,15.58,0.3,0,55.1,647264.5,-281395.44,48.9,Air+FixedWing,Blue,Enemies,F-15C,Blue F-15C #001,us,=36=Merlin,0.000117301940917969,0,3.44647076456959e-07,15.5818748474121,2.58187484741211,0,-0.000117301940917969,NaN,NaN,0,0.0242283218322616,NaN,0.999986074476885,0.00523596361108554,0,6.87987267156132e-10,15.2805992972374,15.2805992979254,,,69.5499999523163,13,0,0.00809860267687553
2018-07-19T08:02:44Z,1531987364,107,42.0483309,42.2443055,15.58,0.3,0,55.1,647264.5,-281395.44,48.9,Air+FixedWing,Blue,Enemies,F-15C,Blue F-15C #001,us,=36=Merlin,0.000118255615234375,0,3.47449084745795e-07,15.5817565917969,2.58175659179688,0,-0.000118255615234375,NaN,NaN,0,0.0242283218322616,NaN,0.999986268969581,0.00523596462945634,0,6.99219526723027e-10,15.2804833280945,15.2804833287937,,,70.5499999523163,13,0,0.00821685775385743
2018-07-19T08:02:45Z,1531987365,107,42.0483309,42.2443055,15.58,0.3,0,55.1,647264.5,-281395.44,48.9,Air+FixedWing,Blue,Enemies,F-15C,Blue F-15C #001,us,=36=Merlin,0.000117301940917969,0,3.44647075542432e-07,15.581639289856,2.58163928985596,0,-0.000117301940917969,NaN,NaN,0,0.0242283218322616,NaN,0.999986171723233,0.00523596412027094,0,6.87987267156132e-10,15.2803682941866,15.2803682948746,,,71.5499999523163,13,0,0.00833416045174983
2018-07-19T08:02:46Z,1531987366,107,42.0483309,42.2443055,15.58,0.3,0,55.1,647264.5,-281395.44,48.9,Air+FixedWing,Blue,Enemies,F-15C,Blue F-15C #001,us,=36=Merlin,0.000117301940917969,0,3.4464707508702e-07,15.581521987915,2.58152198791504,0,-0.000117301940917969,NaN,NaN,0,0.0242283218322616,NaN,0.999986171723233,0.00523596412027094,0,6.87987267156132e-10,15.2802532602787,15.2802532609667,,,72.5499999523163,13,0,0.00845146217591579
2018-07-19T08:02:47Z,1531987367,107,42.0483309,42.2443055,15.58,0.3,0,55.1,647264.5,-281395.44,48.9,Air+FixedWing,Blue,Enemies,F-15C,Blue F-15C #001,us,=36=Merlin,0.000117301940917969,0,3.44647074631608e-07,15.5814046859741,2.58140468597412,0,-0.000117301940917969,NaN,NaN,0,0.0242283218322616,NaN,0.999986171723233,0.00523596412027094,0,6.87987267156132e-10,15.2801382263708,15.2801382270588,,,73.5499999523163,13,0,0.00856876424769
2018-07-19T08:02:48Z,1531987368,107,42.0483309,42.2443055,15.58,0.3,0,55.1,647264.5,-281395.44,48.9,Air+FixedWing,Blue,Enemies,F-15C,Blue F-15C #001,us,=36=Merlin,0.000117301940917969,0,3.44647074176195e-07,15.5812873840332,2.5812873840332,0,-0.000117301940917969,NaN,NaN,0,0.0242283218322616,NaN,0.999986171723233,0.00523596412027094,0,6.87987267156132e-10,15.2800231924629,15.2800231931509,,,74.5499999523163,13,0,0.00868606597185596
2018-07-19T08:02:49Z,1531987369,107,42.0483309,42.2443055,15.58,0.3,0,55.1,647264.5,-281395.44,48.9,Air+FixedWing,Blue,Enemies,F-15C,Blue F-15C #001,us,=36=Merlin,0.000117301940917969,0,3.44647073720783e-07,15.5811700820923,2.58117008209229,0,-0.000117301940917969,NaN,NaN,0,0.0242283218322616,NaN,0.999986171723233,0.00523596412027094,0,6.87987267156132e-10,15.279908158555,15.279908159243,,,75.5499999523163,13,0,0.0088033681828843
2018-07-19T08:02:50Z,1531987370,107,42.0483309,42.2443055,15.58,0.3,0,55.1,647264.5,-281395.44,48.9,Air+FixedWing,Blue,Enemies,F-15C,Blue F-15C #001,us,=36=Merlin,0.000117301940917969,0,3.44647073265371e-07,15.5810527801514,2.58105278015137,0,-0.000117301940917969,NaN,NaN,0,0.0242283218322616,NaN,0.999986171723233,0.00523596412027094,0,6.87987267156132e-10,15.2797931246471,15.2797931253351,,,76.5499999523163,13,0,0.00892066976779186
2018-07-19T08:02:51Z,1531987371,107,42.0483309,42.2443055,15.58,0.3,0,55.1,647264.5,-281395.44,48.9,Air+FixedWing,Blue,Enemies,F-15C,Blue F-15C #001,us,=36=Merlin,0.000117301940917969,0,3.44647072809959e-07,15.5809354782104,2.58093547821045,0,-0.000117301940917969,NaN,NaN,0,0.0242283218322616,NaN,0.999986171723233,0.00523596412027094,0,6.87987267156132e-10,15.2796780907393,15.2796780914272,,,77.5499999523163,13,0,0.0090379719788202
2018-07-19T08:02:52Z,1531987372,107,42.0483309,42.2443055,15.58,0.3,0,55.1,647264.5,-281395.44,48.9,Air+FixedWing,Blue,Enemies,F-15C,Blue F-15C #001,us,=36=Merlin,0.000117301940917969,0,3.44647072354546e-07,15.5808181762695,2.58081817626953,0,-0.000117301940917969,NaN,NaN,0,0.0242283218322616,NaN,0.999986171723233,0.00523596412027094,0,6.87987267156132e-10,15.2795630568314,15.2795630575193,,,78.5499999523163,13,0,0.00915527370298616
2018-07-19T08:02:53Z,1531987373,107,42.0483309,42.2443055,15.58,0.3,0,55.1,647264.5,-281395.44,48.9,Air+FixedWing,Blue,Enemies,F-15C,Blue F-15C #001,us,=36=Merlin,0.000117301940917969,0,3.44647071899134e-07,15.5807008743286,2.58070087432861,0,-0.000117301940917969,NaN,NaN,0,0.0242283218322616,NaN,0.999986171723233,0.00523596412027094,0,6.87987267156132e-10,15.2794480229235,15.2794480236115,,,79.5499999523163,13,0,0.00927257577476038
2018-07-19T08:02:54Z,1531987374,107,42.0483309,42.2443055,15.58,0.3,0,55.1,647264.5,-281395.44,48.9,Air+FixedWing,Blue,Enemies,F-15C,Blue F-15C #001,us,=36=Merlin,0.000117301940917969,0,3.44647071443722e-07,15.5805835723877,2.5805835723877,0,-0.000117301940917969,NaN,NaN,0,0.0242283218322616,NaN,0.999986171723233,0.00523596412027094,0,6.87987267156132e-10,15.2793329890156,15.2793329897036,,,80.5499999523163,13,0,0.00938987749892633
2018-07-19T08:02:55Z,1531987375,107,42.0483309,42.2443055,15.58,0.3,0,55.1,647264.5,-281395.44,48.9,Air+FixedWing,Blue,Enemies,F-15C,Blue F-15C #001,us,=36=Merlin,0.000117301940917969,0,3.4464707098831e-07,15.5804662704468,2.58046627044678,0,-0.000117301940917969,NaN,NaN,0,0.0242283218322616,NaN,0.999986171723233,0.00523596412027094,0,6.87987267156132e-10,15.2792179551077,15.2792179557957,,,81.5499999523163,13,0,0.00950718019681874
2018-07-19T08:02:56Z,1531987376,107,42.0483309,42.2443055,15.58,0.3,0,55.1,647264.5,-281395.44,48.9,Air+FixedWing,Blue,Enemies,F-15C,Blue F-15C #001,us,=36=Merlin,0.000117301940917969,0,3.44647070532897e-07,15.5803489685059,2.58034896850586,0,-0.000117301940917969,NaN,NaN,0,0.0242283218322616,NaN,0.999986074476885,0.00523596361108554,0,6.87987267156132e-10,15.2791029211998,15.2791029218878,,,82.5499999523163,13,0,0.00962448129486131
2018-07-19T08:02:57Z,1531987377,107,42.0483309,42.2443055,15.58,0.3,0,55.1,647264.5,-281395.44,48.9,Air+FixedWing,Blue,Enemies,F-15C,Blue F-15C #001,us,=36=Merlin,0.000118255615234375,0,3.47449078773569e-07,15.5802307128906,2.58023071289062,0,-0.000118255615234375,NaN,NaN,0,0.0242283218322616,NaN,0.999986268969581,0.00523596462945634,0,6.99219526723027e-10,15.2789869520569,15.2789869527561,,,83.5499999523163,13,0,0.00974273748482985
2018-07-19T08:02:58Z,1531987378,107,42.0483309,42.2443055,15.58,0.3,0,55.1,647264.5,-281395.44,48.9,Air+FixedWing,Blue,Enemies,F-15C,Blue F-15C #001,us,=36=Merlin,0.000117301940917969,0,3.4464706961837e-07,15.5801134109497,2.58011341094971,0,-0.000117301940917969,NaN,NaN,0,0.0242283218322616,NaN,0.999986560708625,0.00523596615701254,0,6.87987267156132e-10,15.278871918149,15.278871918837,,,84.5499999523163,13,0,0.0098600390697374
2018-07-19T08:02:59Z,1531987379,107,42.0483309,42.2443055,15.58,0.3,0,55.1,647264.5,-281395.44,48.9,Air+FixedWing,Blue,Enemies,F-15C,Blue F-15C #001,us,=36=Merlin,0.000113487243652344,0,3.33439034407759e-07,15.5799999237061,2.57999992370605,0,-0.000113487243652344,NaN,NaN,0,0.0550717152262136,NaN,1.00101737199769,0.00524136352225848,0,6.43967723590322e-10,15.2787606251812,15.2787606258252,,,85.5499999523163,13,0.00159027654761387,0.0114543627911384
2018-07-19T08:03:00Z,1531987380,107,42.048331,42.2443056,15.59,0.3,-0.1,55.1,647264.5,-281395.44,48.9,Air+FixedWing,Blue,Enemies,F-15C,Blue F-15C #001,us,=36=Merlin,0.00999927520751953,0,2.93790644501496e-05,15.5899991989136,2.58999919891357,0,0.00999927520751953,NaN,NaN,0,0.0550717152262136,NaN,0.997945428613807,0.00522527871613708,-0.00174176920299593,4.99927523378574e-06,15.2885665644026,15.2885715636778,,,86.5499999523163,13,0.0122306995470769,0.0260558914319249
2018-07-19T08:03:01Z,1531987381,107,42.0483309,42.2443056,15.58,0.3,-0.1,55.1,647264.5,-281395.44,48.9,Air+FixedWing,Blue,Enemies,F-15C,Blue F-15C #001,us,=36=Merlin,0.00999927520751953,0,2.93790611408853e-05,15.5799999237061,2.57999992370605,0,-0.00999927520751953,NaN,NaN,0.0247618903405292,0.0197823405926261,NaN,1.00100317453877,0.00545760011152084,-0.00174710803385271,4.99927523378574e-06,15.2787606251812,15.2787656244564,,,87.5499999523163,13,0.0171372888242622,0.0371941232908031
2018-07-19T08:03:02Z,1531987382,107,42.0483309,42.2443055,15.58,0.4,-0.1,55.1,647264.5,-281395.44,48.9,Air+FixedWing,Blue,Enemies,F-15C,Blue F-15C #001,us,=36=Merlin,0,0,0,15.5799999237061,2.57999992370605,0,0,NaN,NaN,0.0800000313968024,0.0279764548403722,NaN,0.999960520081249,0.00938252827116578,0.000931209363408682,0,15.2787606251812,15.2787606251812,,,88.5499999523163,13,0.0268909975009086,0.0469478557012288
2018-07-19T08:03:03Z,1531987383,107,42.0483309,42.2443056,15.58,0.4,-0.1,55.1,647264.5,-281395.41,48.9,Air+FixedWing,Blue,Enemies,F-15C,Blue F-15C #001,us,=36=Merlin,0.03125,0,9.18162208359114e-05,15.5799999237061,2.57999992370605,0.03125,0,NaN,NaN,0.123802034544094,0.0197823405926261,NaN,1.00000028837778,0.00217868663113922,-0.0059349212433649,4.8828125e-05,15.2787606251812,15.2788094533062,,,89.5499999523163,13,0.0380229472596582,0.0580798323412365
2018-07-19T08:03:04Z,1531987384,107,42.0483309,42.2443056,15.58,0.3,-0.1,55.1,647264.5,-281395.44,48.9,Air+FixedWing,Blue,Enemies,F-15C,Blue F-15C #001,us,=36=Merlin,0.03125,0,9.18162208359114e-05,15.5799999237061,2.57999992370605,0.03125,0,NaN,NaN,0.199987938897973,0.0342640208323925,NaN,0.999975697811012,0.00763725639501318,0.00043820812688311,4.8828125e-05,15.2787606251812,15.2788094533062,,,90.5499999523163,13,0.0380229472596582,0.0580798323412365
2018-07-19T08:03:05Z,1531987385,107,42.0483309,42.2443055,15.58,0.3,0,55.1,647264.5,-281395.44,48.9,Air+FixedWing,Blue,Enemies,F-15C,Blue F-15C #001,us,=36=Merlin,0,0,0,15.5799999237061,2.57999992370605,0,0,NaN,NaN,0,0.0550717152262136,NaN,0.999986171723233,0.00523596412027094,0,0,15.2787606251812,15.2787606251812,,,91.5499999523163,13,0.0469285046535017,0.0669854112056758
2018-07-19T08:03:06Z,1531987386,107,42.0483309,42.2443055,15.58,0.3,0,55.1,647264.5,-281395.44,48.9,Air+FixedWing,Blue,Enemies,F-15C,Blue F-15C #001,us,=36=Merlin,0,0,0,15.5799999237061,2.57999992370605,0,0,NaN,NaN,0,0.0242283218322616,NaN,0.999986171723233,0.00523596412027094,0,0,15.2787606251812,15.2787606251812,,,92.5499999523163,13,0.0502680873776453,0.0703250023159071
2018-07-19T08:03:07Z,1531987387,107,42.0483309,42.2443056,15.58,0.3,-0,55.1,647264.5,-281395.44,48.9,Air+FixedWing,Blue,Enemies,F-15C,Blue F-15C #001,us,=36=Merlin,0,0,0,15.5799999237061,2.57999992370605,0,0,NaN,NaN,0,0.0550717152262136,NaN,0.999985873704112,0.00523596255983194,-0.00081812305143103,0,15.2787606251812,15.2787606251812,,,93.5499999523163,13,0.0558340620473454,0.0758909900701151
2018-07-19T08:03:08Z,1531987388,107,42.0483309,42.2443055,15.58,0.3,-0.1,55.1,647264.5,-281395.44,48.9,Air+FixedWing,Blue,Enemies,F-15C,Blue F-15C #001,us,=36=Merlin,0,0,0,15.5799999237061,2.57999992370605,0,0,NaN,NaN,0.136057368266654,0.0550717152262136,NaN,0.999983966373001,0.00537852621648321,-0.00174532842356712,0,15.2787606251812,15.2787606251812,,,94.5499999523163,13,0.066966011806095,0.0870229667101228
2018-07-19T08:03:09Z,1531987389,107,42.0483309,42.2443056,15.58,0.3,-0.1,55.1,647264.5,-281395.44,48.9,Air+FixedWing,Blue,Enemies,F-15C,Blue F-15C #001,us,=36=Merlin,0,0,0,15.5799999237061,2.57999992370605,0,0,NaN,NaN,0,0.0197823405926261,NaN,0.99998468162763,0.00523595631807594,-0.00174532842356712,0,15.2787606251812,15.2787606251812,,,95.5499999523163,13,0.0730036793300324,0.0930606489299293
2018-07-19T08:03:10Z,1531987390,107,42.0483309,42.2443056,15.58,0.3,-0.1,55.1,647264.5,-281395.44,48.9,Air+FixedWing,Blue,Enemies,F-15C,Blue F-15C #001,us,=36=Merlin,0,0,0,15.5799999237061,2.57999992370605,0,0,NaN,NaN,0,0.0197823405926261,NaN,0.99998468162763,0.00523595631807594,-0.00174532842356712,0,15.2787606251812,15.2787606251812,,,96.5499999523163,13,0.0781241031016167,0.0981810852525444
2018-07-19T08:03:11Z,1531987391,107,42.0483309,42.2443056,15.58,0.3,-0.1,55.1,647264.5,-281395.44,48.9,Air+FixedWing,Blue,Enemies,F-15C,Blue F-15C #001,us,=36=Merlin,0,0,0,15.5799999237061,2.57999992370605,0,0,NaN,NaN,0,0.0197823405926261,NaN,0.99998468162763,0.00523595631807594,-0.00174532842356712,0,15.2787606251812,15.2787606251812,,,97.5499999523163,13,0.0808438435882991,0.100900832349846
2018-07-19T08:03:12Z,1531987392,107,42.048331,42.2443056,15.58,0.3,-0.1,55.1,647264.5,-281395.44,48.9,Air+FixedWing,Blue,Enemies,F-15C,Blue F-15C #001,us,=36=Merlin,0,0,0,15.5799999237061,2.57999992370605,0,0,NaN,NaN,0,0.0197823405926261,NaN,0.99998468162763,0.00523595631807594,-0.00174532842356712,0,15.2787606251812,15.2787606251812,,,98.5499999523163,13,0.083563584976711,0.103620580660757
2018-07-19T08:03:13Z,1531987393,107,42.048331,42.2443055,15.58,0.4,-0.1,55.1,647264.5,-281395.44,48.9,Air+FixedWing,Blue,Enemies,F-15C,Blue F-15C #001,us,=36=Merlin,0,0,0,15.5799999237061,2.57999992370605,0,0,NaN,NaN,0.152380986774456,0.0197823405926261,NaN,0.999976873431265,0.00656570594259387,-0.00174532842356712,0,15.2787606251812,15.2787606251812,,,99.5499999523163,13,0.0923473752450484,0.11240439235371
2018-07-19T08:03:14Z,1531987394,107,42.0483309,42.2443055,15.58,0.4,-0.1,55.1,647264.5,-281395.44,48.9,Air+FixedWing,Blue,Enemies,F-15C,Blue F-15C #001,us,=36=Merlin,0,0,0,15.5799999237061,2.57999992370605,0,0,NaN,NaN,0.104761815015626,0.0197823405926261,NaN,0.999979496031571,0.00615015930134716,-0.00174532842356712,0,15.2787606251812,15.2787606251812,,,100.549999952316,13,0.101003935578686,0.121060973657239
2018-07-19T08:03:15Z,1531987395,107,42.048331,42.2443056,15.58,0.3,-0.1,55.1,647264.5,-281395.44,48.9,Air+FixedWing,Blue,Enemies,F-15C,Blue F-15C #001,us,=36=Merlin,0,0,0,15.5799999237061,2.57999992370605,0,0,NaN,NaN,0,0.0197823405926261,NaN,0.99998468162763,0.00523595631807594,-0.00174532842356712,0,15.2787606251812,15.2787606251812,,,101.549999952316,13,0.110163331805256,0.130220392760734
2018-07-19T08:03:16Z,1531987396,107,42.0483309,42.2443056,15.58,0.3,-0.1,55.1,647264.5,-281395.44,48.9,Air+FixedWing,Blue,Enemies,F-15C,Blue F-15C #001,us,=36=Merlin,0,0,0,15.5799999237061,2.57999992370605,0,0,NaN,NaN,0,0.0197823405926261,NaN,0.99998468162763,0.00523595631807594,-0.00174532842356712,0,15.2787606251812,15.2787606251812,,,102.549999952316,13,0.114993689612096,0.135050762785351
2018-07-19T08:03:17Z,1531987397,107,42.048331,42.2443056,15.58,0.3,-0.1,55.1,647264.5,-281395.44,48.9,Air+FixedWing,Blue,Enemies,F-15C,Blue F-15C #001,us,=36=Merlin,0,0,0,15.5799999237061,2.57999992370605,0,0,NaN,NaN,0,0.0197823405926261,NaN,0.999547657162007,0.00523366804229562,-0.00174456566070365,0,15.2787606251812,15.2787606251812,,,103.549999952316,13,0.118139038445374,0.13819611954459
2018-07-19T08:03:18Z,1531987398,107,42.048331,42.2443055,15.58,0.4,-0.1,55.1,647264.5,-281395.44,48.9,Air+FixedWing,Blue,Enemies,F-15C,Blue F-15C #001,us,=36=Merlin,0.00428581237792969,0,1.25922264561649e-05,15.5757141113281,2.57571411132812,0,-0.00428581237792969,NaN,NaN,0.25714258834667,0.0197823405926261,NaN,0.998819300327055,0.00506990785448422,-0.00383809079916342,9.18409386940766e-07,15.2745576789856,15.274558597395,,,104.549999952316,13,0.129624987597566,0.150455640993429
2018-07-19T08:03:19Z,1531987399,107,42.048331,42.2443053,15.56,1.1,-0.2,55,647264.5,-281395.47,48.9,Air+FixedWing,Blue,Enemies,F-15C,Blue F-15C #001,us,=36=Merlin,0.0349787446830161,0,0.000102771693529464,15.5599994659424,2.55999946594238,0.03125,-0.0157146453857422,NaN,NaN,1.16189714008921,0.0197823405926261,NaN,1.00234335546852,0.0244662074596705,0.00102306682412651,6.11756289799814e-05,15.2591468762684,15.2592080518974,,,105.549999952316,13,0.151358807331301,0.177275620330196
2018-07-19T08:03:20Z,1531987400,107,42.048331,42.2443054,15.57,0.9,-0.1,55.1,647264.5,-281395.44,48.9,Air+FixedWing,Blue,Enemies,F-15C,Blue F-15C #001,us,=36=Merlin,0.0328110816293688,0,9.64028536760388e-05,15.5699996948242,2.56999969482422,0.03125,0.0100002288818359,NaN,NaN,0.209495562222631,0.0197823405926261,NaN,0.998852836846917,0.0158575073760727,-0.00174354864355236,5.38283538844553e-05,15.2689537507248,15.2690075790787,,,106.549999952316,13,0.160546250801378,0.190855537078426
2018-07-19T08:03:21Z,1531987401,107,42.048331,42.2443056,15.57,0.4,-0.1,55.1,647264.5,-281395.41,48.9,Air+FixedWing,Blue,Enemies,F-15C,Blue F-15C #001,us,=36=Merlin,0.03125,0,9.18162104927281e-05,15.5699996948242,2.56999969482422,0.03125,0,NaN,NaN,0.933331689703902,0.0197823405926261,NaN,1.00001333583227,-0.000222748707767706,-0.00802971765326379,4.8828125e-05,15.2689537507248,15.2690025788498,,,107.549999952316,13,0.185184960860134,0.215494307540322
2018-07-19T08:03:22Z,1531987402,107,42.0483312,42.2443052,15.57,0.9,-0.1,55.1,647264.5,-281395.47,48.9,Air+FixedWing,Blue,Enemies,F-15C,Blue F-15C #001,us,=36=Merlin,0.0625,0,0.000183632420985456,15.5699996948242,2.56999969482422,0.0625,0,NaN,NaN,1.79047133855584,0.0197823405926261,NaN,0.999791503708057,0.02207964226242,0.00453906080612955,0.0001953125,15.2689537507248,15.2691490632248,,,108.549999952316,13,0.229058673686034,0.259368127413038
2018-07-19T08:03:23Z,1531987403,107,42.0483309,42.2443056,15.57,0.5,-0.1,55.1,647264.5,-281395.44,48.9,Air+FixedWing,Blue,Enemies,F-15C,Blue F-15C #001,us,=36=Merlin,0.03125,0,9.18162104927281e-05,15.5699996948242,2.56999969482422,0.03125,0,NaN,NaN,0.742836593174336,0.0197823405926261,NaN,0.999977662157063,0.00632526773892582,-0.00384012483346601,4.8828125e-05,15.2689537507248,15.2690025788498,,,109.549999952316,13,0.272573595038652,0.302883154982084
2018-07-19T08:03:24Z,1531987404,107,42.048331,42.2443056,15.57,0.5,-0.1,55.1,647264.5,-281395.44,48.9,Air+FixedWing,Blue,Enemies,F-15C,Blue F-15C #001,us,=36=Merlin,0,0,0,15.5699996948242,2.56999969482422,0,0,NaN,NaN,0.447604174260621,0.0197823405926261,NaN,0.999960362970249,0.00872652277261354,-0.00174532842356712,0,15.2689537507248,15.2689537507248,,,110.549999952316,13,0.278852312400977,0.309161887504749
2018-07-19T08:03:25Z,1531987405,107,42.0483309,42.2443056,15.57,0.3,-0.1,55.1,647264.5,-281395.44,48.9,Air+FixedWing,Blue,Enemies,F-15C,Blue F-15C #001,us,=36=Merlin,0,0,0,15.5699996948242,2.56999969482422,0,0,NaN,NaN,0.247635338547982,0.0197823405926261,NaN,0.99998468162763,0.00523595631807594,-0.00174532842356712,0,15.2689537507248,15.2689537507248,,,111.549999952316,13,0.287093126732941,0.31740272194654
2018-07-19T08:03:26Z,1531987406,107,42.048331,42.2443056,15.57,0.3,-0.1,55.1,647264.5,-281395.44,48.9,Air+FixedWing,Blue,Enemies,F-15C,Blue F-15C #001,us,=36=Merlin,0,0,0,15.5699996948242,2.56999969482422,0,0,NaN,NaN,0.209222354655831,0.0197823405926261,NaN,0.999983787559344,0.00540485606184749,-0.00174532842356712,0,15.2689537507248,15.2689537507248,,,112.549999952316,13,0.295333941064906,0.325643556388331
2018-07-19T08:03:27Z,1531987407,107,42.048331,42.2443055,15.57,0.3,-0.1,55.1,647264.5,-281395.44,48.9,Air+FixedWing,Blue,Enemies,F-15C,Blue F-15C #001,us,=36=Merlin,0,0,0,15.5699996948242,2.56999969482422,0,0,NaN,NaN,0.0307631720217374,0.0197823405926261,NaN,0.99998468162763,0.00523595631807594,-0.00174532842356712,0,15.2689537507248,15.2689537507248,,,113.549999952316,13,0.303335028169021,0.333644663142006
2018-07-19T08:03:28Z,1531987408,107,42.048331,42.2443056,15.57,0.3,-0.1,55.1,647264.5,-281395.44,48.9,Air+FixedWing,Blue,Enemies,F-15C,Blue F-15C #001,us,=36=Merlin,0,0,0,15.5699996948242,2.56999969482422,0,0,NaN,NaN,0.143597897110348,0.0197823405926261,NaN,0.99998468162763,0.00523595631807594,-0.00174532842356712,0,15.2689537507248,15.2689537507248,,,114.549999952316,13,0.306823160880847,0.337132803527678
2018-07-19T08:03:29Z,1531987409,107,42.048331,42.2443056,15.57,0.3,-0.1,55.1,647264.5,-281395.44,48.9,Air+FixedWing,Blue,Enemies,F-15C,Blue F-15C #001,us,=36=Merlin,0,0,0,15.5699996948242,2.56999969482422,0,0,NaN,NaN,0.162777068299744,0.0197823405926261,NaN,0.99998468162763,0.00523595631807594,-0.00174532842356712,0,15.2689537507248,15.2689537507248,,,115.549999952316,13,0.311336115273136,0.341645769895681
2018-07-19T08:03:30Z,1531987410,107,42.048331,42.2443056,15.57,0.3,-0.1,55.1,647264.5,-281395.44,48.9,Air+FixedWing,Blue,Enemies,F-15C,Blue F-15C #001,us,=36=Merlin,0,0,0,15.5699996948242,2.56999969482422,0,0,NaN,NaN,0,0.0197823405926261,NaN,0.99998468162763,0.00523595631807594,-0.00174532842356712,0,15.2689537507248,15.2689537507248,,,116.549999952316,13,0.311336115273136,0.341645769895681
2018-07-19T08:03:31Z,1531987411,107,42.048331,42.2443056,15.57,0.3,-0.1,55.1,647264.5,-281395.44,48.9,Air+FixedWing,Blue,Enemies,F-15C,Blue F-15C #001,us,=36=Merlin,0,0,0,15.5699996948242,2.56999969482422,0,0,NaN,NaN,0,0.0197823405926261,NaN,0.99998468162763,0.00523595631807594,-0.00174532842356712,0,15.2689537507248,15.2689537507248,,,117.549999952316,13,0.311336115273136,0.341645769895681
2018-07-19T08:03:32Z,1531987412,107,42.048331,42.2443056,15.57,0.3,-0.1,55.1,647264.5,-281395.44,48.9,Air+FixedWing,Blue,Enemies,F-15C,Blue F-15C #001,us,=36=Merlin,0,0,0,15.5699996948242,2.56999969482422,0,0,NaN,NaN,0,0.0197823405926261,NaN,0.99998468162763,0.00523595631807594,-0.00174532842356712,0,15.2689537507248,15.2689537507248,,,118.549999952316,13,0.311336115273136,0.341645769895681
2018-07-19T08:03:33Z,1531987413,107,42.048331,42.2443056,15.57,0.3,-0.1,55.1,647264.5,-281395.44,48.9,Air+FixedWing,Blue,Enemies,F-15C,Blue F-15C #001,us,=36=Merlin,0,0,0,15.5699996948242,2.56999969482422,0,0,NaN,NaN,0,0.0197823405926261,NaN,0.99998468162763,0.00523595631807594,-0.00174532842356712,0,15.2689537507248,15.2689537507248,,,119.549999952316,13,0.311336115273136,0.341645769895681
2018-07-19T08:03:34Z,1531987414,107,42.048331,42.2443056,15.57,0.3,-0.1,55.1,647264.5,-281395.44,48.9,Air+FixedWing,Blue,Enemies,F-15C,Blue F-15C #001,us,=36=Merlin,0,0,0,15.5699996948242,2.56999969482422,0,0,NaN,NaN,0,0.0197823405926261,NaN,0.99998468162763,0.00523595631807594,-0.00174532842356712,0,15.2689537507248,15.2689537507248,,,120.549999952316,13,0.311336115273136,0.341645769895681
2018-07-19T08:03:35Z,1531987415,107,42.048331,42.2443056,15.57,0.3,-0.1,55.1,647264.5,-281395.44,48.9,Air+FixedWing,Blue,Enemies,F-15C,Blue F-15C #001,us,=36=Merlin,0,0,0,15.5699996948242,2.56999969482422,0,0,NaN,NaN,0,0.0197823405926261,NaN,0.99998468162763,0.00523595631807594,-0.00174532842356712,0,15.2689537507248,15.2689537507248,,,121.549999952316,13,0.311336115273136,0.341645769895681
2018-07-19T08:03:36Z,1531987416,107,42.048331,42.2443056,15.57,0.3,-0.1,55.1,647264.5,-281395.44,48.9,Air+FixedWing,Blue,Enemies,F-15C,Blue F-15C #001,us,=36=Merlin,0,0,0,15.5699996948242,2.56999969482422,0,0,NaN,NaN,0,0.0197823405926261,NaN,0.99998468162763,0.00523595631807594,-0.00174532842356712,0,15.2689537507248,15.2689537507248,,,122.549999952316,13,0.311336115273136,0.341645769895681
2018-07-19T08:03:37Z,1531987417,107,42.048331,42.2443056,15.57,0.3,-0.1,55.1,647264.5,-281395.44,48.9,Air+FixedWing,Blue,Enemies,F-15C,Blue F-15C #001,us,=36=Merlin,0,0,0,15.5699996948242,2.56999969482422,0,0,NaN,NaN,0,0.0197823405926261,NaN,0.99998468162763,0.00523595631807594,-0.00174532842356712,0,15.2689537507248,15.2689537507248,,,123.549999952316,13,0.311336115273136,0.341645769895681
2018-07-19T08:03:38Z,1531987418,107,42.048331,42.2443056,15.57,0.3,-0.1,55.1,647264.5,-281395.44,48.9,Air+FixedWing,Blue,Enemies,F-15C,Blue F-15C #001,us,=36=Merlin,0,0,0,15.5699996948242,2.56999969482422,0,0,NaN,NaN,0,0.0197823405926261,NaN,0.99998468162763,0.00523595631807594,-0.00174532842356712,0,15.2689537507248,15.2689537507248,,,124.549999952316,13,0.311336115273136,0.341645769895681
2018-07-19T08:03:39Z,1531987419,107,42.048331,42.2443056,15.57,0.3,-0.1,55.1,647264.5,-281395.44,48.9,Air+FixedWing,Blue,Enemies,F-15C,Blue F-15C #001,us,=36=Merlin,0,0,0,15.5699996948242,2.56999969482422,0,0,NaN,NaN,0,0.0197823405926261,NaN,0.99998468162763,0.00523595631807594,-0.00174532842356712,0,15.2689537507248,15.2689537507248,,,125.549999952316,13,0.311336115273136,0.341645769895681
2018-07-19T08:03:40Z,1531987420,107,42.048331,42.2443056,15.57,0.3,-0.1,55.1,647264.5,-281395.44,48.9,Air+FixedWing,Blue,Enemies,F-15C,Blue F-15C #001,us,=36=Merlin,0,0,0,15.5699996948242,2.56999969482422,0,0,NaN,NaN,0,0.0197823405926261,NaN,0.99998468162763,0.00523595631807594,-0.00174532842356712,0,15.2689537507248,15.2689537507248,,,126.549999952316,13,0.311336115273136,0.341645769895681
2018-07-19T08:03:41Z,1531987421,107,42.048331,42.2443056,15.57,0.3,-0.1,55.1,647264.5,-281395.44,48.9,Air+FixedWing,Blue,Enemies,F-15C,Blue F-15C #001,us,=36=Merlin,0,0,0,15.5699996948242,2.56999969482422,0,0,NaN,NaN,0,0.0197823405926261,NaN,0.99998468162763,0.00523595631807594,-0.00174532842356712,0,15.2689537507248,15.2689537507248,,,127.549999952316,13,0.311336115273136,0.341645769895681
2018-07-19T08:03:42Z,1531987422,107,42.048331,42.2443056,15.57,0.3,-0.1,55.1,647264.5,-281395.44,48.9,Air+FixedWing,Blue,Enemies,F-15C,Blue F-15C #001,us,=36=Merlin,0,0,0,15.5699996948242,2.56999969482422,0,0,NaN,NaN,0,0.0197823405926261,NaN,0.99998468162763,0.00523595631807594,-0.00174532842356712,0,15.2689537507248,15.2689537507248,,,128.549999952316,13,0.311336115273136,0.341645769895681
2018-07-19T08:03:43Z,1531987423,107,42.048331,42.2443056,15.57,0.3,-0.1,55.1,647264.5,-281395.44,48.9,Air+FixedWing,Blue,Enemies,F-15C,Blue F-15C #001,us,=36=Merlin,0,0,0,15.5699996948242,2.56999969482422,0,0,NaN,NaN,0,0.0197823405926261,NaN,0.99998468162763,0.00523595631807594,-0.00174532842356712,0,15.2689537507248,15.2689537507248,,,129.549999952316,13,0.311336115273136,0.341645769895681
2018-07-19T08:03:44Z,1531987424,107,42.048331,42.2443056,15.57,0.3,-0.1,55.1,647264.5,-281395.44,48.9,Air+FixedWing,Blue,Enemies,F-15C,Blue F-15C #001,us,=36=Merlin,0,0,0,15.5699996948242,2.56999969482422,0,0,NaN,NaN,0,0.0197823405926261,NaN,0.99998468162763,0.00523595631807594,-0.00174532842356712,0,15.2689537507248,15.2689537507248,,,130.549999952316,13,0.311336115273136,0.341645769895681
2018-07-19T08:03:45Z,1531987425,107,42.048331,42.2443056,15.57,0.3,-0.1,55.1,647264.5,-281395.44,48.9,Air+FixedWing,Blue,Enemies,F-15C,Blue F-15C #001,us,=36=Merlin,0,0,0,15.5699996948242,2.56999969482422,0,0,NaN,NaN,0,0.0197823405926261,NaN,0.99998468162763,0.00523595631807594,-0.00174532842356712,0,15.2689537507248,15.2689537507248,,,131.549999952316,13,0.311336115273136,0.341645769895681
2018-07-19T08:03:46Z,1531987426,107,42.048331,42.2443056,15.57,0.3,-0.1,55.1,647264.5,-281395.44,48.9,Air+FixedWing,Blue,Enemies,F-15C,Blue F-15C #001,us,=36=Merlin,0,0,0,15.5699996948242,2.56999969482422,0,0,NaN,NaN,0,0.0197823405926261,NaN,0.99998468162763,0.00523595631807594,-0.00174532842356712,0,15.2689537507248,15.2689537507248,,,132.549999952316,13,0.311336115273136,0.341645769895681
2018-07-19T08:03:47Z,1531987427,107,42.048331,42.2443056,15.57,0.3,-0.1,55.1,647264.5,-281395.44,48.9,Air+FixedWing,Blue,Enemies,F-15C,Blue F-15C #001,us,=36=Merlin,0,0,0,15.5699996948242,2.56999969482422,0,0,NaN,NaN,0,0.0197823405926261,NaN,0.99998468162763,0.00523595631807594,-0.00174532842356712,0,15.2689537507248,15.2689537507248,,,133.549999952316,13,0.311336115273136,0.341645769895681
2018-07-19T08:03:48Z,1531987428,107,42.048331,42.2443056,15.57,0.3,-0.1,55.1,647264.5,-281395.44,48.9,Air+FixedWing,Blue,Enemies,F-15C,Blue F-15C #001,us,=36=Merlin,0,0,0,15.5699996948242,2.56999969482422,0,0,NaN,NaN,0,0.0197823405926261,NaN,0.99998468162763,0.00523595631807594,-0.00174532842356712,0,15.2689537507248,15.2689537507248,,,134.549999952316,13,0.311336115273136,0.341645769895681
2018-07-19T08:03:49Z,1531987429,107,42.048331,42.2443056,15.57,0.3,-0.1,55.1,647264.5,-281395.44,48.9,Air+FixedWing,Blue,Enemies,F-15C,Blue F-15C #001,us,=36=Merlin,0,0,0,15.5699996948242,2.56999969482422,0,0,NaN,NaN,0,0.0197823405926261,NaN,0.99998468162763,0.00523595631807594,-0.00174532842356712,0,15.2689537507248,15.2689537507248,,,135.549999952316,13,0.311336115273136,0.341645769895681
2018-07-19T08:03:50Z,1531987430,107,42.048331,42.2443056,15.57,0.3,-0.1,55.1,647264.5,-281395.44,48.9,Air+FixedWing,Blue,Enemies,F-15C,Blue F-15C #001,us,=36=Merlin,0,0,0,15.5699996948242,2.56999969482422,0,0,NaN,NaN,0,0.0197823405926261,NaN,0.99998468162763,0.00523595631807594,-0.00174532842356712,0,15.2689537507248,15.2689537507248,,,136.549999952316,13,0.311336115273136,0.341645769895681
2018-07-19T08:03:51Z,1531987431,107,42.048331,42.2443056,15.57,0.3,-0.1,55.1,647264.5,-281395.44,48.9,Air+FixedWing,Blue,Enemies,F-15C,Blue F-15C #001,us,=36=Merlin,0,0,0,15.5699996948242,2.56999969482422,0,0,NaN,NaN,0,0.0197823405926261,NaN,0.99998468162763,0.00523595631807594,-0.00174532842356712,0,15.2689537507248,15.2689537507248,,,137.549999952316,13,0.311336115273136,0.341645769895681
2018-07-19T08:03:52Z,1531987432,107,42.048331,42.2443056,15.57,0.3,-0.1,55.1,647264.5,-281395.44,48.9,Air+FixedWing,Blue,Enemies,F-15C,Blue F-15C #001,us,=36=Merlin,0,0,0,15.5699996948242,2.56999969482422,0,0,NaN,NaN,0,0.0197823405926261,NaN,0.99998468162763,0.00523595631807594,-0.00174532842356712,0,15.2689537507248,15.2689537507248,,,138.549999952316,13,0.311336115273136,0.341645769895681
2018-07-19T08:03:53Z,1531987433,107,42.048331,42.2443056,15.57,0.3,-0.1,55.1,647264.5,-281395.44,48.9,Air+FixedWing,Blue,Enemies,F-15C,Blue F-15C #001,us,=36=Merlin,0,0,0,15.5699996948242,2.56999969482422,0,0,NaN,NaN,0,0.0197823405926261,NaN,0.99998468162763,0.00523595631807594,-0.00174532842356712,0,15.2689537507248,15.2689537507248,,,139.549999952316,13,0.311336115273136,0.341645769895681
