ISOTime,UnixTime,Id,Longitude,Latitude,Altitude,Roll,Pitch,Yaw,U,V,Heading,Type,Color,Coalition,Name,Group,Country,Pilot,TAS,CAS,M,ASL,AGL,GS,VS,AOA,AOS,RRT,TRT,TRD,G,LatG,LonG,Ek,Ep,Em,FFW,FFV,RelativeTime,Elev,GroundDistance,AirDistance
2018-07-19T08:02:52Z,1531987372,108,42.0499577,42.2445895,15.39,0.4,1.2,326,647395.5,-281349.5,319.8,Air+FixedWing,Blue,Enemies,F-15C,Blue F-15C #002,us,=36=Barbarossa,0.432889252028768,0.455048412084579,0.00127187744976627,15.3904752731323,2.39047527313232,NaN,NaN,NaN,NaN,0.352381011905609,NaN,NaN,NaN,NaN,NaN,NaN,15.0929004337263,NaN,,,0.759999990463257,13,NaN,NaN
2018-07-19T08:02:53Z,1531987373,108,42.0499567,42.2445903,15.63,0.5,1.5,326,647395.38,-281349.41,319.9,Air+FixedWing,Blue,Enemies,F-15C,Blue F-15C #002,us,=36=Barbarossa,0.285185412073116,0.262722313404083,0.000837909159725561,15.6290473937988,2.62904739379883,0.15625,0.238572120666504,NaN,NaN,0.380960631146631,0.223593539577,NaN,0.983646944200566,0.00285741028950563,0.0131580879943877,0.00406653596296565,15.3268597624397,15.3309262984027,,,1.75999999046326,13,0.117014008019791,0.265723541931501
2018-07-19T08:02:54Z,1531987374,108,42.0499564,42.2445904,15.71,0.2,-0.4,326,647395.38,-281349.38,319.8,Air+FixedWing,Blue,Enemies,F-15C,Blue F-15C #002,us,=36=Barbarossa,0.0841157514325011,0,0.000247142447066359,15.707142829895,2.70714282989502,0.03125,0.0780954360961914,NaN,NaN,0.219057827060649,1.86018238365911,NaN,0.972887714283536,0.00469866444880924,-0.0182079135513771,0.000353772981952716,15.403445223279,15.403798996261,,,2.75999999046326,13,0.148903800515132,0.350079105035346
2018-07-19T08:02:55Z,1531987375,108,42.0499572,42.24459,15.52,0.3,0,326,647395.44,-281349.44,319.8,Air+FixedWing,Blue,Enemies,F-15C,Blue F-15C #002,us,=36=Barbarossa,0.206536277740629,0.262722313404083,0.000606827768706478,15.5204753875732,2.52047538757324,0.0883883476483184,-0.186667442321777,NaN,NaN,0.200000025131153,0.0559529163508511,NaN,1.0240520211364,0.00892724344836174,0.0155290566811884,0.0021328617011477,15.2203869959545,15.2225198576557,,,3.75999999046326,13,0.231853915284427,0.554347284563401
2018-07-19T08:02:56Z,1531987376,108,42.049957,42.2445901,15.57,0.3,0,326,647395.38,-281349.41,319.8,Air+FixedWing,Blue,Enemies,F-15C,Blue F-15C #002,us,=36=Barbarossa,0.0856473555265376,0,0.000251642099941443,15.5699996948242,2.56999969482422,0.0698771242968684,0.0495243072509766,NaN,NaN,0,0.0678104649254304,NaN,0.995073524243471,-0.00246872986183169,-0.0106612124202847,0.000366773475434456,15.2689537507248,15.2693205242002,,,4.75999999046326,13,0.251418695480717,0.607596129540381
2018-07-19T08:02:57Z,1531987377,108,42.049957,42.2445901,15.57,0.3,0,326,647395.44,-281349.41,319.8,Air+FixedWing,Blue,Enemies,F-15C,Blue F-15C #002,us,=36=Barbarossa,0.062507260991199,0,0.000183653756610754,15.5709524154663,2.57095241546631,0.0625,0.000952720642089844,NaN,NaN,0,0.0312786278555019,NaN,1.00076062300325,0.0149758411152196,0.00822729028983276,0.000195357883831093,15.2698880505133,15.2700834083971,,,5.75999999046326,13,0.251418695480717,0.60854885090859
2018-07-19T08:02:58Z,1531987378,108,42.049957,42.2445901,15.58,0.3,0,326,647395.38,-281349.41,319.8,Air+FixedWing,Blue,Enemies,F-15C,Blue F-15C #002,us,=36=Barbarossa,0.0631514640000394,0,0.000185546520471639,15.5799999237061,2.57999992370605,0.0625,0.00904750823974609,NaN,NaN,0,0.0139882274201861,NaN,1.00010871143957,0.000368694772806887,-0.00411364514491638,0.000199405370267414,15.2787606251812,15.2789600305515,,,6.75999999046326,13,0.251418695480717,0.61759635790134
2018-07-19T08:02:59Z,1531987379,108,42.0499567,42.2445901,15.59,0.3,0,326,647395.38,-281349.41,319.8,Air+FixedWing,Blue,Enemies,F-15C,Blue F-15C #002,us,=36=Barbarossa,0.00999927520751953,0,2.93790644501496e-05,15.5899991989136,2.58999919891357,0,0.00999927520751953,NaN,NaN,0,0.0139882274201861,NaN,0.998966543764189,0.005230625311065,0,4.99927523378574e-06,15.2885665644026,15.2885715636778,,,7.75999999046326,13,0.272671224920363,0.641083752997619
2018-07-19T08:03:00Z,1531987380,108,42.0499567,42.2445901,15.59,0.3,-0.1,326,647395.38,-281349.41,319.8,Air+FixedWing,Blue,Enemies,F-15C,Blue F-15C #002,us,=36=Barbarossa,0,0,0,15.5899991989136,2.58999919891357,0,0,NaN,NaN,0,0.0504352774299245,NaN,1.0007834619927,0.005240138760944,-0.00174672257899444,0,15.2885665644026,15.2885665644026,,,8.75999999046326,13,0.273274667596236,0.641687197022728
2018-07-19T08:03:01Z,1531987381,108,42.0499568,42.2445901,15.6,0.3,-0.1,326,647395.38,-281349.41,319.8,Air+FixedWing,Blue,Enemies,F-15C,Blue F-15C #002,us,=36=Barbarossa,0.00783348083496094,0,2.30157040236794e-05,15.5978326797485,2.59783267974854,0,0.00783348083496094,NaN,NaN,0,0.0395646845203054,NaN,0.998384300757409,0.00522757666598442,-0.00174253519056645,3.06817109958502e-06,15.2962485848856,15.2962516530567,,,9.75999999046326,13,0.278649085372118,0.651187088745852
2018-07-19T08:03:02Z,1531987382,108,42.0499568,42.2445901,15.59,0.3,-0.1,326,647395.38,-281349.41,319.8,Air+FixedWing,Blue,Enemies,F-15C,Blue F-15C #002,us,=36=Barbarossa,0.00786113739013672,0,2.30969602467464e-05,15.5899715423584,2.5899715423584,0,-0.00786113739013672,NaN,NaN,0,0.00989117029631303,NaN,1.000739506706,0.00523990860947379,-0.00174664586140823,3.08987405333028e-06,15.2885394425869,15.288542532461,,,10.7599999904633,13,0.278649085372118,0.659048226281289
2018-07-19T08:03:03Z,1531987383,108,42.0499568,42.2445901,15.59,0.3,-0.1,326,647395.38,-281349.41,319.8,Air+FixedWing,Blue,Enemies,F-15C,Blue F-15C #002,us,=36=Barbarossa,0.000458717346191406,0,1.34776632552193e-06,15.5895128250122,2.58951282501221,0,-0.000458717346191406,NaN,NaN,0,0.00989117029631303,NaN,0.99998468162763,0.00523595631807594,-0.00174532842356712,1.05210801848443e-08,15.2880895945406,15.2880896050617,,,11.7599999904633,13,0.278649085372118,0.659506943491348
2018-07-19T08:03:04Z,1531987384,108,42.0499568,42.2445901,15.59,0.3,-0.1,326,647395.38,-281349.41,319.8,Air+FixedWing,Blue,Enemies,F-15C,Blue F-15C #002,us,=36=Barbarossa,0.000458717346191406,0,1.34776631855752e-06,15.589054107666,2.58905410766602,0,-0.000458717346191406,NaN,NaN,0,0.00989117029631303,NaN,0.99998468162763,0.00523595631807594,-0.00174532842356712,1.05210801848443e-08,15.2876397464943,15.2876397570154,,,12.7599999904633,13,0.278649085372118,0.659965660726498
2018-07-19T08:03:05Z,1531987385,108,42.0499568,42.2445901,15.59,0.3,-0.1,326,647395.38,-281349.41,319.8,Air+FixedWing,Blue,Enemies,F-15C,Blue F-15C #002,us,=36=Barbarossa,0.000458717346191406,0,1.3477663115931e-06,15.5885953903198,2.58859539031982,0,-0.000458717346191406,NaN,NaN,0,0.00989117029631303,NaN,0.99998468162763,0.00523595631807594,-0.00174532842356712,1.05210801848443e-08,15.287189898448,15.2871899089691,,,13.7599999904633,13,0.278649085372118,0.660424378679395
2018-07-19T08:03:06Z,1531987386,108,42.0499568,42.2445901,15.59,0.3,-0.1,326,647395.38,-281349.41,319.8,Air+FixedWing,Blue,Enemies,F-15C,Blue F-15C #002,us,=36=Barbarossa,0.000458717346191406,0,1.34776630462868e-06,15.5881366729736,2.58813667297363,0,-0.000458717346191406,NaN,NaN,0,0.00989117029631303,NaN,0.99998468162763,0.00523595631807594,-0.00174532842356712,1.05210801848443e-08,15.2867400504017,15.2867400609228,,,14.7599999904633,13,0.278649085372118,0.660883095914544
2018-07-19T08:03:07Z,1531987387,108,42.0499568,42.2445901,15.59,0.3,-0.1,326,647395.38,-281349.41,319.8,Air+FixedWing,Blue,Enemies,F-15C,Blue F-15C #002,us,=36=Barbarossa,0.000458717346191406,0,1.34776629766427e-06,15.5876779556274,2.58767795562744,0,-0.000458717346191406,NaN,NaN,0,0.00989117029631303,NaN,0.99998468162763,0.00523595631807594,-0.00174532842356712,1.05210801848443e-08,15.2862902023554,15.2862902128765,,,15.7599999904633,13,0.278649085372118,0.661341812754455
2018-07-19T08:03:08Z,1531987388,108,42.0499568,42.2445901,15.59,0.3,-0.1,326,647395.38,-281349.41,319.8,Air+FixedWing,Blue,Enemies,F-15C,Blue F-15C #002,us,=36=Barbarossa,0.000458717346191406,0,1.34776629069985e-06,15.5872192382812,2.58721923828125,0,-0.000458717346191406,NaN,NaN,0,0.00989117029631303,NaN,0.99998468162763,0.00523595631807594,-0.00174532842356712,1.05210801848443e-08,15.2858403543091,15.2858403648302,,,16.7599999904633,13,0.278649085372118,0.661800529989604
2018-07-19T08:03:09Z,1531987389,108,42.0499568,42.2445901,15.59,0.3,-0.1,326,647395.38,-281349.41,319.8,Air+FixedWing,Blue,Enemies,F-15C,Blue F-15C #002,us,=36=Barbarossa,0.000458717346191406,0,1.34776628373543e-06,15.5867605209351,2.58676052093506,0,-0.000458717346191406,NaN,NaN,0,0.00989117029631303,NaN,0.99998468162763,0.00523595631807594,-0.00174532842356712,1.05210801848443e-08,15.2853905062628,15.2853905167839,,,17.7599999904633,13,0.278649085372118,0.662259247942502
2018-07-19T08:03:10Z,1531987390,108,42.0499568,42.2445901,15.59,0.3,-0.1,326,647395.38,-281349.41,319.8,Air+FixedWing,Blue,Enemies,F-15C,Blue F-15C #002,us,=36=Barbarossa,0.000458717346191406,0,1.34776627677101e-06,15.5863018035889,2.58630180358887,0,-0.000458717346191406,NaN,NaN,0,0.00989117029631303,NaN,0.99998468162763,0.00523595631807594,-0.00174532842356712,1.05210801848443e-08,15.2849406582165,15.2849406687376,,,18.7599999904633,13,0.278649085372118,0.662717965408537
2018-07-19T08:03:11Z,1531987391,108,42.0499568,42.2445901,15.59,0.3,-0.1,326,647395.38,-281349.41,319.8,Air+FixedWing,Blue,Enemies,F-15C,Blue F-15C #002,us,=36=Barbarossa,0.000458717346191406,0,1.3477662698066e-06,15.5858430862427,2.58584308624268,0,-0.000458717346191406,NaN,NaN,0,0.00989117029631303,NaN,0.99998477887384,0.00523595682726061,-0.00174532859329629,1.05210801848443e-08,15.2844908101702,15.2844908206913,,,19.7599999904633,13,0.278649085372118,0.66317668238771
2018-07-19T08:03:12Z,1531987392,108,42.0499568,42.2445901,15.59,0.3,-0.1,326,647395.38,-281349.41,319.8,Air+FixedWing,Blue,Enemies,F-15C,Blue F-15C #002,us,=36=Barbarossa,0.000457763671875,0,1.34496425399417e-06,15.5853853225708,2.5853853225708,0,-0.000457763671875,NaN,NaN,0,0.00989117029631303,NaN,0.999984584381421,0.00523595580889127,-0.00174532825383794,1.04773789644241e-08,15.2840418973589,15.2840419078363,,,20.7599999904633,13,0.278649085372118,0.663634445643923
2018-07-19T08:03:13Z,1531987393,108,42.0499568,42.2445901,15.58,0.3,-0.1,326,647395.38,-281349.41,319.8,Air+FixedWing,Blue,Enemies,F-15C,Blue F-15C #002,us,=36=Barbarossa,0.000458717346191406,0,1.34776625589224e-06,15.5849266052246,2.58492660522461,0,-0.000458717346191406,NaN,NaN,0,0.00989117029631303,NaN,0.99998468162763,0.00523595631807594,-0.00174532842356712,1.05210801848443e-08,15.2835920493126,15.2835920598337,,,21.7599999904633,13,0.278649085372118,0.664093163852797
2018-07-19T08:03:14Z,1531987394,108,42.0499568,42.2445901,15.58,0.3,-0.1,326,647395.38,-281349.41,319.8,Air+FixedWing,Blue,Enemies,F-15C,Blue F-15C #002,us,=36=Barbarossa,0.000458717346191406,0,1.34776624892783e-06,15.5844678878784,2.58446788787842,0,-0.000458717346191406,NaN,NaN,0,0.00989117029631303,NaN,0.99998468162763,0.00523595631807594,-0.00174532842356712,1.05210801848443e-08,15.2831422012663,15.2831422117874,,,22.7599999904633,13,0.278649085372118,0.66455188083197
2018-07-19T08:03:15Z,1531987395,108,42.0499568,42.2445901,15.58,0.3,-0.1,326,647395.38,-281349.41,319.8,Air+FixedWing,Blue,Enemies,F-15C,Blue F-15C #002,us,=36=Barbarossa,0.000458717346191406,0,1.34776624196341e-06,15.5840091705322,2.58400917053223,0,-0.000458717346191406,NaN,NaN,0,0.00989117029631303,NaN,0.99998468162763,0.00523595631807594,-0.00174532842356712,1.05210801848443e-08,15.28269235322,15.2826923637411,,,23.7599999904633,13,0.278649085372118,0.66501059767188
2018-07-19T08:03:16Z,1531987396,108,42.0499568,42.2445901,15.58,0.3,-0.1,326,647395.38,-281349.41,319.8,Air+FixedWing,Blue,Enemies,F-15C,Blue F-15C #002,us,=36=Barbarossa,0.000458717346191406,0,1.34776623499899e-06,15.583550453186,2.58355045318604,0,-0.000458717346191406,NaN,NaN,0,0.00989117029631303,NaN,0.99998468162763,0.00523595631807594,-0.00174532842356712,1.05210801848443e-08,15.2822425051737,15.2822425156948,,,24.7599999904633,13,0.278649085372118,0.665469314907029
2018-07-19T08:03:17Z,1531987397,108,42.0499568,42.2445901,15.58,0.3,-0.1,326,647395.38,-281349.41,319.8,Air+FixedWing,Blue,Enemies,F-15C,Blue F-15C #002,us,=36=Barbarossa,0.000458717346191406,0,1.34776622803458e-06,15.5830917358398,2.58309173583984,0,-0.000458717346191406,NaN,NaN,0,0.00989117029631303,NaN,0.99998468162763,0.00523595631807594,-0.00174532842356712,1.05210801848443e-08,15.2817926571274,15.2817926676485,,,25.7599999904633,13,0.278649085372118,0.665928032859927
2018-07-19T08:03:18Z,1531987398,108,42.0499568,42.2445901,15.58,0.3,-0.1,326,647395.38,-281349.41,319.8,Air+FixedWing,Blue,Enemies,F-15C,Blue F-15C #002,us,=36=Barbarossa,0.000458717346191406,0,1.34776622107016e-06,15.5826330184937,2.58263301849365,0,-0.000458717346191406,NaN,NaN,0,0.00989117029631303,NaN,0.99998468162763,0.00523595631807594,-0.00174532842356712,1.05210801848443e-08,15.2813428090811,15.2813428196022,,,26.7599999904633,13,0.278649085372118,0.666386750325963
2018-07-19T08:03:19Z,1531987399,108,42.0499568,42.2445901,15.58,0.3,-0.1,326,647395.38,-281349.41,319.8,Air+FixedWing,Blue,Enemies,F-15C,Blue F-15C #002,us,=36=Barbarossa,0.000458717346191406,0,1.34776621410575e-06,15.5821743011475,2.58217430114746,0,-0.000458717346191406,NaN,NaN,0,0.00989117029631303,NaN,0.99998468162763,0.00523595631807594,-0.00174532842356712,1.05210801848443e-08,15.2808929610348,15.2808929715559,,,27.7599999904633,13,0.278649085372118,0.666845467561112
2018-07-19T08:03:20Z,1531987400,108,42.0499568,42.2445901,15.58,0.3,-0.1,326,647395.38,-281349.41,319.8,Air+FixedWing,Blue,Enemies,F-15C,Blue F-15C #002,us,=36=Barbarossa,0.000458717346191406,0,1.34776620714133e-06,15.5817155838013,2.58171558380127,0,-0.000458717346191406,NaN,NaN,0,0.00989117029631303,NaN,0.99998468162763,0.00523595631807594,-0.00174532842356712,1.05210801848443e-08,15.2804431129885,15.2804431235096,,,28.7599999904633,13,0.278649085372118,0.667304184887885
2018-07-19T08:03:21Z,1531987401,108,42.0499568,42.2445901,15.58,0.3,-0.1,326,647395.38,-281349.41,319.8,Air+FixedWing,Blue,Enemies,F-15C,Blue F-15C #002,us,=36=Barbarossa,0.000458717346191406,0,1.34776620017692e-06,15.5812568664551,2.58125686645508,0,-0.000458717346191406,NaN,NaN,0,0.00989117029631303,NaN,0.99998468162763,0.00523595631807594,-0.00174532842356712,1.05210801848443e-08,15.2799932649422,15.2799932754633,,,29.7599999904633,13,0.278649085372118,0.667762902123034
2018-07-19T08:03:22Z,1531987402,108,42.0499568,42.2445901,15.58,0.3,-0.1,326,647395.38,-281349.41,319.8,Air+FixedWing,Blue,Enemies,F-15C,Blue F-15C #002,us,=36=Barbarossa,0.000458717346191406,0,1.3477661932125e-06,15.5807981491089,2.58079814910889,0,-0.000458717346191406,NaN,NaN,0,0.00989117029631303,NaN,0.99998468162763,0.00523595631807594,-0.00174532842356712,1.05210801848443e-08,15.2795434168959,15.2795434274169,,,30.7599999904633,13,0.278649085372118,0.668221619333094
2018-07-19T08:03:23Z,1531987403,108,42.0499568,42.2445901,15.58,0.3,-0.1,326,647395.38,-281349.41,319.8,Air+FixedWing,Blue,Enemies,F-15C,Blue F-15C #002,us,=36=Barbarossa,0.000458717346191406,0,1.34776618624808e-06,15.5803394317627,2.5803394317627,0,-0.000458717346191406,NaN,NaN,0,0.00989117029631303,NaN,0.999996837403822,0.00523601996615952,-0.00174534963971375,1.05210801848443e-08,15.2790935688496,15.2790935793706,,,31.7599999904633,13,0.278649085372118,0.668680336568243
2018-07-19T08:03:24Z,1531987404,108,42.0499568,42.2445901,15.58,0.3,-0.2,326,647395.38,-281349.41,319.8,Air+FixedWing,Blue,Enemies,F-15C,Blue F-15C #002,us,=36=Barbarossa,0.000339508056640625,0,9.97515094530776e-07,15.5799999237061,2.57999992370605,0,-0.000339508056640625,NaN,NaN,0,0.0197823405926261,NaN,1.00103612344322,0.00524146170547782,-0.00294259658781153,5.76328602619469e-09,15.2787606251812,15.2787606309445,,,32.7599999904633,13,0.278649085372118,0.669019845334726
2018-07-19T08:03:25Z,1531987405,108,42.0499568,42.2445901,15.59,0.3,-0.1,326,647395.38,-281349.41,319.8,Air+FixedWing,Blue,Enemies,F-15C,Blue F-15C #002,us,=36=Barbarossa,0.00999927520751953,0,2.93790644501496e-05,15.5899991989136,2.58999919891357,0,0.00999927520751953,NaN,NaN,0,0.00989117029631303,NaN,0.998965055120717,0.00523061751682543,-0.00174354881318783,4.99927523378574e-06,15.2885665644026,15.2885715636778,,,33.7599999904633,13,0.280230648878213,0.679143424846517
2018-07-19T08:03:26Z,1531987406,108,42.0499569,42.2445901,15.59,0.3,-0.1,326,647395.38,-281349.41,319.8,Air+FixedWing,Blue,Enemies,F-15C,Blue F-15C #002,us,=36=Barbarossa,0,0,0,15.5899991989136,2.58999919891357,0,0,NaN,NaN,0,0.0197823405926261,NaN,0.99998468162763,0.00523595631807594,-0.00174532842356712,0,15.2885665644026,15.2885665644026,,,34.7599999904633,13,0.284392657310413,0.683305443177685
2018-07-19T08:03:27Z,1531987407,108,42.0499568,42.2445901,15.59,0.3,-0.1,326,647395.38,-281349.41,319.8,Air+FixedWing,Blue,Enemies,F-15C,Blue F-15C #002,us,=36=Barbarossa,0,0,0,15.5899991989136,2.58999919891357,0,0,NaN,NaN,0.00387954744856724,0.00989117029631303,NaN,0.99998492004584,0.00520200314359121,-0.00174532842356712,0,15.2885665644026,15.2885665644026,,,35.7599999904633,13,0.290136229248707,0.68904902864909
2018-07-19T08:03:28Z,1531987408,108,42.0499568,42.2445901,15.59,0.3,-0.1,326,647395.38,-281349.41,319.8,Air+FixedWing,Blue,Enemies,F-15C,Blue F-15C #002,us,=36=Barbarossa,0,0,0,15.5899991989136,2.58999919891357,0,0,NaN,NaN,0.0389047575123926,0.00989117029631303,NaN,0.99998813869167,0.00452293639427254,-0.00174532842356712,0,15.2885665644026,15.2885665644026,,,36.7599999904633,13,0.290136229248707,0.68904902864909
2018-07-19T08:03:29Z,1531987409,108,42.0499568,42.2445901,15.59,0.2,-0.1,326,647395.38,-281349.41,319.8,Air+FixedWing,Blue,Enemies,F-15C,Blue F-15C #002,us,=36=Barbarossa,0,0,0,15.5899991989136,2.58999919891357,0,0,NaN,NaN,0.0389047575123926,0.00989117029631303,NaN,0.999990999710185,0.00384386801514189,-0.00174532842356712,0,15.2885665644026,15.2885665644026,,,37.7599999904633,13,0.290136229248707,0.68904902864909
2018-07-19T08:03:30Z,1531987410,108,42.0499568,42.2445901,15.59,0.3,-0.1,326,647395.38,-281349.41,319.8,Air+FixedWing,Blue,Enemies,F-15C,Blue F-15C #002,us,=36=Barbarossa,0,0,0,15.5899991989136,2.58999919891357,0,0,NaN,NaN,0.198431616262562,0.00989117029631303,NaN,0.99998468162763,0.00523595631807594,-0.00174532842356712,0,15.2885665644026,15.2885665644026,,,38.7599999904633,13,0.291171117762185,0.690083919481365
2018-07-19T08:03:31Z,1531987411,108,42.0499569,42.2445901,15.59,0.3,-0.1,326,647395.38,-281349.41,319.8,Air+FixedWing,Blue,Enemies,F-15C,Blue F-15C #002,us,=36=Barbarossa,0,0,0,15.5899991989136,2.58999919891357,0,0,NaN,NaN,0,0.00989117029631303,NaN,0.99998468162763,0.00523595631807594,-0.00174532842356712,0,15.2885665644026,15.2885665644026,,,39.7599999904633,13,0.295004037215376,0.693916848175853
2018-07-19T08:03:32Z,1531987412,108,42.0499569,42.2445901,15.59,0.3,-0.1,326,647395.38,-281349.41,319.8,Air+FixedWing,Blue,Enemies,F-15C,Blue F-15C #002,us,=36=Barbarossa,0,0,0,15.5899991989136,2.58999919891357,0,0,NaN,NaN,0,0.00989117029631303,NaN,0.99998468162763,0.00523595631807594,-0.00174532842356712,0,15.2885665644026,15.2885665644026,,,40.7599999904633,13,0.297075833144224,0.695988648708404
2018-07-19T08:03:33Z,1531987413,108,42.0499569,42.2445901,15.59,0.3,-0.1,326,647395.38,-281349.41,319.8,Air+FixedWing,Blue,Enemies,F-15C,Blue F-15C #002,us,=36=Barbarossa,0,0,0,15.5899991989136,2.58999919891357,0,0,NaN,NaN,0,0.00989117029631303,NaN,0.999423279260018,0.00523301679498398,-0.00174434857705118,0,15.2885665644026,15.2885665644026,,,41.7599999904633,13,0.297236731256219,0.696149546820398
2018-07-19T08:03:34Z,1531987414,108,42.0499568,42.2445901,15.58,0.3,-0.1,326,647395.38,-281349.41,319.8,Air+FixedWing,Blue,Enemies,F-15C,Blue F-15C #002,us,=36=Barbarossa,0.00550556182861328,0,1.61759970006595e-05,15.584493637085,2.58449363708496,0,-0.00550556182861328,NaN,NaN,0,0.00989117029631303,NaN,1.00008785985594,0.00523649656300935,-0.00174550850621971,1.51556055243418e-06,15.2831674526119,15.2831689681725,,,42.7599999904633,13,0.304015437039742,0.704882374697837
2018-07-19T08:03:35Z,1531987415,108,42.0499568,42.2445901,15.58,0.3,-0.1,326,647395.38,-281349.41,319.8,Air+FixedWing,Blue,Enemies,F-15C,Blue F-15C #002,us,=36=Barbarossa,0.00449371337890625,0,1.32030649590703e-05,15.5799999237061,2.57999992370605,0,-0.00449371337890625,NaN,NaN,0,0.00989117029631303,NaN,1.00044290576693,0.00523835559623449,-0.00174612818743047,1.00967299658805e-06,15.2787606251812,15.2787616348542,,,43.7599999904633,13,0.305669105274409,0.709670704367206
2018-07-19T08:03:36Z,1531987416,108,42.0499569,42.2445901,15.58,0.3,-0.1,326,647395.38,-281349.41,319.8,Air+FixedWing,Blue,Enemies,F-15C,Blue F-15C #002,us,=36=Barbarossa,0,0,0,15.5799999237061,2.57999992370605,0,0,NaN,NaN,0,0.00989117029631303,NaN,0.99998468162763,0.00523595631807594,-0.00174532842356712,0,15.2787606251812,15.2787606251812,,,44.7599999904633,13,0.308425217611151,0.712426823626448
2018-07-19T08:03:37Z,1531987417,108,42.0499569,42.2445901,15.58,0.3,-0.1,326,647395.38,-281349.41,319.8,Air+FixedWing,Blue,Enemies,F-15C,Blue F-15C #002,us,=36=Barbarossa,0,0,0,15.5799999237061,2.57999992370605,0,0,NaN,NaN,0,0.00989117029631303,NaN,0.99998468162763,0.00523595631807594,-0.00174532842356712,0,15.2787606251812,15.2787606251812,,,45.7599999904633,13,0.311181329602111,0.715182942851797
2018-07-19T08:03:38Z,1531987418,108,42.0499568,42.2445902,15.58,0.4,-0.1,326,647395.38,-281349.41,319.8,Air+FixedWing,Blue,Enemies,F-15C,Blue F-15C #002,us,=36=Barbarossa,0,0,0,15.5799999237061,2.57999992370605,0,0,NaN,NaN,0.038098848551184,0.00989117029631303,NaN,0.999977409872237,0.00648262697541341,-0.00174532842356712,0,15.2787606251812,15.2787606251812,,,46.7599999904633,13,0.324420298010816,0.728421944085211
2018-07-19T08:03:39Z,1531987419,108,42.0499567,42.2445901,15.58,0.3,-0.1,326,647395.38,-281349.41,319.8,Air+FixedWing,Blue,Enemies,F-15C,Blue F-15C #002,us,=36=Barbarossa,0,0,0,15.5799999237061,2.57999992370605,0,0,NaN,NaN,0.0571550229746667,0.00989117029631303,NaN,0.99998468162763,0.00523595631807594,-0.00174532842356712,0,15.2787606251812,15.2787606251812,,,47.7599999904633,13,0.336725628132136,0.740727304698674
2018-07-19T08:03:40Z,1531987420,108,42.0499568,42.2445901,15.58,0.3,-0.1,326,647395.38,-281349.41,319.8,Air+FixedWing,Blue,Enemies,F-15C,Blue F-15C #002,us,=36=Barbarossa,0,0,0,15.5799999237061,2.57999992370605,0,0,NaN,NaN,0,0.00989117029631303,NaN,0.99998468162763,0.00523595631807594,-0.00174532842356712,0,15.2787606251812,15.2787606251812,,,48.7599999904633,13,0.343735637875808,0.747737331575704
2018-07-19T08:03:41Z,1531987421,108,42.0499568,42.2445901,15.58,0.3,-0.1,326,647395.38,-281349.41,319.8,Air+FixedWing,Blue,Enemies,F-15C,Blue F-15C #002,us,=36=Barbarossa,0,0,0,15.5799999237061,2.57999992370605,0,0,NaN,NaN,0.0878049099057171,0.00989117029631303,NaN,0.99998468162763,0.00523595631807594,-0.00174532842356712,0,15.2787606251812,15.2787606251812,,,49.7599999904633,13,0.346318408128417,0.750320108211742
2018-07-19T08:03:42Z,1531987422,108,42.0499568,42.2445902,15.58,0.3,-0.1,326,647395.38,-281349.41,319.8,Air+FixedWing,Blue,Enemies,F-15C,Blue F-15C #002,us,=36=Barbarossa,0,0,0,15.5799999237061,2.57999992370605,0,0,NaN,NaN,0,0.00989117029631303,NaN,0.999046809418637,-0.00169371614379434,-0.00342335396056188,0,15.2787606251812,15.2787606251812,,,50.7599999904633,13,0.352208329596465,0.756210043476536
2018-07-19T08:03:43Z,1531987423,108,42.0499574,42.2445904,15.57,1.3,-0.1,326,647395.44,-281349.38,319.8,Air+FixedWing,Blue,Enemies,F-15C,Blue F-15C #002,us,=36=Barbarossa,0.0705232277711354,0,0.000207205617931935,15.5704755783081,2.57047557830811,0.0698771242968684,-0.00952434539794922,NaN,NaN,2.0380951511596,0.0504352774299245,NaN,1.00136257057156,0.0369101726573478,0.00152745024923976,0.000248676282762972,15.2694204330015,15.2696691092843,,,51.7599999904633,13,0.408738218479331,0.813536801242186
2018-07-19T08:03:44Z,1531987424,108,42.0499569,42.2445902,15.58,0.9,-0.1,326,647395.38,-281349.41,319.8,Air+FixedWing,Blue,Enemies,F-15C,Blue F-15C #002,us,=36=Barbarossa,0.0705232277711354,0,0.000207205640163067,15.5799999237061,2.57999992370605,0.0698771242968684,0.00952434539794922,NaN,NaN,0.761921262293262,0.0504352774299245,NaN,0.999014238960134,0.00810393292749128,-0.00375555827989766,0.000248676282762972,15.2787606251812,15.279009301464,,,52.7599999904633,13,0.457802605562964,0.863517186680993
2018-07-19T08:03:45Z,1531987425,108,42.0499569,42.2445902,15.58,0.8,-0.1,326,647395.38,-281349.41,319.8,Air+FixedWing,Blue,Enemies,F-15C,Blue F-15C #002,us,=36=Barbarossa,0,0,0,15.5799999237061,2.57999992370605,0,0,NaN,NaN,0.571440946719947,0.0279764548403722,NaN,0.99884430767284,0.0162535294704308,-0.00417746730758083,0,15.2787606251812,15.2787606251812,,,53.7599999904633,13,0.460549527905213,0.866264115633851
2018-07-19T08:03:46Z,1531987426,108,42.0499563,42.2445899,15.57,-0.4,-0.2,326,647395.38,-281349.44,319.9,Air+FixedWing,Blue,Enemies,F-15C,Blue F-15C #002,us,=36=Barbarossa,0.0328110816293688,0,9.64028536760388e-05,15.5699996948242,2.56999969482422,0.03125,-0.0100002288818359,NaN,NaN,2.14287622944312,0,NaN,1.0009810529245,-0.0107615700298532,0.00138009258786364,5.38283538844553e-05,15.2689537507248,15.2690075790787,,,54.7599999904633,13,0.520541336478316,0.927083843279074
2018-07-19T08:03:47Z,1531987427,108,42.0499568,42.2445902,15.57,0.3,-0.2,326,647395.38,-281349.41,319.8,Air+FixedWing,Blue,Enemies,F-15C,Blue F-15C #002,us,=36=Barbarossa,0.03125,0,9.18162104927281e-05,15.5699996948242,2.56999969482422,0.03125,0,NaN,NaN,0.51428592374528,0.0279764548403722,NaN,0.999960827044399,0.0072925751254868,-0.00592455868432088,4.8828125e-05,15.2689537507248,15.2690025788498,,,55.7599999904633,13,0.573419319109723,0.979961954938135
2018-07-19T08:03:48Z,1531987428,108,42.0499568,42.2445902,15.57,0.4,-0.2,326,647395.38,-281349.41,319.8,Air+FixedWing,Blue,Enemies,F-15C,Blue F-15C #002,us,=36=Barbarossa,0,0,0,15.5699996948242,2.56999969482422,0,0,NaN,NaN,0.0571550229746667,0,NaN,0.999963879770746,0.00772925285042647,-0.00349065172486007,0,15.2689537507248,15.2689537507248,,,56.7599999904633,13,0.582741908126559,0.989284566636019
2018-07-19T08:03:49Z,1531987429,108,42.0499569,42.2445901,15.57,0.5,-0.2,326,647395.38,-281349.41,319.8,Air+FixedWing,Blue,Enemies,F-15C,Blue F-15C #002,us,=36=Barbarossa,0,0,0,15.5699996948242,2.56999969482422,0,0,NaN,NaN,0.333333401899015,0,NaN,0.999955713985031,0.00872648220153005,-0.00349065172486007,0,15.2689537507248,15.2689537507248,,,57.7599999904633,13,0.589408905387388,0.995951580443308
2018-07-19T08:03:50Z,1531987430,108,42.0499569,42.2445902,15.57,0.4,-0.2,326,647395.38,-281349.41,319.8,Air+FixedWing,Blue,Enemies,F-15C,Blue F-15C #002,us,=36=Barbarossa,0,0,0,15.5699996948242,2.56999969482422,0,0,NaN,NaN,0.104761921737332,0,NaN,0.999969422968348,0.00698121733286361,-0.00349065172486007,0,15.2689537507248,15.2689537507248,,,58.7599999904633,13,0.597489131604243,1.00403182736782
2018-07-19T08:03:51Z,1531987431,108,42.0499568,42.2445902,15.57,0.4,-0.2,326,647395.38,-281349.41,319.8,Air+FixedWing,Blue,Enemies,F-15C,Blue F-15C #002,us,=36=Barbarossa,0,0,0,15.5699996948242,2.56999969482422,0,0,NaN,NaN,0.178571453868575,0,NaN,0.999970257428203,0.00685655499108795,-0.00349065172486007,0,15.2689537507248,15.2689537507248,,,59.7599999904633,13,0.604033279032378,1.01057599092586
2018-07-19T08:03:52Z,1531987432,108,42.0499568,42.2445903,15.57,0.3,-0.2,326,647395.38,-281349.41,319.8,Air+FixedWing,Blue,Enemies,F-15C,Blue F-15C #002,us,=36=Barbarossa,0,0,0,15.5699996948242,2.56999969482422,0,0,NaN,NaN,0,0,NaN,0.999980032529351,0.00523593197522754,-0.00349065172486007,0,15.2689537507248,15.2689537507248,,,60.7599999904633,13,0.60973500944801,1.01627773444879
2018-07-19T08:03:53Z,1531987433,108,42.0499568,42.2445902,15.57,0.3,-0.2,326,647395.38,-281349.41,319.8,Air+FixedWing,Blue,Enemies,F-15C,Blue F-15C #002,us,=36=Barbarossa,0,0,0,15.5699996948242,2.56999969482422,0,0,NaN,NaN,0,0,NaN,0.999980032529351,0.00523593197522754,-0.00349065172486007,0,15.2689537507248,15.2689537507248,,,61.7599999904633,13,0.61968129404673,1.02622404345591
2018-07-19T08:03:54Z,1531987434,108,42.0499568,42.2445902,15.57,0.3,-0.2,326,647395.38,-281349.41,319.8,Air+FixedWing,Blue,Enemies,F-15C,Blue F-15C #002,us,=36=Barbarossa,0,0,0,15.5699996948242,2.56999969482422,0,0,NaN,NaN,0,0,NaN,0.999980032529351,0.00523593197522754,-0.00349065172486007,0,15.2689537507248,15.2689537507248,,,62.7599999904633,13,0.620215198435391,1.02675794941832
2018-07-19T08:03:55Z,1531987435,108,42.0499568,42.2445901,15.57,0.3,-0.2,326,647395.38,-281349.41,319.8,Air+FixedWing,Blue,Enemies,F-15C,Blue F-15C #002,us,=36=Barbarossa,0,0,0,15.5699996948242,2.56999969482422,0,0,NaN,NaN,0,0,NaN,0.999980032529351,0.00523593197522754,-0.00349065172486007,0,15.2689537507248,15.2689537507248,,,63.7599999904633,13,0.626597515790167,1.03314028304271
2018-07-19T08:03:56Z,1531987436,108,42.0499568,42.2445901,15.57,0.3,-0.2,326,647395.38,-281349.41,319.8,Air+FixedWing,Blue,Enemies,F-15C,Blue F-15C #002,us,=36=Barbarossa,0,0,0,15.5699996948242,2.56999969482422,0,0,NaN,NaN,0,0,NaN,0.999980032529351,0.00523593197522754,-0.00349065172486007,0,15.2689537507248,15.2689537507248,,,64.7599999904633,13,0.62729916465847,1.03384193348475
2018-07-19T08:03:57Z,1531987437,108,42.0499568,42.2445902,15.57,0.3,-0.2,326,647395.38,-281349.41,319.8,Air+FixedWing,Blue,Enemies,F-15C,Blue F-15C #002,us,=36=Barbarossa,0,0,0,15.5699996948242,2.56999969482422,0,0,NaN,NaN,0,0,NaN,0.999980032529351,0.00523593197522754,-0.00349065172486007,0,15.2689537507248,15.2689537507248,,,65.7599999904633,13,0.638079991881262,1.04462278762642
2018-07-19T08:03:58Z,1531987438,108,42.0499568,42.2445902,15.57,0.3,-0.2,326,647395.38,-281349.41,319.8,Air+FixedWing,Blue,Enemies,F-15C,Blue F-15C #002,us,=36=Barbarossa,0,0,0,15.5699996948242,2.56999969482422,0,0,NaN,NaN,0,0,NaN,0.999980032529351,0.00523593197522754,-0.00349065172486007,0,15.2689537507248,15.2689537507248,,,66.7599999904633,13,0.638123086107816,1.04466588254239
2018-07-19T08:03:59Z,1531987439,108,42.0499568,42.2445902,15.57,0.3,-0.2,326,647395.38,-281349.41,319.8,Air+FixedWing,Blue,Enemies,F-15C,Blue F-15C #002,us,=36=Barbarossa,0,0,0,15.5699996948242,2.56999969482422,0,0,NaN,NaN,0,0,NaN,0.999980032529351,0.00523593197522754,-0.00349065172486007,0,15.2689537507248,15.2689537507248,,,67.7599999904633,13,0.638166180386767,1.04470897616953
2018-07-19T08:04:00Z,1531987440,108,42.0499568,42.2445902,15.57,0.3,-0.2,326,647395.38,-281349.41,319.8,Air+FixedWing,Blue,Enemies,F-15C,Blue F-15C #002,us,=36=Barbarossa,0,0,0,15.5699996948242,2.56999969482422,0,0,NaN,NaN,0,0,NaN,0.999980032529351,0.00523593197522754,-0.00349065172486007,0,15.2689537507248,15.2689537507248,,,68.7599999904633,13,0.638209273324446,1.04475206975903
2018-07-19T08:04:01Z,1531987441,108,42.0499568,42.2445902,15.57,0.3,-0.2,326,647395.38,-281349.41,319.8,Air+FixedWing,Blue,Enemies,F-15C,Blue F-15C #002,us,=36=Barbarossa,0,0,0,15.5699996948242,2.56999969482422,0,0,NaN,NaN,0,0,NaN,0.999980032529351,0.00523593197522754,-0.00349065172486007,0,15.2689537507248,15.2689537507248,,,69.7599999904633,13,0.638252366224508,1.04479516265909
2018-07-19T08:04:02Z,1531987442,108,42.0499568,42.2445902,15.57,0.3,-0.2,326,647395.38,-281349.41,319.8,Air+FixedWing,Blue,Enemies,F-15C,Blue F-15C #002,us,=36=Barbarossa,0,0,0,15.5699996948242,2.56999969482422,0,0,NaN,NaN,0,0,NaN,0.999980032529351,0.00523593197522754,-0.00349065172486007,0,15.2689537507248,15.2689537507248,,,70.7599999904633,13,0.638295461140481,1.04483825757506
2018-07-19T08:04:03Z,1531987443,108,42.0499568,42.2445902,15.57,0.3,-0.2,326,647395.38,-281349.41,319.8,Air+FixedWing,Blue,Enemies,F-15C,Blue F-15C #002,us,=36=Barbarossa,0,0,0,15.5699996948242,2.56999969482422,0,0,NaN,NaN,0,0,NaN,0.999980032529351,0.00523593197522754,-0.00349065172486007,0,15.2689537507248,15.2689537507248,,,71.7599999904633,13,0.638338554729983,1.04488135116457
2018-07-19T08:04:04Z,1531987444,108,42.0499568,42.2445902,15.57,0.3,-0.2,326,647395.38,-281349.41,319.8,Air+FixedWing,Blue,Enemies,F-15C,Blue F-15C #002,us,=36=Barbarossa,0,0,0,15.5699996948242,2.56999969482422,0,0,NaN,NaN,0,0,NaN,0.999980032529351,0.00523593197522754,-0.00349065172486007,0,15.2689537507248,15.2689537507248,,,72.7599999904633,13,0.638381647667662,1.04492444410224
2018-07-19T08:04:05Z,1531987445,108,42.0499568,42.2445902,15.57,0.3,-0.2,326,647395.38,-281349.41,319.8,Air+FixedWing,Blue,Enemies,F-15C,Blue F-15C #002,us,=36=Barbarossa,0,0,0,15.5699996948242,2.56999969482422,0,0,NaN,NaN,0,0,NaN,0.999980032529351,0.00523593197522754,-0.00349065172486007,0,15.2689537507248,15.2689537507248,,,73.7599999904633,13,0.638424742141472,1.04496753905581
2018-07-19T08:04:06Z,1531987446,108,42.0499568,42.2445902,15.57,0.3,-0.2,326,647395.38,-281349.41,319.8,Air+FixedWing,Blue,Enemies,F-15C,Blue F-15C #002,us,=36=Barbarossa,0,0,0,15.5699996948242,2.56999969482422,0,0,NaN,NaN,0,0,NaN,0.999980032529351,0.00523593197522754,-0.00349065172486007,0,15.2689537507248,15.2689537507248,,,74.7599999904633,13,0.638467834157234,1.04501063128125
2018-07-19T08:04:07Z,1531987447,108,42.0499568,42.2445902,15.57,0.3,-0.2,326,647395.38,-281349.41,319.8,Air+FixedWing,Blue,Enemies,F-15C,Blue F-15C #002,us,=36=Barbarossa,0,0,0,15.5699996948242,2.56999969482422,0,0,NaN,NaN,0,0,NaN,0.999980032529351,0.00523593197522754,-0.00349065172486007,0,15.2689537507248,15.2689537507248,,,75.7599999904633,13,0.638510928668649,1.04505372510322
2018-07-19T08:04:08Z,1531987448,108,42.0499568,42.2445902,15.57,0.3,-0.2,326,647395.38,-281349.41,319.8,Air+FixedWing,Blue,Enemies,F-15C,Blue F-15C #002,us,=36=Barbarossa,0,0,0,15.5699996948242,2.56999969482422,0,0,NaN,NaN,0,0,NaN,0.999980032529351,0.00523593197522754,-0.00349065172486007,0,15.2689537507248,15.2689537507248,,,76.7599999904633,13,0.63855402290999,1.04509682001919
2018-07-19T08:04:09Z,1531987449,108,42.0499568,42.2445902,15.57,0.3,-0.2,326,647395.38,-281349.41,319.8,Air+FixedWing,Blue,Enemies,F-15C,Blue F-15C #002,us,=36=Barbarossa,0,0,0,15.5699996948242,2.56999969482422,0,0,NaN,NaN,0,0,NaN,0.999980032529351,0.00523593197522754,-0.00349065172486007,0,15.2689537507248,15.2689537507248,,,77.7599999904633,13,0.638597115600369,1.04513991272441
2018-07-19T08:04:10Z,1531987450,108,42.0499568,42.2445902,15.57,0.3,-0.2,326,647395.38,-281349.41,319.8,Air+FixedWing,Blue,Enemies,F-15C,Blue F-15C #002,us,=36=Barbarossa,0,0,0,15.5699996948242,2.56999969482422,0,0,NaN,NaN,0,0,NaN,0.999980032529351,0.00523593197522754,-0.00349065172486007,0,15.2689537507248,15.2689537507248,,,78.7599999904633,13,0.638640210111784,1.04518300767797
2018-07-19T08:04:11Z,1531987451,108,42.0499568,42.2445902,15.57,0.3,-0.2,326,647395.38,-281349.41,319.8,Air+FixedWing,Blue,Enemies,F-15C,Blue F-15C #002,us,=36=Barbarossa,0,0,0,15.5699996948242,2.56999969482422,0,0,NaN,NaN,0,0,NaN,0.999980032529351,0.00523593197522754,-0.00349065172486007,0,15.2689537507248,15.2689537507248,,,79.7599999904633,13,0.638683303011846,1.04522610013588
2018-07-19T08:04:12Z,1531987452,108,42.0499568,42.2445902,15.57,0.3,-0.2,326,647395.38,-281349.41,319.8,Air+FixedWing,Blue,Enemies,F-15C,Blue F-15C #002,us,=36=Barbarossa,0,0,0,15.5699996948242,2.56999969482422,0,0,NaN,NaN,0,0,NaN,0.999980032529351,0.00523593197522754,-0.00349065172486007,0,15.2689537507248,15.2689537507248,,,80.7599999904633,13,0.638726397253187,1.04526919505185
2018-07-19T08:04:13Z,1531987453,108,42.0499568,42.2445902,15.57,0.3,-0.2,326,647395.38,-281349.41,319.8,Air+FixedWing,Blue,Enemies,F-15C,Blue F-15C #002,us,=36=Barbarossa,0,0,0,15.5699996948242,2.56999969482422,0,0,NaN,NaN,0,0,NaN,0.999980032529351,0.00523593197522754,-0.00349065172486007,0,15.2689537507248,15.2689537507248,,,81.7599999904633,13,0.638769491075157,1.04531228864136
2018-07-19T08:04:14Z,1531987454,108,42.0499568,42.2445902,15.57,0.3,-0.2,326,647395.38,-281349.41,319.8,Air+FixedWing,Blue,Enemies,F-15C,Blue F-15C #002,us,=36=Barbarossa,0,0,0,15.5699996948242,2.56999969482422,0,0,NaN,NaN,0,0,NaN,0.999980032529351,0.00523593197522754,-0.00349065172486007,0,15.2689537507248,15.2689537507248,,,82.7599999904633,13,0.638812584454979,1.04535538202118
2018-07-19T08:04:15Z,1531987455,108,42.0499568,42.2445902,15.57,0.3,-0.2,326,647395.38,-281349.41,319.8,Air+FixedWing,Blue,Enemies,F-15C,Blue F-15C #002,us,=36=Barbarossa,0,0,0,15.5699996948242,2.56999969482422,0,0,NaN,NaN,0,0,NaN,0.999980032529351,0.00523593197522754,-0.00349065172486007,0,15.2689537507248,15.2689537507248,,,83.7599999904633,13,0.638855678044481,1.04539847516853
2018-07-19T08:04:16Z,1531987456,108,42.0499568,42.2445902,15.57,0.3,-0.2,326,647395.38,-281349.41,319.8,Air+FixedWing,Blue,Enemies,F-15C,Blue F-15C #002,us,=36=Barbarossa,0,0,0,15.5699996948242,2.56999969482422,0,0,NaN,NaN,0,0,NaN,0.999980032529351,0.00523593197522754,-0.00349065172486007,0,15.2689537507248,15.2689537507248,,,84.7599999904633,13,0.638898771191837,1.04544156875803
2018-07-19T08:04:17Z,1531987457,108,42.0499568,42.2445902,15.57,0.3,-0.2,326,647395.38,-281349.41,319.8,Air+FixedWing,Blue,Enemies,F-15C,Blue F-15C #002,us,=36=Barbarossa,0,0,0,15.5699996948242,2.56999969482422,0,0,NaN,NaN,0,0,NaN,0.999980032529351,0.00523593197522754,-0.00349065172486007,0,15.2689537507248,15.2689537507248,,,85.7599999904633,13,0.638941864781339,1.04548466234754
2018-07-19T08:04:18Z,1531987458,108,42.0499568,42.2445902,15.57,0.3,-0.2,326,647395.38,-281349.41,319.8,Air+FixedWing,Blue,Enemies,F-15C,Blue F-15C #002,us,=36=Barbarossa,0,0,0,15.5699996948242,2.56999969482422,0,0,NaN,NaN,0,0,NaN,0.999980032529351,0.00523593197522754,-0.00349065172486007,0,15.2689537507248,15.2689537507248,,,86.7599999904633,13,0.638984959487622,1.04552775749599
2018-07-19T08:04:19Z,1531987459,108,42.0499568,42.2445902,15.57,0.3,-0.2,326,647395.38,-281349.41,319.8,Air+FixedWing,Blue,Enemies,F-15C,Blue F-15C #002,us,=36=Barbarossa,0,0,0,15.5699996948242,2.56999969482422,0,0,NaN,NaN,0,0,NaN,0.999980032529351,0.00523593197522754,-0.00349065172486007,0,15.2689537507248,15.2689537507248,,,87.7599999904633,13,0.639028053077124,1.04557085087581
2018-07-19T08:04:20Z,1531987460,108,42.0499568,42.2445902,15.57,0.3,-0.2,326,647395.38,-281349.41,319.8,Air+FixedWing,Blue,Enemies,F-15C,Blue F-15C #002,us,=36=Barbarossa,0,0,0,15.5699996948242,2.56999969482422,0,0,NaN,NaN,0,0,NaN,0.999980032529351,0.00523593197522754,-0.00349065172486007,0,15.2689537507248,15.2689537507248,,,88.7599999904633,13,0.639071145535034,1.0456139437907
2018-07-19T08:04:21Z,1531987461,108,42.0499568,42.2445902,15.57,0.3,-0.2,326,647395.38,-281349.41,319.8,Air+FixedWing,Blue,Enemies,F-15C,Blue F-15C #002,us,=36=Barbarossa,0,0,0,15.5699996948242,2.56999969482422,0,0,NaN,NaN,0,0,NaN,0.999980032529351,0.00523593197522754,-0.00349065172486007,0,15.2689537507248,15.2689537507248,,,89.7599999904633,13,0.639114239124536,1.04565703761267
2018-07-19T08:04:22Z,1531987462,108,42.0499568,42.2445902,15.57,0.3,-0.2,326,647395.38,-281349.41,319.8,Air+FixedWing,Blue,Enemies,F-15C,Blue F-15C #002,us,=36=Barbarossa,0,0,0,15.5699996948242,2.56999969482422,0,0,NaN,NaN,0,0,NaN,0.999980032529351,0.00523593197522754,-0.00349065172486007,0,15.2689537507248,15.2689537507248,,,90.7599999904633,13,0.639157334040509,1.04570013252864
2018-07-19T08:04:23Z,1531987463,108,42.0499568,42.2445902,15.57,0.3,-0.2,326,647395.38,-281349.41,319.8,Air+FixedWing,Blue,Enemies,F-15C,Blue F-15C #002,us,=36=Barbarossa,0,0,0,15.5699996948242,2.56999969482422,0,0,NaN,NaN,0,0,NaN,0.999980032529351,0.00523593197522754,-0.00349065172486007,0,15.2689537507248,15.2689537507248,,,91.7599999904633,13,0.63920042742033,1.04574322590847
2018-07-19T08:04:24Z,1531987464,108,42.0499568,42.2445902,15.57,0.3,-0.2,326,647395.38,-281349.41,319.8,Air+FixedWing,Blue,Enemies,F-15C,Blue F-15C #002,us,=36=Barbarossa,0,0,0,15.5699996948242,2.56999969482422,0,0,NaN,NaN,0,0,NaN,0.999980032529351,0.00523593197522754,-0.00349065172486007,0,15.2689537507248,15.2689537507248,,,92.7599999904633,13,0.639243520567687,1.04578631949797
2018-07-19T08:04:25Z,1531987465,108,42.0499568,42.2445902,15.57,0.3,-0.2,326,647395.38,-281349.41,319.8,Air+FixedWing,Blue,Enemies,F-15C,Blue F-15C #002,us,=36=Barbarossa,0,0,0,15.5699996948242,2.56999969482422,0,0,NaN,NaN,0,0,NaN,0.999980032529351,0.00523593197522754,-0.00349065172486007,0,15.2689537507248,15.2689537507248,,,93.7599999904633,13,0.639286614157188,1.04582941264532
2018-07-19T08:04:26Z,1531987466,108,42.0499568,42.2445902,15.57,0.3,-0.2,326,647395.38,-281349.41,319.8,Air+FixedWing,Blue,Enemies,F-15C,Blue F-15C #002,us,=36=Barbarossa,0,0,0,15.5699996948242,2.56999969482422,0,0,NaN,NaN,0,0,NaN,0.999980032529351,0.00523593197522754,-0.00349065172486007,0,15.2689537507248,15.2689537507248,,,94.7599999904633,13,0.63932970774669,1.04587250667698
2018-07-19T08:04:27Z,1531987467,108,42.0499568,42.2445902,15.57,0.3,-0.2,326,647395.38,-281349.41,319.8,Air+FixedWing,Blue,Enemies,F-15C,Blue F-15C #002,us,=36=Barbarossa,0,0,0,15.5699996948242,2.56999969482422,0,0,NaN,NaN,0,0,NaN,0.999980032529351,0.00523593197522754,-0.00349065172486007,0,15.2689537507248,15.2689537507248,,,95.7599999904633,13,0.639372801568661,1.04591559982433
2018-07-19T08:04:28Z,1531987468,108,42.0499568,42.2445902,15.57,0.3,-0.2,326,647395.38,-281349.41,319.8,Air+FixedWing,Blue,Enemies,F-15C,Blue F-15C #002,us,=36=Barbarossa,0,0,0,15.5699996948242,2.56999969482422,0,0,NaN,NaN,0,0,NaN,0.999980032529351,0.00523593197522754,-0.00349065172486007,0,15.2689537507248,15.2689537507248,,,96.7599999904633,13,0.639415895585523,1.04595869453062
2018-07-19T08:04:29Z,1531987469,108,42.0499568,42.2445902,15.57,0.3,-0.2,326,647395.38,-281349.41,319.8,Air+FixedWing,Blue,Enemies,F-15C,Blue F-15C #002,us,=36=Barbarossa,0,0,0,15.5699996948242,2.56999969482422,0,0,NaN,NaN,0,0,NaN,0.999980032529351,0.00523593197522754,-0.00349065172486007,0,15.2689537507248,15.2689537507248,,,97.7599999904633,13,0.639458989189876,1.04600178835259
2018-07-19T08:04:30Z,1531987470,108,42.0499568,42.2445902,15.57,0.3,-0.2,326,647395.38,-281349.41,319.8,Air+FixedWing,Blue,Enemies,F-15C,Blue F-15C #002,us,=36=Barbarossa,0,0,0,15.5699996948242,2.56999969482422,0,0,NaN,NaN,0,0,NaN,0.999980032529351,0.00523593197522754,-0.00349065172486007,0,15.2689537507248,15.2689537507248,,,98.7599999904633,13,0.639502082322411,1.04604488125265
2018-07-19T08:04:31Z,1531987471,108,42.0499568,42.2445902,15.57,0.3,-0.2,326,647395.38,-281349.41,319.8,Air+FixedWing,Blue,Enemies,F-15C,Blue F-15C #002,us,=36=Barbarossa,0,0,0,15.5699996948242,2.56999969482422,0,0,NaN,NaN,0,0,NaN,0.999980032529351,0.00523593197522754,-0.00349065172486007,0,15.2689537507248,15.2689537507248,,,99.7599999904633,13,0.639545175911913,1.0460879755316
2018-07-19T08:04:32Z,1531987472,108,42.0499568,42.2445902,15.57,0.3,-0.2,326,647395.38,-281349.41,319.8,Air+FixedWing,Blue,Enemies,F-15C,Blue F-15C #002,us,=36=Barbarossa,0,0,0,15.5699996948242,2.56999969482422,0,0,NaN,NaN,0,0,NaN,0.999980032529351,0.00523593197522754,-0.00349065172486007,0,15.2689537507248,15.2689537507248,,,100.759999990463,13,0.639588270618197,1.04613107044757
2018-07-19T08:04:33Z,1531987473,108,42.0499568,42.2445902,15.57,0.3,-0.2,326,647395.38,-281349.41,319.8,Air+FixedWing,Blue,Enemies,F-15C,Blue F-15C #002,us,=36=Barbarossa,0,0,0,15.5699996948242,2.56999969482422,0,0,NaN,NaN,0,0,NaN,0.999980032529351,0.00523593197522754,-0.00349065172486007,0,15.2689537507248,15.2689537507248,,,101.759999990463,13,0.639631363765553,1.04617416338525
2018-07-19T08:04:34Z,1531987474,108,42.0499568,42.2445902,15.57,0.3,-0.2,326,647395.38,-281349.41,319.8,Air+FixedWing,Blue,Enemies,F-15C,Blue F-15C #002,us,=36=Barbarossa,0,0,0,15.5699996948242,2.56999969482422,0,0,NaN,NaN,0,0,NaN,0.999980032529351,0.00523593197522754,-0.00349065172486007,0,15.2689537507248,15.2689537507248,,,102.759999990463,13,0.639674457355055,1.04621725697475
2018-07-19T08:04:35Z,1531987475,108,42.0499568,42.2445902,15.57,0.3,-0.2,326,647395.38,-281349.41,319.8,Air+FixedWing,Blue,Enemies,F-15C,Blue F-15C #002,us,=36=Barbarossa,0,0,0,15.5699996948242,2.56999969482422,0,0,NaN,NaN,0,0,NaN,0.999980032529351,0.00523593197522754,-0.00349065172486007,0,15.2689537507248,15.2689537507248,,,103.759999990463,13,0.639717550255117,1.04626034987482
2018-07-19T08:04:36Z,1531987476,108,42.0499568,42.2445902,15.57,0.3,-0.2,326,647395.38,-281349.41,319.8,Air+FixedWing,Blue,Enemies,F-15C,Blue F-15C #002,us,=36=Barbarossa,0,0,0,15.5699996948242,2.56999969482422,0,0,NaN,NaN,0,0,NaN,0.999980032529351,0.00523593197522754,-0.00349065172486007,0,15.2689537507248,15.2689537507248,,,104.759999990463,13,0.639760643402474,1.04630344346432
2018-07-19T08:04:37Z,1531987477,108,42.0499568,42.2445902,15.57,0.3,-0.2,326,647395.38,-281349.41,319.8,Air+FixedWing,Blue,Enemies,F-15C,Blue F-15C #002,us,=36=Barbarossa,0,0,0,15.5699996948242,2.56999969482422,0,0,NaN,NaN,0,0,NaN,0.999980032529351,0.00523593197522754,-0.00349065172486007,0,15.2689537507248,15.2689537507248,,,105.759999990463,13,0.639803737471747,1.04634653730113
2018-07-19T08:04:38Z,1531987478,108,42.0499568,42.2445902,15.57,0.3,-0.2,326,647395.38,-281349.41,319.8,Air+FixedWing,Blue,Enemies,F-15C,Blue F-15C #002,us,=36=Barbarossa,0,0,0,15.5699996948242,2.56999969482422,0,0,NaN,NaN,0,0,NaN,0.999980032529351,0.00523593197522754,-0.00349065172486007,0,15.2689537507248,15.2689537507248,,,106.759999990463,13,0.63984683238772,1.04638963200741
2018-07-19T08:04:39Z,1531987479,108,42.0499568,42.2445902,15.57,0.3,-0.2,326,647395.38,-281349.41,319.8,Air+FixedWing,Blue,Enemies,F-15C,Blue F-15C #002,us,=36=Barbarossa,0,0,0,15.5699996948242,2.56999969482422,0,0,NaN,NaN,0,0,NaN,0.999980032529351,0.00523593197522754,-0.00349065172486007,0,15.2689537507248,15.2689537507248,,,107.759999990463,13,0.639889925287782,1.04643272648122
2018-07-19T08:04:40Z,1531987480,108,42.0499568,42.2445902,15.57,0.3,-0.2,326,647395.38,-281349.41,319.8,Air+FixedWing,Blue,Enemies,F-15C,Blue F-15C #002,us,=36=Barbarossa,0,0,0,15.5699996948242,2.56999969482422,0,0,NaN,NaN,0,0,NaN,0.999980032529351,0.00523593197522754,-0.00349065172486007,0,15.2689537507248,15.2689537507248,,,108.759999990463,13,0.639933018877284,1.04647581872945
2018-07-19T08:04:41Z,1531987481,108,42.0499568,42.2445902,15.57,0.3,-0.2,326,647395.38,-281349.41,319.8,Air+FixedWing,Blue,Enemies,F-15C,Blue F-15C #002,us,=36=Barbarossa,0,0,0,15.5699996948242,2.56999969482422,0,0,NaN,NaN,0,0,NaN,0.999980032529351,0.00523593197522754,-0.00349065172486007,0,15.2689537507248,15.2689537507248,,,109.759999990463,13,0.639976111814963,1.04651891231895
2018-07-19T08:04:42Z,1531987482,108,42.0499568,42.2445902,15.57,0.3,-0.2,326,647395.38,-281349.41,319.8,Air+FixedWing,Blue,Enemies,F-15C,Blue F-15C #002,us,=36=Barbarossa,0,0,0,15.5699996948242,2.56999969482422,0,0,NaN,NaN,0,0,NaN,0.999980032529351,0.00523593197522754,-0.00349065172486007,0,15.2689537507248,15.2689537507248,,,110.759999990463,13,0.640019206730936,1.04656200792435
2018-07-19T08:04:43Z,1531987483,108,42.0499568,42.2445902,15.57,0.3,-0.2,326,647395.38,-281349.41,319.8,Air+FixedWing,Blue,Enemies,F-15C,Blue F-15C #002,us,=36=Barbarossa,0,0,0,15.5699996948242,2.56999969482422,0,0,NaN,NaN,0,0,NaN,0.999980032529351,0.00523593197522754,-0.00349065172486007,0,15.2689537507248,15.2689537507248,,,111.759999990463,13,0.640062299878292,1.04660510086203
2018-07-19T08:04:44Z,1531987484,108,42.0499568,42.2445902,15.57,0.3,-0.2,326,647395.38,-281349.41,319.8,Air+FixedWing,Blue,Enemies,F-15C,Blue F-15C #002,us,=36=Barbarossa,0,0,0,15.5699996948242,2.56999969482422,0,0,NaN,NaN,0,0,NaN,0.999980032529351,0.00523593197522754,-0.00349065172486007,0,15.2689537507248,15.2689537507248,,,112.759999990463,13,0.640105394142416,1.04664819510337
2018-07-19T08:04:45Z,1531987485,108,42.0499568,42.2445902,15.57,0.3,-0.2,326,647395.38,-281349.41,319.8,Air+FixedWing,Blue,Enemies,F-15C,Blue F-15C #002,us,=36=Barbarossa,0,0,0,15.5699996948242,2.56999969482422,0,0,NaN,NaN,0,0,NaN,0.999980032529351,0.00523593197522754,-0.00349065172486007,0,15.2689537507248,15.2689537507248,,,113.759999990463,13,0.64014848705731,1.0466912873516
2018-07-19T08:04:46Z,1531987486,108,42.0499568,42.2445902,15.57,0.3,-0.2,326,647395.38,-281349.41,319.8,Air+FixedWing,Blue,Enemies,F-15C,Blue F-15C #002,us,=36=Barbarossa,0,0,0,15.5699996948242,2.56999969482422,0,0,NaN,NaN,0,0,NaN,0.999980032529351,0.00523593197522754,-0.00349065172486007,0,15.2689537507248,15.2689537507248,,,114.759999990463,13,0.640191579980163,1.0467343809411
2018-07-19T08:04:47Z,1531987487,108,42.0499568,42.2445902,15.57,0.3,-0.2,326,647395.38,-281349.41,319.8,Air+FixedWing,Blue,Enemies,F-15C,Blue F-15C #002,us,=36=Barbarossa,0,0,0,15.5699996948242,2.56999969482422,0,0,NaN,NaN,0,0,NaN,0.999980032529351,0.00523593197522754,-0.00349065172486007,0,15.2689537507248,15.2689537507248,,,115.759999990463,13,0.640234673569665,1.04677747453061
2018-07-19T08:04:48Z,1531987488,108,42.0499568,42.2445902,15.57,0.3,-0.2,326,647395.38,-281349.41,319.8,Air+FixedWing,Blue,Enemies,F-15C,Blue F-15C #002,us,=36=Barbarossa,0,0,0,15.5699996948242,2.56999969482422,0,0,NaN,NaN,0,0,NaN,0.999980032529351,0.00523593197522754,-0.00349065172486007,0,15.2689537507248,15.2689537507248,,,116.759999990463,13,0.640277769175064,1.04682057013601
2018-07-19T08:04:49Z,1531987489,108,42.0499568,42.2445902,15.57,0.3,-0.2,326,647395.38,-281349.41,319.8,Air+FixedWing,Blue,Enemies,F-15C,Blue F-15C #002,us,=36=Barbarossa,0,0,0,15.5699996948242,2.56999969482422,0,0,NaN,NaN,0,0,NaN,0.999980032529351,0.00523593197522754,-0.00349065172486007,0,15.2689537507248,15.2689537507248,,,117.759999990463,13,0.640320861632974,1.04686366395798
2018-07-19T08:04:50Z,1531987490,108,42.0499568,42.2445902,15.57,0.3,-0.2,326,647395.38,-281349.41,319.8,Air+FixedWing,Blue,Enemies,F-15C,Blue F-15C #002,us,=36=Barbarossa,0,0,0,15.5699996948242,2.56999969482422,0,0,NaN,NaN,0,0,NaN,0.999980032529351,0.00523593197522754,-0.00349065172486007,0,15.2689537507248,15.2689537507248,,,118.759999990463,13,0.640363955222476,1.04690675597374
2018-07-19T08:04:51Z,1531987491,108,42.0499568,42.2445902,15.57,0.3,-0.2,326,647395.38,-281349.41,319.8,Air+FixedWing,Blue,Enemies,F-15C,Blue F-15C #002,us,=36=Barbarossa,0,0,0,15.5699996948242,2.56999969482422,0,0,NaN,NaN,0,0,NaN,0.999980032529351,0.00523593197522754,-0.00349065172486007,0,15.2689537507248,15.2689537507248,,,119.759999990463,13,0.640407048602298,1.04694984956324
2018-07-19T08:04:52Z,1531987492,108,42.0499568,42.2445902,15.57,0.3,-0.2,326,647395.38,-281349.41,319.8,Air+FixedWing,Blue,Enemies,F-15C,Blue F-15C #002,us,=36=Barbarossa,0,0,0,15.5699996948242,2.56999969482422,0,0,NaN,NaN,0,0,NaN,0.999980032529351,0.00523593197522754,-0.00349065172486007,0,15.2689537507248,15.2689537507248,,,120.759999990463,13,0.64045014351827,1.04699294471169
2018-07-19T08:04:53Z,1531987493,108,42.0499568,42.2445902,15.57,0.3,-0.2,326,647395.38,-281349.41,319.8,Air+FixedWing,Blue,Enemies,F-15C,Blue F-15C #002,us,=36=Barbarossa,0,0,0,15.5699996948242,2.56999969482422,0,0,NaN,NaN,0,0,NaN,0.999980032529351,0.00523593197522754,-0.00349065172486007,0,15.2689537507248,15.2689537507248,,,121.759999990463,13,0.640493236665627,1.04703603899064
2018-07-19T08:04:54Z,1531987494,108,42.0499568,42.2445902,15.57,0.3,-0.2,326,647395.38,-281349.41,319.8,Air+FixedWing,Blue,Enemies,F-15C,Blue F-15C #002,us,=36=Barbarossa,0,0,0,15.5699996948242,2.56999969482422,0,0,NaN,NaN,0,0,NaN,0.999980032529351,0.00523593197522754,-0.00349065172486007,0,15.2689537507248,15.2689537507248,,,122.759999990463,13,0.640536330255128,1.04707913192832
2018-07-19T08:04:55Z,1531987495,108,42.0499568,42.2445902,15.57,0.3,-0.2,326,647395.38,-281349.41,319.8,Air+FixedWing,Blue,Enemies,F-15C,Blue F-15C #002,us,=36=Barbarossa,0,0,0,15.5699996948242,2.56999969482422,0,0,NaN,NaN,0,0,NaN,0.999980032529351,0.00523593197522754,-0.00349065172486007,0,15.2689537507248,15.2689537507248,,,123.759999990463,13,0.64057942363495,1.04712222548023
2018-07-19T08:04:56Z,1531987496,108,42.0499568,42.2445902,15.57,0.3,-0.2,326,647395.38,-281349.41,319.8,Air+FixedWing,Blue,Enemies,F-15C,Blue F-15C #002,us,=36=Barbarossa,0,0,0,15.5699996948242,2.56999969482422,0,0,NaN,NaN,0,0,NaN,0.999980032529351,0.00523593197522754,-0.00349065172486007,0,15.2689537507248,15.2689537507248,,,124.759999990463,13,0.640622517224452,1.04716531841791
2018-07-19T08:04:57Z,1531987497,108,42.0499568,42.2445902,15.57,0.3,-0.2,326,647395.38,-281349.41,319.8,Air+FixedWing,Blue,Enemies,F-15C,Blue F-15C #002,us,=36=Barbarossa,0,0,0,15.5699996948242,2.56999969482422,0,0,NaN,NaN,0,0,NaN,0.999980032529351,0.00523593197522754,-0.00349065172486007,0,15.2689537507248,15.2689537507248,,,125.759999990463,13,0.640665609682362,1.04720841200741
2018-07-19T08:04:58Z,1531987498,108,42.0499568,42.2445902,15.57,0.3,-0.2,326,647395.38,-281349.41,319.8,Air+FixedWing,Blue,Enemies,F-15C,Blue F-15C #002,us,=36=Barbarossa,0,0,0,15.5699996948242,2.56999969482422,0,0,NaN,NaN,0,0,NaN,0.999980032529351,0.00523593197522754,-0.00349065172486007,0,15.2689537507248,15.2689537507248,,,126.759999990463,13,0.640708705287762,1.04725150761281
2018-07-19T08:04:59Z,1531987499,108,42.0499568,42.2445902,15.57,0.3,-0.2,326,647395.38,-281349.41,319.8,Air+FixedWing,Blue,Enemies,F-15C,Blue F-15C #002,us,=36=Barbarossa,0,0,0,15.5699996948242,2.56999969482422,0,0,NaN,NaN,0,0,NaN,0.999980032529351,0.00523593197522754,-0.00349065172486007,0,15.2689537507248,15.2689537507248,,,127.759999990463,13,0.640751798225441,1.04729460055049
2018-07-19T08:05:00Z,1531987500,108,42.0499568,42.2445902,15.57,0.3,-0.2,326,647395.38,-281349.41,319.8,Air+FixedWing,Blue,Enemies,F-15C,Blue F-15C #002,us,=36=Barbarossa,0,0,0,15.5699996948242,2.56999969482422,0,0,NaN,NaN,0,0,NaN,0.999980032529351,0.00523593197522754,-0.00349065172486007,0,15.2689537507248,15.2689537507248,,,128.759999990463,13,0.640794891800136,1.04733769433487
2018-07-19T08:05:01Z,1531987501,108,42.0499568,42.2445902,15.57,0.3,-0.2,326,647395.38,-281349.41,319.8,Air+FixedWing,Blue,Enemies,F-15C,Blue F-15C #002,us,=36=Barbarossa,0,0,0,15.5699996948242,2.56999969482422,0,0,NaN,NaN,0,0,NaN,0.999980032529351,0.00523593197522754,-0.00349065172486007,0,15.2689537507248,15.2689537507248,,,129.759999990463,13,0.640837984715031,1.04738078704009
2018-07-19T08:05:02Z,1531987502,108,42.0499568,42.2445902,15.57,0.3,-0.2,326,647395.38,-281349.41,319.8,Air+FixedWing,Blue,Enemies,F-15C,Blue F-15C #002,us,=36=Barbarossa,0,0,0,15.5699996948242,2.56999969482422,0,0,NaN,NaN,0,0,NaN,0.999980032529351,0.00523593197522754,-0.00349065172486007,0,15.2689537507248,15.2689537507248,,,130.759999990463,13,0.640881079631003,1.04742388195606
2018-07-19T08:05:03Z,1531987503,108,42.0499568,42.2445902,15.57,0.3,-0.2,326,647395.38,-281349.41,319.8,Air+FixedWing,Blue,Enemies,F-15C,Blue F-15C #002,us,=36=Barbarossa,0,0,0,15.5699996948242,2.56999969482422,0,0,NaN,NaN,0,0,NaN,0.999980032529351,0.00523593197522754,-0.00349065172486007,0,15.2689537507248,15.2689537507248,,,131.759999990463,13,0.640924172568682,1.04746697577803
2018-07-19T08:05:04Z,1531987504,108,42.0499568,42.2445902,15.57,0.3,-0.2,326,647395.38,-281349.41,319.8,Air+FixedWing,Blue,Enemies,F-15C,Blue F-15C #002,us,=36=Barbarossa,0,0,0,15.5699996948242,2.56999969482422,0,0,NaN,NaN,0,0,NaN,0.999980032529351,0.00523593197522754,-0.00349065172486007,0,15.2689537507248,15.2689537507248,,,132.759999990463,13,0.640967266158184,1.04751006848325
2018-07-19T08:05:05Z,1531987505,108,42.0499568,42.2445902,15.57,0.3,-0.2,326,647395.38,-281349.41,319.8,Air+FixedWing,Blue,Enemies,F-15C,Blue F-15C #002,us,=36=Barbarossa,0,0,0,15.5699996948242,2.56999969482422,0,0,NaN,NaN,0,0,NaN,0.999980032529351,0.00523593197522754,-0.00349065172486007,0,15.2689537507248,15.2689537507248,,,133.759999990463,13,0.641010359290719,1.04755316274737
2018-07-19T08:05:06Z,1531987506,108,42.0499568,42.2445902,15.57,0.3,-0.2,326,647395.38,-281349.41,319.8,Air+FixedWing,Blue,Enemies,F-15C,Blue F-15C #002,us,=36=Barbarossa,0,0,0,15.5699996948242,2.56999969482422,0,0,NaN,NaN,0,0,NaN,0.999980032529351,0.00523593197522754,-0.00349065172486007,0,15.2689537507248,15.2689537507248,,,134.759999990463,13,0.641053452880221,1.04759625589473
2018-07-19T08:05:07Z,1531987507,108,42.0499568,42.2445902,15.57,0.3,-0.2,326,647395.38,-281349.41,319.8,Air+FixedWing,Blue,Enemies,F-15C,Blue F-15C #002,us,=36=Barbarossa,0,0,0,15.5699996948242,2.56999969482422,0,0,NaN,NaN,0,0,NaN,0.999980032529351,0.00523593197522754,-0.00349065172486007,0,15.2689537507248,15.2689537507248,,,135.759999990463,13,0.641096546484574,1.04763934948423
2018-07-19T08:05:08Z,1531987508,108,42.0499568,42.2445902,15.57,0.3,-0.2,326,647395.38,-281349.41,319.8,Air+FixedWing,Blue,Enemies,F-15C,Blue F-15C #002,us,=36=Barbarossa,0,0,0,15.5699996948242,2.56999969482422,0,0,NaN,NaN,0,0,NaN,0.999980032529351,0.00523593197522754,-0.00349065172486007,0,15.2689537507248,15.2689537507248,,,136.759999990463,13,0.641139640733917,1.0476824444002
2018-07-19T08:05:09Z,1531987509,108,42.0499568,42.2445902,15.57,0.3,-0.2,326,647395.38,-281349.41,319.8,Air+FixedWing,Blue,Enemies,F-15C,Blue F-15C #002,us,=36=Barbarossa,0,0,0,15.5699996948242,2.56999969482422,0,0,NaN,NaN,0,0,NaN,0.999980032529351,0.00523593197522754,-0.00349065172486007,0,15.2689537507248,15.2689537507248,,,137.759999990463,13,0.641182734323419,1.04772553798971
2018-07-19T08:05:10Z,1531987510,108,42.0499568,42.2445902,15.57,0.3,-0.2,326,647395.38,-281349.41,319.8,Air+FixedWing,Blue,Enemies,F-15C,Blue F-15C #002,us,=36=Barbarossa,0,0,0,15.5699996948242,2.56999969482422,0,0,NaN,NaN,0,0,NaN,0.999980032529351,0.00523593197522754,-0.00349065172486007,0,15.2689537507248,15.2689537507248,,,138.759999990463,13,0.641225827912921,1.04776863136953
2018-07-19T08:05:11Z,1531987511,108,42.0499568,42.2445902,15.57,0.3,-0.2,326,647395.38,-281349.41,319.8,Air+FixedWing,Blue,Enemies,F-15C,Blue F-15C #002,us,=36=Barbarossa,0,0,0,15.5699996948242,2.56999969482422,0,0,NaN,NaN,0,0,NaN,0.999980032529351,0.00523593197522754,-0.00349065172486007,0,15.2689537507248,15.2689537507248,,,139.759999990463,13,0.641268921060277,1.04781172451688
2018-07-19T08:05:12Z,1531987512,108,42.0499568,42.2445902,15.57,0.3,-0.2,326,647395.38,-281349.41,319.8,Air+FixedWing,Blue,Enemies,F-15C,Blue F-15C #002,us,=36=Barbarossa,0,0,0,15.5699996948242,2.56999969482422,0,0,NaN,NaN,0,0,NaN,0.999980032529351,0.00523593197522754,-0.00349065172486007,0,15.2689537507248,15.2689537507248,,,140.759999990463,13,0.641312015766561,1.04785481943286
2018-07-19T08:05:13Z,1531987513,108,42.0499568,42.2445902,15.57,0.3,-0.2,326,647395.38,-281349.41,319.8,Air+FixedWing,Blue,Enemies,F-15C,Blue F-15C #002,us,=36=Barbarossa,0,0,0,15.5699996948242,2.56999969482422,0,0,NaN,NaN,0,0,NaN,0.999980032529351,0.00523593197522754,-0.00349065172486007,0,15.2689537507248,15.2689537507248,,,141.759999990463,13,0.641355109356063,1.04789791369698
2018-07-19T08:05:14Z,1531987514,108,42.0499568,42.2445902,15.57,0.3,-0.2,326,647395.38,-281349.41,319.8,Air+FixedWing,Blue,Enemies,F-15C,Blue F-15C #002,us,=36=Barbarossa,0,0,0,15.5699996948242,2.56999969482422,0,0,NaN,NaN,0,0,NaN,0.999980032529351,0.00523593197522754,-0.00349065172486007,0,15.2689537507248,15.2689537507248,,,142.759999990463,13,0.641398202945565,1.04794100684434
2018-07-19T08:05:15Z,1531987515,108,42.0499568,42.2445902,15.57,0.3,-0.2,326,647395.38,-281349.41,319.8,Air+FixedWing,Blue,Enemies,F-15C,Blue F-15C #002,us,=36=Barbarossa,0,0,0,15.5699996948242,2.56999969482422,0,0,NaN,NaN,0,0,NaN,0.999980032529351,0.00523593197522754,-0.00349065172486007,0,15.2689537507248,15.2689537507248,,,143.759999990463,13,0.641441296092921,1.04798410022416
2018-07-19T08:05:16Z,1531987516,108,42.0499568,42.2445902,15.57,0.3,-0.2,326,647395.38,-281349.41,319.8,Air+FixedWing,Blue,Enemies,F-15C,Blue F-15C #002,us,=36=Barbarossa,0,0,0,15.5699996948242,2.56999969482422,0,0,NaN,NaN,0,0,NaN,0.999980032529351,0.00523593197522754,-0.00349065172486007,0,15.2689537507248,15.2689537507248,,,144.759999990463,13,0.641484389435142,1.04802719381366
