ISOTime,UnixTime,Id,Longitude,Latitude,Altitude,Roll,Pitch,Yaw,U,V,Heading,Type,Color,Coalition,Name,Group,Country,Pilot,TAS,CAS,M,ASL,AGL,GS,VS,AOA,AOS,RRT,TRT,TRD,G,LatG,LonG,Ek,Ep,Em,FFW,FFV,RelativeTime,Elev,GroundDistance,AirDistance
2018-07-19T08:01:59Z,1531987319,10A,42.0424294,42.24582,15.47,0,-0.3,145.8,646759.06,-281279.25,139.6,Air+FixedWing,Blue,Enemies,J-11A,Blue J-11A #003,cn,=36=Evil,0.148158957490243,0,0.000435308120838388,15.4704751968384,2.47047519683838,NaN,NaN,NaN,NaN,0.266650585197298,NaN,NaN,NaN,NaN,NaN,NaN,15.1713535589075,NaN,,,0.639999866485596,13,NaN,NaN
2018-07-19T08:02:00Z,1531987320,10A,42.0424296,42.2458197,15.56,0.1,-0.4,145.8,646759.06,-281279.28,139.6,Air+FixedWing,Blue,Enemies,J-11A,Blue J-11A #003,cn,=36=Evil,0.0930257416475727,0,0.00027332063778981,15.5580949783325,2.55809497833252,0.03125,0.0876197814941406,NaN,NaN,0.20000001179094,0.0171320104161963,NaN,0.98543501372688,0.00378522030678698,-0.00930656909919168,0.000432689430454047,15.2572792119265,15.2577119013569,,,1.6399998664856,13,0.0353523207507744,0.0944829022870284
2018-07-19T08:02:01Z,1531987321,10A,42.0424295,42.2458198,15.5,0.1,-0.5,145.8,646759.06,-281279.28,139.6,Air+FixedWing,Blue,Enemies,J-11A,Blue J-11A #003,cn,=36=Evil,0.0547618865966797,0,0.000160896804184096,15.5033330917358,2.50333309173584,0,-0.0547618865966797,NaN,NaN,0,0.0342640208323925,NaN,1.00212686344118,0.00381435310967551,-0.0105892604052498,0.00014994321118138,15.2035761464071,15.2037260896183,,,2.6399998664856,13,0.0521624324144064,0.151766803981038
2018-07-19T08:02:02Z,1531987322,10A,42.0424294,42.2458199,15.47,0,-0.4,145.8,646759.06,-281279.25,139.6,Air+FixedWing,Blue,Enemies,J-11A,Blue J-11A #003,cn,=36=Evil,0.045691391762309,0,0.000134246582973068,15.4699993133545,2.46999931335449,0.03125,-0.0333337783813477,NaN,NaN,0,0.0523391626455858,NaN,1.00543094859143,-0.00206530655055262,-0.00459256010801205,0.00010438516405884,15.1708868766308,15.1709912617948,,,3.6399998664856,13,0.0642383536017722,0.187220568335891
2018-07-19T08:02:03Z,1531987323,10A,42.0424294,42.2458199,15.49,0,-0.4,145.8,646759.06,-281279.25,139.6,Air+FixedWing,Blue,Enemies,J-11A,Blue J-11A #003,cn,=36=Evil,0.0200004577636719,0,5.87636667223992e-05,15.4899997711182,2.48999977111816,0,0.0200004577636719,NaN,NaN,0,0.0484566469995765,NaN,0.997635450563572,0,-0.00696492328072359,2.00009155378211e-05,15.1905006255436,15.1905206264591,,,4.6399998664856,13,0.067093767282542,0.207423829115428
2018-07-19T08:02:04Z,1531987324,10A,42.0424294,42.2458199,15.49,0,-0.4,145.8,646759.06,-281279.25,139.6,Air+FixedWing,Blue,Enemies,J-11A,Blue J-11A #003,cn,=36=Evil,0.00294876098632812,0,8.66380180574937e-06,15.4870510101318,2.48705101013184,0,-0.00294876098632812,NaN,NaN,0,0.0197823405926261,NaN,0.999574154320761,-0.00206530655055262,-0.00455167130054118,4.34759567724541e-07,15.1876088788509,15.1876093136105,,,5.6399998664856,13,0.0682709966134901,0.210598899365452
2018-07-19T08:02:05Z,1531987325,10A,42.0424294,42.2458199,15.48,0,-0.4,145.8,646759.06,-281279.28,139.6,Air+FixedWing,Blue,Enemies,J-11A,Blue J-11A #003,cn,=36=Evil,0.0320356941470195,0,9.41245777597475e-05,15.4799995422363,2.47999954223633,0.03125,-0.00705146789550781,NaN,NaN,0,0.0279764548403722,NaN,1.00066071080487,0.00413061310110525,-0.0118396177425562,5.13142849740689e-05,15.1806937510872,15.1807450653722,,,6.6399998664856,13,0.0682709966134901,0.217650367569763
2018-07-19T08:02:06Z,1531987326,10A,42.0424294,42.2458199,15.48,0,-0.3,145.8,646759.06,-281279.25,139.6,Air+FixedWing,Blue,Enemies,J-11A,Blue J-11A #003,cn,=36=Evil,0.03125,0,9.1816117406208e-05,15.4799995422363,2.47999954223633,0.03125,0,NaN,NaN,0,0.0523391626455858,NaN,1.00001158423919,-0.00413061310110525,-0.000382576181446908,4.8828125e-05,15.1806937510872,15.1807425792122,,,7.6399998664856,13,0.0682709966134901,0.217650367569763
2018-07-19T08:02:07Z,1531987327,10A,42.0424294,42.2458199,15.48,0,-0.3,145.8,646759.06,-281279.28,139.6,Air+FixedWing,Blue,Enemies,J-11A,Blue J-11A #003,cn,=36=Evil,0.03125,0,9.1816117406208e-05,15.4799995422363,2.47999954223633,0.03125,0,NaN,NaN,0,0.0296735133902291,NaN,0.999960759207275,0.00413061310110525,-0.0100893526832706,4.8828125e-05,15.1806937510872,15.1807425792122,,,8.6399998664856,13,0.0682709966134901,0.217650367569763
2018-07-19T08:02:08Z,1531987328,10A,42.0424294,42.2458199,15.48,0,-0.3,145.8,646759.06,-281279.25,139.6,Air+FixedWing,Blue,Enemies,J-11A,Blue J-11A #003,cn,=36=Evil,0.03125,0,9.1816117406208e-05,15.4799995422363,2.47999954223633,0.03125,0,NaN,NaN,0,0.00989117029631303,NaN,0.999998877981212,-0.00206530655055262,-0.00280927030690282,4.8828125e-05,15.1806937510872,15.1807425792122,,,9.6399998664856,13,0.0682709966134901,0.217650367569763
2018-07-19T08:02:09Z,1531987329,10A,42.0424294,42.2458199,15.48,0,-0.3,145.8,646759.06,-281279.25,139.6,Air+FixedWing,Blue,Enemies,J-11A,Blue J-11A #003,cn,=36=Evil,0,0,0,15.4799995422363,2.47999954223633,0,0,NaN,NaN,0,0.00989117029631303,NaN,0.999998877981212,-0.00206530655055262,-0.00280927030690282,0,15.1806937510872,15.1806937510872,,,10.6399998664856,13,0.0682709966134901,0.217650367569763
2018-07-19T08:02:10Z,1531987330,10A,42.0424294,42.2458199,15.48,0,-0.3,145.8,646759.06,-281279.28,139.6,Air+FixedWing,Blue,Enemies,J-11A,Blue J-11A #003,cn,=36=Evil,0.03125,0,9.1816117406208e-05,15.4799995422363,2.47999954223633,0.03125,0,NaN,NaN,0,0.00989117029631303,NaN,0.999973465465254,0.00206530655055262,-0.00766265855781466,4.8828125e-05,15.1806937510872,15.1807425792122,,,11.6399998664856,13,0.0682709966134901,0.217650367569763
2018-07-19T08:02:11Z,1531987331,10A,42.0424294,42.2458199,15.48,0,-0.3,145.8,646759.06,-281279.28,139.6,Air+FixedWing,Blue,Enemies,J-11A,Blue J-11A #003,cn,=36=Evil,0,0,0,15.4799995422363,2.47999954223633,0,0,NaN,NaN,0,0.00989117029631303,NaN,0.999986171723233,0,-0.00523596443235874,0,15.1806937510872,15.1806937510872,,,12.6399998664856,13,0.0682709966134901,0.217650367569763
2018-07-19T08:02:12Z,1531987332,10A,42.0424294,42.2458199,15.48,0,-0.3,145.8,646759.06,-281279.28,139.6,Air+FixedWing,Blue,Enemies,J-11A,Blue J-11A #003,cn,=36=Evil,0,0,0,15.4799995422363,2.47999954223633,0,0,NaN,NaN,0,0.00989117029631303,NaN,0.999986171723233,0,-0.00523596443235874,0,15.1806937510872,15.1806937510872,,,13.6399998664856,13,0.0682709966134901,0.217650367569763
2018-07-19T08:02:13Z,1531987333,10A,42.0424294,42.2458199,15.48,0,-0.3,145.8,646759.06,-281279.28,139.6,Air+FixedWing,Blue,Enemies,J-11A,Blue J-11A #003,cn,=36=Evil,0,0,0,15.4799995422363,2.47999954223633,0,0,NaN,NaN,0,0.00989117029631303,NaN,0.999973465465254,0.00206530655055262,-0.00766265855781466,0,15.1806937510872,15.1806937510872,,,14.6399998664856,13,0.0682709966134901,0.217650367569763
2018-07-19T08:02:14Z,1531987334,10A,42.0424294,42.2458199,15.48,0,-0.3,145.8,646759.06,-281279.25,139.6,Air+FixedWing,Blue,Enemies,J-11A,Blue J-11A #003,cn,=36=Evil,0.03125,0,9.1816117406208e-05,15.4799995422363,2.47999954223633,0.03125,0,NaN,NaN,0,0.00989117029631303,NaN,0.999998877981212,-0.00206530655055262,-0.00280927030690282,4.8828125e-05,15.1806937510872,15.1807425792122,,,15.6399998664856,13,0.0682709966134901,0.217650367569763
2018-07-19T08:02:15Z,1531987335,10A,42.0424294,42.2458199,15.48,0,-0.3,145.8,646759.06,-281279.25,139.6,Air+FixedWing,Blue,Enemies,J-11A,Blue J-11A #003,cn,=36=Evil,0,0,0,15.4799995422363,2.47999954223633,0,0,NaN,NaN,0,0.00989117029631303,NaN,0.999986171723233,0,-0.00523596443235874,0,15.1806937510872,15.1806937510872,,,16.6399998664856,13,0.0682709966134901,0.217650367569763
2018-07-19T08:02:16Z,1531987336,10A,42.0424294,42.2458199,15.48,0,-0.3,145.8,646759.06,-281279.25,139.6,Air+FixedWing,Blue,Enemies,J-11A,Blue J-11A #003,cn,=36=Evil,0,0,0,15.4799995422363,2.47999954223633,0,0,NaN,NaN,0,0.00989117029631303,NaN,0.999998877981212,-0.00206530655055262,-0.00280927030690282,0,15.1806937510872,15.1806937510872,,,17.6399998664856,13,0.0682709966134901,0.217650367569763
2018-07-19T08:02:17Z,1531987337,10A,42.0424294,42.2458199,15.48,0,-0.3,145.8,646759.06,-281279.28,139.6,Air+FixedWing,Blue,Enemies,J-11A,Blue J-11A #003,cn,=36=Evil,0.03125,0,9.1816117406208e-05,15.4799995422363,2.47999954223633,0.03125,0,NaN,NaN,0,0.00989117029631303,NaN,0.999960759207275,0.00413061310110525,-0.0100893526832706,4.8828125e-05,15.1806937510872,15.1807425792122,,,18.6399998664856,13,0.0682709966134901,0.217650367569763
2018-07-19T08:02:18Z,1531987338,10A,42.0424294,42.2458199,15.48,0,-0.3,145.8,646759.06,-281279.25,139.6,Air+FixedWing,Blue,Enemies,J-11A,Blue J-11A #003,cn,=36=Evil,0.03125,0,9.1816117406208e-05,15.4799995422363,2.47999954223633,0.03125,0,NaN,NaN,0,0.00989117029631303,NaN,0.999998877981212,-0.00206530655055262,-0.00280927030690282,4.8828125e-05,15.1806937510872,15.1807425792122,,,19.6399998664856,13,0.0682709966134901,0.217650367569763
2018-07-19T08:02:19Z,1531987339,10A,42.0424294,42.2458199,15.48,0,-0.3,145.8,646759.06,-281279.25,139.6,Air+FixedWing,Blue,Enemies,J-11A,Blue J-11A #003,cn,=36=Evil,0,0,0,15.4799995422363,2.47999954223633,0,0,NaN,NaN,0,0.00989117029631303,NaN,0.999998877981212,-0.00206530655055262,-0.00280927030690282,0,15.1806937510872,15.1806937510872,,,20.6399998664856,13,0.0682709966134901,0.217650367569763
2018-07-19T08:02:20Z,1531987340,10A,42.0424294,42.2458199,15.48,0,-0.3,145.8,646759.06,-281279.28,139.6,Air+FixedWing,Blue,Enemies,J-11A,Blue J-11A #003,cn,=36=Evil,0.03125,0,9.1816117406208e-05,15.4799995422363,2.47999954223633,0.03125,0,NaN,NaN,0,0.00989117029631303,NaN,0.999960759207275,0.00413061310110525,-0.0100893526832706,4.8828125e-05,15.1806937510872,15.1807425792122,,,21.6399998664856,13,0.0682709966134901,0.217650367569763
2018-07-19T08:02:21Z,1531987341,10A,42.0424294,42.2458199,15.48,0,-0.3,145.8,646759.06,-281279.25,139.6,Air+FixedWing,Blue,Enemies,J-11A,Blue J-11A #003,cn,=36=Evil,0.03125,0,9.1816117406208e-05,15.4799995422363,2.47999954223633,0.03125,0,NaN,NaN,0,0.00989117029631303,NaN,0.999998877981212,-0.00206530655055262,-0.00280927030690282,4.8828125e-05,15.1806937510872,15.1807425792122,,,22.6399998664856,13,0.0682709966134901,0.217650367569763
2018-07-19T08:02:22Z,1531987342,10A,42.0424294,42.2458199,15.48,0,-0.3,145.8,646759.06,-281279.25,139.6,Air+FixedWing,Blue,Enemies,J-11A,Blue J-11A #003,cn,=36=Evil,0,0,0,15.4799995422363,2.47999954223633,0,0,NaN,NaN,0,0.00989117029631303,NaN,0.999998877981212,-0.00206530655055262,-0.00280927030690282,0,15.1806937510872,15.1806937510872,,,23.6399998664856,13,0.0682709966134901,0.217650367569763
2018-07-19T08:02:23Z,1531987343,10A,42.0424294,42.2458199,15.48,0,-0.3,145.8,646759.06,-281279.28,139.6,Air+FixedWing,Blue,Enemies,J-11A,Blue J-11A #003,cn,=36=Evil,0.03125,0,9.1816117406208e-05,15.4799995422363,2.47999954223633,0.03125,0,NaN,NaN,0,0.00989117029631303,NaN,0.999973465465254,0.00206530655055262,-0.00766265855781466,4.8828125e-05,15.1806937510872,15.1807425792122,,,24.6399998664856,13,0.0682709966134901,0.217650367569763
2018-07-19T08:02:24Z,1531987344,10A,42.0424294,42.2458199,15.48,0,-0.3,145.8,646759.06,-281279.28,139.6,Air+FixedWing,Blue,Enemies,J-11A,Blue J-11A #003,cn,=36=Evil,0,0,0,15.4799995422363,2.47999954223633,0,0,NaN,NaN,0,0.00989117029631303,NaN,0.999973465465254,0.00206530655055262,-0.00766265855781466,0,15.1806937510872,15.1806937510872,,,25.6399998664856,13,0.0682709966134901,0.217650367569763
2018-07-19T08:02:25Z,1531987345,10A,42.0424294,42.2458199,15.48,0,-0.3,145.8,646759.06,-281279.25,139.6,Air+FixedWing,Blue,Enemies,J-11A,Blue J-11A #003,cn,=36=Evil,0.03125,0,9.1816117406208e-05,15.4799995422363,2.47999954223633,0.03125,0,NaN,NaN,0,0.00989117029631303,NaN,1.00001158423919,-0.00413061310110525,-0.000382576181446908,4.8828125e-05,15.1806937510872,15.1807425792122,,,26.6399998664856,13,0.0682709966134901,0.217650367569763
2018-07-19T08:02:26Z,1531987346,10A,42.0424294,42.2458199,15.48,0,-0.3,145.8,646759.06,-281279.28,139.6,Air+FixedWing,Blue,Enemies,J-11A,Blue J-11A #003,cn,=36=Evil,0.03125,0,9.1816117406208e-05,15.4799995422363,2.47999954223633,0.03125,0,NaN,NaN,0,0.00989117029631303,NaN,0.999960759207275,0.00413061310110525,-0.0100893526832706,4.8828125e-05,15.1806937510872,15.1807425792122,,,27.6399998664856,13,0.0682709966134901,0.217650367569763
2018-07-19T08:02:27Z,1531987347,10A,42.0424294,42.2458199,15.48,0,-0.3,145.8,646759.06,-281279.25,139.6,Air+FixedWing,Blue,Enemies,J-11A,Blue J-11A #003,cn,=36=Evil,0.03125,0,9.1816117406208e-05,15.4799995422363,2.47999954223633,0.03125,0,NaN,NaN,0,0.00989117029631303,NaN,1.00001158423919,-0.00413061310110525,-0.000382576181446908,4.8828125e-05,15.1806937510872,15.1807425792122,,,28.6399998664856,13,0.0682709966134901,0.217650367569763
2018-07-19T08:02:28Z,1531987348,10A,42.0424294,42.2458199,15.48,0,-0.3,145.8,646759.06,-281279.28,139.6,Air+FixedWing,Blue,Enemies,J-11A,Blue J-11A #003,cn,=36=Evil,0.03125,0,9.1816117406208e-05,15.4799995422363,2.47999954223633,0.03125,0,NaN,NaN,0,0.00989117029631303,NaN,0.999960759207275,0.00413061310110525,-0.0100893526832706,4.8828125e-05,15.1806937510872,15.1807425792122,,,29.6399998664856,13,0.0682709966134901,0.217650367569763
2018-07-19T08:02:29Z,1531987349,10A,42.0424294,42.2458199,15.48,0,-0.3,145.8,646759.06,-281279.25,139.6,Air+FixedWing,Blue,Enemies,J-11A,Blue J-11A #003,cn,=36=Evil,0.03125,0,9.1816117406208e-05,15.4799995422363,2.47999954223633,0.03125,0,NaN,NaN,0,0.00989117029631303,NaN,0.999998877981212,-0.00206530655055262,-0.00280927030690282,4.8828125e-05,15.1806937510872,15.1807425792122,,,30.6399998664856,13,0.0682709966134901,0.217650367569763
2018-07-19T08:02:30Z,1531987350,10A,42.0424294,42.2458199,15.48,0,-0.3,145.8,646759.06,-281279.25,139.6,Air+FixedWing,Blue,Enemies,J-11A,Blue J-11A #003,cn,=36=Evil,0,0,0,15.4799995422363,2.47999954223633,0,0,NaN,NaN,0,0.00989117029631303,NaN,0.999986171723233,0,-0.00523596443235874,0,15.1806937510872,15.1806937510872,,,31.6399998664856,13,0.0682709966134901,0.217650367569763
2018-07-19T08:02:31Z,1531987351,10A,42.0424294,42.2458199,15.48,0,-0.3,145.8,646759.06,-281279.25,139.6,Air+FixedWing,Blue,Enemies,J-11A,Blue J-11A #003,cn,=36=Evil,0,0,0,15.4799995422363,2.47999954223633,0,0,NaN,NaN,0,0.00989117029631303,NaN,0.999998877981212,-0.00206530655055262,-0.00280927030690282,0,15.1806937510872,15.1806937510872,,,32.6399998664856,13,0.0682709966134901,0.217650367569763
2018-07-19T08:02:32Z,1531987352,10A,42.0424294,42.2458199,15.48,0,-0.3,145.8,646759.06,-281279.28,139.6,Air+FixedWing,Blue,Enemies,J-11A,Blue J-11A #003,cn,=36=Evil,0.03125,0,9.1816117406208e-05,15.4799995422363,2.47999954223633,0.03125,0,NaN,NaN,0,0.00989117029631303,NaN,0.999973465465254,0.00206530655055262,-0.00766265855781466,4.8828125e-05,15.1806937510872,15.1807425792122,,,33.6399998664856,13,0.0682709966134901,0.217650367569763
2018-07-19T08:02:33Z,1531987353,10A,42.0424294,42.2458199,15.48,0,-0.3,145.8,646759.06,-281279.28,139.6,Air+FixedWing,Blue,Enemies,J-11A,Blue J-11A #003,cn,=36=Evil,0,0,0,15.4799995422363,2.47999954223633,0,0,NaN,NaN,0,0.00989117029631303,NaN,0.999986171723233,0,-0.00523596443235874,0,15.1806937510872,15.1806937510872,,,34.6399998664856,13,0.0682709966134901,0.217650367569763
2018-07-19T08:02:34Z,1531987354,10A,42.0424294,42.2458199,15.48,0,-0.3,145.8,646759.06,-281279.28,139.6,Air+FixedWing,Blue,Enemies,J-11A,Blue J-11A #003,cn,=36=Evil,0,0,0,15.4799995422363,2.47999954223633,0,0,NaN,NaN,0,0.00989117029631303,NaN,0.999986171723233,0,-0.00523596443235874,0,15.1806937510872,15.1806937510872,,,35.6399998664856,13,0.0682709966134901,0.217650367569763
2018-07-19T08:02:35Z,1531987355,10A,42.0424294,42.2458199,15.48,0,-0.3,145.8,646759.06,-281279.28,139.6,Air+FixedWing,Blue,Enemies,J-11A,Blue J-11A #003,cn,=36=Evil,0,0,0,15.4799995422363,2.47999954223633,0,0,NaN,NaN,0,0.00989117029631303,NaN,0.999973465465254,0.00206530655055262,-0.00766265855781466,0,15.1806937510872,15.1806937510872,,,36.6399998664856,13,0.0682709966134901,0.217650367569763
2018-07-19T08:02:36Z,1531987356,10A,42.0424294,42.2458199,15.48,0,-0.3,145.8,646759.06,-281279.25,139.6,Air+FixedWing,Blue,Enemies,J-11A,Blue J-11A #003,cn,=36=Evil,0.03125,0,9.1816117406208e-05,15.4799995422363,2.47999954223633,0.03125,0,NaN,NaN,0,0.00989117029631303,NaN,0.999998877981212,-0.00206530655055262,-0.00280927030690282,4.8828125e-05,15.1806937510872,15.1807425792122,,,37.6399998664856,13,0.0682709966134901,0.217650367569763
2018-07-19T08:02:37Z,1531987357,10A,42.0424294,42.2458199,15.48,0,-0.3,145.8,646759.06,-281279.25,139.6,Air+FixedWing,Blue,Enemies,J-11A,Blue J-11A #003,cn,=36=Evil,0,0,0,15.4799995422363,2.47999954223633,0,0,NaN,NaN,0,0.00989117029631303,NaN,0.999998877981212,-0.00206530655055262,-0.00280927030690282,0,15.1806937510872,15.1806937510872,,,38.6399998664856,13,0.0682709966134901,0.217650367569763
2018-07-19T08:02:38Z,1531987358,10A,42.0424294,42.2458199,15.48,0,-0.3,145.8,646759.06,-281279.28,139.6,Air+FixedWing,Blue,Enemies,J-11A,Blue J-11A #003,cn,=36=Evil,0.03125,0,9.1816117406208e-05,15.4799995422363,2.47999954223633,0.03125,0,NaN,NaN,0,0.00989117029631303,NaN,0.999973465465254,0.00206530655055262,-0.00766265855781466,4.8828125e-05,15.1806937510872,15.1807425792122,,,39.6399998664856,13,0.0682709966134901,0.217650367569763
2018-07-19T08:02:39Z,1531987359,10A,42.0424294,42.2458199,15.48,0,-0.3,145.8,646759.06,-281279.28,139.6,Air+FixedWing,Blue,Enemies,J-11A,Blue J-11A #003,cn,=36=Evil,0,0,0,15.4799995422363,2.47999954223633,0,0,NaN,NaN,0,0.00989117029631303,NaN,0.999973465465254,0.00206530655055262,-0.00766265855781466,0,15.1806937510872,15.1806937510872,,,40.6399998664856,13,0.0682709966134901,0.217650367569763
2018-07-19T08:02:40Z,1531987360,10A,42.0424294,42.2458199,15.48,0,-0.3,145.8,646759.06,-281279.25,139.6,Air+FixedWing,Blue,Enemies,J-11A,Blue J-11A #003,cn,=36=Evil,0.03125,0,9.1816117406208e-05,15.4799995422363,2.47999954223633,0.03125,0,NaN,NaN,0,0.00989117029631303,NaN,0.999998877981212,-0.00206530655055262,-0.00280927030690282,4.8828125e-05,15.1806937510872,15.1807425792122,,,41.6399998664856,13,0.0682709966134901,0.217650367569763
2018-07-19T08:02:41Z,1531987361,10A,42.0424294,42.2458199,15.48,0,-0.3,145.8,646759.06,-281279.25,139.6,Air+FixedWing,Blue,Enemies,J-11A,Blue J-11A #003,cn,=36=Evil,0,0,0,15.4799995422363,2.47999954223633,0,0,NaN,NaN,0,0.00989117029631303,NaN,0.999998877981212,-0.00206530655055262,-0.00280927030690282,0,15.1806937510872,15.1806937510872,,,42.6399998664856,13,0.0682709966134901,0.217650367569763
2018-07-19T08:02:42Z,1531987362,10A,42.0424294,42.2458199,15.48,0,-0.3,145.8,646759.06,-281279.28,139.6,Air+FixedWing,Blue,Enemies,J-11A,Blue J-11A #003,cn,=36=Evil,0.03125,0,9.1816117406208e-05,15.4799995422363,2.47999954223633,0.03125,0,NaN,NaN,0,0.00989117029631303,NaN,0.999960759207275,0.00413061310110525,-0.0100893526832706,4.8828125e-05,15.1806937510872,15.1807425792122,,,43.6399998664856,13,0.0682709966134901,0.217650367569763
2018-07-19T08:02:43Z,1531987363,10A,42.0424294,42.2458199,15.48,0,-0.3,145.8,646759.06,-281279.25,139.6,Air+FixedWing,Blue,Enemies,J-11A,Blue J-11A #003,cn,=36=Evil,0.03125,0,9.1816117406208e-05,15.4799995422363,2.47999954223633,0.03125,0,NaN,NaN,0,0.00989117029631303,NaN,0.999998877981212,-0.00206530655055262,-0.00280927030690282,4.8828125e-05,15.1806937510872,15.1807425792122,,,44.6399998664856,13,0.0682709966134901,0.217650367569763
2018-07-19T08:02:44Z,1531987364,10A,42.0424294,42.2458199,15.48,0,-0.3,145.8,646759.06,-281279.25,139.6,Air+FixedWing,Blue,Enemies,J-11A,Blue J-11A #003,cn,=36=Evil,0,0,0,15.4799995422363,2.47999954223633,0,0,NaN,NaN,0,0.00989117029631303,NaN,0.999998877981212,-0.00206530655055262,-0.00280927030690282,0,15.1806937510872,15.1806937510872,,,45.6399998664856,13,0.0682709966134901,0.217650367569763
2018-07-19T08:02:45Z,1531987365,10A,42.0424294,42.2458199,15.48,0,-0.3,145.8,646759.06,-281279.28,139.6,Air+FixedWing,Blue,Enemies,J-11A,Blue J-11A #003,cn,=36=Evil,0.03125,0,9.1816117406208e-05,15.4799995422363,2.47999954223633,0.03125,0,NaN,NaN,0,0.00989117029631303,NaN,0.999973465465254,0.00206530655055262,-0.00766265855781466,4.8828125e-05,15.1806937510872,15.1807425792122,,,46.6399998664856,13,0.0682709966134901,0.217650367569763
2018-07-19T08:02:46Z,1531987366,10A,42.0424294,42.2458199,15.48,0,-0.3,145.8,646759.06,-281279.28,139.6,Air+FixedWing,Blue,Enemies,J-11A,Blue J-11A #003,cn,=36=Evil,0,0,0,15.4799995422363,2.47999954223633,0,0,NaN,NaN,0,0.00989117029631303,NaN,0.999973465465254,0.00206530655055262,-0.00766265855781466,0,15.1806937510872,15.1806937510872,,,47.6399998664856,13,0.0682709966134901,0.217650367569763
2018-07-19T08:02:47Z,1531987367,10A,42.0424294,42.2458199,15.48,0,-0.3,145.8,646759.06,-281279.25,139.6,Air+FixedWing,Blue,Enemies,J-11A,Blue J-11A #003,cn,=36=Evil,0.03125,0,9.1816117406208e-05,15.4799995422363,2.47999954223633,0.03125,0,NaN,NaN,0,0.00989117029631303,NaN,0.999998877981212,-0.00206530655055262,-0.00280927030690282,4.8828125e-05,15.1806937510872,15.1807425792122,,,48.6399998664856,13,0.0682709966134901,0.217650367569763
2018-07-19T08:02:48Z,1531987368,10A,42.0424294,42.2458199,15.48,0,-0.3,145.8,646759.06,-281279.25,139.6,Air+FixedWing,Blue,Enemies,J-11A,Blue J-11A #003,cn,=36=Evil,0,0,0,15.4799995422363,2.47999954223633,0,0,NaN,NaN,0,0.00989117029631303,NaN,0.999986171723233,0,-0.00523596443235874,0,15.1806937510872,15.1806937510872,,,49.6399998664856,13,0.0682709966134901,0.217650367569763
2018-07-19T08:02:49Z,1531987369,10A,42.0424294,42.2458199,15.48,0,-0.3,145.8,646759.06,-281279.25,139.6,Air+FixedWing,Blue,Enemies,J-11A,Blue J-11A #003,cn,=36=Evil,0,0,0,15.4799995422363,2.47999954223633,0,0,NaN,NaN,0,0.00989117029631303,NaN,0.999998877981212,-0.00206530655055262,-0.00280927030690282,0,15.1806937510872,15.1806937510872,,,50.6399998664856,13,0.0682709966134901,0.217650367569763
2018-07-19T08:02:50Z,1531987370,10A,42.0424294,42.2458199,15.48,0,-0.3,145.8,646759.06,-281279.28,139.6,Air+FixedWing,Blue,Enemies,J-11A,Blue J-11A #003,cn,=36=Evil,0.03125,0,9.1816117406208e-05,15.4799995422363,2.47999954223633,0.03125,0,NaN,NaN,0,0.00989117029631303,NaN,0.999973465465254,0.00206530655055262,-0.00766265855781466,4.8828125e-05,15.1806937510872,15.1807425792122,,,51.6399998664856,13,0.0682709966134901,0.217650367569763
2018-07-19T08:02:51Z,1531987371,10A,42.0424294,42.2458199,15.48,0,-0.3,145.8,646759.06,-281279.28,139.6,Air+FixedWing,Blue,Enemies,J-11A,Blue J-11A #003,cn,=36=Evil,0,0,0,15.4799995422363,2.47999954223633,0,0,NaN,NaN,0,0.00989117029631303,NaN,0.999973465465254,0.00206530655055262,-0.00766265855781466,0,15.1806937510872,15.1806937510872,,,52.6399998664856,13,0.0682709966134901,0.217650367569763
2018-07-19T08:02:52Z,1531987372,10A,42.0424294,42.2458199,15.48,0,-0.3,145.8,646759.06,-281279.25,139.6,Air+FixedWing,Blue,Enemies,J-11A,Blue J-11A #003,cn,=36=Evil,0.03125,0,9.1816117406208e-05,15.4799995422363,2.47999954223633,0.03125,0,NaN,NaN,0,0.00989117029631303,NaN,1.00001158423919,-0.00413061310110525,-0.000382576181446908,4.8828125e-05,15.1806937510872,15.1807425792122,,,53.6399998664856,13,0.0682709966134901,0.217650367569763
2018-07-19T08:02:53Z,1531987373,10A,42.0424294,42.2458199,15.48,0,-0.3,145.8,646759.06,-281279.28,139.6,Air+FixedWing,Blue,Enemies,J-11A,Blue J-11A #003,cn,=36=Evil,0.03125,0,9.1816117406208e-05,15.4799995422363,2.47999954223633,0.03125,0,NaN,NaN,0,0.00989117029631303,NaN,0.999973465465254,0.00206530655055262,-0.00766265855781466,4.8828125e-05,15.1806937510872,15.1807425792122,,,54.6399998664856,13,0.0682709966134901,0.217650367569763
2018-07-19T08:02:54Z,1531987374,10A,42.0424294,42.2458199,15.48,0,-0.3,145.8,646759.06,-281279.28,139.6,Air+FixedWing,Blue,Enemies,J-11A,Blue J-11A #003,cn,=36=Evil,0,0,0,15.4799995422363,2.47999954223633,0,0,NaN,NaN,0,0.00989117029631303,NaN,0.999973465465254,0.00206530655055262,-0.00766265855781466,0,15.1806937510872,15.1806937510872,,,55.6399998664856,13,0.0682709966134901,0.217650367569763
2018-07-19T08:02:55Z,1531987375,10A,42.0424294,42.2458199,15.48,0,-0.3,145.8,646759.06,-281279.25,139.6,Air+FixedWing,Blue,Enemies,J-11A,Blue J-11A #003,cn,=36=Evil,0.03125,0,9.1816117406208e-05,15.4799995422363,2.47999954223633,0.03125,0,NaN,NaN,0,0.00989117029631303,NaN,1.00001158423919,-0.00413061310110525,-0.000382576181446908,4.8828125e-05,15.1806937510872,15.1807425792122,,,56.6399998664856,13,0.0682709966134901,0.217650367569763
2018-07-19T08:02:56Z,1531987376,10A,42.0424294,42.2458199,15.48,0,-0.3,145.8,646759.06,-281279.28,139.6,Air+FixedWing,Blue,Enemies,J-11A,Blue J-11A #003,cn,=36=Evil,0.03125,0,9.1816117406208e-05,15.4799995422363,2.47999954223633,0.03125,0,NaN,NaN,0,0.00989117029631303,NaN,0.999973465465254,0.00206530655055262,-0.00766265855781466,4.8828125e-05,15.1806937510872,15.1807425792122,,,57.6399998664856,13,0.0682709966134901,0.217650367569763
2018-07-19T08:02:57Z,1531987377,10A,42.0424294,42.2458199,15.48,0,-0.3,145.8,646759.06,-281279.28,139.6,Air+FixedWing,Blue,Enemies,J-11A,Blue J-11A #003,cn,=36=Evil,0,0,0,15.4799995422363,2.47999954223633,0,0,NaN,NaN,0,0.00989117029631303,NaN,0.999973465465254,0.00206530655055262,-0.00766265855781466,0,15.1806937510872,15.1806937510872,,,58.6399998664856,13,0.0682709966134901,0.217650367569763
2018-07-19T08:02:58Z,1531987378,10A,42.0424294,42.2458199,15.48,0,-0.3,145.8,646759.06,-281279.25,139.6,Air+FixedWing,Blue,Enemies,J-11A,Blue J-11A #003,cn,=36=Evil,0.03125,0,9.1816117406208e-05,15.4799995422363,2.47999954223633,0.03125,0,NaN,NaN,0,0.00989117029631303,NaN,0.999998877981212,-0.00206530655055262,-0.00280927030690282,4.8828125e-05,15.1806937510872,15.1807425792122,,,59.6399998664856,13,0.0682709966134901,0.217650367569763
2018-07-19T08:02:59Z,1531987379,10A,42.0424294,42.2458199,15.48,0,-0.3,145.8,646759.06,-281279.25,139.6,Air+FixedWing,Blue,Enemies,J-11A,Blue J-11A #003,cn,=36=Evil,0,0,0,15.4799995422363,2.47999954223633,0,0,NaN,NaN,0,0.00989117029631303,NaN,0.999998877981212,-0.00206530655055262,-0.00280927030690282,0,15.1806937510872,15.1806937510872,,,60.6399998664856,13,0.0682709966134901,0.217650367569763
2018-07-19T08:03:00Z,1531987380,10A,42.0424294,42.2458199,15.48,0,-0.3,145.8,646759.06,-281279.28,139.6,Air+FixedWing,Blue,Enemies,J-11A,Blue J-11A #003,cn,=36=Evil,0.03125,0,9.1816117406208e-05,15.4799995422363,2.47999954223633,0.03125,0,NaN,NaN,0,0.00989117029631303,NaN,0.999960759207275,0.00413061310110525,-0.0100893526832706,4.8828125e-05,15.1806937510872,15.1807425792122,,,61.6399998664856,13,0.0682709966134901,0.217650367569763
2018-07-19T08:03:01Z,1531987381,10A,42.0424294,42.2458199,15.48,0,-0.3,145.8,646759.06,-281279.25,139.6,Air+FixedWing,Blue,Enemies,J-11A,Blue J-11A #003,cn,=36=Evil,0.03125,0,9.1816117406208e-05,15.4799995422363,2.47999954223633,0.03125,0,NaN,NaN,0,0.00989117029631303,NaN,0.999998877981212,-0.00206530655055262,-0.00280927030690282,4.8828125e-05,15.1806937510872,15.1807425792122,,,62.6399998664856,13,0.0682709966134901,0.217650367569763
2018-07-19T08:03:02Z,1531987382,10A,42.0424294,42.2458199,15.48,0,-0.3,145.8,646759.06,-281279.25,139.6,Air+FixedWing,Blue,Enemies,J-11A,Blue J-11A #003,cn,=36=Evil,0,0,0,15.4799995422363,2.47999954223633,0,0,NaN,NaN,0,0.00989117029631303,NaN,0.999998877981212,-0.00206530655055262,-0.00280927030690282,0,15.1806937510872,15.1806937510872,,,63.6399998664856,13,0.0682709966134901,0.217650367569763
2018-07-19T08:03:03Z,1531987383,10A,42.0424294,42.2458199,15.48,0,-0.3,145.8,646759.06,-281279.28,139.6,Air+FixedWing,Blue,Enemies,J-11A,Blue J-11A #003,cn,=36=Evil,0.03125,0,9.1816117406208e-05,15.4799995422363,2.47999954223633,0.03125,0,NaN,NaN,0,0.00989117029631303,NaN,0.999973465465254,0.00206530655055262,-0.00766265855781466,4.8828125e-05,15.1806937510872,15.1807425792122,,,64.6399998664856,13,0.0682709966134901,0.217650367569763
2018-07-19T08:03:04Z,1531987384,10A,42.0424294,42.2458199,15.48,0,-0.3,145.8,646759.06,-281279.28,139.6,Air+FixedWing,Blue,Enemies,J-11A,Blue J-11A #003,cn,=36=Evil,0,0,0,15.4799995422363,2.47999954223633,0,0,NaN,NaN,0,0.00989117029631303,NaN,0.999973465465254,0.00206530655055262,-0.00766265855781466,0,15.1806937510872,15.1806937510872,,,65.6399998664856,13,0.0682709966134901,0.217650367569763
2018-07-19T08:03:05Z,1531987385,10A,42.0424294,42.2458199,15.48,0,-0.3,145.8,646759.06,-281279.25,139.6,Air+FixedWing,Blue,Enemies,J-11A,Blue J-11A #003,cn,=36=Evil,0.03125,0,9.1816117406208e-05,15.4799995422363,2.47999954223633,0.03125,0,NaN,NaN,0,0.00989117029631303,NaN,0.999998877981212,-0.00206530655055262,-0.00280927030690282,4.8828125e-05,15.1806937510872,15.1807425792122,,,66.6399998664856,13,0.0682709966134901,0.217650367569763
2018-07-19T08:03:06Z,1531987386,10A,42.0424294,42.2458199,15.48,0,-0.3,145.8,646759.06,-281279.25,139.6,Air+FixedWing,Blue,Enemies,J-11A,Blue J-11A #003,cn,=36=Evil,0,0,0,15.4799995422363,2.47999954223633,0,0,NaN,NaN,0,0.00989117029631303,NaN,0.999986171723233,0,-0.00523596443235874,0,15.1806937510872,15.1806937510872,,,67.6399998664856,13,0.0682709966134901,0.217650367569763
2018-07-19T08:03:07Z,1531987387,10A,42.0424294,42.2458199,15.48,0,-0.3,145.8,646759.06,-281279.25,139.6,Air+FixedWing,Blue,Enemies,J-11A,Blue J-11A #003,cn,=36=Evil,0,0,0,15.4799995422363,2.47999954223633,0,0,NaN,NaN,0,0.00989117029631303,NaN,0.999998877981212,-0.00206530655055262,-0.00280927030690282,0,15.1806937510872,15.1806937510872,,,68.6399998664856,13,0.0682709966134901,0.217650367569763
2018-07-19T08:03:08Z,1531987388,10A,42.0424294,42.2458199,15.48,0,-0.3,145.8,646759.06,-281279.28,139.6,Air+FixedWing,Blue,Enemies,J-11A,Blue J-11A #003,cn,=36=Evil,0.03125,0,9.1816117406208e-05,15.4799995422363,2.47999954223633,0.03125,0,NaN,NaN,0,0.00989117029631303,NaN,0.999960759207275,0.00413061310110525,-0.0100893526832706,4.8828125e-05,15.1806937510872,15.1807425792122,,,69.6399998664856,13,0.0682709966134901,0.217650367569763
2018-07-19T08:03:09Z,1531987389,10A,42.0424294,42.2458199,15.48,0,-0.3,145.8,646759.06,-281279.25,139.6,Air+FixedWing,Blue,Enemies,J-11A,Blue J-11A #003,cn,=36=Evil,0.03125,0,9.1816117406208e-05,15.4799995422363,2.47999954223633,0.03125,0,NaN,NaN,0,0.00989117029631303,NaN,0.999998877981212,-0.00206530655055262,-0.00280927030690282,4.8828125e-05,15.1806937510872,15.1807425792122,,,70.6399998664856,13,0.0682709966134901,0.217650367569763
2018-07-19T08:03:10Z,1531987390,10A,42.0424294,42.2458199,15.48,0,-0.3,145.8,646759.06,-281279.25,139.6,Air+FixedWing,Blue,Enemies,J-11A,Blue J-11A #003,cn,=36=Evil,0,0,0,15.4799995422363,2.47999954223633,0,0,NaN,NaN,0,0.00989117029631303,NaN,0.999986171723233,0,-0.00523596443235874,0,15.1806937510872,15.1806937510872,,,71.6399998664856,13,0.0682709966134901,0.217650367569763
2018-07-19T08:03:11Z,1531987391,10A,42.0424294,42.2458199,15.48,0,-0.3,145.8,646759.06,-281279.25,139.6,Air+FixedWing,Blue,Enemies,J-11A,Blue J-11A #003,cn,=36=Evil,0,0,0,15.4799995422363,2.47999954223633,0,0,NaN,NaN,0,0.00989117029631303,NaN,0.999986171723233,0,-0.00523596443235874,0,15.1806937510872,15.1806937510872,,,72.6399998664856,13,0.0682709966134901,0.217650367569763
2018-07-19T08:03:12Z,1531987392,10A,42.0424294,42.2458199,15.48,0,-0.3,145.8,646759.06,-281279.25,139.6,Air+FixedWing,Blue,Enemies,J-11A,Blue J-11A #003,cn,=36=Evil,0,0,0,15.4799995422363,2.47999954223633,0,0,NaN,NaN,0,0.00989117029631303,NaN,0.999998877981212,-0.00206530655055262,-0.00280927030690282,0,15.1806937510872,15.1806937510872,,,73.6399998664856,13,0.0682709966134901,0.217650367569763
2018-07-19T08:03:13Z,1531987393,10A,42.0424294,42.2458199,15.48,0,-0.3,145.8,646759.06,-281279.28,139.6,Air+FixedWing,Blue,Enemies,J-11A,Blue J-11A #003,cn,=36=Evil,0.03125,0,9.1816117406208e-05,15.4799995422363,2.47999954223633,0.03125,0,NaN,NaN,0,0.00989117029631303,NaN,0.999973465465254,0.00206530655055262,-0.00766265855781466,4.8828125e-05,15.1806937510872,15.1807425792122,,,74.6399998664856,13,0.0682709966134901,0.217650367569763
2018-07-19T08:03:14Z,1531987394,10A,42.0424294,42.2458199,15.48,0,-0.3,145.8,646759.06,-281279.28,139.6,Air+FixedWing,Blue,Enemies,J-11A,Blue J-11A #003,cn,=36=Evil,0,0,0,15.4799995422363,2.47999954223633,0,0,NaN,NaN,0,0.00989117029631303,NaN,0.999986171723233,0,-0.00523596443235874,0,15.1806937510872,15.1806937510872,,,75.6399998664856,13,0.0682709966134901,0.217650367569763
2018-07-19T08:03:15Z,1531987395,10A,42.0424294,42.2458199,15.48,0,-0.3,145.8,646759.06,-281279.28,139.6,Air+FixedWing,Blue,Enemies,J-11A,Blue J-11A #003,cn,=36=Evil,0,0,0,15.4799995422363,2.47999954223633,0,0,NaN,NaN,0,0.00989117029631303,NaN,0.999973465465254,0.00206530655055262,-0.00766265855781466,0,15.1806937510872,15.1806937510872,,,76.6399998664856,13,0.0682709966134901,0.217650367569763
2018-07-19T08:03:16Z,1531987396,10A,42.0424294,42.2458199,15.48,0,-0.3,145.8,646759.06,-281279.25,139.6,Air+FixedWing,Blue,Enemies,J-11A,Blue J-11A #003,cn,=36=Evil,0.03125,0,9.1816117406208e-05,15.4799995422363,2.47999954223633,0.03125,0,NaN,NaN,0,0.00989117029631303,NaN,1.00001158423919,-0.00413061310110525,-0.000382576181446908,4.8828125e-05,15.1806937510872,15.1807425792122,,,77.6399998664856,13,0.0682709966134901,0.217650367569763
2018-07-19T08:03:17Z,1531987397,10A,42.0424294,42.2458199,15.48,0,-0.3,145.8,646759.06,-281279.28,139.6,Air+FixedWing,Blue,Enemies,J-11A,Blue J-11A #003,cn,=36=Evil,0.03125,0,9.1816117406208e-05,15.4799995422363,2.47999954223633,0.03125,0,NaN,NaN,0,0.00989117029631303,NaN,0.999973465465254,0.00206530655055262,-0.00766265855781466,4.8828125e-05,15.1806937510872,15.1807425792122,,,78.6399998664856,13,0.0682709966134901,0.217650367569763
2018-07-19T08:03:18Z,1531987398,10A,42.0424294,42.2458199,15.48,0,-0.3,145.8,646759.06,-281279.28,139.6,Air+FixedWing,Blue,Enemies,J-11A,Blue J-11A #003,cn,=36=Evil,0,0,0,15.4799995422363,2.47999954223633,0,0,NaN,NaN,0,0.00989117029631303,NaN,0.999973465465254,0.00206530655055262,-0.00766265855781466,0,15.1806937510872,15.1806937510872,,,79.6399998664856,13,0.0682709966134901,0.217650367569763
2018-07-19T08:03:19Z,1531987399,10A,42.0424294,42.2458199,15.48,0,-0.3,145.8,646759.06,-281279.25,139.6,Air+FixedWing,Blue,Enemies,J-11A,Blue J-11A #003,cn,=36=Evil,0.03125,0,9.1816117406208e-05,15.4799995422363,2.47999954223633,0.03125,0,NaN,NaN,0,0.00989117029631303,NaN,0.999998877981212,-0.00206530655055262,-0.00280927030690282,4.8828125e-05,15.1806937510872,15.1807425792122,,,80.6399998664856,13,0.0682709966134901,0.217650367569763
2018-07-19T08:03:20Z,1531987400,10A,42.0424294,42.2458199,15.48,0,-0.3,145.8,646759.06,-281279.25,139.6,Air+FixedWing,Blue,Enemies,J-11A,Blue J-11A #003,cn,=36=Evil,0,0,0,15.4799995422363,2.47999954223633,0,0,NaN,NaN,0,0.00989117029631303,NaN,0.999998877981212,-0.00206530655055262,-0.00280927030690282,0,15.1806937510872,15.1806937510872,,,81.6399998664856,13,0.0682709966134901,0.217650367569763
2018-07-19T08:03:21Z,1531987401,10A,42.0424294,42.2458199,15.48,0,-0.3,145.8,646759.06,-281279.28,139.6,Air+FixedWing,Blue,Enemies,J-11A,Blue J-11A #003,cn,=36=Evil,0.03125,0,9.1816117406208e-05,15.4799995422363,2.47999954223633,0.03125,0,NaN,NaN,0,0.0504352774299245,NaN,0.999960759207275,0.00413061310110525,-0.0100893526832706,4.8828125e-05,15.1806937510872,15.1807425792122,,,82.6399998664856,13,0.0682709966134901,0.217650367569763
2018-07-19T08:03:22Z,1531987402,10A,42.0424294,42.2458199,15.48,0,-0.3,145.8,646759.06,-281279.25,139.7,Air+FixedWing,Blue,Enemies,J-11A,Blue J-11A #003,cn,=36=Evil,0.03125,0,9.1816117406208e-05,15.4799995422363,2.47999954223633,0.03125,0,NaN,NaN,0,0.0504352774299245,NaN,1.00001162194676,-0.00412213621828457,-0.000375374632002562,4.8828125e-05,15.1806937510872,15.1807425792122,,,83.6399998664856,13,0.0682709966134901,0.217650367569763
2018-07-19T08:03:23Z,1531987403,10A,42.0424294,42.2458199,15.48,0,-0.3,145.9,646759.06,-281279.28,139.7,Air+FixedWing,Blue,Enemies,J-11A,Blue J-11A #003,cn,=36=Evil,0.03125,0,9.1816117406208e-05,15.4799995422363,2.47999954223633,0.03125,0,NaN,NaN,0,0.0139882274201861,NaN,0.99997344661147,0.00206106810914229,-0.00766625933253683,4.8828125e-05,15.1806937510872,15.1807425792122,,,84.6399998664856,13,0.0682709966134901,0.217650367569763
2018-07-19T08:03:24Z,1531987404,10A,42.0424294,42.2458199,15.48,0,-0.3,145.9,646759.06,-281279.28,139.7,Air+FixedWing,Blue,Enemies,J-11A,Blue J-11A #003,cn,=36=Evil,0,0,0,15.4799995422363,2.47999954223633,0,0,NaN,NaN,0,0.0139882274201861,NaN,0.999986171723233,0,-0.00523596443235874,0,15.1806937510872,15.1806937510872,,,85.6399998664856,13,0.0682709966134901,0.217650367569763
2018-07-19T08:03:25Z,1531987405,10A,42.0424294,42.2458199,15.48,0,-0.3,145.9,646759.06,-281279.28,139.7,Air+FixedWing,Blue,Enemies,J-11A,Blue J-11A #003,cn,=36=Evil,0,0,0,15.4799995422363,2.47999954223633,0,0,NaN,NaN,0,0.0139882274201861,NaN,0.99997344661147,0.00206106810914229,-0.00766625933253683,0,15.1806937510872,15.1806937510872,,,86.6399998664856,13,0.0682709966134901,0.217650367569763
2018-07-19T08:03:26Z,1531987406,10A,42.0424294,42.2458199,15.48,0,-0.3,145.9,646759.06,-281279.25,139.7,Air+FixedWing,Blue,Enemies,J-11A,Blue J-11A #003,cn,=36=Evil,0.03125,0,9.1816117406208e-05,15.4799995422363,2.47999954223633,0.03125,0,NaN,NaN,0,0.0139882274201861,NaN,0.999998896834996,-0.00206106810914229,-0.00280566953218065,4.8828125e-05,15.1806937510872,15.1807425792122,,,87.6399998664856,13,0.0682709966134901,0.217650367569763
2018-07-19T08:03:27Z,1531987407,10A,42.0424294,42.2458199,15.48,0,-0.3,145.9,646759.06,-281279.25,139.7,Air+FixedWing,Blue,Enemies,J-11A,Blue J-11A #003,cn,=36=Evil,0,0,0,15.4799995422363,2.47999954223633,0,0,NaN,NaN,0,0.0139882274201861,NaN,0.999986171723233,0,-0.00523596443235874,0,15.1806937510872,15.1806937510872,,,88.6399998664856,13,0.0682709966134901,0.217650367569763
2018-07-19T08:03:28Z,1531987408,10A,42.0424294,42.2458199,15.48,0,-0.3,145.9,646759.06,-281279.25,139.7,Air+FixedWing,Blue,Enemies,J-11A,Blue J-11A #003,cn,=36=Evil,0,0,0,15.4799995422363,2.47999954223633,0,0,NaN,NaN,0,0.0139882274201861,NaN,0.999998896834996,-0.00206106810914229,-0.00280566953218065,0,15.1806937510872,15.1806937510872,,,89.6399998664856,13,0.0682709966134901,0.217650367569763
2018-07-19T08:03:29Z,1531987409,10A,42.0424294,42.2458199,15.48,0,-0.3,145.9,646759.06,-281279.28,139.7,Air+FixedWing,Blue,Enemies,J-11A,Blue J-11A #003,cn,=36=Evil,0.03125,0,9.1816117406208e-05,15.4799995422363,2.47999954223633,0.03125,0,NaN,NaN,0,0.0139882274201861,NaN,0.999960721499707,0.00412213621828457,-0.0100965542327149,4.8828125e-05,15.1806937510872,15.1807425792122,,,90.6399998664856,13,0.0682709966134901,0.217650367569763
2018-07-19T08:03:30Z,1531987410,10A,42.0424294,42.2458199,15.48,0,-0.3,145.9,646759.06,-281279.25,139.7,Air+FixedWing,Blue,Enemies,J-11A,Blue J-11A #003,cn,=36=Evil,0.03125,0,9.1816117406208e-05,15.4799995422363,2.47999954223633,0.03125,0,NaN,NaN,0,0.0139882274201861,NaN,0.999998896834996,-0.00206106810914229,-0.00280566953218065,4.8828125e-05,15.1806937510872,15.1807425792122,,,91.6399998664856,13,0.0682709966134901,0.217650367569763
2018-07-19T08:03:31Z,1531987411,10A,42.0424294,42.2458199,15.48,0,-0.3,145.9,646759.06,-281279.25,139.7,Air+FixedWing,Blue,Enemies,J-11A,Blue J-11A #003,cn,=36=Evil,0,0,0,15.4799995422363,2.47999954223633,0,0,NaN,NaN,0,0.0139882274201861,NaN,0.999998896834996,-0.00206106810914229,-0.00280566953218065,0,15.1806937510872,15.1806937510872,,,92.6399998664856,13,0.0682709966134901,0.217650367569763
2018-07-19T08:03:32Z,1531987412,10A,42.0424294,42.2458199,15.48,0,-0.3,145.9,646759.06,-281279.28,139.7,Air+FixedWing,Blue,Enemies,J-11A,Blue J-11A #003,cn,=36=Evil,0.03125,0,9.1816117406208e-05,15.4799995422363,2.47999954223633,0.03125,0,NaN,NaN,0,0.0139882274201861,NaN,0.99997344661147,0.00206106810914229,-0.00766625933253683,4.8828125e-05,15.1806937510872,15.1807425792122,,,93.6399998664856,13,0.0682709966134901,0.217650367569763
2018-07-19T08:03:33Z,1531987413,10A,42.0424294,42.2458199,15.48,0,-0.3,145.9,646759.06,-281279.28,139.7,Air+FixedWing,Blue,Enemies,J-11A,Blue J-11A #003,cn,=36=Evil,0,0,0,15.4799995422363,2.47999954223633,0,0,NaN,NaN,0,0.0139882274201861,NaN,0.99997344661147,0.00206106810914229,-0.00766625933253683,0,15.1806937510872,15.1806937510872,,,94.6399998664856,13,0.0682709966134901,0.217650367569763
2018-07-19T08:03:34Z,1531987414,10A,42.0424294,42.2458199,15.48,0,-0.3,145.9,646759.06,-281279.25,139.7,Air+FixedWing,Blue,Enemies,J-11A,Blue J-11A #003,cn,=36=Evil,0.03125,0,9.1816117406208e-05,15.4799995422363,2.47999954223633,0.03125,0,NaN,NaN,0,0.0139882274201861,NaN,0.999998896834996,-0.00206106810914229,-0.00280566953218065,4.8828125e-05,15.1806937510872,15.1807425792122,,,95.6399998664856,13,0.0682709966134901,0.217650367569763
2018-07-19T08:03:35Z,1531987415,10A,42.0424294,42.2458199,15.48,0,-0.3,145.9,646759.06,-281279.25,139.7,Air+FixedWing,Blue,Enemies,J-11A,Blue J-11A #003,cn,=36=Evil,0,0,0,15.4799995422363,2.47999954223633,0,0,NaN,NaN,0,0.0139882274201861,NaN,0.999998896834996,-0.00206106810914229,-0.00280566953218065,0,15.1806937510872,15.1806937510872,,,96.6399998664856,13,0.0682709966134901,0.217650367569763
2018-07-19T08:03:36Z,1531987416,10A,42.0424294,42.2458199,15.48,0,-0.3,145.9,646759.06,-281279.28,139.7,Air+FixedWing,Blue,Enemies,J-11A,Blue J-11A #003,cn,=36=Evil,0.03125,0,9.1816117406208e-05,15.4799995422363,2.47999954223633,0.03125,0,NaN,NaN,0,0.0139882274201861,NaN,0.999960721499707,0.00412213621828457,-0.0100965542327149,4.8828125e-05,15.1806937510872,15.1807425792122,,,97.6399998664856,13,0.0682709966134901,0.217650367569763
2018-07-19T08:03:37Z,1531987417,10A,42.0424294,42.2458199,15.48,0,-0.3,145.9,646759.06,-281279.25,139.7,Air+FixedWing,Blue,Enemies,J-11A,Blue J-11A #003,cn,=36=Evil,0.03125,0,9.1816117406208e-05,15.4799995422363,2.47999954223633,0.03125,0,NaN,NaN,0,0.0139882274201861,NaN,0.999998896834996,-0.00206106810914229,-0.00280566953218065,4.8828125e-05,15.1806937510872,15.1807425792122,,,98.6399998664856,13,0.0682709966134901,0.217650367569763
2018-07-19T08:03:38Z,1531987418,10A,42.0424294,42.2458199,15.48,0,-0.3,145.9,646759.06,-281279.25,139.7,Air+FixedWing,Blue,Enemies,J-11A,Blue J-11A #003,cn,=36=Evil,0,0,0,15.4799995422363,2.47999954223633,0,0,NaN,NaN,0,0.0139882274201861,NaN,0.999998896834996,-0.00206106810914229,-0.00280566953218065,0,15.1806937510872,15.1806937510872,,,99.6399998664856,13,0.0682709966134901,0.217650367569763
2018-07-19T08:03:39Z,1531987419,10A,42.0424294,42.2458199,15.48,0,-0.3,145.9,646759.06,-281279.28,139.7,Air+FixedWing,Blue,Enemies,J-11A,Blue J-11A #003,cn,=36=Evil,0.03125,0,9.1816117406208e-05,15.4799995422363,2.47999954223633,0.03125,0,NaN,NaN,0,0.0139882274201861,NaN,0.99997344661147,0.00206106810914229,-0.00766625933253683,4.8828125e-05,15.1806937510872,15.1807425792122,,,100.639999866486,13,0.0682709966134901,0.217650367569763
2018-07-19T08:03:40Z,1531987420,10A,42.0424294,42.2458199,15.48,0,-0.3,145.9,646759.06,-281279.28,139.7,Air+FixedWing,Blue,Enemies,J-11A,Blue J-11A #003,cn,=36=Evil,0,0,0,15.4799995422363,2.47999954223633,0,0,NaN,NaN,0,0.0139882274201861,NaN,0.999986171723233,0,-0.00523596443235874,0,15.1806937510872,15.1806937510872,,,101.639999866486,13,0.0682709966134901,0.217650367569763
2018-07-19T08:03:41Z,1531987421,10A,42.0424294,42.2458199,15.48,0,-0.3,145.9,646759.06,-281279.28,139.7,Air+FixedWing,Blue,Enemies,J-11A,Blue J-11A #003,cn,=36=Evil,0,0,0,15.4799995422363,2.47999954223633,0,0,NaN,NaN,0,0.0139882274201861,NaN,0.99997344661147,0.00206106810914229,-0.00766625933253683,0,15.1806937510872,15.1806937510872,,,102.639999866486,13,0.0682709966134901,0.217650367569763
2018-07-19T08:03:42Z,1531987422,10A,42.0424294,42.2458199,15.48,0,-0.3,145.9,646759.06,-281279.25,139.7,Air+FixedWing,Blue,Enemies,J-11A,Blue J-11A #003,cn,=36=Evil,0.03125,0,9.1816117406208e-05,15.4799995422363,2.47999954223633,0.03125,0,NaN,NaN,0,0.0139882274201861,NaN,1.00001162194676,-0.00412213621828457,-0.000375374632002562,4.8828125e-05,15.1806937510872,15.1807425792122,,,103.639999866486,13,0.0682709966134901,0.217650367569763
2018-07-19T08:03:43Z,1531987423,10A,42.0424294,42.2458199,15.48,0,-0.3,145.9,646759.06,-281279.28,139.7,Air+FixedWing,Blue,Enemies,J-11A,Blue J-11A #003,cn,=36=Evil,0.03125,0,9.1816117406208e-05,15.4799995422363,2.47999954223633,0.03125,0,NaN,NaN,0,0.0139882274201861,NaN,0.99997344661147,0.00206106810914229,-0.00766625933253683,4.8828125e-05,15.1806937510872,15.1807425792122,,,104.639999866486,13,0.0682709966134901,0.217650367569763
2018-07-19T08:03:44Z,1531987424,10A,42.0424294,42.2458199,15.48,0,-0.3,145.9,646759.06,-281279.28,139.7,Air+FixedWing,Blue,Enemies,J-11A,Blue J-11A #003,cn,=36=Evil,0,0,0,15.4799995422363,2.47999954223633,0,0,NaN,NaN,0,0.0139882274201861,NaN,0.999986171723233,0,-0.00523596443235874,0,15.1806937510872,15.1806937510872,,,105.639999866486,13,0.0682709966134901,0.217650367569763
2018-07-19T08:03:45Z,1531987425,10A,42.0424294,42.2458199,15.48,0,-0.3,145.9,646759.06,-281279.28,139.7,Air+FixedWing,Blue,Enemies,J-11A,Blue J-11A #003,cn,=36=Evil,0,0,0,15.4799995422363,2.47999954223633,0,0,NaN,NaN,0,0.0139882274201861,NaN,0.99997344661147,0.00206106810914229,-0.00766625933253683,0,15.1806937510872,15.1806937510872,,,106.639999866486,13,0.0682709966134901,0.217650367569763
2018-07-19T08:03:46Z,1531987426,10A,42.0424294,42.2458199,15.48,0,-0.3,145.9,646759.06,-281279.25,139.7,Air+FixedWing,Blue,Enemies,J-11A,Blue J-11A #003,cn,=36=Evil,0.03125,0,9.1816117406208e-05,15.4799995422363,2.47999954223633,0.03125,0,NaN,NaN,0,0.0139882274201861,NaN,0.999998896834996,-0.00206106810914229,-0.00280566953218065,4.8828125e-05,15.1806937510872,15.1807425792122,,,107.639999866486,13,0.0682709966134901,0.217650367569763
2018-07-19T08:03:47Z,1531987427,10A,42.0424294,42.2458199,15.48,0,-0.3,145.9,646759.06,-281279.25,139.7,Air+FixedWing,Blue,Enemies,J-11A,Blue J-11A #003,cn,=36=Evil,0,0,0,15.4799995422363,2.47999954223633,0,0,NaN,NaN,0,0.0139882274201861,NaN,0.999998896834996,-0.00206106810914229,-0.00280566953218065,0,15.1806937510872,15.1806937510872,,,108.639999866486,13,0.0682709966134901,0.217650367569763
2018-07-19T08:03:48Z,1531987428,10A,42.0424294,42.2458199,15.48,0,-0.3,145.9,646759.06,-281279.28,139.7,Air+FixedWing,Blue,Enemies,J-11A,Blue J-11A #003,cn,=36=Evil,0.03125,0,9.1816117406208e-05,15.4799995422363,2.47999954223633,0.03125,0,NaN,NaN,0,0.0139882274201861,NaN,0.99997344661147,0.00206106810914229,-0.00766625933253683,4.8828125e-05,15.1806937510872,15.1807425792122,,,109.639999866486,13,0.0682709966134901,0.217650367569763
2018-07-19T08:03:49Z,1531987429,10A,42.0424294,42.2458199,15.48,0,-0.3,145.9,646759.06,-281279.28,139.7,Air+FixedWing,Blue,Enemies,J-11A,Blue J-11A #003,cn,=36=Evil,0,0,0,15.4799995422363,2.47999954223633,0,0,NaN,NaN,0,0.0139882274201861,NaN,0.99997344661147,0.00206106810914229,-0.00766625933253683,0,15.1806937510872,15.1806937510872,,,110.639999866486,13,0.0682709966134901,0.217650367569763
2018-07-19T08:03:50Z,1531987430,10A,42.0424294,42.2458199,15.48,0,-0.3,145.9,646759.06,-281279.25,139.7,Air+FixedWing,Blue,Enemies,J-11A,Blue J-11A #003,cn,=36=Evil,0.03125,0,9.1816117406208e-05,15.4799995422363,2.47999954223633,0.03125,0,NaN,NaN,0,0.0139882274201861,NaN,1.00001162194676,-0.00412213621828457,-0.000375374632002562,4.8828125e-05,15.1806937510872,15.1807425792122,,,111.639999866486,13,0.0682709966134901,0.217650367569763
2018-07-19T08:03:51Z,1531987431,10A,42.0424294,42.2458199,15.48,0,-0.3,145.9,646759.06,-281279.28,139.7,Air+FixedWing,Blue,Enemies,J-11A,Blue J-11A #003,cn,=36=Evil,0.03125,0,9.1816117406208e-05,15.4799995422363,2.47999954223633,0.03125,0,NaN,NaN,0,0.0139882274201861,NaN,0.99997344661147,0.00206106810914229,-0.00766625933253683,4.8828125e-05,15.1806937510872,15.1807425792122,,,112.639999866486,13,0.0682709966134901,0.217650367569763
2018-07-19T08:03:52Z,1531987432,10A,42.0424294,42.2458199,15.48,0,-0.3,145.9,646759.06,-281279.28,139.7,Air+FixedWing,Blue,Enemies,J-11A,Blue J-11A #003,cn,=36=Evil,0,0,0,15.4799995422363,2.47999954223633,0,0,NaN,NaN,0,0.0139882274201861,NaN,0.99997344661147,0.00206106810914229,-0.00766625933253683,0,15.1806937510872,15.1806937510872,,,113.639999866486,13,0.0682709966134901,0.217650367569763
2018-07-19T08:03:53Z,1531987433,10A,42.0424294,42.2458199,15.48,0,-0.3,145.9,646759.06,-281279.25,139.7,Air+FixedWing,Blue,Enemies,J-11A,Blue J-11A #003,cn,=36=Evil,0.03125,0,9.1816117406208e-05,15.4799995422363,2.47999954223633,0.03125,0,NaN,NaN,0,0.0139882274201861,NaN,0.999998896834996,-0.00206106810914229,-0.00280566953218065,4.8828125e-05,15.1806937510872,15.1807425792122,,,114.639999866486,13,0.0682709966134901,0.217650367569763
2018-07-19T08:03:54Z,1531987434,10A,42.0424294,42.2458199,15.48,0,-0.3,145.9,646759.06,-281279.25,139.7,Air+FixedWing,Blue,Enemies,J-11A,Blue J-11A #003,cn,=36=Evil,0,0,0,15.4799995422363,2.47999954223633,0,0,NaN,NaN,0,0.0139882274201861,NaN,0.999998896834996,-0.00206106810914229,-0.00280566953218065,0,15.1806937510872,15.1806937510872,,,115.639999866486,13,0.0682709966134901,0.217650367569763
2018-07-19T08:03:55Z,1531987435,10A,42.0424294,42.2458199,15.48,0,-0.3,145.9,646759.06,-281279.28,139.7,Air+FixedWing,Blue,Enemies,J-11A,Blue J-11A #003,cn,=36=Evil,0.03125,0,9.1816117406208e-05,15.4799995422363,2.47999954223633,0.03125,0,NaN,NaN,0,0.0139882274201861,NaN,0.999960721499707,0.00412213621828457,-0.0100965542327149,4.8828125e-05,15.1806937510872,15.1807425792122,,,116.639999866486,13,0.0682709966134901,0.217650367569763
2018-07-19T08:03:56Z,1531987436,10A,42.0424294,42.2458199,15.48,0,-0.3,145.9,646759.06,-281279.25,139.7,Air+FixedWing,Blue,Enemies,J-11A,Blue J-11A #003,cn,=36=Evil,0.03125,0,9.1816117406208e-05,15.4799995422363,2.47999954223633,0.03125,0,NaN,NaN,0,0.0139882274201861,NaN,1.00001162194676,-0.00412213621828457,-0.000375374632002562,4.8828125e-05,15.1806937510872,15.1807425792122,,,117.639999866486,13,0.0682709966134901,0.217650367569763
2018-07-19T08:03:57Z,1531987437,10A,42.0424294,42.2458199,15.48,0,-0.3,145.9,646759.06,-281279.28,139.7,Air+FixedWing,Blue,Enemies,J-11A,Blue J-11A #003,cn,=36=Evil,0.03125,0,9.1816117406208e-05,15.4799995422363,2.47999954223633,0.03125,0,NaN,NaN,0,0.0139882274201861,NaN,0.999960721499707,0.00412213621828457,-0.0100965542327149,4.8828125e-05,15.1806937510872,15.1807425792122,,,118.639999866486,13,0.0682709966134901,0.217650367569763
2018-07-19T08:03:58Z,1531987438,10A,42.0424294,42.2458199,15.48,0,-0.3,145.9,646759.06,-281279.25,139.7,Air+FixedWing,Blue,Enemies,J-11A,Blue J-11A #003,cn,=36=Evil,0.03125,0,9.1816117406208e-05,15.4799995422363,2.47999954223633,0.03125,0,NaN,NaN,0,0.0139882274201861,NaN,1.00001162194676,-0.00412213621828457,-0.000375374632002562,4.8828125e-05,15.1806937510872,15.1807425792122,,,119.639999866486,13,0.0682709966134901,0.217650367569763
2018-07-19T08:03:59Z,1531987439,10A,42.0424294,42.2458199,15.48,0,-0.3,145.9,646759.06,-281279.28,139.7,Air+FixedWing,Blue,Enemies,J-11A,Blue J-11A #003,cn,=36=Evil,0.03125,0,9.1816117406208e-05,15.4799995422363,2.47999954223633,0.03125,0,NaN,NaN,0,0.0139882274201861,NaN,0.99997344661147,0.00206106810914229,-0.00766625933253683,4.8828125e-05,15.1806937510872,15.1807425792122,,,120.639999866486,13,0.0682709966134901,0.217650367569763
2018-07-19T08:04:00Z,1531987440,10A,42.0424294,42.2458199,15.48,0,-0.3,145.9,646759.06,-281279.28,139.7,Air+FixedWing,Blue,Enemies,J-11A,Blue J-11A #003,cn,=36=Evil,0,0,0,15.4799995422363,2.47999954223633,0,0,NaN,NaN,0,0.0139882274201861,NaN,0.99997344661147,0.00206106810914229,-0.00766625933253683,0,15.1806937510872,15.1806937510872,,,121.639999866486,13,0.0682709966134901,0.217650367569763
2018-07-19T08:04:01Z,1531987441,10A,42.0424294,42.2458199,15.48,0,-0.3,145.9,646759.06,-281279.25,139.7,Air+FixedWing,Blue,Enemies,J-11A,Blue J-11A #003,cn,=36=Evil,0.03125,0,9.1816117406208e-05,15.4799995422363,2.47999954223633,0.03125,0,NaN,NaN,0,0.0139882274201861,NaN,0.999998896834996,-0.00206106810914229,-0.00280566953218065,4.8828125e-05,15.1806937510872,15.1807425792122,,,122.639999866486,13,0.0682709966134901,0.217650367569763
2018-07-19T08:04:02Z,1531987442,10A,42.0424294,42.2458199,15.48,0,-0.3,145.9,646759.06,-281279.25,139.7,Air+FixedWing,Blue,Enemies,J-11A,Blue J-11A #003,cn,=36=Evil,0,0,0,15.4799995422363,2.47999954223633,0,0,NaN,NaN,0,0.0139882274201861,NaN,0.999998896834996,-0.00206106810914229,-0.00280566953218065,0,15.1806937510872,15.1806937510872,,,123.639999866486,13,0.0682709966134901,0.217650367569763
2018-07-19T08:04:03Z,1531987443,10A,42.0424294,42.2458199,15.48,0,-0.3,145.9,646759.06,-281279.28,139.7,Air+FixedWing,Blue,Enemies,J-11A,Blue J-11A #003,cn,=36=Evil,0.03125,0,9.1816117406208e-05,15.4799995422363,2.47999954223633,0.03125,0,NaN,NaN,0,0.0139882274201861,NaN,0.999960721499707,0.00412213621828457,-0.0100965542327149,4.8828125e-05,15.1806937510872,15.1807425792122,,,124.639999866486,13,0.0682709966134901,0.217650367569763
2018-07-19T08:04:04Z,1531987444,10A,42.0424294,42.2458199,15.48,0,-0.3,145.9,646759.06,-281279.25,139.7,Air+FixedWing,Blue,Enemies,J-11A,Blue J-11A #003,cn,=36=Evil,0.03125,0,9.1816117406208e-05,15.4799995422363,2.47999954223633,0.03125,0,NaN,NaN,0,0.0139882274201861,NaN,1.00001162194676,-0.00412213621828457,-0.000375374632002562,4.8828125e-05,15.1806937510872,15.1807425792122,,,125.639999866486,13,0.0682709966134901,0.217650367569763
2018-07-19T08:04:05Z,1531987445,10A,42.0424294,42.2458199,15.48,0,-0.3,145.9,646759.06,-281279.28,139.7,Air+FixedWing,Blue,Enemies,J-11A,Blue J-11A #003,cn,=36=Evil,0.03125,0,9.1816117406208e-05,15.4799995422363,2.47999954223633,0.03125,0,NaN,NaN,0,0.0139882274201861,NaN,0.99997344661147,0.00206106810914229,-0.00766625933253683,4.8828125e-05,15.1806937510872,15.1807425792122,,,126.639999866486,13,0.0682709966134901,0.217650367569763
2018-07-19T08:04:06Z,1531987446,10A,42.0424294,42.2458199,15.48,0,-0.3,145.9,646759.06,-281279.28,139.7,Air+FixedWing,Blue,Enemies,J-11A,Blue J-11A #003,cn,=36=Evil,0,0,0,15.4799995422363,2.47999954223633,0,0,NaN,NaN,0,0.0139882274201861,NaN,0.99997344661147,0.00206106810914229,-0.00766625933253683,0,15.1806937510872,15.1806937510872,,,127.639999866486,13,0.0682709966134901,0.217650367569763
2018-07-19T08:04:07Z,1531987447,10A,42.0424294,42.2458199,15.48,0,-0.3,145.9,646759.06,-281279.25,139.7,Air+FixedWing,Blue,Enemies,J-11A,Blue J-11A #003,cn,=36=Evil,0.03125,0,9.1816117406208e-05,15.4799995422363,2.47999954223633,0.03125,0,NaN,NaN,0,0.0139882274201861,NaN,0.999998896834996,-0.00206106810914229,-0.00280566953218065,4.8828125e-05,15.1806937510872,15.1807425792122,,,128.639999866486,13,0.0682709966134901,0.217650367569763
2018-07-19T08:04:08Z,1531987448,10A,42.0424294,42.2458199,15.48,0,-0.3,145.9,646759.06,-281279.25,139.7,Air+FixedWing,Blue,Enemies,J-11A,Blue J-11A #003,cn,=36=Evil,0,0,0,15.4799995422363,2.47999954223633,0,0,NaN,NaN,0,0.0139882274201861,NaN,0.999986171723233,0,-0.00523596443235874,0,15.1806937510872,15.1806937510872,,,129.639999866486,13,0.0682709966134901,0.217650367569763
2018-07-19T08:04:09Z,1531987449,10A,42.0424294,42.2458199,15.48,0,-0.3,145.9,646759.06,-281279.25,139.7,Air+FixedWing,Blue,Enemies,J-11A,Blue J-11A #003,cn,=36=Evil,0,0,0,15.4799995422363,2.47999954223633,0,0,NaN,NaN,0,0.0139882274201861,NaN,0.999998896834996,-0.00206106810914229,-0.00280566953218065,0,15.1806937510872,15.1806937510872,,,130.639999866486,13,0.0682709966134901,0.217650367569763
2018-07-19T08:04:10Z,1531987450,10A,42.0424294,42.2458199,15.48,0,-0.3,145.9,646759.06,-281279.28,139.7,Air+FixedWing,Blue,Enemies,J-11A,Blue J-11A #003,cn,=36=Evil,0.03125,0,9.1816117406208e-05,15.4799995422363,2.47999954223633,0.03125,0,NaN,NaN,0,0.0139882274201861,NaN,0.99997344661147,0.00206106810914229,-0.00766625933253683,4.8828125e-05,15.1806937510872,15.1807425792122,,,131.639999866486,13,0.0682709966134901,0.217650367569763
2018-07-19T08:04:11Z,1531987451,10A,42.0424294,42.2458199,15.48,0,-0.3,145.9,646759.06,-281279.28,139.7,Air+FixedWing,Blue,Enemies,J-11A,Blue J-11A #003,cn,=36=Evil,0,0,0,15.4799995422363,2.47999954223633,0,0,NaN,NaN,0,0.0139882274201861,NaN,0.99997344661147,0.00206106810914229,-0.00766625933253683,0,15.1806937510872,15.1806937510872,,,132.639999866486,13,0.0682709966134901,0.217650367569763
2018-07-19T08:04:12Z,1531987452,10A,42.0424294,42.2458199,15.48,0,-0.3,145.9,646759.06,-281279.25,139.7,Air+FixedWing,Blue,Enemies,J-11A,Blue J-11A #003,cn,=36=Evil,0.03125,0,9.1816117406208e-05,15.4799995422363,2.47999954223633,0.03125,0,NaN,NaN,0,0.0139882274201861,NaN,0.999998896834996,-0.00206106810914229,-0.00280566953218065,4.8828125e-05,15.1806937510872,15.1807425792122,,,133.639999866486,13,0.0682709966134901,0.217650367569763
2018-07-19T08:04:13Z,1531987453,10A,42.0424294,42.2458199,15.48,0,-0.3,145.9,646759.06,-281279.25,139.7,Air+FixedWing,Blue,Enemies,J-11A,Blue J-11A #003,cn,=36=Evil,0,0,0,15.4799995422363,2.47999954223633,0,0,NaN,NaN,0,0.0139882274201861,NaN,0.999986171723233,0,-0.00523596443235874,0,15.1806937510872,15.1806937510872,,,134.639999866486,13,0.0682709966134901,0.217650367569763
2018-07-19T08:04:14Z,1531987454,10A,42.0424294,42.2458199,15.48,0,-0.3,145.9,646759.06,-281279.25,139.7,Air+FixedWing,Blue,Enemies,J-11A,Blue J-11A #003,cn,=36=Evil,0,0,0,15.4799995422363,2.47999954223633,0,0,NaN,NaN,0,0.0139882274201861,NaN,0.999998896834996,-0.00206106810914229,-0.00280566953218065,0,15.1806937510872,15.1806937510872,,,135.639999866486,13,0.0682709966134901,0.217650367569763
2018-07-19T08:04:15Z,1531987455,10A,42.0424294,42.2458199,15.48,0,-0.3,145.9,646759.06,-281279.28,139.7,Air+FixedWing,Blue,Enemies,J-11A,Blue J-11A #003,cn,=36=Evil,0.03125,0,9.1816117406208e-05,15.4799995422363,2.47999954223633,0.03125,0,NaN,NaN,0,0.0139882274201861,NaN,0.999960721499707,0.00412213621828457,-0.0100965542327149,4.8828125e-05,15.1806937510872,15.1807425792122,,,136.639999866486,13,0.0682709966134901,0.217650367569763
2018-07-19T08:04:16Z,1531987456,10A,42.0424294,42.2458199,15.48,0,-0.3,145.9,646759.06,-281279.25,139.7,Air+FixedWing,Blue,Enemies,J-11A,Blue J-11A #003,cn,=36=Evil,0.03125,0,9.1816117406208e-05,15.4799995422363,2.47999954223633,0.03125,0,NaN,NaN,0,0.0139882274201861,NaN,0.999998896834996,-0.00206106810914229,-0.00280566953218065,4.8828125e-05,15.1806937510872,15.1807425792122,,,137.639999866486,13,0.0682709966134901,0.217650367569763
2018-07-19T08:04:17Z,1531987457,10A,42.0424294,42.2458199,15.48,0,-0.3,145.9,646759.06,-281279.25,139.7,Air+FixedWing,Blue,Enemies,J-11A,Blue J-11A #003,cn,=36=Evil,0,0,0,15.4799995422363,2.47999954223633,0,0,NaN,NaN,0,0.0139882274201861,NaN,0.999986171723233,0,-0.00523596443235874,0,15.1806937510872,15.1806937510872,,,138.639999866486,13,0.0682709966134901,0.217650367569763
2018-07-19T08:04:18Z,1531987458,10A,42.0424294,42.2458199,15.48,0,-0.3,145.9,646759.06,-281279.25,139.7,Air+FixedWing,Blue,Enemies,J-11A,Blue J-11A #003,cn,=36=Evil,0,0,0,15.4799995422363,2.47999954223633,0,0,NaN,NaN,0,0.0139882274201861,NaN,0.999998896834996,-0.00206106810914229,-0.00280566953218065,0,15.1806937510872,15.1806937510872,,,139.639999866486,13,0.0682709966134901,0.217650367569763
2018-07-19T08:04:19Z,1531987459,10A,42.0424294,42.2458199,15.48,0,-0.3,145.9,646759.06,-281279.28,139.7,Air+FixedWing,Blue,Enemies,J-11A,Blue J-11A #003,cn,=36=Evil,0.03125,0,9.1816117406208e-05,15.4799995422363,2.47999954223633,0.03125,0,NaN,NaN,0,0.0139882274201861,NaN,0.99997344661147,0.00206106810914229,-0.00766625933253683,4.8828125e-05,15.1806937510872,15.1807425792122,,,140.639999866486,13,0.0682709966134901,0.217650367569763
2018-07-19T08:04:20Z,1531987460,10A,42.0424294,42.2458199,15.48,0,-0.3,145.9,646759.06,-281279.28,139.7,Air+FixedWing,Blue,Enemies,J-11A,Blue J-11A #003,cn,=36=Evil,0,0,0,15.4799995422363,2.47999954223633,0,0,NaN,NaN,0,0.0139882274201861,NaN,0.99997344661147,0.00206106810914229,-0.00766625933253683,0,15.1806937510872,15.1806937510872,,,141.639999866486,13,0.0682709966134901,0.217650367569763
