ISOTime,UnixTime,Id,Longitude,Latitude,Altitude,Roll,Pitch,Yaw,U,V,Heading,Type,Color,Coalition,Name,Group,Country,Pilot,TAS,CAS,M,ASL,AGL,GS,VS,AOA,AOS,RRT,TRT,TRD,G,LatG,LonG,Ek,Ep,Em,FFW,FFV,RelativeTime,Elev,GroundDistance,AirDistance
2018-07-19T08:03:55Z,1531987435,10B,42.0424885,42.2466237,15.5,0.1,-0.4,145.7,646754.38,-281189.38,139.6,Air+FixedWing,Blue,Enemies,J-11A,Blue J-11A #004,cn,=36=Rabo,0.179990637578805,0,0.000528833430508458,15.497142791748,2.49714279174805,NaN,NaN,NaN,NaN,NaN,NaN,NaN,NaN,NaN,NaN,NaN,15.1975055358696,NaN,,,0.389999866485596,13,NaN,NaN
2018-07-19T08:03:56Z,1531987436,10B,42.0424887,42.2466235,15.55,0.1,-0.5,145.7,646754.38,-281189.41,139.6,Air+FixedWing,Blue,Enemies,J-11A,Blue J-11A #004,cn,=36=Rabo,0.0577552498363981,0,0.000169691735208843,15.5457134246826,2.54571342468262,0.03125,0.0485706329345703,NaN,NaN,0.104761795005306,NaN,NaN,0.994111863409505,0.00297414413040075,-0.0111023239509717,0.000166783444183238,15.2451370556164,15.2453038390606,,,1.3899998664856,13,0.0235986720511411,0.0540000591232335
2018-07-19T08:03:57Z,1531987437,10B,42.0424887,42.2466234,15.54,0.1,-0.6,145.7,646754.38,-281189.41,139.6,Air+FixedWing,Blue,Enemies,J-11A,Blue J-11A #004,cn,=36=Rabo,0.00857067108154297,0,2.51816399623513e-05,15.5371427536011,2.53714275360107,0,-0.00857067108154297,NaN,NaN,0,0.0692382079156944,NaN,0.994990814289098,0.00173658844026463,-0.0104199175560087,3.67282013939985e-06,15.2367320984602,15.2367357712803,,,2.3899998664856,13,0.03391573346055,0.0674126905682833
2018-07-19T08:03:58Z,1531987438,10B,42.0424885,42.2466237,15.48,0,-0.5,145.7,646754.38,-281189.41,139.6,Air+FixedWing,Blue,Enemies,J-11A,Blue J-11A #004,cn,=36=Rabo,0.0571432113647461,0,0.000167893369716265,15.4799995422363,2.47999954223633,0,-0.0571432113647461,NaN,NaN,0.0952401577866578,0.0523391626455858,NaN,1.00604652406473,0.00206530655055262,-0.0110392143325615,0.000163267330253802,15.1806937510872,15.1808570184174,,,3.3899998664856,13,0.0697377720622332,0.134855787249615
2018-07-19T08:03:59Z,1531987439,10B,42.0424885,42.2466237,15.48,0,-0.4,145.7,646754.38,-281189.38,139.6,Air+FixedWing,Blue,Enemies,J-11A,Blue J-11A #004,cn,=36=Rabo,0.0313680578892676,0,9.21629879736884e-05,15.4827184677124,2.4827184677124,0.03125,0.00271892547607422,NaN,NaN,0,0.0296735133902291,NaN,1.00021023600048,-0.00206530655055262,-0.00455611206115796,4.91977527872223e-05,15.1833601061392,15.183409303892,,,4.3899998664856,13,0.0697377720622332,0.137574712069725
2018-07-19T08:04:00Z,1531987440,10B,42.0424885,42.2466237,15.49,0,-0.4,145.7,646754.38,-281189.38,139.6,Air+FixedWing,Blue,Enemies,J-11A,Blue J-11A #004,cn,=36=Rabo,0.00485420227050781,0,1.42622093953448e-05,15.4875726699829,2.48757266998291,0,0.00485420227050781,NaN,NaN,0,0.0197823405926261,NaN,0.998838590672175,-0.00206530655055262,-0.00454653601338243,1.17816398415016e-06,15.1881204524088,15.1881216305728,,,5.3899998664856,13,0.0697377720622332,0.142428914499231
2018-07-19T08:04:01Z,1531987441,10B,42.0424885,42.2466237,15.48,0,-0.4,145.7,646754.38,-281189.41,139.6,Air+FixedWing,Blue,Enemies,J-11A,Blue J-11A #004,cn,=36=Rabo,0.0319111453854021,0,9.37586402541659e-05,15.4811105728149,2.48111057281494,0.03125,-0.00646209716796875,NaN,NaN,0,0.0197823405926261,NaN,1.00050426400563,0.00206530655055262,-0.00941173861247487,5.09160599904135e-05,15.1817832998896,15.1818342159496,,,6.3899998664856,13,0.0697377720622332,0.148891011007611
2018-07-19T08:04:02Z,1531987442,10B,42.0424885,42.2466237,15.48,0,-0.4,145.7,646754.38,-281189.41,139.6,Air+FixedWing,Blue,Enemies,J-11A,Blue J-11A #004,cn,=36=Rabo,0.00111103057861328,0,3.26433644953102e-06,15.4799995422363,2.47999954223633,0,-0.00111103057861328,NaN,NaN,0,0.0197823405926261,NaN,1.00007191128464,0.00206530655055262,-0.00940872017160921,6.17194473306881e-08,15.1806937510872,15.1806938128066,,,7.3899998664856,13,0.0697377720622332,0.150002041748847
2018-07-19T08:04:03Z,1531987443,10B,42.0424885,42.2466237,15.48,0,-0.4,145.7,646754.38,-281189.38,139.6,Air+FixedWing,Blue,Enemies,J-11A,Blue J-11A #004,cn,=36=Rabo,0.03125,0,9.1816117406208e-05,15.4799995422363,2.47999954223633,0.03125,0,NaN,NaN,0,0.0197823405926261,NaN,0.999992503714761,-0.00206530655055262,-0.00455459197813992,4.8828125e-05,15.1806937510872,15.1807425792122,,,8.3899998664856,13,0.0697377720622332,0.150002041748847
2018-07-19T08:04:04Z,1531987444,10B,42.0424886,42.2466237,15.48,0,-0.4,145.7,646754.38,-281189.38,139.6,Air+FixedWing,Blue,Enemies,J-11A,Blue J-11A #004,cn,=36=Rabo,0,0,0,15.4799995422363,2.47999954223633,0,0,NaN,NaN,0,0.0197823405926261,NaN,0.999975562097095,0,-0.00698126060888171,0,15.1806937510872,15.1806937510872,,,9.3899998664856,13,0.0761175241898988,0.156381809694507
2018-07-19T08:04:05Z,1531987445,10B,42.0424885,42.2466237,15.48,0,-0.4,145.7,646754.38,-281189.38,139.6,Air+FixedWing,Blue,Enemies,J-11A,Blue J-11A #004,cn,=36=Rabo,0,0,0,15.4799995422363,2.47999954223633,0,0,NaN,NaN,0,0.0197823405926261,NaN,0.999975562097095,0,-0.00698126060888171,0,15.1806937510872,15.1806937510872,,,10.3899998664856,13,0.0821676549412194,0.162431955294311
2018-07-19T08:04:06Z,1531987446,10B,42.0424885,42.2466237,15.48,0,-0.4,145.7,646754.38,-281189.38,139.6,Air+FixedWing,Blue,Enemies,J-11A,Blue J-11A #004,cn,=36=Rabo,0,0,0,15.4799995422363,2.47999954223633,0,0,NaN,NaN,0,0.0197823405926261,NaN,0.999992503714761,-0.00206530655055262,-0.00455459197813992,0,15.1806937510872,15.1806937510872,,,11.3899998664856,13,0.0824972763175646,0.162761577640169
2018-07-19T08:04:07Z,1531987447,10B,42.0424885,42.2466237,15.48,0,-0.4,145.7,646754.38,-281189.41,139.6,Air+FixedWing,Blue,Enemies,J-11A,Blue J-11A #004,cn,=36=Rabo,0.03125,0,9.1816117406208e-05,15.4799995422363,2.47999954223633,0.03125,0,NaN,NaN,0,0.0197823405926261,NaN,0.999958620479429,0.00206530655055262,-0.0094079292396235,4.8828125e-05,15.1806937510872,15.1807425792122,,,12.3899998664856,13,0.0824972763175646,0.162761577640169
2018-07-19T08:04:08Z,1531987448,10B,42.0424885,42.2466237,15.48,0,-0.4,145.7,646754.38,-281189.41,139.6,Air+FixedWing,Blue,Enemies,J-11A,Blue J-11A #004,cn,=36=Rabo,0,0,0,15.4799995422363,2.47999954223633,0,0,NaN,NaN,0,0.0197823405926261,NaN,0.999975562097095,0,-0.00698126060888171,0,15.1806937510872,15.1806937510872,,,13.3899998664856,13,0.0824972763175646,0.162761577640169
2018-07-19T08:04:09Z,1531987449,10B,42.0424885,42.2466237,15.48,0,-0.4,145.7,646754.38,-281189.41,139.6,Air+FixedWing,Blue,Enemies,J-11A,Blue J-11A #004,cn,=36=Rabo,0,0,0,15.4799995422363,2.47999954223633,0,0,NaN,NaN,0,0.0197823405926261,NaN,0.999958620479429,0.00206530655055262,-0.0094079292396235,0,15.1806937510872,15.1806937510872,,,14.3899998664856,13,0.0824972763175646,0.162761577640169
2018-07-19T08:04:10Z,1531987450,10B,42.0424885,42.2466237,15.48,0,-0.4,145.7,646754.38,-281189.38,139.6,Air+FixedWing,Blue,Enemies,J-11A,Blue J-11A #004,cn,=36=Rabo,0.03125,0,9.1816117406208e-05,15.4799995422363,2.47999954223633,0.03125,0,NaN,NaN,0,0.0197823405926261,NaN,0.999992503714761,-0.00206530655055262,-0.00455459197813992,4.8828125e-05,15.1806937510872,15.1807425792122,,,15.3899998664856,13,0.0824972763175646,0.162761577640169
2018-07-19T08:04:11Z,1531987451,10B,42.0424885,42.2466237,15.48,0,-0.4,145.7,646754.38,-281189.38,139.6,Air+FixedWing,Blue,Enemies,J-11A,Blue J-11A #004,cn,=36=Rabo,0,0,0,15.4799995422363,2.47999954223633,0,0,NaN,NaN,0,0.0197823405926261,NaN,0.999975562097095,0,-0.00698126060888171,0,15.1806937510872,15.1806937510872,,,16.3899998664856,13,0.0824972763175646,0.162761577640169
2018-07-19T08:04:12Z,1531987452,10B,42.0424885,42.2466237,15.48,0,-0.4,145.7,646754.38,-281189.38,139.6,Air+FixedWing,Blue,Enemies,J-11A,Blue J-11A #004,cn,=36=Rabo,0,0,0,15.4799995422363,2.47999954223633,0,0,NaN,NaN,0,0.0197823405926261,NaN,0.999992503714761,-0.00206530655055262,-0.00455459197813992,0,15.1806937510872,15.1806937510872,,,17.3899998664856,13,0.0824972763175646,0.162761577640169
2018-07-19T08:04:13Z,1531987453,10B,42.0424885,42.2466237,15.48,0,-0.4,145.7,646754.38,-281189.41,139.6,Air+FixedWing,Blue,Enemies,J-11A,Blue J-11A #004,cn,=36=Rabo,0.03125,0,9.1816117406208e-05,15.4799995422363,2.47999954223633,0.03125,0,NaN,NaN,0,0.0197823405926261,NaN,0.999958620479429,0.00206530655055262,-0.0094079292396235,4.8828125e-05,15.1806937510872,15.1807425792122,,,18.3899998664856,13,0.0824972763175646,0.162761577640169
2018-07-19T08:04:14Z,1531987454,10B,42.0424885,42.2466237,15.48,0,-0.4,145.7,646754.38,-281189.41,139.6,Air+FixedWing,Blue,Enemies,J-11A,Blue J-11A #004,cn,=36=Rabo,0,0,0,15.4799995422363,2.47999954223633,0,0,NaN,NaN,0,0.0197823405926261,NaN,0.999958620479429,0.00206530655055262,-0.0094079292396235,0,15.1806937510872,15.1806937510872,,,19.3899998664856,13,0.0824972763175646,0.162761577640169
2018-07-19T08:04:15Z,1531987455,10B,42.0424885,42.2466237,15.48,0,-0.4,145.7,646754.38,-281189.38,139.6,Air+FixedWing,Blue,Enemies,J-11A,Blue J-11A #004,cn,=36=Rabo,0.03125,0,9.1816117406208e-05,15.4799995422363,2.47999954223633,0.03125,0,NaN,NaN,0,0.0197823405926261,NaN,0.999992503714761,-0.00206530655055262,-0.00455459197813992,4.8828125e-05,15.1806937510872,15.1807425792122,,,20.3899998664856,13,0.0824972763175646,0.162761577640169
2018-07-19T08:04:16Z,1531987456,10B,42.0424885,42.2466237,15.48,-0.1,-0.4,145.7,646754.38,-281189.38,139.6,Air+FixedWing,Blue,Enemies,J-11A,Blue J-11A #004,cn,=36=Rabo,0,0,0,15.4799995422363,2.47999954223633,0,0,NaN,NaN,0.1176431782643,0.0197823405926261,NaN,0.999974310430069,-0.00158092844449746,-0.00698126060888171,0,15.1806937510872,15.1806937510872,,,21.3899998664856,13,0.0824972763175646,0.162761577640169
2018-07-19T08:04:17Z,1531987457,10B,42.0424885,42.2466237,15.48,0,-0.4,145.7,646754.38,-281189.38,139.6,Air+FixedWing,Blue,Enemies,J-11A,Blue J-11A #004,cn,=36=Rabo,0,0,0,15.4799995422363,2.47999954223633,0,0,NaN,NaN,0,0.0197823405926261,NaN,0.999992503714761,-0.00206530655055262,-0.00455459197813992,0,15.1806937510872,15.1806937510872,,,22.3899998664856,13,0.0824972763175646,0.162761577640169
2018-07-19T08:04:18Z,1531987458,10B,42.0424885,42.2466237,15.48,0,-0.4,145.7,646754.38,-281189.41,139.6,Air+FixedWing,Blue,Enemies,J-11A,Blue J-11A #004,cn,=36=Rabo,0.03125,0,9.1816117406208e-05,15.4799995422363,2.47999954223633,0.03125,0,NaN,NaN,0,0.0197823405926261,NaN,0.999941678861764,0.00413061310110525,-0.0118345978703653,4.8828125e-05,15.1806937510872,15.1807425792122,,,23.3899998664856,13,0.0824972763175646,0.162761577640169
2018-07-19T08:04:19Z,1531987459,10B,42.0424885,42.2466237,15.48,0,-0.4,145.7,646754.38,-281189.38,139.6,Air+FixedWing,Blue,Enemies,J-11A,Blue J-11A #004,cn,=36=Rabo,0.03125,0,9.1816117406208e-05,15.4799995422363,2.47999954223633,0.03125,0,NaN,NaN,0,0.0197823405926261,NaN,0.999992503714761,-0.00206530655055262,-0.00455459197813992,4.8828125e-05,15.1806937510872,15.1807425792122,,,24.3899998664856,13,0.0824972763175646,0.162761577640169
2018-07-19T08:04:20Z,1531987460,10B,42.0424885,42.2466237,15.48,0,-0.4,145.7,646754.38,-281189.38,139.6,Air+FixedWing,Blue,Enemies,J-11A,Blue J-11A #004,cn,=36=Rabo,0,0,0,15.4799995422363,2.47999954223633,0,0,NaN,NaN,0,0.0197823405926261,NaN,0.999992503714761,-0.00206530655055262,-0.00455459197813992,0,15.1806937510872,15.1806937510872,,,25.3899998664856,13,0.0824972763175646,0.162761577640169
2018-07-19T08:04:21Z,1531987461,10B,42.0424885,42.2466237,15.48,0,-0.4,145.7,646754.38,-281189.41,139.6,Air+FixedWing,Blue,Enemies,J-11A,Blue J-11A #004,cn,=36=Rabo,0.03125,0,9.1816117406208e-05,15.4799995422363,2.47999954223633,0.03125,0,NaN,NaN,0,0.0197823405926261,NaN,0.999941678861764,0.00413061310110525,-0.0118345978703653,4.8828125e-05,15.1806937510872,15.1807425792122,,,26.3899998664856,13,0.0824972763175646,0.162761577640169
2018-07-19T08:04:22Z,1531987462,10B,42.0424885,42.2466237,15.48,0,-0.4,145.7,646754.38,-281189.38,139.6,Air+FixedWing,Blue,Enemies,J-11A,Blue J-11A #004,cn,=36=Rabo,0.03125,0,9.1816117406208e-05,15.4799995422363,2.47999954223633,0.03125,0,NaN,NaN,0,0.0197823405926261,NaN,1.00000944533243,-0.00413061310110525,-0.00212792334739813,4.8828125e-05,15.1806937510872,15.1807425792122,,,27.3899998664856,13,0.0824972763175646,0.162761577640169
2018-07-19T08:04:23Z,1531987463,10B,42.0424885,42.2466237,15.48,0,-0.4,145.7,646754.38,-281189.41,139.6,Air+FixedWing,Blue,Enemies,J-11A,Blue J-11A #004,cn,=36=Rabo,0.03125,0,9.1816117406208e-05,15.4799995422363,2.47999954223633,0.03125,0,NaN,NaN,0,0.0197823405926261,NaN,0.999941678861764,0.00413061310110525,-0.0118345978703653,4.8828125e-05,15.1806937510872,15.1807425792122,,,28.3899998664856,13,0.0824972763175646,0.162761577640169
2018-07-19T08:04:24Z,1531987464,10B,42.0424885,42.2466237,15.48,0,-0.4,145.7,646754.38,-281189.38,139.6,Air+FixedWing,Blue,Enemies,J-11A,Blue J-11A #004,cn,=36=Rabo,0.03125,0,9.1816117406208e-05,15.4799995422363,2.47999954223633,0.03125,0,NaN,NaN,0,0.0197823405926261,NaN,1.00000944533243,-0.00413061310110525,-0.00212792334739813,4.8828125e-05,15.1806937510872,15.1807425792122,,,29.3899998664856,13,0.0824972763175646,0.162761577640169
2018-07-19T08:04:25Z,1531987465,10B,42.0424885,42.2466237,15.48,0,-0.4,145.7,646754.38,-281189.41,139.6,Air+FixedWing,Blue,Enemies,J-11A,Blue J-11A #004,cn,=36=Rabo,0.03125,0,9.1816117406208e-05,15.4799995422363,2.47999954223633,0.03125,0,NaN,NaN,0,0.0197823405926261,NaN,0.999958620479429,0.00206530655055262,-0.0094079292396235,4.8828125e-05,15.1806937510872,15.1807425792122,,,30.3899998664856,13,0.0824972763175646,0.162761577640169
2018-07-19T08:04:26Z,1531987466,10B,42.0424885,42.2466237,15.48,0,-0.4,145.7,646754.38,-281189.41,139.6,Air+FixedWing,Blue,Enemies,J-11A,Blue J-11A #004,cn,=36=Rabo,0,0,0,15.4799995422363,2.47999954223633,0,0,NaN,NaN,0,0.0197823405926261,NaN,0.999958620479429,0.00206530655055262,-0.0094079292396235,0,15.1806937510872,15.1806937510872,,,31.3899998664856,13,0.0824972763175646,0.162761577640169
2018-07-19T08:04:27Z,1531987467,10B,42.0424885,42.2466237,15.48,0,-0.4,145.7,646754.38,-281189.38,139.6,Air+FixedWing,Blue,Enemies,J-11A,Blue J-11A #004,cn,=36=Rabo,0.03125,0,9.1816117406208e-05,15.4799995422363,2.47999954223633,0.03125,0,NaN,NaN,0,0.0197823405926261,NaN,1.00000944533243,-0.00413061310110525,-0.00212792334739813,4.8828125e-05,15.1806937510872,15.1807425792122,,,32.3899998664856,13,0.0824972763175646,0.162761577640169
2018-07-19T08:04:28Z,1531987468,10B,42.0424885,42.2466237,15.48,0,-0.4,145.7,646754.38,-281189.41,139.6,Air+FixedWing,Blue,Enemies,J-11A,Blue J-11A #004,cn,=36=Rabo,0.03125,0,9.1816117406208e-05,15.4799995422363,2.47999954223633,0.03125,0,NaN,NaN,0,0.0197823405926261,NaN,0.999941678861764,0.00413061310110525,-0.0118345978703653,4.8828125e-05,15.1806937510872,15.1807425792122,,,33.3899998664856,13,0.0824972763175646,0.162761577640169
2018-07-19T08:04:29Z,1531987469,10B,42.0424885,42.2466237,15.48,0,-0.4,145.7,646754.38,-281189.38,139.6,Air+FixedWing,Blue,Enemies,J-11A,Blue J-11A #004,cn,=36=Rabo,0.03125,0,9.1816117406208e-05,15.4799995422363,2.47999954223633,0.03125,0,NaN,NaN,0,0.0197823405926261,NaN,0.999992503714761,-0.00206530655055262,-0.00455459197813992,4.8828125e-05,15.1806937510872,15.1807425792122,,,34.3899998664856,13,0.0824972763175646,0.162761577640169
2018-07-19T08:04:30Z,1531987470,10B,42.0424885,42.2466237,15.48,0,-0.4,145.7,646754.38,-281189.38,139.6,Air+FixedWing,Blue,Enemies,J-11A,Blue J-11A #004,cn,=36=Rabo,0,0,0,15.4799995422363,2.47999954223633,0,0,NaN,NaN,0,0.0197823405926261,NaN,0.999992503714761,-0.00206530655055262,-0.00455459197813992,0,15.1806937510872,15.1806937510872,,,35.3899998664856,13,0.0824972763175646,0.162761577640169
2018-07-19T08:04:31Z,1531987471,10B,42.0424885,42.2466237,15.48,0,-0.4,145.7,646754.38,-281189.41,139.6,Air+FixedWing,Blue,Enemies,J-11A,Blue J-11A #004,cn,=36=Rabo,0.03125,0,9.1816117406208e-05,15.4799995422363,2.47999954223633,0.03125,0,NaN,NaN,0,0.0197823405926261,NaN,0.999958620479429,0.00206530655055262,-0.0094079292396235,4.8828125e-05,15.1806937510872,15.1807425792122,,,36.3899998664856,13,0.0824972763175646,0.162761577640169
2018-07-19T08:04:32Z,1531987472,10B,42.0424885,42.2466237,15.48,0,-0.4,145.7,646754.38,-281189.41,139.6,Air+FixedWing,Blue,Enemies,J-11A,Blue J-11A #004,cn,=36=Rabo,0,0,0,15.4799995422363,2.47999954223633,0,0,NaN,NaN,0,0.0197823405926261,NaN,0.999958620479429,0.00206530655055262,-0.0094079292396235,0,15.1806937510872,15.1806937510872,,,37.3899998664856,13,0.0824972763175646,0.162761577640169
2018-07-19T08:04:33Z,1531987473,10B,42.0424885,42.2466237,15.48,0,-0.4,145.7,646754.38,-281189.38,139.6,Air+FixedWing,Blue,Enemies,J-11A,Blue J-11A #004,cn,=36=Rabo,0.03125,0,9.1816117406208e-05,15.4799995422363,2.47999954223633,0.03125,0,NaN,NaN,0,0.0197823405926261,NaN,0.999992503714761,-0.00206530655055262,-0.00455459197813992,4.8828125e-05,15.1806937510872,15.1807425792122,,,38.3899998664856,13,0.0824972763175646,0.162761577640169
2018-07-19T08:04:34Z,1531987474,10B,42.0424885,42.2466237,15.48,0,-0.4,145.7,646754.38,-281189.38,139.6,Air+FixedWing,Blue,Enemies,J-11A,Blue J-11A #004,cn,=36=Rabo,0,0,0,15.4799995422363,2.47999954223633,0,0,NaN,NaN,0,0.0197823405926261,NaN,0.999992503714761,-0.00206530655055262,-0.00455459197813992,0,15.1806937510872,15.1806937510872,,,39.3899998664856,13,0.0824972763175646,0.162761577640169
2018-07-19T08:04:35Z,1531987475,10B,42.0424885,42.2466237,15.48,0,-0.4,145.7,646754.38,-281189.41,139.6,Air+FixedWing,Blue,Enemies,J-11A,Blue J-11A #004,cn,=36=Rabo,0.03125,0,9.1816117406208e-05,15.4799995422363,2.47999954223633,0.03125,0,NaN,NaN,0,0.0197823405926261,NaN,0.999958620479429,0.00206530655055262,-0.0094079292396235,4.8828125e-05,15.1806937510872,15.1807425792122,,,40.3899998664856,13,0.0824972763175646,0.162761577640169
2018-07-19T08:04:36Z,1531987476,10B,42.0424885,42.2466236,15.48,0,-0.4,145.7,646754.38,-281189.41,139.6,Air+FixedWing,Blue,Enemies,J-11A,Blue J-11A #004,cn,=36=Rabo,0,0,0,15.4799995422363,2.47999954223633,0,0,NaN,NaN,0,0.0197823405926261,NaN,0.999975562097095,0,-0.00698126060888171,0,15.1806937510872,15.1806937510872,,,41.3899998664856,13,0.0897003011208632,0.169964619402475
2018-07-19T08:04:37Z,1531987477,10B,42.0424885,42.2466237,15.48,0,-0.4,145.7,646754.38,-281189.41,139.6,Air+FixedWing,Blue,Enemies,J-11A,Blue J-11A #004,cn,=36=Rabo,0,0,0,15.4799995422363,2.47999954223633,0,0,NaN,NaN,0.0178253129700656,0.0197823405926261,NaN,0.999975562097095,0.000208438909631304,-0.00698126060888171,0,15.1806937510872,15.1806937510872,,,42.3899998664856,13,0.0969033259241618,0.177167661164781
2018-07-19T08:04:38Z,1531987478,10B,42.0424885,42.2466237,15.48,0,-0.4,145.7,646754.38,-281189.41,139.6,Air+FixedWing,Blue,Enemies,J-11A,Blue J-11A #004,cn,=36=Rabo,0,0,0,15.4799995422363,2.47999954223633,0,0,NaN,NaN,0.0178253096350123,0.0197823405926261,NaN,0.999975442890712,0.000519541697711665,-0.00698126060888171,0,15.1806937510872,15.1806937510872,,,43.3899998664856,13,0.0969033259241618,0.177167661164781
2018-07-19T08:04:39Z,1531987479,10B,42.0424885,42.2466237,15.48,0,-0.4,145.7,646754.38,-281189.41,139.6,Air+FixedWing,Blue,Enemies,J-11A,Blue J-11A #004,cn,=36=Rabo,0,0,0,15.4799995422363,2.47999954223633,0,0,NaN,NaN,0.0178253129700656,0.0197823405926261,NaN,0.999975264081136,0.000830644398482662,-0.00698126060888171,0,15.1806937510872,15.1806937510872,,,44.3899998664856,13,0.0969033259241618,0.177167661164781
2018-07-19T08:04:40Z,1531987480,10B,42.0424885,42.2466237,15.48,0.1,-0.4,145.7,646754.38,-281189.41,139.6,Air+FixedWing,Blue,Enemies,J-11A,Blue J-11A #004,cn,=36=Rabo,0,0,0,15.4799995422363,2.47999954223633,0,0,NaN,NaN,0.0178253129700656,0.0197823405926261,NaN,0.999974906461986,0.00114174709925366,-0.00698126060888171,0,15.1806937510872,15.1806937510872,,,45.3899998664856,13,0.0969033259241618,0.177167661164781
2018-07-19T08:04:41Z,1531987481,10B,42.0424885,42.2466237,15.48,0.1,-0.4,145.7,646754.38,-281189.41,139.6,Air+FixedWing,Blue,Enemies,J-11A,Blue J-11A #004,cn,=36=Rabo,0,0,0,15.4799995422363,2.47999954223633,0,0,NaN,NaN,0.0178253129700656,0.0197823405926261,NaN,0.999974489239644,0.00145284968361217,-0.00698126060888171,0,15.1806937510872,15.1806937510872,,,46.3899998664856,13,0.0969033259241618,0.177167661164781
2018-07-19T08:04:42Z,1531987482,10B,42.0424885,42.2466237,15.48,0.1,-0.4,145.7,646754.38,-281189.41,139.6,Air+FixedWing,Blue,Enemies,J-11A,Blue J-11A #004,cn,=36=Rabo,0,0,0,15.4799995422363,2.47999954223633,0,0,NaN,NaN,0.000983547240481836,0.0197823405926261,NaN,0.999978880954944,0.00159986174924116,-0.00698129251772577,0,15.1806937510872,15.1806937510872,,,47.3899998664856,13,0.0969033259241618,0.177167661164781
2018-07-19T08:04:43Z,1531987483,10B,42.0424885,42.2466237,15.48,0,-0.4,145.7,646754.38,-281189.41,139.6,Air+FixedWing,Blue,Enemies,J-11A,Blue J-11A #004,cn,=36=Rabo,4.48226928710938e-05,0,1.31694260262167e-07,15.4800443649292,2.4800443649292,0,4.48226928710938e-05,NaN,NaN,0.044478191875123,0.0197823405926261,NaN,0.999984314176468,0,-0.00698132171092353,1.0045368981082e-10,15.1807377071333,15.1807377072337,,,48.3899998664856,13,0.0969033259241618,0.1772124837567
2018-07-19T08:04:44Z,1531987484,10B,42.0424885,42.2466237,15.48,0,-0.4,145.7,646754.38,-281189.41,139.6,Air+FixedWing,Blue,Enemies,J-11A,Blue J-11A #004,cn,=36=Rabo,0.000130653381347656,0,3.8387475920151e-07,15.4801750183105,2.48017501831055,0,0.000130653381347656,NaN,NaN,0,0.0197823405926261,NaN,0.999975659342421,0,-0.00698126128779329,8.53515302878805e-10,15.1808658343315,15.180865835185,,,49.3899998664856,13,0.0969033259241618,0.177343136615414
2018-07-19T08:04:45Z,1531987485,10B,42.0424885,42.2466237,15.48,0,-0.4,145.7,646754.38,-281189.41,139.6,Air+FixedWing,Blue,Enemies,J-11A,Blue J-11A #004,cn,=36=Rabo,0.000131607055664062,0,3.86676765316387e-07,15.4803066253662,2.48030662536621,0,0.000131607055664062,NaN,NaN,0,0.0197823405926261,NaN,0.999975562097095,0,-0.00698126060888171,8.66020855028182e-10,15.1809948967648,15.1809948976308,,,50.3899998664856,13,0.0969033259241618,0.177474743592403
2018-07-19T08:04:46Z,1531987486,10B,42.0424885,42.2466237,15.48,0,-0.4,145.7,646754.38,-281189.41,139.6,Air+FixedWing,Blue,Enemies,J-11A,Blue J-11A #004,cn,=36=Rabo,0.000131607055664062,0,3.86676765889646e-07,15.4804382324219,2.48043823242188,0,0.000131607055664062,NaN,NaN,0,0.0197823405926261,NaN,0.999975464851769,0,-0.00698125992997014,8.66020855028182e-10,15.181123959198,15.181123960064,,,51.3899998664856,13,0.0969033259241618,0.177606351147775
2018-07-19T08:04:47Z,1531987487,10B,42.0424885,42.2466237,15.48,0,-0.4,145.7,646754.38,-281189.41,139.6,Air+FixedWing,Blue,Enemies,J-11A,Blue J-11A #004,cn,=36=Rabo,0.000130653381347656,0,3.83874760904703e-07,15.4805688858032,2.48056888580322,0,0.000130653381347656,NaN,NaN,0,0.0197823405926261,NaN,0.999975659342421,0,-0.00698126128779329,8.53515302878805e-10,15.1812520863962,15.1812520872497,,,52.3899998664856,13,0.0969033259241618,0.177737004401792
2018-07-19T08:04:48Z,1531987488,10B,42.0424885,42.2466237,15.48,0,-0.4,145.7,646754.38,-281189.41,139.6,Air+FixedWing,Blue,Enemies,J-11A,Blue J-11A #004,cn,=36=Rabo,0.000131607055664062,0,3.86676767032011e-07,15.4807004928589,2.48070049285889,0,0.000131607055664062,NaN,NaN,0,0.0197823405926261,NaN,0.999975562097095,0,-0.00698126060888171,8.66020855028182e-10,15.1813811488295,15.1813811496955,,,53.3899998664856,13,0.0969033259241618,0.177868610983474
2018-07-19T08:04:49Z,1531987489,10B,42.0424885,42.2466237,15.48,0,-0.4,145.7,646754.38,-281189.41,139.6,Air+FixedWing,Blue,Enemies,J-11A,Blue J-11A #004,cn,=36=Rabo,0.000131607055664062,0,3.8667676760527e-07,15.4808320999146,2.48083209991455,0,0.000131607055664062,NaN,NaN,0,0.0197823405926261,NaN,0.999975464851769,0,-0.00698125992997014,8.66020855028182e-10,15.1815102112627,15.1815102121287,,,54.3899998664856,13,0.0969033259241618,0.178000218934147
2018-07-19T08:04:50Z,1531987490,10B,42.0424885,42.2466237,15.48,0,-0.4,145.7,646754.38,-281189.41,139.6,Air+FixedWing,Blue,Enemies,J-11A,Blue J-11A #004,cn,=36=Rabo,0.000130653381347656,0,3.83874762607895e-07,15.4809627532959,2.4809627532959,0,0.000130653381347656,NaN,NaN,0,0.0197823405926261,NaN,0.999975659342421,0,-0.00698126128779329,8.53515302878805e-10,15.1816383384609,15.1816383393144,,,55.3899998664856,13,0.0969033259241618,0.178130871562014
2018-07-19T08:04:51Z,1531987491,10B,42.0424885,42.2466237,15.48,0,-0.4,145.7,646754.38,-281189.41,139.6,Air+FixedWing,Blue,Enemies,J-11A,Blue J-11A #004,cn,=36=Rabo,0.000131607055664062,0,3.86676768747635e-07,15.4810943603516,2.48109436035156,0,0.000131607055664062,NaN,NaN,0,0.0197823405926261,NaN,0.999975562097095,0,-0.00698126060888171,8.66020855028182e-10,15.1817674008942,15.1817674017602,,,56.3899998664856,13,0.0969033259241618,0.178262478769848
2018-07-19T08:04:52Z,1531987492,10B,42.0424885,42.2466237,15.48,0,-0.4,145.7,646754.38,-281189.41,139.6,Air+FixedWing,Blue,Enemies,J-11A,Blue J-11A #004,cn,=36=Rabo,0.000131607055664062,0,3.86676769320895e-07,15.4812259674072,2.48122596740723,0,0.000131607055664062,NaN,NaN,0,0.0197823405926261,NaN,0.999975464851769,0,-0.00698125992997014,8.66020855028182e-10,15.1818964633274,15.1818964641934,,,57.3899998664856,13,0.0969033259241618,0.178394085607528
2018-07-19T08:04:53Z,1531987493,10B,42.0424885,42.2466237,15.48,0,-0.4,145.7,646754.38,-281189.41,139.6,Air+FixedWing,Blue,Enemies,J-11A,Blue J-11A #004,cn,=36=Rabo,0.000130653381347656,0,3.83874764311087e-07,15.4813566207886,2.48135662078857,0,0.000130653381347656,NaN,NaN,0,0.0197823405926261,NaN,0.999975659342421,0,-0.00698126128779329,8.53515302878805e-10,15.1820245905256,15.1820245913791,,,58.3899998664856,13,0.0969033259241618,0.178524739579233
2018-07-19T08:04:54Z,1531987494,10B,42.0424885,42.2466237,15.48,0,-0.4,145.7,646754.38,-281189.41,139.6,Air+FixedWing,Blue,Enemies,J-11A,Blue J-11A #004,cn,=36=Rabo,0.000131607055664062,0,3.8667677046326e-07,15.4814882278442,2.48148822784424,0,0.000131607055664062,NaN,NaN,0,0.0197823405926261,NaN,0.999975562097095,0,-0.00698126060888171,8.66020855028182e-10,15.1821536529589,15.1821536538249,,,59.3899998664856,13,0.0969033259241618,0.17865634593007
2018-07-19T08:04:55Z,1531987495,10B,42.0424885,42.2466237,15.48,0,-0.4,145.7,646754.38,-281189.41,139.6,Air+FixedWing,Blue,Enemies,J-11A,Blue J-11A #004,cn,=36=Rabo,0.000131607055664062,0,3.86676771036519e-07,15.4816198348999,2.4816198348999,0,0.000131607055664062,NaN,NaN,0,0.0197823405926261,NaN,0.999975464851769,0,-0.00698125992997014,8.66020855028182e-10,15.1822827153921,15.1822827162581,,,60.3899998664856,13,0.0969033259241618,0.178787953393901
2018-07-19T08:04:56Z,1531987496,10B,42.0424885,42.2466237,15.48,0,-0.4,145.7,646754.38,-281189.41,139.6,Air+FixedWing,Blue,Enemies,J-11A,Blue J-11A #004,cn,=36=Rabo,0.000130653381347656,0,3.83874766014279e-07,15.4817504882812,2.48175048828125,0,0.000130653381347656,NaN,NaN,0,0.0197823405926261,NaN,0.999975659342421,0,-0.00698126128779329,8.53515302878805e-10,15.1824108425903,15.1824108434438,,,61.3899998664856,13,0.0969033259241618,0.178918607365606
2018-07-19T08:04:57Z,1531987497,10B,42.0424885,42.2466237,15.48,0,-0.4,145.7,646754.38,-281189.41,139.6,Air+FixedWing,Blue,Enemies,J-11A,Blue J-11A #004,cn,=36=Rabo,0.000131607055664062,0,3.86676772178884e-07,15.4818820953369,2.48188209533691,0,0.000131607055664062,NaN,NaN,0,0.0197823405926261,NaN,0.999975562097095,0,-0.00698126060888171,8.66020855028182e-10,15.1825399050236,15.1825399058896,,,62.3899998664856,13,0.0969033259241618,0.179050213947288
2018-07-19T08:04:58Z,1531987498,10B,42.0424885,42.2466237,15.48,0,-0.4,145.7,646754.38,-281189.41,139.6,Air+FixedWing,Blue,Enemies,J-11A,Blue J-11A #004,cn,=36=Rabo,0.000131607055664062,0,3.86676772752143e-07,15.4820137023926,2.48201370239258,0,0.000131607055664062,NaN,NaN,0,0.0197823405926261,NaN,0.999975464851769,0,-0.00698125992997014,8.66020855028182e-10,15.1826689674568,15.1826689683228,,,63.3899998664856,13,0.0969033259241618,0.179181820784968
2018-07-19T08:04:59Z,1531987499,10B,42.0424885,42.2466237,15.48,0,-0.4,145.7,646754.38,-281189.41,139.6,Air+FixedWing,Blue,Enemies,J-11A,Blue J-11A #004,cn,=36=Rabo,0.000130653381347656,0,3.83874767717472e-07,15.4821443557739,2.48214435577393,0,0.000130653381347656,NaN,NaN,0,0.0197823405926261,NaN,0.999975659342421,0,-0.00698126128779329,8.53515302878805e-10,15.182797094655,15.1827970955086,,,64.3899998664856,13,0.0969033259241618,0.179312473782988
2018-07-19T08:05:00Z,1531987500,10B,42.0424885,42.2466237,15.48,0,-0.4,145.7,646754.38,-281189.41,139.6,Air+FixedWing,Blue,Enemies,J-11A,Blue J-11A #004,cn,=36=Rabo,0.000131607055664062,0,3.86676773894508e-07,15.4822759628296,2.48227596282959,0,0.000131607055664062,NaN,NaN,0,0.0197823405926261,NaN,0.999975464851769,0,-0.00698125992997014,8.66020855028182e-10,15.1829261570883,15.1829261579543,,,65.3899998664856,13,0.0969033259241618,0.179444081107512
2018-07-19T08:05:01Z,1531987501,10B,42.0424885,42.2466237,15.48,0,-0.4,145.7,646754.38,-281189.41,139.6,Air+FixedWing,Blue,Enemies,J-11A,Blue J-11A #004,cn,=36=Rabo,0.000130653381347656,0,3.83874768851559e-07,15.4824066162109,2.48240661621094,0,0.000130653381347656,NaN,NaN,0,0.0197823405926261,NaN,0.999975659342421,0,-0.00698126128779329,8.53515302878805e-10,15.1830542842865,15.18305428514,,,66.3899998664856,13,0.0969033259241618,0.179574734592374
2018-07-19T08:05:02Z,1531987502,10B,42.0424885,42.2466237,15.48,0,-0.4,145.7,646754.38,-281189.41,139.6,Air+FixedWing,Blue,Enemies,J-11A,Blue J-11A #004,cn,=36=Rabo,0.000131607055664062,0,3.86676775036873e-07,15.4825382232666,2.4825382232666,0,0.000131607055664062,NaN,NaN,0,0.0197823405926261,NaN,0.999975562097095,0,-0.00698126060888171,8.66020855028182e-10,15.1831833467197,15.1831833475858,,,67.3899998664856,13,0.0969033259241618,0.179706341569363
2018-07-19T08:05:03Z,1531987503,10B,42.0424885,42.2466237,15.48,0,-0.4,145.7,646754.38,-281189.41,139.6,Air+FixedWing,Blue,Enemies,J-11A,Blue J-11A #004,cn,=36=Rabo,0.000131607055664062,0,3.86676775610133e-07,15.4826698303223,2.48266983032227,0,0.000131607055664062,NaN,NaN,0,0.0197823405926261,NaN,0.999975464851769,0,-0.00698125992997014,8.66020855028182e-10,15.183312409153,15.183312410019,,,68.3899998664856,13,0.0969033259241618,0.179837949124735
2018-07-19T08:05:04Z,1531987504,10B,42.0424885,42.2466237,15.48,0,-0.4,145.7,646754.38,-281189.41,139.6,Air+FixedWing,Blue,Enemies,J-11A,Blue J-11A #004,cn,=36=Rabo,0.000130653381347656,0,3.83874770554751e-07,15.4828004837036,2.48280048370361,0,0.000130653381347656,NaN,NaN,0,0.0197823405926261,NaN,0.999975659342421,0,-0.00698126128779329,8.53515302878805e-10,15.1834405363512,15.1834405372047,,,69.3899998664856,13,0.0969033259241618,0.179968602378752
2018-07-19T08:05:05Z,1531987505,10B,42.0424885,42.2466237,15.48,0,-0.4,145.7,646754.38,-281189.41,139.6,Air+FixedWing,Blue,Enemies,J-11A,Blue J-11A #004,cn,=36=Rabo,0.000131607055664062,0,3.86676776752498e-07,15.4829320907593,2.48293209075928,0,0.000131607055664062,NaN,NaN,0,0.0197823405926261,NaN,0.999975562097095,0,-0.00698126060888171,8.66020855028182e-10,15.1835695987844,15.1835695996505,,,70.3899998664856,13,0.0969033259241618,0.180100208960434
2018-07-19T08:05:06Z,1531987506,10B,42.0424885,42.2466237,15.48,0,-0.4,145.7,646754.38,-281189.41,139.6,Air+FixedWing,Blue,Enemies,J-11A,Blue J-11A #004,cn,=36=Rabo,0.000131607055664062,0,3.86676777325757e-07,15.4830636978149,2.48306369781494,0,0.000131607055664062,NaN,NaN,0,0.0197823405926261,NaN,0.999975464851769,0,-0.00698125992997014,8.66020855028182e-10,15.1836986612177,15.1836986620837,,,71.3899998664856,13,0.0969033259241618,0.180231816911107
2018-07-19T08:05:07Z,1531987507,10B,42.0424885,42.2466237,15.48,0,-0.4,145.7,646754.38,-281189.41,139.6,Air+FixedWing,Blue,Enemies,J-11A,Blue J-11A #004,cn,=36=Rabo,0.000130653381347656,0,3.83874772257943e-07,15.4831943511963,2.48319435119629,0,0.000130653381347656,NaN,NaN,0,0.0197823405926261,NaN,0.999975659342421,0,-0.00698126128779329,8.53515302878805e-10,15.1838267884159,15.1838267892694,,,72.3899998664856,13,0.0969033259241618,0.180362469538975
2018-07-19T08:05:08Z,1531987508,10B,42.0424885,42.2466237,15.48,0,-0.4,145.7,646754.38,-281189.41,139.6,Air+FixedWing,Blue,Enemies,J-11A,Blue J-11A #004,cn,=36=Rabo,0.000131607055664062,0,3.86676778468122e-07,15.483325958252,2.48332595825195,0,0.000131607055664062,NaN,NaN,0,0.0197823405926261,NaN,0.999975562097095,0,-0.00698126060888171,8.66020855028182e-10,15.1839558508492,15.1839558517152,,,73.3899998664856,13,0.0969033259241618,0.180494076746808
2018-07-19T08:05:09Z,1531987509,10B,42.0424885,42.2466237,15.48,0,-0.4,145.7,646754.38,-281189.41,139.6,Air+FixedWing,Blue,Enemies,J-11A,Blue J-11A #004,cn,=36=Rabo,0.000131607055664062,0,3.86676779041382e-07,15.4834575653076,2.48345756530762,0,0.000131607055664062,NaN,NaN,0,0.0197823405926261,NaN,0.999975464851769,0,-0.00698125992997014,8.66020855028182e-10,15.1840849132824,15.1840849141484,,,74.3899998664856,13,0.0969033259241618,0.180625683584488
2018-07-19T08:05:10Z,1531987510,10B,42.0424885,42.2466237,15.48,0,-0.4,145.7,646754.38,-281189.41,139.6,Air+FixedWing,Blue,Enemies,J-11A,Blue J-11A #004,cn,=36=Rabo,0.000130653381347656,0,3.83874773961136e-07,15.483588218689,2.48358821868896,0,0.000130653381347656,NaN,NaN,0,0.0197823405926261,NaN,0.999975659342421,0,-0.00698126128779329,8.53515302878805e-10,15.1842130404806,15.1842130413341,,,75.3899998664856,13,0.0969033259241618,0.180756337556194
2018-07-19T08:05:11Z,1531987511,10B,42.0424885,42.2466237,15.48,0,-0.4,145.7,646754.38,-281189.41,139.6,Air+FixedWing,Blue,Enemies,J-11A,Blue J-11A #004,cn,=36=Rabo,0.000131607055664062,0,3.86676780183747e-07,15.4837198257446,2.48371982574463,0,0.000131607055664062,NaN,NaN,0,0.0197823405926261,NaN,0.999975562097095,0,-0.00698126060888171,8.66020855028182e-10,15.1843421029139,15.1843421037799,,,76.3899998664856,13,0.0969033259241618,0.180887943907031
2018-07-19T08:05:12Z,1531987512,10B,42.0424885,42.2466237,15.48,0,-0.4,145.7,646754.38,-281189.41,139.6,Air+FixedWing,Blue,Enemies,J-11A,Blue J-11A #004,cn,=36=Rabo,0.000131607055664062,0,3.86676780757006e-07,15.4838514328003,2.48385143280029,0,0.000131607055664062,NaN,NaN,0,0.0197823405926261,NaN,0.999975464851769,0,-0.00698125992997014,8.66020855028182e-10,15.1844711653471,15.1844711662131,,,77.3899998664856,13,0.0969033259241618,0.181019551370861
2018-07-19T08:05:13Z,1531987513,10B,42.0424885,42.2466237,15.48,0,-0.4,145.7,646754.38,-281189.41,139.6,Air+FixedWing,Blue,Enemies,J-11A,Blue J-11A #004,cn,=36=Rabo,0.000130653381347656,0,3.83874775664328e-07,15.4839820861816,2.48398208618164,0,0.000130653381347656,NaN,NaN,0,0.0197823405926261,NaN,0.999975659342421,0,-0.00698126128779329,8.53515302878805e-10,15.1845992925453,15.1845992933988,,,78.3899998664856,13,0.0969033259241618,0.181150205342567
2018-07-19T08:05:14Z,1531987514,10B,42.0424885,42.2466237,15.48,0,-0.4,145.7,646754.38,-281189.41,139.6,Air+FixedWing,Blue,Enemies,J-11A,Blue J-11A #004,cn,=36=Rabo,0.000131607055664062,0,3.86676781899371e-07,15.4841136932373,2.4841136932373,0,0.000131607055664062,NaN,NaN,0,0.0197823405926261,NaN,0.999975562097095,0,-0.00698126060888171,8.66020855028182e-10,15.1847283549786,15.1847283558446,,,79.3899998664856,13,0.0969033259241618,0.181281811924249
2018-07-19T08:05:15Z,1531987515,10B,42.0424885,42.2466237,15.48,0,-0.4,145.7,646754.38,-281189.41,139.6,Air+FixedWing,Blue,Enemies,J-11A,Blue J-11A #004,cn,=36=Rabo,0.000131607055664062,0,3.86676782472631e-07,15.484245300293,2.48424530029297,0,0.000131607055664062,NaN,NaN,0,0.0197823405926261,NaN,0.999975464851769,0,-0.00698125992997014,8.66020855028182e-10,15.1848574174118,15.1848574182778,,,80.3899998664856,13,0.0969033259241618,0.181413418761929
2018-07-19T08:05:16Z,1531987516,10B,42.0424885,42.2466237,15.48,0,-0.4,145.7,646754.38,-281189.41,139.6,Air+FixedWing,Blue,Enemies,J-11A,Blue J-11A #004,cn,=36=Rabo,0.000130653381347656,0,3.8387477736752e-07,15.4843759536743,2.48437595367432,0,0.000130653381347656,NaN,NaN,0,0.0197823405926261,NaN,0.999975659342421,0,-0.00698126128779329,8.53515302878805e-10,15.18498554461,15.1849855454635,,,81.3899998664856,13,0.0969033259241618,0.181544071759948
2018-07-19T08:05:17Z,1531987517,10B,42.0424885,42.2466237,15.48,0,-0.4,145.7,646754.38,-281189.41,139.6,Air+FixedWing,Blue,Enemies,J-11A,Blue J-11A #004,cn,=36=Rabo,0.000131607055664062,0,3.86676783614996e-07,15.48450756073,2.48450756072998,0,0.000131607055664062,NaN,NaN,0,0.0197823405926261,NaN,0.999975464851769,0,-0.00698125992997014,8.66020855028182e-10,15.1851146070433,15.1851146079093,,,82.3899998664856,13,0.0969033259241618,0.181675679084473
2018-07-19T08:05:18Z,1531987518,10B,42.0424885,42.2466237,15.48,0,-0.4,145.7,646754.38,-281189.41,139.6,Air+FixedWing,Blue,Enemies,J-11A,Blue J-11A #004,cn,=36=Rabo,0.000130653381347656,0,3.83874778501608e-07,15.4846382141113,2.48463821411133,0,0.000130653381347656,NaN,NaN,0,0.0197823405926261,NaN,0.999975659342421,0,-0.00698126128779329,8.53515302878805e-10,15.1852427342415,15.185242735095,,,83.3899998664856,13,0.0969033259241618,0.181806332569334
2018-07-19T08:05:19Z,1531987519,10B,42.0424885,42.2466237,15.48,0,-0.4,145.7,646754.38,-281189.41,139.6,Air+FixedWing,Blue,Enemies,J-11A,Blue J-11A #004,cn,=36=Rabo,0.000131607055664062,0,3.86676784757361e-07,15.484769821167,2.48476982116699,0,0.000131607055664062,NaN,NaN,0,0.0197823405926261,NaN,0.999975562097095,0,-0.00698126060888171,8.66020855028182e-10,15.1853717966747,15.1853717975407,,,84.3899998664856,13,0.0969033259241618,0.181937939546324
2018-07-19T08:05:20Z,1531987520,10B,42.0424885,42.2466237,15.48,0,-0.4,145.7,646754.38,-281189.41,139.6,Air+FixedWing,Blue,Enemies,J-11A,Blue J-11A #004,cn,=36=Rabo,0.000131607055664062,0,3.8667678533062e-07,15.4849014282227,2.48490142822266,0,0.000131607055664062,NaN,NaN,0,0.0197823405926261,NaN,0.999975464851769,0,-0.00698125992997014,8.66020855028182e-10,15.185500859108,15.185500859974,,,85.3899998664856,13,0.0969033259241618,0.182069546870849
2018-07-19T08:05:21Z,1531987521,10B,42.0424885,42.2466237,15.49,0,-0.4,145.7,646754.38,-281189.41,139.6,Air+FixedWing,Blue,Enemies,J-11A,Blue J-11A #004,cn,=36=Rabo,0.000130653381347656,0,3.838747802048e-07,15.485032081604,2.485032081604,0,0.000130653381347656,NaN,NaN,0,0.0197823405926261,NaN,0.999975659342421,0,-0.00698126128779329,8.53515302878805e-10,15.1856289863062,15.1856289871597,,,86.3899998664856,13,0.0969033259241618,0.18220020035571
2018-07-19T08:05:22Z,1531987522,10B,42.0424885,42.2466237,15.49,0,-0.4,145.7,646754.38,-281189.41,139.6,Air+FixedWing,Blue,Enemies,J-11A,Blue J-11A #004,cn,=36=Rabo,0.000131607055664062,0,3.86676786472985e-07,15.4851636886597,2.48516368865967,0,0.000131607055664062,NaN,NaN,0,0.0197823405926261,NaN,0.999975562097095,0,-0.00698126060888171,8.66020855028182e-10,15.1857580487394,15.1857580496055,,,87.3899998664856,13,0.0969033259241618,0.182331806937393
2018-07-19T08:05:23Z,1531987523,10B,42.0424885,42.2466237,15.49,0,-0.4,145.7,646754.38,-281189.41,139.6,Air+FixedWing,Blue,Enemies,J-11A,Blue J-11A #004,cn,=36=Rabo,0.000131607055664062,0,3.86676787046245e-07,15.4852952957153,2.48529529571533,0,0.000131607055664062,NaN,NaN,0,0.0197823405926261,NaN,0.999975464851769,0,-0.00698125992997014,8.66020855028182e-10,15.1858871111727,15.1858871120387,,,88.3899998664856,13,0.0969033259241618,0.182463414261917
2018-07-19T08:05:24Z,1531987524,10B,42.0424885,42.2466237,15.49,0,-0.4,145.7,646754.38,-281189.41,139.6,Air+FixedWing,Blue,Enemies,J-11A,Blue J-11A #004,cn,=36=Rabo,0.000130653381347656,0,3.83874781907992e-07,15.4854259490967,2.48542594909668,0,0.000130653381347656,NaN,NaN,0,0.0197823405926261,NaN,0.999975659342421,0,-0.00698126128779329,8.53515302878805e-10,15.1860152383709,15.1860152392244,,,89.3899998664856,13,0.0969033259241618,0.182594067515934
2018-07-19T08:05:25Z,1531987525,10B,42.0424885,42.2466237,15.49,0,-0.4,145.7,646754.38,-281189.41,139.6,Air+FixedWing,Blue,Enemies,J-11A,Blue J-11A #004,cn,=36=Rabo,0.000131607055664062,0,3.8667678818861e-07,15.4855575561523,2.48555755615234,0,0.000131607055664062,NaN,NaN,0,0.0197823405926261,NaN,0.999975562097095,0,-0.00698126060888171,8.66020855028182e-10,15.1861443008041,15.1861443016702,,,90.3899998664856,13,0.0969033259241618,0.182725674723768
2018-07-19T08:05:26Z,1531987526,10B,42.0424885,42.2466237,15.49,0,-0.4,145.7,646754.38,-281189.41,139.6,Air+FixedWing,Blue,Enemies,J-11A,Blue J-11A #004,cn,=36=Rabo,0.000131607055664062,0,3.86676788761869e-07,15.485689163208,2.48568916320801,0,0.000131607055664062,NaN,NaN,0,0.0197823405926261,NaN,0.999975464851769,0,-0.00698125992997014,8.66020855028182e-10,15.1862733632374,15.1862733641034,,,91.3899998664856,13,0.0969033259241618,0.182857281561448
2018-07-19T08:05:27Z,1531987527,10B,42.0424885,42.2466237,15.49,0,-0.4,145.7,646754.38,-281189.41,139.6,Air+FixedWing,Blue,Enemies,J-11A,Blue J-11A #004,cn,=36=Rabo,0.000130653381347656,0,3.83874783611185e-07,15.4858198165894,2.48581981658936,0,0.000130653381347656,NaN,NaN,0,0.0197823405926261,NaN,0.999975659342421,0,-0.00698126128779329,8.53515302878805e-10,15.1864014904356,15.1864014912891,,,92.3899998664856,13,0.0969033259241618,0.182987935533153
2018-07-19T08:05:28Z,1531987528,10B,42.0424885,42.2466237,15.49,0,-0.4,145.7,646754.38,-281189.41,139.6,Air+FixedWing,Blue,Enemies,J-11A,Blue J-11A #004,cn,=36=Rabo,0.000131607055664062,0,3.86676789904234e-07,15.485951423645,2.48595142364502,0,0.000131607055664062,NaN,NaN,0,0.0197823405926261,NaN,0.999975562097095,0,-0.00698126060888171,8.66020855028182e-10,15.1865305528688,15.1865305537349,,,93.3899998664856,13,0.0969033259241618,0.18311954188399
2018-07-19T08:05:29Z,1531987529,10B,42.0424885,42.2466237,15.49,0,-0.4,145.7,646754.38,-281189.41,139.6,Air+FixedWing,Blue,Enemies,J-11A,Blue J-11A #004,cn,=36=Rabo,0.000131607055664062,0,3.86676790477494e-07,15.4860830307007,2.48608303070068,0,0.000131607055664062,NaN,NaN,0,0.0197823405926261,NaN,0.999975464851769,0,-0.00698125992997014,8.66020855028182e-10,15.1866596153021,15.1866596161681,,,94.3899998664856,13,0.0969033259241618,0.183251149347821
2018-07-19T08:05:30Z,1531987530,10B,42.0424885,42.2466237,15.49,0,-0.4,145.7,646754.38,-281189.41,139.6,Air+FixedWing,Blue,Enemies,J-11A,Blue J-11A #004,cn,=36=Rabo,0.000130653381347656,0,3.83874785314377e-07,15.486213684082,2.48621368408203,0,0.000130653381347656,NaN,NaN,0,0.0197823405926261,NaN,0.999975659342421,0,-0.00698126128779329,8.53515302878805e-10,15.1867877425003,15.1867877433538,,,95.3899998664856,13,0.0969033259241618,0.18338180269338
2018-07-19T08:05:31Z,1531987531,10B,42.0424885,42.2466237,15.49,0,-0.4,145.7,646754.38,-281189.41,139.6,Air+FixedWing,Blue,Enemies,J-11A,Blue J-11A #004,cn,=36=Rabo,0.000131607055664062,0,3.86676791619859e-07,15.4863452911377,2.4863452911377,0,0.000131607055664062,NaN,NaN,0,0.0197823405926261,NaN,0.999975562097095,0,-0.00698126060888171,8.66020855028182e-10,15.1869168049335,15.1869168057996,,,96.3899998664856,13,0.0969033259241618,0.183513409901214
2018-07-19T08:05:32Z,1531987532,10B,42.0424885,42.2466237,15.49,0,-0.4,145.7,646754.38,-281189.41,139.6,Air+FixedWing,Blue,Enemies,J-11A,Blue J-11A #004,cn,=36=Rabo,0.000131607055664062,0,3.86676792193118e-07,15.4864768981934,2.48647689819336,0,0.000131607055664062,NaN,NaN,0,0.0197823405926261,NaN,0.999975464851769,0,-0.00698125992997014,8.66020855028182e-10,15.1870458673668,15.1870458682328,,,97.3899998664856,13,0.0969033259241618,0.183645016738894
2018-07-19T08:05:33Z,1531987533,10B,42.0424885,42.2466237,15.49,0,-0.4,145.7,646754.38,-281189.41,139.6,Air+FixedWing,Blue,Enemies,J-11A,Blue J-11A #004,cn,=36=Rabo,0.000130653381347656,0,3.8387478701757e-07,15.4866075515747,2.48660755157471,0,0.000130653381347656,NaN,NaN,0,0.0197823405926261,NaN,0.999975659342421,0,-0.00698126128779329,8.53515302878805e-10,15.187173994565,15.1871739954185,,,98.3899998664856,13,0.0969033259241618,0.183775669736913
2018-07-19T08:05:34Z,1531987534,10B,42.0424885,42.2466237,15.49,0,-0.4,145.7,646754.38,-281189.41,139.6,Air+FixedWing,Blue,Enemies,J-11A,Blue J-11A #004,cn,=36=Rabo,0.000131607055664062,0,3.86676793335484e-07,15.4867391586304,2.48673915863037,0,0.000131607055664062,NaN,NaN,0,0.0197823405926261,NaN,0.999975464851769,0,-0.00698125992997014,8.66020855028182e-10,15.1873030569983,15.1873030578643,,,99.3899998664856,13,0.0969033259241618,0.183907277061438
2018-07-19T08:05:35Z,1531987535,10B,42.0424885,42.2466237,15.49,0,-0.4,145.7,646754.38,-281189.41,139.6,Air+FixedWing,Blue,Enemies,J-11A,Blue J-11A #004,cn,=36=Rabo,0.000130653381347656,0,3.83874788151657e-07,15.4868698120117,2.48686981201172,0,0.000130653381347656,NaN,NaN,0,0.0197823405926261,NaN,0.999975659342421,0,-0.00698126128779329,8.53515302878805e-10,15.1874311841965,15.18743118505,,,100.389999866486,13,0.0969033259241618,0.1840379305463
2018-07-19T08:05:36Z,1531987536,10B,42.0424885,42.2466237,15.49,0,-0.4,145.7,646754.38,-281189.41,139.6,Air+FixedWing,Blue,Enemies,J-11A,Blue J-11A #004,cn,=36=Rabo,0.000131607055664062,0,3.86676794477849e-07,15.4870014190674,2.48700141906738,0,0.000131607055664062,NaN,NaN,0,0.0197823405926261,NaN,0.999975562097095,0,-0.00698126060888171,8.66020855028182e-10,15.1875602466297,15.1875602474957,,,101.389999866486,13,0.0969033259241618,0.184169537523289
2018-07-19T08:05:37Z,1531987537,10B,42.0424885,42.2466237,15.49,0,-0.4,145.7,646754.38,-281189.41,139.6,Air+FixedWing,Blue,Enemies,J-11A,Blue J-11A #004,cn,=36=Rabo,0.000131607055664062,0,3.86676795051108e-07,15.487133026123,2.48713302612305,0,0.000131607055664062,NaN,NaN,0,0.0197823405926261,NaN,0.999975464851769,0,-0.00698125992997014,8.66020855028182e-10,15.187689309063,15.187689309929,,,102.389999866486,13,0.0969033259241618,0.184301144847814
2018-07-19T08:05:38Z,1531987538,10B,42.0424885,42.2466237,15.49,0,-0.4,145.7,646754.38,-281189.41,139.6,Air+FixedWing,Blue,Enemies,J-11A,Blue J-11A #004,cn,=36=Rabo,0.000130653381347656,0,3.8387478985485e-07,15.4872636795044,2.48726367950439,0,0.000130653381347656,NaN,NaN,0,0.0197823405926261,NaN,0.999975659342421,0,-0.00698126128779329,8.53515302878805e-10,15.1878174362612,15.1878174371147,,,103.389999866486,13,0.0969033259241618,0.184431798332676
2018-07-19T08:05:39Z,1531987539,10B,42.0424885,42.2466237,15.49,0,-0.4,145.7,646754.38,-281189.41,139.6,Air+FixedWing,Blue,Enemies,J-11A,Blue J-11A #004,cn,=36=Rabo,0.000131607055664062,0,3.86676796193473e-07,15.4873952865601,2.48739528656006,0,0.000131607055664062,NaN,NaN,0,0.0197823405926261,NaN,0.999975562097095,0,-0.00698126060888171,8.66020855028182e-10,15.1879464986944,15.1879464995604,,,104.389999866486,13,0.0969033259241618,0.184563404914358
2018-07-19T08:05:40Z,1531987540,10B,42.0424885,42.2466237,15.49,0,-0.4,145.7,646754.38,-281189.41,139.6,Air+FixedWing,Blue,Enemies,J-11A,Blue J-11A #004,cn,=36=Rabo,0.000131607055664062,0,3.86676796766733e-07,15.4875268936157,2.48752689361572,0,0.000131607055664062,NaN,NaN,0,0.0197823405926261,NaN,0.999975464851769,0,-0.00698125992997014,8.66020855028182e-10,15.1880755611277,15.1880755619937,,,105.389999866486,13,0.0969033259241618,0.184695012238883
2018-07-19T08:05:41Z,1531987541,10B,42.0424885,42.2466237,15.49,0,-0.4,145.7,646754.38,-281189.41,139.6,Air+FixedWing,Blue,Enemies,J-11A,Blue J-11A #004,cn,=36=Rabo,0.000130653381347656,0,3.83874791558042e-07,15.4876575469971,2.48765754699707,0,0.000130653381347656,NaN,NaN,0,0.0197823405926261,NaN,0.999975659342421,0,-0.00698126128779329,8.53515302878805e-10,15.1882036883259,15.1882036891794,,,106.389999866486,13,0.0969033259241618,0.184825665492899
2018-07-19T08:05:42Z,1531987542,10B,42.0424885,42.2466237,15.49,0,-0.4,145.7,646754.38,-281189.41,139.6,Air+FixedWing,Blue,Enemies,J-11A,Blue J-11A #004,cn,=36=Rabo,0.000131607055664062,0,3.86676797909098e-07,15.4877891540527,2.48778915405273,0,0.000131607055664062,NaN,NaN,0,0.0197823405926261,NaN,0.999975562097095,0,-0.00698126060888171,8.66020855028182e-10,15.1883327507591,15.1883327516251,,,107.389999866486,13,0.0969033259241618,0.184957272700733
2018-07-19T08:05:43Z,1531987543,10B,42.0424885,42.2466237,15.49,0,-0.4,145.7,646754.38,-281189.41,139.6,Air+FixedWing,Blue,Enemies,J-11A,Blue J-11A #004,cn,=36=Rabo,0.000131607055664062,0,3.86676798482358e-07,15.4879207611084,2.4879207611084,0,0.000131607055664062,NaN,NaN,0,0.0197823405926261,NaN,0.999975464851769,0,-0.00698125992997014,8.66020855028182e-10,15.1884618131924,15.1884618140584,,,108.389999866486,13,0.0969033259241618,0.185088879282415
2018-07-19T08:05:44Z,1531987544,10B,42.0424885,42.2466237,15.49,0,-0.4,145.7,646754.38,-281189.41,139.6,Air+FixedWing,Blue,Enemies,J-11A,Blue J-11A #004,cn,=36=Rabo,0.000130653381347656,0,3.83874793261235e-07,15.4880514144897,2.48805141448975,0,0.000130653381347656,NaN,NaN,0,0.0197823405926261,NaN,0.999975659342421,0,-0.00698126128779329,8.53515302878805e-10,15.1885899403906,15.1885899412441,,,109.389999866486,13,0.0969033259241618,0.18521953351012
2018-07-19T08:05:45Z,1531987545,10B,42.0424885,42.2466237,15.49,0,-0.4,145.7,646754.38,-281189.41,139.6,Air+FixedWing,Blue,Enemies,J-11A,Blue J-11A #004,cn,=36=Rabo,0.000131607055664062,0,3.86676799624723e-07,15.4881830215454,2.48818302154541,0,0.000131607055664062,NaN,NaN,0,0.0197823405926261,NaN,0.999975562097095,0,-0.00698126060888171,8.66020855028182e-10,15.1887190028238,15.1887190036898,,,110.389999866486,13,0.0969033259241618,0.185351139860956
2018-07-19T08:05:46Z,1531987546,10B,42.0424885,42.2466237,15.49,0,-0.4,145.7,646754.38,-281189.41,139.6,Air+FixedWing,Blue,Enemies,J-11A,Blue J-11A #004,cn,=36=Rabo,0.000131607055664062,0,3.86676800197982e-07,15.4883146286011,2.48831462860107,0,0.000131607055664062,NaN,NaN,0,0.0197823405926261,NaN,0.999975464851769,0,-0.00698125992997014,8.66020855028182e-10,15.1888480652571,15.1888480661231,,,111.389999866486,13,0.0969033259241618,0.185482746442639
2018-07-19T08:05:47Z,1531987547,10B,42.0424885,42.2466237,15.49,0,-0.4,145.7,646754.38,-281189.41,139.6,Air+FixedWing,Blue,Enemies,J-11A,Blue J-11A #004,cn,=36=Rabo,0.000130653381347656,0,3.83874794964428e-07,15.4884452819824,2.48844528198242,0,0.000130653381347656,NaN,NaN,0,0.0197823405926261,NaN,0.999975659342421,0,-0.00698126128779329,8.53515302878805e-10,15.1889761924553,15.1889761933088,,,112.389999866486,13,0.0969033259241618,0.185613400414344
2018-07-19T08:05:48Z,1531987548,10B,42.0424885,42.2466237,15.49,0,-0.4,145.7,646754.38,-281189.41,139.6,Air+FixedWing,Blue,Enemies,J-11A,Blue J-11A #004,cn,=36=Rabo,0.000131607055664062,0,3.86676801340347e-07,15.4885768890381,2.48857688903809,0,0.000131607055664062,NaN,NaN,0,0.0197823405926261,NaN,0.999975562097095,0,-0.00698126060888171,8.66020855028182e-10,15.1891052548885,15.1891052557546,,,113.389999866486,13,0.0969033259241618,0.185745007878175
2018-07-19T08:05:49Z,1531987549,10B,42.0424885,42.2466237,15.49,0,-0.4,145.7,646754.38,-281189.41,139.6,Air+FixedWing,Blue,Enemies,J-11A,Blue J-11A #004,cn,=36=Rabo,0.000131607055664062,0,3.86676801913607e-07,15.4887084960938,2.48870849609375,0,0.000131607055664062,NaN,NaN,0,0.0197823405926261,NaN,0.999975464851769,0,-0.00698125992997014,8.66020855028182e-10,15.1892343173218,15.1892343181878,,,114.389999866486,13,0.0969033259241618,0.185876614459857
2018-07-19T08:05:50Z,1531987550,10B,42.0424885,42.2466237,15.49,0,-0.4,145.7,646754.38,-281189.41,139.6,Air+FixedWing,Blue,Enemies,J-11A,Blue J-11A #004,cn,=36=Rabo,0.000130653381347656,0,3.8387479666762e-07,15.4888391494751,2.4888391494751,0,0.000130653381347656,NaN,NaN,0,0.0197823405926261,NaN,0.999975659342421,0,-0.00698126128779329,8.53515302878805e-10,15.18936244452,15.1893624453735,,,115.389999866486,13,0.0969033259241618,0.186007267713873
2018-07-19T08:05:51Z,1531987551,10B,42.0424885,42.2466237,15.49,0,-0.4,145.7,646754.38,-281189.41,139.6,Air+FixedWing,Blue,Enemies,J-11A,Blue J-11A #004,cn,=36=Rabo,0.000131607055664062,0,3.86676803055972e-07,15.4889707565308,2.48897075653076,0,0.000131607055664062,NaN,NaN,0,0.0197823405926261,NaN,0.999975464851769,0,-0.00698125992997014,8.66020855028182e-10,15.1894915069532,15.1894915078193,,,116.389999866486,13,0.0969033259241618,0.186138875038398
2018-07-19T08:05:52Z,1531987552,10B,42.0424885,42.2466237,15.49,0,-0.4,145.7,646754.38,-281189.41,139.6,Air+FixedWing,Blue,Enemies,J-11A,Blue J-11A #004,cn,=36=Rabo,0.000130653381347656,0,3.83874797801708e-07,15.4891014099121,2.48910140991211,0,0.000130653381347656,NaN,NaN,0,0.0197823405926261,NaN,0.999975659342421,0,-0.00698126128779329,8.53515302878805e-10,15.1896196341515,15.189619635005,,,117.389999866486,13,0.0969033259241618,0.18626952852326
2018-07-19T08:05:53Z,1531987553,10B,42.0424885,42.2466237,15.49,0,-0.4,145.7,646754.38,-281189.41,139.6,Air+FixedWing,Blue,Enemies,J-11A,Blue J-11A #004,cn,=36=Rabo,0.000131607055664062,0,3.86676804198337e-07,15.4892330169678,2.48923301696777,0,0.000131607055664062,NaN,NaN,0,0.0197823405926261,NaN,0.999975562097095,0,-0.00698126060888171,8.66020855028182e-10,15.1897486965847,15.1897486974507,,,118.389999866486,13,0.0969033259241618,0.186401134874097
2018-07-19T08:05:54Z,1531987554,10B,42.0424885,42.2466237,15.49,0,-0.4,145.7,646754.38,-281189.41,139.6,Air+FixedWing,Blue,Enemies,J-11A,Blue J-11A #004,cn,=36=Rabo,0.000131607055664062,0,3.86676804771597e-07,15.4893646240234,2.48936462402344,0,0.000131607055664062,NaN,NaN,0,0.0197823405926261,NaN,0.999975464851769,0,-0.00698125992997014,8.66020855028182e-10,15.1898777590179,15.189877759884,,,119.389999866486,13,0.0969033259241618,0.18653274282477
2018-07-19T08:05:55Z,1531987555,10B,42.0424885,42.2466237,15.49,0,-0.4,145.7,646754.38,-281189.41,139.6,Air+FixedWing,Blue,Enemies,J-11A,Blue J-11A #004,cn,=36=Rabo,0.000130653381347656,0,3.838747995049e-07,15.4894952774048,2.48949527740479,0,0.000130653381347656,NaN,NaN,0,0.0197823405926261,NaN,0.999975659342421,0,-0.00698126128779329,8.53515302878805e-10,15.1900058862162,15.1900058870697,,,120.389999866486,13,0.0969033259241618,0.186663396053634
2018-07-19T08:05:56Z,1531987556,10B,42.0424885,42.2466237,15.49,0,-0.4,145.7,646754.38,-281189.41,139.6,Air+FixedWing,Blue,Enemies,J-11A,Blue J-11A #004,cn,=36=Rabo,0.000131607055664062,0,3.86676805913962e-07,15.4896268844604,2.48962688446045,0,0.000131607055664062,NaN,NaN,0,0.0197823405926261,NaN,0.999975562097095,0,-0.00698126060888171,8.66020855028182e-10,15.1901349486494,15.1901349495154,,,121.389999866486,13,0.0969033259241618,0.186795002891314
2018-07-19T08:05:57Z,1531987557,10B,42.0424885,42.2466237,15.49,0,-0.4,145.7,646754.38,-281189.41,139.6,Air+FixedWing,Blue,Enemies,J-11A,Blue J-11A #004,cn,=36=Rabo,0.000131607055664062,0,3.86676806487222e-07,15.4897584915161,2.48975849151611,0,0.000131607055664062,NaN,NaN,0,0.0197823405926261,NaN,0.999975464851769,0,-0.00698125992997014,8.66020855028182e-10,15.1902640110827,15.1902640119487,,,122.389999866486,13,0.0969033259241618,0.186926610215839
2018-07-19T08:05:58Z,1531987558,10B,42.0424885,42.2466237,15.49,0,-0.4,145.7,646754.38,-281189.41,139.6,Air+FixedWing,Blue,Enemies,J-11A,Blue J-11A #004,cn,=36=Rabo,0.000130653381347656,0,3.83874801208093e-07,15.4898891448975,2.48988914489746,0,0.000130653381347656,NaN,NaN,0,0.0197823405926261,NaN,0.999973519945242,0,-0.00698124635173862,8.53515302878805e-10,15.1903921382809,15.1903921391344,,,123.389999866486,13,0.0969033259241618,0.187057263213858
2018-07-19T08:05:59Z,1531987559,10B,42.0424885,42.2466237,15.49,-0,-0.4,145.7,646754.38,-281189.41,139.6,Air+FixedWing,Blue,Enemies,J-11A,Blue J-11A #004,cn,=36=Rabo,0.000110626220703125,0,3.25032678800224e-07,15.4899997711182,2.48999977111816,0,0.000110626220703125,NaN,NaN,0.055187928493703,0.0197823405926261,NaN,0.999790385057937,-0.000481340349266405,-0.00697996864015312,6.11908035352826e-10,15.1905006255436,15.1905006261555,,,124.389999866486,13,0.0969033259241618,0.187167889641805
2018-07-19T08:06:00Z,1531987560,10B,42.0424885,42.2466237,15.49,0,-0.4,145.7,646754.38,-281189.41,139.6,Air+FixedWing,Blue,Enemies,J-11A,Blue J-11A #004,cn,=36=Rabo,0.00170421600341797,0,5.00718436090818e-06,15.4882955551147,2.48829555511475,0,-0.00170421600341797,NaN,NaN,0.199987938897973,0.0197823405926261,NaN,0.999303402401296,0,-0.00697656797207034,1.45217609315296e-07,15.1888293605566,15.1888295057742,,,125.389999866486,13,0.0969033259241618,0.18887210591891
2018-07-19T08:06:01Z,1531987561,10B,42.0424885,42.2466236,15.48,0,-0.4,145.7,646754.38,-281189.41,139.6,Air+FixedWing,Blue,Enemies,J-11A,Blue J-11A #004,cn,=36=Rabo,0.00829601287841797,0,2.43746461583436e-05,15.4799995422363,2.47999954223633,0,-0.00829601287841797,NaN,NaN,0,0.0197823405926261,NaN,1.0008214991911,0,-0.0069871664606789,3.44119148394384e-06,15.1806937510872,15.1806971922787,,,126.389999866486,13,0.104059577743339,0.199828199893541
2018-07-19T08:06:02Z,1531987562,10B,42.0424885,42.2466237,15.48,0,-0.4,145.7,646754.38,-281189.41,139.6,Air+FixedWing,Blue,Enemies,J-11A,Blue J-11A #004,cn,=36=Rabo,0,0,0,15.4799995422363,2.47999954223633,0,0,NaN,NaN,0,0.0197823405926261,NaN,0.999958620479429,0.00206530655055262,-0.0094079292396235,0,15.1806937510872,15.1806937510872,,,127.389999866486,13,0.10630898109259,0.202077607731534
2018-07-19T08:06:03Z,1531987563,10B,42.0424885,42.2466237,15.48,0,-0.4,145.7,646754.38,-281189.38,139.6,Air+FixedWing,Blue,Enemies,J-11A,Blue J-11A #004,cn,=36=Rabo,0.03125,0,9.1816117406208e-05,15.4799995422363,2.47999954223633,0.03125,0,NaN,NaN,0,0.0407823424976854,NaN,0.999992503714761,-0.00206530655055262,-0.00455459197813992,4.8828125e-05,15.1806937510872,15.1807425792122,,,128.389999866486,13,0.111215829562517,0.206984467982307
2018-07-19T08:06:04Z,1531987564,10B,42.0424885,42.2466237,15.48,0,-0.4,145.7,646754.38,-281189.38,139.5,Air+FixedWing,Blue,Enemies,J-11A,Blue J-11A #004,cn,=36=Rabo,0,0,0,15.4799995422363,2.47999954223633,0,0,NaN,NaN,0,0.0523391626455858,NaN,0.999992478526083,-0.00206953961572487,-0.00455819933325276,0,15.1806937510872,15.1806937510872,,,129.389999866486,13,0.111215829562517,0.206984467982307
2018-07-19T08:06:05Z,1531987565,10B,42.0424885,42.2466237,15.48,0,-0.4,145.7,646754.38,-281189.41,139.5,Air+FixedWing,Blue,Enemies,J-11A,Blue J-11A #004,cn,=36=Rabo,0.03125,0,9.1816117406208e-05,15.4799995422363,2.47999954223633,0.03125,0,NaN,NaN,0,0.0139882274201861,NaN,0.999958645668107,0.00206953961572487,-0.00940432188451066,4.8828125e-05,15.1806937510872,15.1807425792122,,,130.389999866486,13,0.111215829562517,0.206984467982307
2018-07-19T08:06:06Z,1531987566,10B,42.0424885,42.2466237,15.48,0,-0.4,145.7,646754.38,-281189.41,139.5,Air+FixedWing,Blue,Enemies,J-11A,Blue J-11A #004,cn,=36=Rabo,0,0,0,15.4799995422363,2.47999954223633,0,0,NaN,NaN,0,0,NaN,0.999958645668107,0.00206953961572487,-0.00940432188451066,0,15.1806937510872,15.1806937510872,,,131.389999866486,13,0.111215829562517,0.206984467982307
2018-07-19T08:06:07Z,1531987567,10B,42.0424885,42.2466237,15.48,0,-0.4,145.7,646754.38,-281189.38,139.5,Air+FixedWing,Blue,Enemies,J-11A,Blue J-11A #004,cn,=36=Rabo,0.03125,0,9.1816117406208e-05,15.4799995422363,2.47999954223633,0.03125,0,NaN,NaN,0,0,NaN,0.999992478526083,-0.00206953961572487,-0.00455819933325276,4.8828125e-05,15.1806937510872,15.1807425792122,,,132.389999866486,13,0.111215829562517,0.206984467982307
2018-07-19T08:06:08Z,1531987568,10B,42.0424885,42.2466237,15.48,0,-0.4,145.7,646754.38,-281189.38,139.5,Air+FixedWing,Blue,Enemies,J-11A,Blue J-11A #004,cn,=36=Rabo,0,0,0,15.4799995422363,2.47999954223633,0,0,NaN,NaN,0,0,NaN,0.999975562097095,0,-0.00698126060888171,0,15.1806937510872,15.1806937510872,,,133.389999866486,13,0.111215829562517,0.206984467982307
2018-07-19T08:06:09Z,1531987569,10B,42.0424885,42.2466237,15.48,0,-0.4,145.7,646754.38,-281189.38,139.5,Air+FixedWing,Blue,Enemies,J-11A,Blue J-11A #004,cn,=36=Rabo,0,0,0,15.4799995422363,2.47999954223633,0,0,NaN,NaN,0,0,NaN,0.999975562097095,0,-0.00698126060888171,0,15.1806937510872,15.1806937510872,,,134.389999866486,13,0.111215829562517,0.206984467982307
2018-07-19T08:06:10Z,1531987570,10B,42.0424885,42.2466237,15.48,0,-0.4,145.7,646754.38,-281189.38,139.5,Air+FixedWing,Blue,Enemies,J-11A,Blue J-11A #004,cn,=36=Rabo,0,0,0,15.4799995422363,2.47999954223633,0,0,NaN,NaN,0,0,NaN,0.999992478526083,-0.00206953961572487,-0.00455819933325276,0,15.1806937510872,15.1806937510872,,,135.389999866486,13,0.111215829562517,0.206984467982307
