ISOTime,UnixTime,Id,Longitude,Latitude,Altitude,Roll,Pitch,Yaw,U,V,Heading,Type,Color,Coalition,Name,Group,Country,Pilot,TAS,CAS,M,ASL,AGL,GS,VS,AOA,AOS,RRT,TRT,TRD,G,LatG,LonG,Ek,Ep,Em,FFW,FFV,RelativeTime,Elev,GroundDistance,AirDistance
2018-07-19T08:04:55Z,1531987495,10F,42.0404083,42.2452835,15.54,0.1,-0.4,145.7,646598.5,-281356.75,139.6,Air+FixedWing,Blue,Enemies,J-11A,Blue J-11A #001,cn,=36=Falcon,0.142853736874193,0,0.000419721098943054,15.539999961853,2.53999996185303,NaN,NaN,NaN,NaN,NaN,NaN,NaN,NaN,NaN,NaN,NaN,15.2395340625906,NaN,,,0.139999866485596,13,NaN,NaN
2018-07-19T08:04:56Z,1531987496,10F,42.0404081,42.2452837,15.47,0,-0.4,145.7,646598.5,-281356.72,139.6,Air+FixedWing,Blue,Enemies,J-11A,Blue J-11A #001,cn,=36=Falcon,0.0727667656719607,0,0.000213797167044102,15.4742851257324,2.47428512573242,0.03125,-0.0657148361206055,NaN,NaN,0,NaN,NaN,1.01117758483822,-0.00413061310110525,-0.00220589294731168,0.000264750109317902,15.1750898228264,15.1753545729357,,,1.1399998664856,13,0.023502960431239,0.0697913423478794
2018-07-19T08:04:57Z,1531987497,10F,42.0404084,42.2452835,15.52,0,-0.6,145.7,646598.5,-281356.75,139.5,Air+FixedWing,Blue,Enemies,J-11A,Blue J-11A #001,cn,=36=Falcon,0.0538132792837441,0,0.000158109711650297,15.5180950164795,2.51809501647949,0.03125,0.0438098907470703,NaN,NaN,0,0.175829573143851,NaN,0.991542733968649,0.00413907923144973,-0.0152302980346516,0.000144793451363512,15.2180526493359,15.2181974427872,,,2.1399998664856,13,0.0509809160009304,0.121505443439164
2018-07-19T08:04:58Z,1531987498,10F,42.0404082,42.2452837,15.48,0,-0.4,145.7,646598.5,-281356.72,139.5,Air+FixedWing,Blue,Enemies,J-11A,Blue J-11A #001,cn,=36=Falcon,0.0492729911595752,0,0.000144769751720403,15.4799995422363,2.47999954223633,0.03125,-0.0380954742431641,NaN,NaN,0,0.0593470334505648,NaN,1.00387704679312,-0.00206845458983067,-0.00458439435447972,0.000121391382890579,15.1806937510872,15.1808151424701,,,3.1399998664856,13,0.0786813995622432,0.168607308891935
2018-07-19T08:04:59Z,1531987499,10F,42.0404081,42.2452837,15.48,0,-0.4,145.7,646598.5,-281356.72,139.6,Air+FixedWing,Blue,Enemies,J-11A,Blue J-11A #001,cn,=36=Falcon,0,0,0,15.4799995422363,2.47999954223633,0,0,NaN,NaN,0,0.08791467985022,NaN,0.999975562097095,0,-0.00698126060888171,0,15.1806937510872,15.1806937510872,,,4.1399998664856,13,0.0856770911094832,0.175603017260664
2018-07-19T08:05:00Z,1531987500,10F,42.0404082,42.2452837,15.48,0,-0.4,145.7,646598.5,-281356.72,139.6,Air+FixedWing,Blue,Enemies,J-11A,Blue J-11A #001,cn,=36=Falcon,0,0,0,15.4799995422363,2.47999954223633,0,0,NaN,NaN,0,0.0139882274201861,NaN,0.999975562097095,0,-0.00698126060888171,0,15.1806937510872,15.1806937510872,,,5.1399998664856,13,0.0916056433307125,0.18153158398455
2018-07-19T08:05:01Z,1531987501,10F,42.0404081,42.2452836,15.48,0,-0.4,145.7,646598.5,-281356.72,139.6,Air+FixedWing,Blue,Enemies,J-11A,Blue J-11A #001,cn,=36=Falcon,0,0,0,15.4799995422363,2.47999954223633,0,0,NaN,NaN,0,0.0197823405926261,NaN,0.999975562097095,0,-0.00698126060888171,0,15.1806937510872,15.1806937510872,,,6.1399998664856,13,0.104848756918336,0.194774729439596
2018-07-19T08:05:02Z,1531987502,10F,42.0404081,42.2452837,15.48,0,-0.4,145.7,646598.5,-281356.72,139.6,Air+FixedWing,Blue,Enemies,J-11A,Blue J-11A #001,cn,=36=Falcon,0,0,0,15.4799995422363,2.47999954223633,0,0,NaN,NaN,0,0.0197823405926261,NaN,0.999992503714761,-0.00206530655055262,-0.00455459197813992,0,15.1806937510872,15.1806937510872,,,7.1399998664856,13,0.116330262305034,0.206256262110191
2018-07-19T08:05:03Z,1531987503,10F,42.0404081,42.2452836,15.48,0,-0.4,145.7,646598.5,-281356.75,139.6,Air+FixedWing,Blue,Enemies,J-11A,Blue J-11A #001,cn,=36=Falcon,0.03125,0,9.1816117406208e-05,15.4799995422363,2.47999954223633,0.03125,0,NaN,NaN,0,0.0197823405926261,NaN,0.999941678861764,0.00413061310110525,-0.0118345978703653,4.8828125e-05,15.1806937510872,15.1807425792122,,,8.1399998664856,13,0.127811767691731,0.217737794780786
2018-07-19T08:05:04Z,1531987504,10F,42.0404081,42.2452836,15.48,0,-0.4,145.7,646598.5,-281356.72,139.6,Air+FixedWing,Blue,Enemies,J-11A,Blue J-11A #001,cn,=36=Falcon,0.03125,0,9.1816117406208e-05,15.4799995422363,2.47999954223633,0.03125,0,NaN,NaN,0,0.0197823405926261,NaN,0.999992503714761,-0.00206530655055262,-0.00455459197813992,4.8828125e-05,15.1806937510872,15.1807425792122,,,9.1399998664856,13,0.127811767691731,0.217737794780786
2018-07-19T08:05:05Z,1531987505,10F,42.0404081,42.2452836,15.48,0,-0.4,145.7,646598.5,-281356.72,139.6,Air+FixedWing,Blue,Enemies,J-11A,Blue J-11A #001,cn,=36=Falcon,0,0,0,15.4799995422363,2.47999954223633,0,0,NaN,NaN,0,0.0261695779877396,NaN,0.999977827073462,0,-0.00664034113287926,0,15.1806937510872,15.1806937510872,,,10.1399998664856,13,0.127811767691731,0.217737794780786
2018-07-19T08:05:06Z,1531987506,10F,42.0404081,42.2452836,15.48,0,-0.3,145.7,646598.5,-281356.72,139.6,Air+FixedWing,Blue,Enemies,J-11A,Blue J-11A #001,cn,=36=Falcon,0,0,0,15.4799995422363,2.47999954223633,0,0,NaN,NaN,0,0.0484566469995765,NaN,0.999982953072607,0,-0.00582862505689263,0,15.1806937510872,15.1806937510872,,,11.1399998664856,13,0.127811767691731,0.217737794780786
2018-07-19T08:05:07Z,1531987507,10F,42.0404081,42.2452836,15.48,0,-0.3,145.7,646598.5,-281356.72,139.6,Air+FixedWing,Blue,Enemies,J-11A,Blue J-11A #001,cn,=36=Falcon,0,0,0,15.4799995422363,2.47999954223633,0,0,NaN,NaN,0,0.0312786278555019,NaN,0.999998877981212,-0.00206530655055262,-0.00280927030690282,0,15.1806937510872,15.1806937510872,,,12.1399998664856,13,0.127811767691731,0.217737794780786
2018-07-19T08:05:08Z,1531987508,10F,42.0404081,42.2452836,15.48,0,-0.3,145.7,646598.5,-281356.75,139.6,Air+FixedWing,Blue,Enemies,J-11A,Blue J-11A #001,cn,=36=Falcon,0.03125,0,9.1816117406208e-05,15.4799995422363,2.47999954223633,0.03125,0,NaN,NaN,0,0.0139882274201861,NaN,0.999973465465254,0.00206530655055262,-0.00766265855781466,4.8828125e-05,15.1806937510872,15.1807425792122,,,13.1399998664856,13,0.127811767691731,0.217737794780786
2018-07-19T08:05:09Z,1531987509,10F,42.0404081,42.2452836,15.48,0,-0.3,145.7,646598.5,-281356.75,139.6,Air+FixedWing,Blue,Enemies,J-11A,Blue J-11A #001,cn,=36=Falcon,0,0,0,15.4799995422363,2.47999954223633,0,0,NaN,NaN,0,0.00989117029631303,NaN,0.999973465465254,0.00206530655055262,-0.00766265855781466,0,15.1806937510872,15.1806937510872,,,14.1399998664856,13,0.127811767691731,0.217737794780786
2018-07-19T08:05:10Z,1531987510,10F,42.0404081,42.2452836,15.48,0,-0.3,145.7,646598.5,-281356.72,139.6,Air+FixedWing,Blue,Enemies,J-11A,Blue J-11A #001,cn,=36=Falcon,0.03125,0,9.1816117406208e-05,15.4799995422363,2.47999954223633,0.03125,0,NaN,NaN,0,0.00989117029631303,NaN,0.999998877981212,-0.00206530655055262,-0.00280927030690282,4.8828125e-05,15.1806937510872,15.1807425792122,,,15.1399998664856,13,0.127811767691731,0.217737794780786
2018-07-19T08:05:11Z,1531987511,10F,42.0404081,42.2452836,15.48,0,-0.3,145.7,646598.5,-281356.72,139.6,Air+FixedWing,Blue,Enemies,J-11A,Blue J-11A #001,cn,=36=Falcon,0,0,0,15.4799995422363,2.47999954223633,0,0,NaN,NaN,0,0.00989117029631303,NaN,0.999986171723233,0,-0.00523596443235874,0,15.1806937510872,15.1806937510872,,,16.1399998664856,13,0.127811767691731,0.217737794780786
2018-07-19T08:05:12Z,1531987512,10F,42.0404081,42.2452836,15.48,0,-0.3,145.7,646598.5,-281356.72,139.6,Air+FixedWing,Blue,Enemies,J-11A,Blue J-11A #001,cn,=36=Falcon,0,0,0,15.4799995422363,2.47999954223633,0,0,NaN,NaN,0,0.00989117029631303,NaN,0.999998877981212,-0.00206530655055262,-0.00280927030690282,0,15.1806937510872,15.1806937510872,,,17.1399998664856,13,0.127811767691731,0.217737794780786
2018-07-19T08:05:13Z,1531987513,10F,42.0404081,42.2452836,15.48,0,-0.3,145.7,646598.5,-281356.75,139.6,Air+FixedWing,Blue,Enemies,J-11A,Blue J-11A #001,cn,=36=Falcon,0.03125,0,9.1816117406208e-05,15.4799995422363,2.47999954223633,0.03125,0,NaN,NaN,0,0.00989117029631303,NaN,0.999960759207275,0.00413061310110525,-0.0100893526832706,4.8828125e-05,15.1806937510872,15.1807425792122,,,18.1399998664856,13,0.127811767691731,0.217737794780786
2018-07-19T08:05:14Z,1531987514,10F,42.0404081,42.2452836,15.48,0,-0.3,145.7,646598.5,-281356.72,139.6,Air+FixedWing,Blue,Enemies,J-11A,Blue J-11A #001,cn,=36=Falcon,0.03125,0,9.1816117406208e-05,15.4799995422363,2.47999954223633,0.03125,0,NaN,NaN,0,0.00989117029631303,NaN,1.00001158423919,-0.00413061310110525,-0.000382576181446908,4.8828125e-05,15.1806937510872,15.1807425792122,,,19.1399998664856,13,0.127811767691731,0.217737794780786
2018-07-19T08:05:15Z,1531987515,10F,42.0404081,42.2452836,15.48,0,-0.3,145.7,646598.5,-281356.75,139.6,Air+FixedWing,Blue,Enemies,J-11A,Blue J-11A #001,cn,=36=Falcon,0.03125,0,9.1816117406208e-05,15.4799995422363,2.47999954223633,0.03125,0,NaN,NaN,0,0.00989117029631303,NaN,0.999960759207275,0.00413061310110525,-0.0100893526832706,4.8828125e-05,15.1806937510872,15.1807425792122,,,20.1399998664856,13,0.127811767691731,0.217737794780786
2018-07-19T08:05:16Z,1531987516,10F,42.0404081,42.2452836,15.48,0,-0.3,145.7,646598.5,-281356.72,139.6,Air+FixedWing,Blue,Enemies,J-11A,Blue J-11A #001,cn,=36=Falcon,0.03125,0,9.1816117406208e-05,15.4799995422363,2.47999954223633,0.03125,0,NaN,NaN,0,0.00989117029631303,NaN,0.999998877981212,-0.00206530655055262,-0.00280927030690282,4.8828125e-05,15.1806937510872,15.1807425792122,,,21.1399998664856,13,0.127811767691731,0.217737794780786
2018-07-19T08:05:17Z,1531987517,10F,42.0404081,42.2452836,15.48,0,-0.3,145.7,646598.5,-281356.72,139.6,Air+FixedWing,Blue,Enemies,J-11A,Blue J-11A #001,cn,=36=Falcon,0,0,0,15.4799995422363,2.47999954223633,0,0,NaN,NaN,0,0.00989117029631303,NaN,0.999986171723233,0,-0.00523596443235874,0,15.1806937510872,15.1806937510872,,,22.1399998664856,13,0.127811767691731,0.217737794780786
2018-07-19T08:05:18Z,1531987518,10F,42.0404081,42.2452836,15.48,0,-0.3,145.7,646598.5,-281356.72,139.6,Air+FixedWing,Blue,Enemies,J-11A,Blue J-11A #001,cn,=36=Falcon,0,0,0,15.4799995422363,2.47999954223633,0,0,NaN,NaN,0,0.00989117029631303,NaN,0.999998877981212,-0.00206530655055262,-0.00280927030690282,0,15.1806937510872,15.1806937510872,,,23.1399998664856,13,0.127811767691731,0.217737794780786
2018-07-19T08:05:19Z,1531987519,10F,42.0404081,42.2452836,15.48,0,-0.3,145.7,646598.5,-281356.75,139.6,Air+FixedWing,Blue,Enemies,J-11A,Blue J-11A #001,cn,=36=Falcon,0.03125,0,9.1816117406208e-05,15.4799995422363,2.47999954223633,0.03125,0,NaN,NaN,0,0.00989117029631303,NaN,0.999973465465254,0.00206530655055262,-0.00766265855781466,4.8828125e-05,15.1806937510872,15.1807425792122,,,24.1399998664856,13,0.127811767691731,0.217737794780786
2018-07-19T08:05:20Z,1531987520,10F,42.0404081,42.2452836,15.48,0,-0.3,145.7,646598.5,-281356.75,139.6,Air+FixedWing,Blue,Enemies,J-11A,Blue J-11A #001,cn,=36=Falcon,0,0,0,15.4799995422363,2.47999954223633,0,0,NaN,NaN,0,0.00989117029631303,NaN,0.999986171723233,0,-0.00523596443235874,0,15.1806937510872,15.1806937510872,,,25.1399998664856,13,0.127811767691731,0.217737794780786
2018-07-19T08:05:21Z,1531987521,10F,42.0404081,42.2452836,15.48,0,-0.3,145.7,646598.5,-281356.75,139.6,Air+FixedWing,Blue,Enemies,J-11A,Blue J-11A #001,cn,=36=Falcon,0,0,0,15.4799995422363,2.47999954223633,0,0,NaN,NaN,0,0.00989117029631303,NaN,0.999986171723233,0,-0.00523596443235874,0,15.1806937510872,15.1806937510872,,,26.1399998664856,13,0.127811767691731,0.217737794780786
2018-07-19T08:05:22Z,1531987522,10F,42.0404081,42.2452836,15.48,0,-0.3,145.7,646598.5,-281356.75,139.6,Air+FixedWing,Blue,Enemies,J-11A,Blue J-11A #001,cn,=36=Falcon,0,0,0,15.4799995422363,2.47999954223633,0,0,NaN,NaN,0,0.00989117029631303,NaN,0.999986171723233,0,-0.00523596443235874,0,15.1806937510872,15.1806937510872,,,27.1399998664856,13,0.127811767691731,0.217737794780786
2018-07-19T08:05:23Z,1531987523,10F,42.0404081,42.2452836,15.48,0,-0.3,145.7,646598.5,-281356.75,139.6,Air+FixedWing,Blue,Enemies,J-11A,Blue J-11A #001,cn,=36=Falcon,0,0,0,15.4799995422363,2.47999954223633,0,0,NaN,NaN,0,0.00989117029631303,NaN,0.999973465465254,0.00206530655055262,-0.00766265855781466,0,15.1806937510872,15.1806937510872,,,28.1399998664856,13,0.127811767691731,0.217737794780786
2018-07-19T08:05:24Z,1531987524,10F,42.0404081,42.2452836,15.48,0,-0.3,145.7,646598.5,-281356.72,139.6,Air+FixedWing,Blue,Enemies,J-11A,Blue J-11A #001,cn,=36=Falcon,0.03125,0,9.1816117406208e-05,15.4799995422363,2.47999954223633,0.03125,0,NaN,NaN,0,0.00989117029631303,NaN,0.999998877981212,-0.00206530655055262,-0.00280927030690282,4.8828125e-05,15.1806937510872,15.1807425792122,,,29.1399998664856,13,0.127811767691731,0.217737794780786
2018-07-19T08:05:25Z,1531987525,10F,42.0404081,42.2452836,15.48,0,-0.3,145.7,646598.5,-281356.72,139.6,Air+FixedWing,Blue,Enemies,J-11A,Blue J-11A #001,cn,=36=Falcon,0,0,0,15.4799995422363,2.47999954223633,0,0,NaN,NaN,0,0.00989117029631303,NaN,0.999986171723233,0,-0.00523596443235874,0,15.1806937510872,15.1806937510872,,,30.1399998664856,13,0.127811767691731,0.217737794780786
2018-07-19T08:05:26Z,1531987526,10F,42.0404081,42.2452836,15.48,0,-0.3,145.7,646598.5,-281356.72,139.6,Air+FixedWing,Blue,Enemies,J-11A,Blue J-11A #001,cn,=36=Falcon,0,0,0,15.4799995422363,2.47999954223633,0,0,NaN,NaN,0,0.00989117029631303,NaN,0.999986171723233,0,-0.00523596443235874,0,15.1806937510872,15.1806937510872,,,31.1399998664856,13,0.127811767691731,0.217737794780786
2018-07-19T08:05:27Z,1531987527,10F,42.0404081,42.2452836,15.48,0,-0.3,145.7,646598.5,-281356.72,139.6,Air+FixedWing,Blue,Enemies,J-11A,Blue J-11A #001,cn,=36=Falcon,0,0,0,15.4799995422363,2.47999954223633,0,0,NaN,NaN,0,0.00989117029631303,NaN,0.999986171723233,0,-0.00523596443235874,0,15.1806937510872,15.1806937510872,,,32.1399998664856,13,0.127811767691731,0.217737794780786
2018-07-19T08:05:28Z,1531987528,10F,42.0404081,42.2452836,15.48,0,-0.3,145.7,646598.5,-281356.72,139.6,Air+FixedWing,Blue,Enemies,J-11A,Blue J-11A #001,cn,=36=Falcon,0,0,0,15.4799995422363,2.47999954223633,0,0,NaN,NaN,0,0.00989117029631303,NaN,0.999998877981212,-0.00206530655055262,-0.00280927030690282,0,15.1806937510872,15.1806937510872,,,33.1399998664856,13,0.127811767691731,0.217737794780786
2018-07-19T08:05:29Z,1531987529,10F,42.0404081,42.2452836,15.48,0,-0.3,145.7,646598.5,-281356.75,139.6,Air+FixedWing,Blue,Enemies,J-11A,Blue J-11A #001,cn,=36=Falcon,0.03125,0,9.1816117406208e-05,15.4799995422363,2.47999954223633,0.03125,0,NaN,NaN,0,0.00989117029631303,NaN,0.999973465465254,0.00206530655055262,-0.00766265855781466,4.8828125e-05,15.1806937510872,15.1807425792122,,,34.1399998664856,13,0.127811767691731,0.217737794780786
2018-07-19T08:05:30Z,1531987530,10F,42.0404081,42.2452836,15.48,0,-0.3,145.7,646598.5,-281356.75,139.6,Air+FixedWing,Blue,Enemies,J-11A,Blue J-11A #001,cn,=36=Falcon,0,0,0,15.4799995422363,2.47999954223633,0,0,NaN,NaN,0,0.00989117029631303,NaN,0.999973465465254,0.00206530655055262,-0.00766265855781466,0,15.1806937510872,15.1806937510872,,,35.1399998664856,13,0.127811767691731,0.217737794780786
2018-07-19T08:05:31Z,1531987531,10F,42.0404081,42.2452836,15.48,0,-0.3,145.7,646598.5,-281356.72,139.6,Air+FixedWing,Blue,Enemies,J-11A,Blue J-11A #001,cn,=36=Falcon,0.03125,0,9.1816117406208e-05,15.4799995422363,2.47999954223633,0.03125,0,NaN,NaN,0,0.00989117029631303,NaN,0.999998877981212,-0.00206530655055262,-0.00280927030690282,4.8828125e-05,15.1806937510872,15.1807425792122,,,36.1399998664856,13,0.127811767691731,0.217737794780786
2018-07-19T08:05:32Z,1531987532,10F,42.0404081,42.2452836,15.48,0,-0.3,145.7,646598.5,-281356.72,139.6,Air+FixedWing,Blue,Enemies,J-11A,Blue J-11A #001,cn,=36=Falcon,0,0,0,15.4799995422363,2.47999954223633,0,0,NaN,NaN,0,0.00989117029631303,NaN,0.999998877981212,-0.00206530655055262,-0.00280927030690282,0,15.1806937510872,15.1806937510872,,,37.1399998664856,13,0.127811767691731,0.217737794780786
2018-07-19T08:05:33Z,1531987533,10F,42.0404081,42.2452836,15.48,0,-0.3,145.7,646598.5,-281356.75,139.6,Air+FixedWing,Blue,Enemies,J-11A,Blue J-11A #001,cn,=36=Falcon,0.03125,0,9.1816117406208e-05,15.4799995422363,2.47999954223633,0.03125,0,NaN,NaN,0,0.00989117029631303,NaN,0.999960759207275,0.00413061310110525,-0.0100893526832706,4.8828125e-05,15.1806937510872,15.1807425792122,,,38.1399998664856,13,0.127811767691731,0.217737794780786
2018-07-19T08:05:34Z,1531987534,10F,42.0404081,42.2452836,15.48,0,-0.3,145.7,646598.5,-281356.72,139.6,Air+FixedWing,Blue,Enemies,J-11A,Blue J-11A #001,cn,=36=Falcon,0.03125,0,9.1816117406208e-05,15.4799995422363,2.47999954223633,0.03125,0,NaN,NaN,0,0.00989117029631303,NaN,1.00001158423919,-0.00413061310110525,-0.000382576181446908,4.8828125e-05,15.1806937510872,15.1807425792122,,,39.1399998664856,13,0.127811767691731,0.217737794780786
2018-07-19T08:05:35Z,1531987535,10F,42.0404081,42.2452836,15.48,0,-0.3,145.7,646598.5,-281356.75,139.6,Air+FixedWing,Blue,Enemies,J-11A,Blue J-11A #001,cn,=36=Falcon,0.03125,0,9.1816117406208e-05,15.4799995422363,2.47999954223633,0.03125,0,NaN,NaN,0,0.00989117029631303,NaN,0.999973465465254,0.00206530655055262,-0.00766265855781466,4.8828125e-05,15.1806937510872,15.1807425792122,,,40.1399998664856,13,0.127811767691731,0.217737794780786
2018-07-19T08:05:36Z,1531987536,10F,42.0404081,42.2452836,15.48,0,-0.3,145.7,646598.5,-281356.75,139.6,Air+FixedWing,Blue,Enemies,J-11A,Blue J-11A #001,cn,=36=Falcon,0,0,0,15.4799995422363,2.47999954223633,0,0,NaN,NaN,0,0.00989117029631303,NaN,0.999986171723233,0,-0.00523596443235874,0,15.1806937510872,15.1806937510872,,,41.1399998664856,13,0.127811767691731,0.217737794780786
2018-07-19T08:05:37Z,1531987537,10F,42.0404081,42.2452836,15.48,0,-0.3,145.7,646598.5,-281356.75,139.6,Air+FixedWing,Blue,Enemies,J-11A,Blue J-11A #001,cn,=36=Falcon,0,0,0,15.4799995422363,2.47999954223633,0,0,NaN,NaN,0,0.00989117029631303,NaN,0.999973465465254,0.00206530655055262,-0.00766265855781466,0,15.1806937510872,15.1806937510872,,,42.1399998664856,13,0.127811767691731,0.217737794780786
2018-07-19T08:05:38Z,1531987538,10F,42.0404081,42.2452836,15.48,0,-0.3,145.7,646598.5,-281356.72,139.6,Air+FixedWing,Blue,Enemies,J-11A,Blue J-11A #001,cn,=36=Falcon,0.03125,0,9.1816117406208e-05,15.4799995422363,2.47999954223633,0.03125,0,NaN,NaN,0,0.00989117029631303,NaN,0.999998877981212,-0.00206530655055262,-0.00280927030690282,4.8828125e-05,15.1806937510872,15.1807425792122,,,43.1399998664856,13,0.127811767691731,0.217737794780786
2018-07-19T08:05:39Z,1531987539,10F,42.0404081,42.2452836,15.48,0,-0.3,145.7,646598.5,-281356.72,139.6,Air+FixedWing,Blue,Enemies,J-11A,Blue J-11A #001,cn,=36=Falcon,0,0,0,15.4799995422363,2.47999954223633,0,0,NaN,NaN,0,0.00989117029631303,NaN,0.999986171723233,0,-0.00523596443235874,0,15.1806937510872,15.1806937510872,,,44.1399998664856,13,0.127811767691731,0.217737794780786
2018-07-19T08:05:40Z,1531987540,10F,42.0404081,42.2452836,15.48,0,-0.3,145.7,646598.5,-281356.72,139.6,Air+FixedWing,Blue,Enemies,J-11A,Blue J-11A #001,cn,=36=Falcon,0,0,0,15.4799995422363,2.47999954223633,0,0,NaN,NaN,0,0.00989117029631303,NaN,0.999986171723233,0,-0.00523596443235874,0,15.1806937510872,15.1806937510872,,,45.1399998664856,13,0.127811767691731,0.217737794780786
2018-07-19T08:05:41Z,1531987541,10F,42.0404081,42.2452836,15.48,0,-0.3,145.7,646598.5,-281356.72,139.6,Air+FixedWing,Blue,Enemies,J-11A,Blue J-11A #001,cn,=36=Falcon,0,0,0,15.4799995422363,2.47999954223633,0,0,NaN,NaN,0,0.00989117029631303,NaN,0.999998877981212,-0.00206530655055262,-0.00280927030690282,0,15.1806937510872,15.1806937510872,,,46.1399998664856,13,0.127811767691731,0.217737794780786
2018-07-19T08:05:42Z,1531987542,10F,42.0404081,42.2452836,15.48,0,-0.3,145.7,646598.5,-281356.75,139.6,Air+FixedWing,Blue,Enemies,J-11A,Blue J-11A #001,cn,=36=Falcon,0.03125,0,9.1816117406208e-05,15.4799995422363,2.47999954223633,0.03125,0,NaN,NaN,0,0.00989117029631303,NaN,0.999973465465254,0.00206530655055262,-0.00766265855781466,4.8828125e-05,15.1806937510872,15.1807425792122,,,47.1399998664856,13,0.127811767691731,0.217737794780786
2018-07-19T08:05:43Z,1531987543,10F,42.0404081,42.2452836,15.48,0,-0.3,145.7,646598.5,-281356.75,139.6,Air+FixedWing,Blue,Enemies,J-11A,Blue J-11A #001,cn,=36=Falcon,0,0,0,15.4799995422363,2.47999954223633,0,0,NaN,NaN,0,0.00989117029631303,NaN,0.999973465465254,0.00206530655055262,-0.00766265855781466,0,15.1806937510872,15.1806937510872,,,48.1399998664856,13,0.127811767691731,0.217737794780786
2018-07-19T08:05:44Z,1531987544,10F,42.0404081,42.2452836,15.48,0,-0.3,145.7,646598.5,-281356.72,139.6,Air+FixedWing,Blue,Enemies,J-11A,Blue J-11A #001,cn,=36=Falcon,0.03125,0,9.1816117406208e-05,15.4799995422363,2.47999954223633,0.03125,0,NaN,NaN,0,0.00989117029631303,NaN,0.999998877981212,-0.00206530655055262,-0.00280927030690282,4.8828125e-05,15.1806937510872,15.1807425792122,,,49.1399998664856,13,0.127811767691731,0.217737794780786
2018-07-19T08:05:45Z,1531987545,10F,42.0404081,42.2452836,15.48,0,-0.3,145.7,646598.5,-281356.72,139.6,Air+FixedWing,Blue,Enemies,J-11A,Blue J-11A #001,cn,=36=Falcon,0,0,0,15.4799995422363,2.47999954223633,0,0,NaN,NaN,0,0.00989117029631303,NaN,0.999998877981212,-0.00206530655055262,-0.00280927030690282,0,15.1806937510872,15.1806937510872,,,50.1399998664856,13,0.127811767691731,0.217737794780786
2018-07-19T08:05:46Z,1531987546,10F,42.0404081,42.2452836,15.48,0,-0.3,145.7,646598.5,-281356.75,139.6,Air+FixedWing,Blue,Enemies,J-11A,Blue J-11A #001,cn,=36=Falcon,0.03125,0,9.1816117406208e-05,15.4799995422363,2.47999954223633,0.03125,0,NaN,NaN,0,0.00989117029631303,NaN,0.999973465465254,0.00206530655055262,-0.00766265855781466,4.8828125e-05,15.1806937510872,15.1807425792122,,,51.1399998664856,13,0.127811767691731,0.217737794780786
2018-07-19T08:05:47Z,1531987547,10F,42.0404081,42.2452836,15.48,0,-0.3,145.7,646598.5,-281356.75,139.6,Air+FixedWing,Blue,Enemies,J-11A,Blue J-11A #001,cn,=36=Falcon,0,0,0,15.4799995422363,2.47999954223633,0,0,NaN,NaN,0,0.00989117029631303,NaN,0.999973465465254,0.00206530655055262,-0.00766265855781466,0,15.1806937510872,15.1806937510872,,,52.1399998664856,13,0.127811767691731,0.217737794780786
2018-07-19T08:05:48Z,1531987548,10F,42.0404081,42.2452836,15.48,0,-0.3,145.7,646598.5,-281356.72,139.6,Air+FixedWing,Blue,Enemies,J-11A,Blue J-11A #001,cn,=36=Falcon,0.03125,0,9.1816117406208e-05,15.4799995422363,2.47999954223633,0.03125,0,NaN,NaN,0,0.00989117029631303,NaN,1.00001158423919,-0.00413061310110525,-0.000382576181446908,4.8828125e-05,15.1806937510872,15.1807425792122,,,53.1399998664856,13,0.127811767691731,0.217737794780786
2018-07-19T08:05:49Z,1531987549,10F,42.0404081,42.2452836,15.48,0,-0.3,145.7,646598.5,-281356.75,139.6,Air+FixedWing,Blue,Enemies,J-11A,Blue J-11A #001,cn,=36=Falcon,0.03125,0,9.1816117406208e-05,15.4799995422363,2.47999954223633,0.03125,0,NaN,NaN,0,0.00989117029631303,NaN,0.999973465465254,0.00206530655055262,-0.00766265855781466,4.8828125e-05,15.1806937510872,15.1807425792122,,,54.1399998664856,13,0.127811767691731,0.217737794780786
2018-07-19T08:05:50Z,1531987550,10F,42.0404081,42.2452836,15.48,0,-0.3,145.7,646598.5,-281356.75,139.6,Air+FixedWing,Blue,Enemies,J-11A,Blue J-11A #001,cn,=36=Falcon,0,0,0,15.4799995422363,2.47999954223633,0,0,NaN,NaN,0,0.00989117029631303,NaN,0.999986171723233,0,-0.00523596443235874,0,15.1806937510872,15.1806937510872,,,55.1399998664856,13,0.127811767691731,0.217737794780786
2018-07-19T08:05:51Z,1531987551,10F,42.0404081,42.2452836,15.48,0,-0.3,145.7,646598.5,-281356.75,139.6,Air+FixedWing,Blue,Enemies,J-11A,Blue J-11A #001,cn,=36=Falcon,0,0,0,15.4799995422363,2.47999954223633,0,0,NaN,NaN,0,0.00989117029631303,NaN,0.999986171723233,0,-0.00523596443235874,0,15.1806937510872,15.1806937510872,,,56.1399998664856,13,0.127811767691731,0.217737794780786
2018-07-19T08:05:52Z,1531987552,10F,42.0404081,42.2452836,15.48,0,-0.3,145.7,646598.5,-281356.75,139.6,Air+FixedWing,Blue,Enemies,J-11A,Blue J-11A #001,cn,=36=Falcon,0,0,0,15.4799995422363,2.47999954223633,0,0,NaN,NaN,0,0.00989117029631303,NaN,0.999973465465254,0.00206530655055262,-0.00766265855781466,0,15.1806937510872,15.1806937510872,,,57.1399998664856,13,0.127811767691731,0.217737794780786
2018-07-19T08:05:53Z,1531987553,10F,42.0404081,42.2452836,15.48,0,-0.3,145.7,646598.5,-281356.72,139.6,Air+FixedWing,Blue,Enemies,J-11A,Blue J-11A #001,cn,=36=Falcon,0.03125,0,9.1816117406208e-05,15.4799995422363,2.47999954223633,0.03125,0,NaN,NaN,0,0.00989117029631303,NaN,0.999998877981212,-0.00206530655055262,-0.00280927030690282,4.8828125e-05,15.1806937510872,15.1807425792122,,,58.1399998664856,13,0.127811767691731,0.217737794780786
2018-07-19T08:05:54Z,1531987554,10F,42.0404081,42.2452836,15.48,0,-0.3,145.7,646598.5,-281356.72,139.6,Air+FixedWing,Blue,Enemies,J-11A,Blue J-11A #001,cn,=36=Falcon,0,0,0,15.4799995422363,2.47999954223633,0,0,NaN,NaN,0,0.00989117029631303,NaN,0.999986171723233,0,-0.00523596443235874,0,15.1806937510872,15.1806937510872,,,59.1399998664856,13,0.127811767691731,0.217737794780786
2018-07-19T08:05:55Z,1531987555,10F,42.0404081,42.2452836,15.48,0,-0.3,145.7,646598.5,-281356.72,139.6,Air+FixedWing,Blue,Enemies,J-11A,Blue J-11A #001,cn,=36=Falcon,0,0,0,15.4799995422363,2.47999954223633,0,0,NaN,NaN,0,0.00989117029631303,NaN,0.999986171723233,0,-0.00523596443235874,0,15.1806937510872,15.1806937510872,,,60.1399998664856,13,0.127811767691731,0.217737794780786
2018-07-19T08:05:56Z,1531987556,10F,42.0404081,42.2452836,15.48,0,-0.3,145.7,646598.5,-281356.72,139.6,Air+FixedWing,Blue,Enemies,J-11A,Blue J-11A #001,cn,=36=Falcon,0,0,0,15.4799995422363,2.47999954223633,0,0,NaN,NaN,0,0.00989117029631303,NaN,0.999998877981212,-0.00206530655055262,-0.00280927030690282,0,15.1806937510872,15.1806937510872,,,61.1399998664856,13,0.127811767691731,0.217737794780786
2018-07-19T08:05:57Z,1531987557,10F,42.0404081,42.2452836,15.48,0,-0.3,145.7,646598.5,-281356.75,139.6,Air+FixedWing,Blue,Enemies,J-11A,Blue J-11A #001,cn,=36=Falcon,0.03125,0,9.1816117406208e-05,15.4799995422363,2.47999954223633,0.03125,0,NaN,NaN,0,0.00989117029631303,NaN,0.999973465465254,0.00206530655055262,-0.00766265855781466,4.8828125e-05,15.1806937510872,15.1807425792122,,,62.1399998664856,13,0.127811767691731,0.217737794780786
2018-07-19T08:05:58Z,1531987558,10F,42.0404081,42.2452836,15.48,0,-0.3,145.7,646598.5,-281356.75,139.6,Air+FixedWing,Blue,Enemies,J-11A,Blue J-11A #001,cn,=36=Falcon,0,0,0,15.4799995422363,2.47999954223633,0,0,NaN,NaN,0,0.00989117029631303,NaN,0.999986171723233,0,-0.00523596443235874,0,15.1806937510872,15.1806937510872,,,63.1399998664856,13,0.127811767691731,0.217737794780786
2018-07-19T08:05:59Z,1531987559,10F,42.0404081,42.2452836,15.48,0,-0.3,145.7,646598.5,-281356.75,139.6,Air+FixedWing,Blue,Enemies,J-11A,Blue J-11A #001,cn,=36=Falcon,0,0,0,15.4799995422363,2.47999954223633,0,0,NaN,NaN,0,0.00989117029631303,NaN,0.999973465465254,0.00206530655055262,-0.00766265855781466,0,15.1806937510872,15.1806937510872,,,64.1399998664856,13,0.127811767691731,0.217737794780786
2018-07-19T08:06:00Z,1531987560,10F,42.0404081,42.2452836,15.48,0,-0.3,145.7,646598.5,-281356.72,139.6,Air+FixedWing,Blue,Enemies,J-11A,Blue J-11A #001,cn,=36=Falcon,0.03125,0,9.1816117406208e-05,15.4799995422363,2.47999954223633,0.03125,0,NaN,NaN,0,0.00989117029631303,NaN,1.00001158423919,-0.00413061310110525,-0.000382576181446908,4.8828125e-05,15.1806937510872,15.1807425792122,,,65.1399998664856,13,0.127811767691731,0.217737794780786
2018-07-19T08:06:01Z,1531987561,10F,42.0404081,42.2452836,15.48,0,-0.3,145.7,646598.5,-281356.75,139.6,Air+FixedWing,Blue,Enemies,J-11A,Blue J-11A #001,cn,=36=Falcon,0.03125,0,9.1816117406208e-05,15.4799995422363,2.47999954223633,0.03125,0,NaN,NaN,0,0.00989117029631303,NaN,0.999960759207275,0.00413061310110525,-0.0100893526832706,4.8828125e-05,15.1806937510872,15.1807425792122,,,66.1399998664856,13,0.127811767691731,0.217737794780786
2018-07-19T08:06:02Z,1531987562,10F,42.0404081,42.2452836,15.48,0,-0.3,145.7,646598.5,-281356.72,139.6,Air+FixedWing,Blue,Enemies,J-11A,Blue J-11A #001,cn,=36=Falcon,0.03125,0,9.1816117406208e-05,15.4799995422363,2.47999954223633,0.03125,0,NaN,NaN,0,0.00989117029631303,NaN,0.999998877981212,-0.00206530655055262,-0.00280927030690282,4.8828125e-05,15.1806937510872,15.1807425792122,,,67.1399998664856,13,0.127811767691731,0.217737794780786
2018-07-19T08:06:03Z,1531987563,10F,42.0404081,42.2452836,15.48,0,-0.3,145.7,646598.5,-281356.72,139.6,Air+FixedWing,Blue,Enemies,J-11A,Blue J-11A #001,cn,=36=Falcon,0,0,0,15.4799995422363,2.47999954223633,0,0,NaN,NaN,0,0.00989117029631303,NaN,0.999986171723233,0,-0.00523596443235874,0,15.1806937510872,15.1806937510872,,,68.1399998664856,13,0.127811767691731,0.217737794780786
2018-07-19T08:06:04Z,1531987564,10F,42.0404081,42.2452836,15.48,0,-0.3,145.7,646598.5,-281356.72,139.6,Air+FixedWing,Blue,Enemies,J-11A,Blue J-11A #001,cn,=36=Falcon,0,0,0,15.4799995422363,2.47999954223633,0,0,NaN,NaN,0,0.00989117029631303,NaN,0.999998877981212,-0.00206530655055262,-0.00280927030690282,0,15.1806937510872,15.1806937510872,,,69.1399998664856,13,0.127811767691731,0.217737794780786
2018-07-19T08:06:05Z,1531987565,10F,42.0404081,42.2452836,15.48,0,-0.3,145.7,646598.5,-281356.75,139.6,Air+FixedWing,Blue,Enemies,J-11A,Blue J-11A #001,cn,=36=Falcon,0.03125,0,9.1816117406208e-05,15.4799995422363,2.47999954223633,0.03125,0,NaN,NaN,0,0.00989117029631303,NaN,0.999973465465254,0.00206530655055262,-0.00766265855781466,4.8828125e-05,15.1806937510872,15.1807425792122,,,70.1399998664856,13,0.127811767691731,0.217737794780786
2018-07-19T08:06:06Z,1531987566,10F,42.0404081,42.2452836,15.48,0,-0.3,145.7,646598.5,-281356.75,139.6,Air+FixedWing,Blue,Enemies,J-11A,Blue J-11A #001,cn,=36=Falcon,0,0,0,15.4799995422363,2.47999954223633,0,0,NaN,NaN,0,0.00989117029631303,NaN,0.999973465465254,0.00206530655055262,-0.00766265855781466,0,15.1806937510872,15.1806937510872,,,71.1399998664856,13,0.127811767691731,0.217737794780786
2018-07-19T08:06:07Z,1531987567,10F,42.0404081,42.2452836,15.48,0,-0.3,145.7,646598.5,-281356.72,139.6,Air+FixedWing,Blue,Enemies,J-11A,Blue J-11A #001,cn,=36=Falcon,0.03125,0,9.1816117406208e-05,15.4799995422363,2.47999954223633,0.03125,0,NaN,NaN,0,0.00989117029631303,NaN,0.999998877981212,-0.00206530655055262,-0.00280927030690282,4.8828125e-05,15.1806937510872,15.1807425792122,,,72.1399998664856,13,0.127811767691731,0.217737794780786
2018-07-19T08:06:08Z,1531987568,10F,42.0404081,42.2452836,15.48,0,-0.3,145.7,646598.5,-281356.72,139.6,Air+FixedWing,Blue,Enemies,J-11A,Blue J-11A #001,cn,=36=Falcon,0,0,0,15.4799995422363,2.47999954223633,0,0,NaN,NaN,0,0.00989117029631303,NaN,0.999986171723233,0,-0.00523596443235874,0,15.1806937510872,15.1806937510872,,,73.1399998664856,13,0.127811767691731,0.217737794780786
2018-07-19T08:06:09Z,1531987569,10F,42.0404081,42.2452836,15.48,0,-0.3,145.7,646598.5,-281356.72,139.6,Air+FixedWing,Blue,Enemies,J-11A,Blue J-11A #001,cn,=36=Falcon,0,0,0,15.4799995422363,2.47999954223633,0,0,NaN,NaN,0,0.00989117029631303,NaN,0.999986171723233,0,-0.00523596443235874,0,15.1806937510872,15.1806937510872,,,74.1399998664856,13,0.127811767691731,0.217737794780786
2018-07-19T08:06:10Z,1531987570,10F,42.0404081,42.2452836,15.48,0,-0.3,145.7,646598.5,-281356.72,139.6,Air+FixedWing,Blue,Enemies,J-11A,Blue J-11A #001,cn,=36=Falcon,0,0,0,15.4799995422363,2.47999954223633,0,0,NaN,NaN,0,0.00989117029631303,NaN,0.999998877981212,-0.00206530655055262,-0.00280927030690282,0,15.1806937510872,15.1806937510872,,,75.1399998664856,13,0.127811767691731,0.217737794780786
2018-07-19T08:06:11Z,1531987571,10F,42.0404081,42.2452836,15.48,0,-0.3,145.7,646598.5,-281356.75,139.6,Air+FixedWing,Blue,Enemies,J-11A,Blue J-11A #001,cn,=36=Falcon,0.03125,0,9.1816117406208e-05,15.4799995422363,2.47999954223633,0.03125,0,NaN,NaN,0,0.00989117029631303,NaN,0.999973465465254,0.00206530655055262,-0.00766265855781466,4.8828125e-05,15.1806937510872,15.1807425792122,,,76.1399998664856,13,0.127811767691731,0.217737794780786
2018-07-19T08:06:12Z,1531987572,10F,42.0404081,42.2452836,15.48,0,-0.3,145.7,646598.5,-281356.75,139.6,Air+FixedWing,Blue,Enemies,J-11A,Blue J-11A #001,cn,=36=Falcon,0,0,0,15.4799995422363,2.47999954223633,0,0,NaN,NaN,0,0.00989117029631303,NaN,0.999986171723233,0,-0.00523596443235874,0,15.1806937510872,15.1806937510872,,,77.1399998664856,13,0.127811767691731,0.217737794780786
2018-07-19T08:06:13Z,1531987573,10F,42.0404081,42.2452836,15.48,0,-0.3,145.7,646598.5,-281356.75,139.6,Air+FixedWing,Blue,Enemies,J-11A,Blue J-11A #001,cn,=36=Falcon,0,0,0,15.4799995422363,2.47999954223633,0,0,NaN,NaN,0,0.00989117029631303,NaN,0.999986171723233,0,-0.00523596443235874,0,15.1806937510872,15.1806937510872,,,78.1399998664856,13,0.127811767691731,0.217737794780786
2018-07-19T08:06:14Z,1531987574,10F,42.0404081,42.2452836,15.48,0,-0.3,145.7,646598.5,-281356.75,139.6,Air+FixedWing,Blue,Enemies,J-11A,Blue J-11A #001,cn,=36=Falcon,0,0,0,15.4799995422363,2.47999954223633,0,0,NaN,NaN,0,0.00989117029631303,NaN,0.999986171723233,0,-0.00523596443235874,0,15.1806937510872,15.1806937510872,,,79.1399998664856,13,0.127811767691731,0.217737794780786
2018-07-19T08:06:15Z,1531987575,10F,42.0404081,42.2452836,15.48,0,-0.3,145.7,646598.5,-281356.75,139.6,Air+FixedWing,Blue,Enemies,J-11A,Blue J-11A #001,cn,=36=Falcon,0,0,0,15.4799995422363,2.47999954223633,0,0,NaN,NaN,0,0.00989117029631303,NaN,0.999973465465254,0.00206530655055262,-0.00766265855781466,0,15.1806937510872,15.1806937510872,,,80.1399998664856,13,0.127811767691731,0.217737794780786
2018-07-19T08:06:16Z,1531987576,10F,42.0404081,42.2452836,15.48,0,-0.3,145.7,646598.5,-281356.72,139.6,Air+FixedWing,Blue,Enemies,J-11A,Blue J-11A #001,cn,=36=Falcon,0.03125,0,9.1816117406208e-05,15.4799995422363,2.47999954223633,0.03125,0,NaN,NaN,0,0.00989117029631303,NaN,1.00001158423919,-0.00413061310110525,-0.000382576181446908,4.8828125e-05,15.1806937510872,15.1807425792122,,,81.1399998664856,13,0.127811767691731,0.217737794780786
2018-07-19T08:06:17Z,1531987577,10F,42.0404081,42.2452836,15.48,0,-0.3,145.7,646598.5,-281356.75,139.6,Air+FixedWing,Blue,Enemies,J-11A,Blue J-11A #001,cn,=36=Falcon,0.03125,0,9.1816117406208e-05,15.4799995422363,2.47999954223633,0.03125,0,NaN,NaN,0,0.00989117029631303,NaN,0.999973465465254,0.00206530655055262,-0.00766265855781466,4.8828125e-05,15.1806937510872,15.1807425792122,,,82.1399998664856,13,0.127811767691731,0.217737794780786
2018-07-19T08:06:18Z,1531987578,10F,42.0404081,42.2452836,15.48,0,-0.3,145.7,646598.5,-281356.75,139.6,Air+FixedWing,Blue,Enemies,J-11A,Blue J-11A #001,cn,=36=Falcon,0,0,0,15.4799995422363,2.47999954223633,0,0,NaN,NaN,0,0.00989117029631303,NaN,0.999973465465254,0.00206530655055262,-0.00766265855781466,0,15.1806937510872,15.1806937510872,,,83.1399998664856,13,0.127811767691731,0.217737794780786
2018-07-19T08:06:19Z,1531987579,10F,42.0404081,42.2452836,15.48,0,-0.3,145.7,646598.5,-281356.72,139.6,Air+FixedWing,Blue,Enemies,J-11A,Blue J-11A #001,cn,=36=Falcon,0.03125,0,9.1816117406208e-05,15.4799995422363,2.47999954223633,0.03125,0,NaN,NaN,0,0.00989117029631303,NaN,0.999998877981212,-0.00206530655055262,-0.00280927030690282,4.8828125e-05,15.1806937510872,15.1807425792122,,,84.1399998664856,13,0.127811767691731,0.217737794780786
2018-07-19T08:06:20Z,1531987580,10F,42.0404081,42.2452836,15.48,0,-0.3,145.7,646598.5,-281356.72,139.6,Air+FixedWing,Blue,Enemies,J-11A,Blue J-11A #001,cn,=36=Falcon,0,0,0,15.4799995422363,2.47999954223633,0,0,NaN,NaN,0,0.00989117029631303,NaN,0.999986171723233,0,-0.00523596443235874,0,15.1806937510872,15.1806937510872,,,85.1399998664856,13,0.127811767691731,0.217737794780786
2018-07-19T08:06:21Z,1531987581,10F,42.0404081,42.2452836,15.48,0,-0.3,145.7,646598.5,-281356.72,139.6,Air+FixedWing,Blue,Enemies,J-11A,Blue J-11A #001,cn,=36=Falcon,0,0,0,15.4799995422363,2.47999954223633,0,0,NaN,NaN,0,0.00989117029631303,NaN,0.999998877981212,-0.00206530655055262,-0.00280927030690282,0,15.1806937510872,15.1806937510872,,,86.1399998664856,13,0.127811767691731,0.217737794780786
2018-07-19T08:06:22Z,1531987582,10F,42.0404081,42.2452836,15.48,0,-0.3,145.7,646598.5,-281356.75,139.6,Air+FixedWing,Blue,Enemies,J-11A,Blue J-11A #001,cn,=36=Falcon,0.03125,0,9.1816117406208e-05,15.4799995422363,2.47999954223633,0.03125,0,NaN,NaN,0,0.00989117029631303,NaN,0.999973465465254,0.00206530655055262,-0.00766265855781466,4.8828125e-05,15.1806937510872,15.1807425792122,,,87.1399998664856,13,0.127811767691731,0.217737794780786
2018-07-19T08:06:23Z,1531987583,10F,42.0404081,42.2452836,15.48,0,-0.3,145.8,646598.5,-281356.75,139.6,Air+FixedWing,Blue,Enemies,J-11A,Blue J-11A #001,cn,=36=Falcon,0,0,0,15.4799995422363,2.47999954223633,0,0,NaN,NaN,0,0.00989117029631303,NaN,0.999986171723233,0,-0.00523596443235874,0,15.1806937510872,15.1806937510872,,,88.1399998664856,13,0.127811767691731,0.217737794780786
2018-07-19T08:06:24Z,1531987584,10F,42.0404081,42.2452836,15.48,0,-0.3,145.8,646598.5,-281356.75,139.6,Air+FixedWing,Blue,Enemies,J-11A,Blue J-11A #001,cn,=36=Falcon,0,0,0,15.4799995422363,2.47999954223633,0,0,NaN,NaN,0,0.00989117029631303,NaN,0.999973465465254,0.00206530655055262,-0.00766265855781466,0,15.1806937510872,15.1806937510872,,,89.1399998664856,13,0.127811767691731,0.217737794780786
2018-07-19T08:06:25Z,1531987585,10F,42.0404081,42.2452836,15.48,0,-0.3,145.8,646598.5,-281356.72,139.6,Air+FixedWing,Blue,Enemies,J-11A,Blue J-11A #001,cn,=36=Falcon,0.03125,0,9.1816117406208e-05,15.4799995422363,2.47999954223633,0.03125,0,NaN,NaN,0,0.00989117029631303,NaN,0.999998877981212,-0.00206530655055262,-0.00280927030690282,4.8828125e-05,15.1806937510872,15.1807425792122,,,90.1399998664856,13,0.127811767691731,0.217737794780786
2018-07-19T08:06:26Z,1531987586,10F,42.0404081,42.2452836,15.48,0,-0.3,145.8,646598.5,-281356.72,139.6,Air+FixedWing,Blue,Enemies,J-11A,Blue J-11A #001,cn,=36=Falcon,0,0,0,15.4799995422363,2.47999954223633,0,0,NaN,NaN,0,0.00989117029631303,NaN,0.999986171723233,0,-0.00523596443235874,0,15.1806937510872,15.1806937510872,,,91.1399998664856,13,0.127811767691731,0.217737794780786
2018-07-19T08:06:27Z,1531987587,10F,42.0404081,42.2452836,15.48,0,-0.3,145.8,646598.5,-281356.72,139.6,Air+FixedWing,Blue,Enemies,J-11A,Blue J-11A #001,cn,=36=Falcon,0,0,0,15.4799995422363,2.47999954223633,0,0,NaN,NaN,0,0.00989117029631303,NaN,0.999986171723233,0,-0.00523596443235874,0,15.1806937510872,15.1806937510872,,,92.1399998664856,13,0.127811767691731,0.217737794780786
2018-07-19T08:06:28Z,1531987588,10F,42.0404081,42.2452836,15.48,0,-0.3,145.8,646598.5,-281356.72,139.6,Air+FixedWing,Blue,Enemies,J-11A,Blue J-11A #001,cn,=36=Falcon,0,0,0,15.4799995422363,2.47999954223633,0,0,NaN,NaN,0,0.00989117029631303,NaN,0.999998877981212,-0.00206530655055262,-0.00280927030690282,0,15.1806937510872,15.1806937510872,,,93.1399998664856,13,0.127811767691731,0.217737794780786
2018-07-19T08:06:29Z,1531987589,10F,42.0404081,42.2452836,15.48,0,-0.3,145.8,646598.5,-281356.75,139.6,Air+FixedWing,Blue,Enemies,J-11A,Blue J-11A #001,cn,=36=Falcon,0.03125,0,9.1816117406208e-05,15.4799995422363,2.47999954223633,0.03125,0,NaN,NaN,0,0.00989117029631303,NaN,0.999973465465254,0.00206530655055262,-0.00766265855781466,4.8828125e-05,15.1806937510872,15.1807425792122,,,94.1399998664856,13,0.127811767691731,0.217737794780786
2018-07-19T08:06:30Z,1531987590,10F,42.0404081,42.2452836,15.48,0,-0.3,145.8,646598.5,-281356.75,139.6,Air+FixedWing,Blue,Enemies,J-11A,Blue J-11A #001,cn,=36=Falcon,0,0,0,15.4799995422363,2.47999954223633,0,0,NaN,NaN,0,0.00989117029631303,NaN,0.999973465465254,0.00206530655055262,-0.00766265855781466,0,15.1806937510872,15.1806937510872,,,95.1399998664856,13,0.127811767691731,0.217737794780786
2018-07-19T08:06:31Z,1531987591,10F,42.0404081,42.2452836,15.48,0,-0.3,145.8,646598.5,-281356.72,139.6,Air+FixedWing,Blue,Enemies,J-11A,Blue J-11A #001,cn,=36=Falcon,0.03125,0,9.1816117406208e-05,15.4799995422363,2.47999954223633,0.03125,0,NaN,NaN,0,0.00989117029631303,NaN,0.999998877981212,-0.00206530655055262,-0.00280927030690282,4.8828125e-05,15.1806937510872,15.1807425792122,,,96.1399998664856,13,0.127811767691731,0.217737794780786
2018-07-19T08:06:32Z,1531987592,10F,42.0404081,42.2452836,15.48,0,-0.3,145.8,646598.5,-281356.72,139.6,Air+FixedWing,Blue,Enemies,J-11A,Blue J-11A #001,cn,=36=Falcon,0,0,0,15.4799995422363,2.47999954223633,0,0,NaN,NaN,0,0.00989117029631303,NaN,0.999986171723233,0,-0.00523596443235874,0,15.1806937510872,15.1806937510872,,,97.1399998664856,13,0.127811767691731,0.217737794780786
2018-07-19T08:06:33Z,1531987593,10F,42.0404081,42.2452836,15.48,0,-0.3,145.8,646598.5,-281356.72,139.6,Air+FixedWing,Blue,Enemies,J-11A,Blue J-11A #001,cn,=36=Falcon,0,0,0,15.4799995422363,2.47999954223633,0,0,NaN,NaN,0,0.00989117029631303,NaN,0.999998877981212,-0.00206530655055262,-0.00280927030690282,0,15.1806937510872,15.1806937510872,,,98.1399998664856,13,0.127811767691731,0.217737794780786
2018-07-19T08:06:34Z,1531987594,10F,42.0404081,42.2452836,15.48,0,-0.3,145.8,646598.5,-281356.75,139.6,Air+FixedWing,Blue,Enemies,J-11A,Blue J-11A #001,cn,=36=Falcon,0.03125,0,9.1816117406208e-05,15.4799995422363,2.47999954223633,0.03125,0,NaN,NaN,0,0.00989117029631303,NaN,0.999973465465254,0.00206530655055262,-0.00766265855781466,4.8828125e-05,15.1806937510872,15.1807425792122,,,99.1399998664856,13,0.127811767691731,0.217737794780786
2018-07-19T08:06:35Z,1531987595,10F,42.0404081,42.2452836,15.48,0,-0.3,145.8,646598.5,-281356.75,139.6,Air+FixedWing,Blue,Enemies,J-11A,Blue J-11A #001,cn,=36=Falcon,0,0,0,15.4799995422363,2.47999954223633,0,0,NaN,NaN,0,0.00989117029631303,NaN,0.999986171723233,0,-0.00523596443235874,0,15.1806937510872,15.1806937510872,,,100.139999866486,13,0.127811767691731,0.217737794780786
2018-07-19T08:06:36Z,1531987596,10F,42.0404081,42.2452836,15.48,0,-0.3,145.8,646598.5,-281356.75,139.6,Air+FixedWing,Blue,Enemies,J-11A,Blue J-11A #001,cn,=36=Falcon,0,0,0,15.4799995422363,2.47999954223633,0,0,NaN,NaN,0,0.00989117029631303,NaN,0.999973465465254,0.00206530655055262,-0.00766265855781466,0,15.1806937510872,15.1806937510872,,,101.139999866486,13,0.127811767691731,0.217737794780786
2018-07-19T08:06:37Z,1531987597,10F,42.0404081,42.2452836,15.48,0,-0.3,145.8,646598.5,-281356.72,139.6,Air+FixedWing,Blue,Enemies,J-11A,Blue J-11A #001,cn,=36=Falcon,0.03125,0,9.1816117406208e-05,15.4799995422363,2.47999954223633,0.03125,0,NaN,NaN,0,0.00989117029631303,NaN,0.999998877981212,-0.00206530655055262,-0.00280927030690282,4.8828125e-05,15.1806937510872,15.1807425792122,,,102.139999866486,13,0.127811767691731,0.217737794780786
2018-07-19T08:06:38Z,1531987598,10F,42.0404081,42.2452836,15.48,0,-0.3,145.8,646598.5,-281356.72,139.6,Air+FixedWing,Blue,Enemies,J-11A,Blue J-11A #001,cn,=36=Falcon,0,0,0,15.4799995422363,2.47999954223633,0,0,NaN,NaN,0,0.00989117029631303,NaN,0.999998877981212,-0.00206530655055262,-0.00280927030690282,0,15.1806937510872,15.1806937510872,,,103.139999866486,13,0.127811767691731,0.217737794780786
2018-07-19T08:06:39Z,1531987599,10F,42.0404081,42.2452836,15.48,0,-0.3,145.8,646598.5,-281356.75,139.6,Air+FixedWing,Blue,Enemies,J-11A,Blue J-11A #001,cn,=36=Falcon,0.03125,0,9.1816117406208e-05,15.4799995422363,2.47999954223633,0.03125,0,NaN,NaN,0,0.0139882274201861,NaN,0.999973465465254,0.00206530655055262,-0.00766265855781466,4.8828125e-05,15.1806937510872,15.1807425792122,,,104.139999866486,13,0.127811767691731,0.217737794780786
2018-07-19T08:06:40Z,1531987600,10F,42.0404081,42.2452836,15.48,0,-0.3,145.8,646598.5,-281356.75,139.6,Air+FixedWing,Blue,Enemies,J-11A,Blue J-11A #001,cn,=36=Falcon,0,0,0,15.4799995422363,2.47999954223633,0,0,NaN,NaN,0,0.0407823424976854,NaN,0.999982178212271,0,-0.00594883412122726,0,15.1806937510872,15.1806937510872,,,105.139999866486,13,0.127811767691731,0.217737794780786
2018-07-19T08:06:41Z,1531987601,10F,42.0404081,42.2452836,15.48,0,-0.4,145.8,646598.5,-281356.75,139.6,Air+FixedWing,Blue,Enemies,J-11A,Blue J-11A #001,cn,=36=Falcon,0,0,0,15.4799995422363,2.47999954223633,0,0,NaN,NaN,0,0.0504352774299245,NaN,0.999958620479429,0.00206530655055262,-0.0094079292396235,0,15.1806937510872,15.1806937510872,,,106.139999866486,13,0.127811767691731,0.217737794780786
2018-07-19T08:06:42Z,1531987602,10F,42.0404081,42.2452836,15.48,0,-0.4,145.8,646598.5,-281356.72,139.6,Air+FixedWing,Blue,Enemies,J-11A,Blue J-11A #001,cn,=36=Falcon,0.03125,0,9.1816117406208e-05,15.4799995422363,2.47999954223633,0.03125,0,NaN,NaN,0,0.0139882274201861,NaN,0.999993156561279,-0.00206530655055262,-0.00440606365318978,4.8828125e-05,15.1806937510872,15.1807425792122,,,107.139999866486,13,0.127811767691731,0.217737794780786
2018-07-19T08:06:43Z,1531987603,10F,42.0404081,42.2452836,15.48,0,-0.3,145.8,646598.5,-281356.72,139.6,Air+FixedWing,Blue,Enemies,J-11A,Blue J-11A #001,cn,=36=Falcon,0,0,0,15.4799995422363,2.47999954223633,0,0,NaN,NaN,0,0.0484566469995765,NaN,0.999996804708574,-0.00206530655055262,-0.00347775733667088,0,15.1806937510872,15.1806937510872,,,108.139999866486,13,0.127811767691731,0.217737794780786
2018-07-19T08:06:44Z,1531987604,10F,42.0404081,42.2452836,15.48,0,-0.3,145.8,646598.5,-281356.75,139.6,Air+FixedWing,Blue,Enemies,J-11A,Blue J-11A #001,cn,=36=Falcon,0.03125,0,9.1816117406208e-05,15.4799995422363,2.47999954223633,0.03125,0,NaN,NaN,0,0.0342640208323925,NaN,0.999973465465254,0.00206530655055262,-0.00766265855781466,4.8828125e-05,15.1806937510872,15.1807425792122,,,109.139999866486,13,0.131522412418942,0.221448448313405
2018-07-19T08:06:45Z,1531987605,10F,42.0404081,42.2452836,15.48,0,-0.3,145.7,646598.5,-281356.75,139.6,Air+FixedWing,Blue,Enemies,J-11A,Blue J-11A #001,cn,=36=Falcon,0,0,0,15.4799995422363,2.47999954223633,0,0,NaN,NaN,0,0.0139882274201861,NaN,0.999973465465254,0.00206530655055262,-0.00766265855781466,0,15.1806937510872,15.1806937510872,,,110.139999866486,13,0.135233057146152,0.225159101846025
2018-07-19T08:06:46Z,1531987606,10F,42.0404081,42.2452836,15.48,0,-0.3,145.7,646598.5,-281356.72,139.6,Air+FixedWing,Blue,Enemies,J-11A,Blue J-11A #001,cn,=36=Falcon,0.03125,0,9.1816117406208e-05,15.4799995422363,2.47999954223633,0.03125,0,NaN,NaN,0,0.00989117029631303,NaN,0.999998877981212,-0.00206530655055262,-0.00280927030690282,4.8828125e-05,15.1806937510872,15.1807425792122,,,111.139999866486,13,0.135233057146152,0.225159101846025
2018-07-19T08:06:47Z,1531987607,10F,42.0404081,42.2452836,15.48,0,-0.3,145.7,646598.5,-281356.72,139.6,Air+FixedWing,Blue,Enemies,J-11A,Blue J-11A #001,cn,=36=Falcon,0,0,0,15.4799995422363,2.47999954223633,0,0,NaN,NaN,0,0.00989117029631303,NaN,0.999986171723233,0,-0.00523596443235874,0,15.1806937510872,15.1806937510872,,,112.139999866486,13,0.135233057146152,0.225159101846025
2018-07-19T08:06:48Z,1531987608,10F,42.0404081,42.2452836,15.48,0,-0.3,145.7,646598.5,-281356.72,139.6,Air+FixedWing,Blue,Enemies,J-11A,Blue J-11A #001,cn,=36=Falcon,0,0,0,15.4799995422363,2.47999954223633,0,0,NaN,NaN,0,0.00989117029631303,NaN,0.999998877981212,-0.00206530655055262,-0.00280927030690282,0,15.1806937510872,15.1806937510872,,,113.139999866486,13,0.135233057146152,0.225159101846025
2018-07-19T08:06:49Z,1531987609,10F,42.0404081,42.2452836,15.48,0,-0.3,145.7,646598.5,-281356.75,139.6,Air+FixedWing,Blue,Enemies,J-11A,Blue J-11A #001,cn,=36=Falcon,0.03125,0,9.1816117406208e-05,15.4799995422363,2.47999954223633,0.03125,0,NaN,NaN,0,0.00989117029631303,NaN,0.999960759207275,0.00413061310110525,-0.0100893526832706,4.8828125e-05,15.1806937510872,15.1807425792122,,,114.139999866486,13,0.135233057146152,0.225159101846025
2018-07-19T08:06:50Z,1531987610,10F,42.0404081,42.2452836,15.48,0,-0.3,145.7,646598.5,-281356.72,139.6,Air+FixedWing,Blue,Enemies,J-11A,Blue J-11A #001,cn,=36=Falcon,0.03125,0,9.1816117406208e-05,15.4799995422363,2.47999954223633,0.03125,0,NaN,NaN,0,0.00989117029631303,NaN,0.999998877981212,-0.00206530655055262,-0.00280927030690282,4.8828125e-05,15.1806937510872,15.1807425792122,,,115.139999866486,13,0.135233057146152,0.225159101846025
2018-07-19T08:06:51Z,1531987611,10F,42.0404081,42.2452837,15.48,0,-0.3,145.7,646598.5,-281356.72,139.6,Air+FixedWing,Blue,Enemies,J-11A,Blue J-11A #001,cn,=36=Falcon,0,0,0,15.4799995422363,2.47999954223633,0,0,NaN,NaN,0,0.00989117029631303,NaN,0.999986171723233,0,-0.00523596443235874,0,15.1806937510872,15.1806937510872,,,116.139999866486,13,0.141594171415541,0.231520231485919
2018-07-19T08:06:52Z,1531987612,10F,42.0404081,42.2452836,15.48,0,-0.3,145.7,646598.5,-281356.72,139.6,Air+FixedWing,Blue,Enemies,J-11A,Blue J-11A #001,cn,=36=Falcon,0,0,0,15.4799995422363,2.47999954223633,0,0,NaN,NaN,0,0.00989117029631303,NaN,0.999319028762169,-0.00206530655055262,-0.00280571059125224,0,15.1806937510872,15.1806937510872,,,117.139999866486,13,0.145868044394164,0.235794115076196
2018-07-19T08:06:53Z,1531987613,10F,42.0404081,42.2452837,15.47,0.1,-0.3,145.7,646598.5,-281356.75,139.6,Air+FixedWing,Blue,Enemies,J-11A,Blue J-11A #001,cn,=36=Falcon,0.0319532974467976,0,9.38824796655468e-05,15.4733324050903,2.47333240509033,0.03125,-0.00666713714599609,NaN,NaN,0.133333350087435,0.00989117029631303,NaN,1.00133004449775,0.00323040893894664,-0.00766977798911583,5.1050660886176e-05,15.1741555230379,15.1742065736988,,,118.139999866486,13,0.151202103379121,0.244332442394432
2018-07-19T08:06:54Z,1531987614,10F,42.0404081,42.2452836,15.48,0.1,-0.3,145.8,646598.5,-281356.75,139.6,Air+FixedWing,Blue,Enemies,J-11A,Blue J-11A #001,cn,=36=Falcon,0.00666713714599609,0,1.95888207027222e-05,15.4799995422363,2.47999954223633,0,0.00666713714599609,NaN,NaN,0.190480315573316,0.00989117029631303,NaN,0.999288522498356,0.00380939926495938,-0.00765909884216408,2.22253588617605e-06,15.1806937510872,15.1806959736231,,,119.139999866486,13,0.158623403654843,0.254308747495399
2018-07-19T08:06:55Z,1531987615,10F,42.0404081,42.2452836,15.48,0.1,-0.3,145.8,646598.5,-281356.72,139.6,Air+FixedWing,Blue,Enemies,J-11A,Blue J-11A #001,cn,=36=Falcon,0.03125,0,9.1816117406208e-05,15.4799995422363,2.47999954223633,0.03125,0,NaN,NaN,0,0.00989117029631303,NaN,1.00000099250609,-0.000319977039887307,-0.00280927030690282,4.8828125e-05,15.1806937510872,15.1807425792122,,,120.139999866486,13,0.158623403654843,0.254308747495399
2018-07-19T08:06:56Z,1531987616,10F,42.0404081,42.2452837,15.48,-0,-0.3,145.8,646598.5,-281356.72,139.6,Air+FixedWing,Blue,Enemies,J-11A,Blue J-11A #001,cn,=36=Falcon,0,0,0,15.4799995422363,2.47999954223633,0,0,NaN,NaN,0.228565450385307,0.00989117029631303,NaN,0.999986171723233,-0.000249314006968374,-0.00523596443235874,0,15.1806937510872,15.1806937510872,,,121.139999866486,13,0.169755352494687,0.265440723006836
2018-07-19T08:06:57Z,1531987617,10F,42.0404082,42.2452837,15.48,0,-0.3,145.7,646598.5,-281356.72,139.6,Air+FixedWing,Blue,Enemies,J-11A,Blue J-11A #001,cn,=36=Falcon,0,0,0,15.4799995422363,2.47999954223633,0,0,NaN,NaN,0.0952324671537349,0.00989117029631303,NaN,0.999986171723233,0,-0.00523596443235874,0,15.1806937510872,15.1806937510872,,,122.139999866486,13,0.174464315485216,0.270149696899859
2018-07-19T08:06:58Z,1531987618,10F,42.0404081,42.2452837,15.48,0,-0.3,145.7,646598.5,-281356.72,139.6,Air+FixedWing,Blue,Enemies,J-11A,Blue J-11A #001,cn,=36=Falcon,0,0,0,15.4799995422363,2.47999954223633,0,0,NaN,NaN,0.024561383600739,0.00989117029631303,NaN,0.999986231327057,0.000214335555182325,-0.00523596443235874,0,15.1806937510872,15.1806937510872,,,123.139999866486,13,0.179173278475745,0.274858670792882
2018-07-19T08:06:59Z,1531987619,10F,42.0404081,42.2452837,15.48,0.1,-0.3,145.7,646598.5,-281356.72,139.6,Air+FixedWing,Blue,Enemies,J-11A,Blue J-11A #001,cn,=36=Falcon,0,0,0,15.4799995422363,2.47999954223633,0,0,NaN,NaN,0.0877193190976804,0.00989117029631303,NaN,0.99998468162763,0.00174530439271087,-0.00523596443235874,0,15.1806937510872,15.1806937510872,,,124.139999866486,13,0.179173278475745,0.274858670792882
2018-07-19T08:07:00Z,1531987620,10F,42.0404081,42.2452837,15.48,0,-0.3,145.7,646598.5,-281356.72,139.6,Air+FixedWing,Blue,Enemies,J-11A,Blue J-11A #001,cn,=36=Falcon,0,0,0,15.4799995422363,2.47999954223633,0,0,NaN,NaN,0.0484670223504105,0.0197823405926261,NaN,0.999987423420698,0,-0.00499475747346878,0,15.1806937510872,15.1806937510872,,,125.139999866486,13,0.179173278475745,0.274858670792882
2018-07-19T08:07:01Z,1531987621,10F,42.0404081,42.2452837,15.48,0,-0.2,145.7,646598.5,-281356.72,139.6,Air+FixedWing,Blue,Enemies,J-11A,Blue J-11A #001,cn,=36=Falcon,0,0,0,15.4799995422363,2.47999954223633,0,0,NaN,NaN,0,0.0395646845203054,NaN,0.999990701675966,0,-0.00428532483056188,0,15.1806937510872,15.1806937510872,,,126.139999866486,13,0.179173278475745,0.274858670792882
2018-07-19T08:07:02Z,1531987622,10F,42.0404081,42.2452837,15.48,0,-0.2,145.7,646598.5,-281356.72,139.6,Air+FixedWing,Blue,Enemies,J-11A,Blue J-11A #001,cn,=36=Falcon,0,0,0,15.4799995422363,2.47999954223633,0,0,NaN,NaN,0,0.0139882274201861,NaN,0.999838259109262,0,-0.00357533427443342,0,15.1806937510872,15.1806937510872,,,127.139999866486,13,0.179173278475745,0.274858670792882
2018-07-19T08:07:03Z,1531987623,10F,42.0404081,42.2452837,15.48,0,-0.3,145.7,646598.5,-281356.72,139.6,Air+FixedWing,Blue,Enemies,J-11A,Blue J-11A #001,cn,=36=Falcon,0.00152301788330078,0,4.47480276434476e-06,15.478476524353,2.47847652435303,0,-0.00152301788330078,NaN,NaN,0,0.0395646845203054,NaN,0.999623831830492,0,-0.00523406720728163,1.159791736427e-07,15.1792001807547,15.1792002967338,,,128.139999866486,13,0.179173278475745,0.276381688193681
2018-07-19T08:07:04Z,1531987624,10F,42.0404081,42.2452837,15.47,0,-0.3,145.7,646598.5,-281356.72,139.6,Air+FixedWing,Blue,Enemies,J-11A,Blue J-11A #001,cn,=36=Falcon,0.00507640838623047,0,1.49150743597379e-05,15.4734001159668,2.4734001159668,0,-0.00507640838623047,NaN,NaN,0,0.0221173298063182,NaN,1.00015703355671,0,-0.00523685907123702,1.28849610518955e-06,15.1742219247246,15.1742232132207,,,129.139999866486,13,0.179173278475745,0.281458096795723
2018-07-19T08:07:05Z,1531987625,10F,42.0404081,42.2452837,15.47,0.1,-0.2,145.7,646598.5,-281356.72,139.6,Air+FixedWing,Blue,Enemies,J-11A,Blue J-11A #001,cn,=36=Falcon,0.00340080261230469,0,9.9919506160544e-06,15.4699993133545,2.46999931335449,0,-0.00340080261230469,NaN,NaN,0.114285726740628,0.0523391626455858,NaN,1.00135977998494,0.000998687680039472,-0.00349542178593209,5.78272920392919e-07,15.1708868766308,15.1708874549037,,,130.139999866486,13,0.179173278475745,0.284858899508184
2018-07-19T08:07:06Z,1531987626,10F,42.0404081,42.2452837,15.48,0,-0.2,145.7,646598.5,-281356.72,139.6,Air+FixedWing,Blue,Enemies,J-11A,Blue J-11A #001,cn,=36=Falcon,0.0100002288818359,0,2.93818300513152e-05,15.4799995422363,2.47999954223633,0,0.0100002288818359,NaN,NaN,0.113217215682131,0.0523391626455858,NaN,0.99795409725714,0.000653159754054326,-0.00348353261577935,5.00022888445528e-06,15.1806937510872,15.1806987513161,,,131.139999866486,13,0.179173278475745,0.294859128223486
2018-07-19T08:07:07Z,1531987627,10F,42.0404081,42.2452837,15.47,0,-0.2,145.7,646598.5,-281356.72,139.6,Air+FixedWing,Blue,Enemies,J-11A,Blue J-11A #001,cn,=36=Falcon,0.0100002288818359,0,2.9381826741432e-05,15.4699993133545,2.46999931335449,0,-0.0100002288818359,NaN,NaN,0.117260687670779,0.0171320104161963,NaN,1.00101323572963,0.000722937304344112,-0.00349421127940043,5.00022888445528e-06,15.1708868766308,15.1708918768597,,,132.139999866486,13,0.179173278475745,0.304859356938787
2018-07-19T08:07:08Z,1531987628,10F,42.0404081,42.2452837,15.47,0,-0.2,145.7,646598.5,-281356.72,139.6,Air+FixedWing,Blue,Enemies,J-11A,Blue J-11A #001,cn,=36=Falcon,0,0,0,15.4699993133545,2.46999931335449,0,0,NaN,NaN,0.0999939694489867,0.0171320104161963,NaN,0.999993741512668,0,-0.00349065172486007,0,15.1708868766308,15.1708868766308,,,133.139999866486,13,0.179173278475745,0.304859356938787
2018-07-19T08:07:09Z,1531987629,10F,42.0404081,42.2452837,15.47,0,-0.2,145.7,646598.5,-281356.72,139.6,Air+FixedWing,Blue,Enemies,J-11A,Blue J-11A #001,cn,=36=Falcon,0,0,0,15.4699993133545,2.46999931335449,0,0,NaN,NaN,0,0.0171320104161963,NaN,0.999993741512668,0,-0.00349065172486007,0,15.1708868766308,15.1708868766308,,,134.139999866486,13,0.179173278475745,0.304859356938787
2018-07-19T08:07:10Z,1531987630,10F,42.0404081,42.2452837,15.47,0,-0.2,145.7,646598.5,-281356.72,139.6,Air+FixedWing,Blue,Enemies,J-11A,Blue J-11A #001,cn,=36=Falcon,0,0,0,15.4699993133545,2.46999931335449,0,0,NaN,NaN,0,0.0171320104161963,NaN,0.999993741512668,0,-0.00349065172486007,0,15.1708868766308,15.1708868766308,,,135.139999866486,13,0.179173278475745,0.304859356938787
2018-07-19T08:07:11Z,1531987631,10F,42.0404081,42.2452837,15.47,0,-0.2,145.7,646598.5,-281356.72,139.6,Air+FixedWing,Blue,Enemies,J-11A,Blue J-11A #001,cn,=36=Falcon,0,0,0,15.4699993133545,2.46999931335449,0,0,NaN,NaN,0,0.0171320104161963,NaN,0.999993741512668,0,-0.00349065172486007,0,15.1708868766308,15.1708868766308,,,136.139999866486,13,0.179173278475745,0.304859356938787
2018-07-19T08:07:12Z,1531987632,10F,42.0404081,42.2452837,15.47,0,-0.2,145.7,646598.5,-281356.72,139.6,Air+FixedWing,Blue,Enemies,J-11A,Blue J-11A #001,cn,=36=Falcon,0,0,0,15.4699993133545,2.46999931335449,0,0,NaN,NaN,0,0.0171320104161963,NaN,0.999993741512668,0,-0.00349065172486007,0,15.1708868766308,15.1708868766308,,,137.139999866486,13,0.179173278475745,0.304859356938787
2018-07-19T08:07:13Z,1531987633,10F,42.0404081,42.2452837,15.47,0,-0.2,145.7,646598.5,-281356.72,139.6,Air+FixedWing,Blue,Enemies,J-11A,Blue J-11A #001,cn,=36=Falcon,0,0,0,15.4699993133545,2.46999931335449,0,0,NaN,NaN,0,0.0171320104161963,NaN,0.999993741512668,0,-0.00349065172486007,0,15.1708868766308,15.1708868766308,,,138.139999866486,13,0.179173278475745,0.304859356938787
2018-07-19T08:07:14Z,1531987634,10F,42.0404081,42.2452837,15.47,0,-0.2,145.7,646598.5,-281356.72,139.6,Air+FixedWing,Blue,Enemies,J-11A,Blue J-11A #001,cn,=36=Falcon,0,0,0,15.4699993133545,2.46999931335449,0,0,NaN,NaN,0,0.0171320104161963,NaN,0.999993741512668,0,-0.00349065172486007,0,15.1708868766308,15.1708868766308,,,139.139999866486,13,0.179173278475745,0.304859356938787
2018-07-19T08:07:15Z,1531987635,10F,42.0404081,42.2452837,15.47,0,-0.2,145.7,646598.5,-281356.72,139.6,Air+FixedWing,Blue,Enemies,J-11A,Blue J-11A #001,cn,=36=Falcon,0,0,0,15.4699993133545,2.46999931335449,0,0,NaN,NaN,0,0.0171320104161963,NaN,0.999993741512668,0,-0.00349065172486007,0,15.1708868766308,15.1708868766308,,,140.139999866486,13,0.179173278475745,0.304859356938787
2018-07-19T08:07:16Z,1531987636,10F,42.0404081,42.2452837,15.47,0,-0.2,145.7,646598.5,-281356.72,139.6,Air+FixedWing,Blue,Enemies,J-11A,Blue J-11A #001,cn,=36=Falcon,0,0,0,15.4699993133545,2.46999931335449,0,0,NaN,NaN,0,0.0171320104161963,NaN,0.999993741512668,0,-0.00349065172486007,0,15.1708868766308,15.1708868766308,,,141.139999866486,13,0.179173278475745,0.304859356938787
2018-07-19T08:07:17Z,1531987637,10F,42.0404081,42.2452837,15.47,0,-0.2,145.7,646598.5,-281356.72,139.6,Air+FixedWing,Blue,Enemies,J-11A,Blue J-11A #001,cn,=36=Falcon,0,0,0,15.4699993133545,2.46999931335449,0,0,NaN,NaN,0,0.0171320104161963,NaN,0.999993741512668,0,-0.00349065172486007,0,15.1708868766308,15.1708868766308,,,142.139999866486,13,0.179173278475745,0.304859356938787
2018-07-19T08:07:18Z,1531987638,10F,42.0404081,42.2452837,15.47,0,-0.2,145.7,646598.5,-281356.72,139.6,Air+FixedWing,Blue,Enemies,J-11A,Blue J-11A #001,cn,=36=Falcon,0,0,0,15.4699993133545,2.46999931335449,0,0,NaN,NaN,0,0.0171320104161963,NaN,0.999993741512668,0,-0.00349065172486007,0,15.1708868766308,15.1708868766308,,,143.139999866486,13,0.179173278475745,0.304859356938787
2018-07-19T08:07:19Z,1531987639,10F,42.0404081,42.2452837,15.47,0,-0.2,145.7,646598.5,-281356.72,139.6,Air+FixedWing,Blue,Enemies,J-11A,Blue J-11A #001,cn,=36=Falcon,0,0,0,15.4699993133545,2.46999931335449,0,0,NaN,NaN,0,0.0171320104161963,NaN,0.999993741512668,0,-0.00349065172486007,0,15.1708868766308,15.1708868766308,,,144.139999866486,13,0.179173278475745,0.304859356938787
2018-07-19T08:07:20Z,1531987640,10F,42.0404081,42.2452837,15.47,0,-0.2,145.7,646598.5,-281356.72,139.6,Air+FixedWing,Blue,Enemies,J-11A,Blue J-11A #001,cn,=36=Falcon,0,0,0,15.4699993133545,2.46999931335449,0,0,NaN,NaN,0,0.0171320104161963,NaN,0.999993741512668,0,-0.00349065172486007,0,15.1708868766308,15.1708868766308,,,145.139999866486,13,0.179173278475745,0.304859356938787
