ISOTime,UnixTime,Id,Longitude,Latitude,Altitude,Roll,Pitch,Yaw,U,V,Heading,Type,Color,Coalition,Name,Group,Country,Pilot,TAS,CAS,M,ASL,AGL,GS,VS,AOA,AOS,RRT,TRT,TRD,G,LatG,LonG,Ek,Ep,Em,FFW,FFV,RelativeTime,Elev,GroundDistance,AirDistance
2018-07-19T08:00:01Z,1531987201,202,43.0286541,42.9421851,8994.93,0.4,2.3,240.6,718957.5,-194660.52,233.7,Air+FixedWing,Blue,Enemies,E-2C,Blue AWACS,us,,153.225470758855,96.6321868896484,0.504058656453372,8994.9326171875,6336.65307617188,NaN,NaN,4.16139836548179,0.0152394249771562,0.733343750805929,0.117168855779393,NaN,NaN,NaN,NaN,NaN,8821.01559503418,NaN,,,0.980000019073486,2658.27954101562,NaN,NaN
2018-07-19T08:00:02Z,1531987202,202,43.0270438,42.9415171,8989.57,0.2,4,240.6,718834.94,-194750.62,233.7,Air+FixedWing,Blue,Enemies,E-2C,Blue AWACS,us,,152.217188815195,95.9997634887695,0.500703809795345,8989.5654296875,6323.06079101562,152.122535704414,-5.3671875,5.93018691255424,-0.00952254461865275,0.20000001179094,1.60007234492233,5000,1.08005058587387,0.000313996885747691,0.112344256238492,1158.50362854004,8815.75218210449,9974.25581064453,,,1.98000001907349,2666.50463867188,150.822648355142,151.130620493954
2018-07-19T08:00:03Z,1531987203,202,43.0254295,42.9408476,8985.03,0,5.1,240.6,718712.06,-194840.92,233.7,Air+FixedWing,Blue,Enemies,E-2C,Blue AWACS,us,,152.552690852466,96.2456970214844,0.501775309355304,8985.0341796875,6309.00390625,152.485380478804,-4.53125,6.47067277395694,-0.0140639985565751,0.0666626462993244,1.11193590713615,5000,1.18927073614661,-0.000158474262791594,0.0903428884424815,1163.61617431641,8811.30854382324,9974.92471813965,,,2.98000001907349,2676.0302734375,302.020581667943,302.609391449045
2018-07-19T08:00:04Z,1531987204,202,43.023817,42.9401788,8982.39,-0.1,5.8,240.6,718589.31,-194931.12,233.7,Air+FixedWing,Blue,Enemies,E-2C,Blue AWACS,us,,152.352057678629,96.1283721923828,0.501096693863735,8982.3916015625,6283.03588867188,152.329137921035,-2.642578125,6.42112782404616,-0.0267528205313576,0.199987938897973,0.709705319862161,5000,1.17670862402517,0.000673037768369917,0.137040223945579,1160.55747394562,8808.71705994629,9969.27453389191,,,3.98000001907349,2699.35571289062,453.058937663807,453.883570594465
2018-07-19T08:00:05Z,1531987205,202,43.0222028,42.9395091,8981.56,-0.1,6.2,240.6,718466.44,-195021.45,233.7,Air+FixedWing,Blue,Enemies,E-2C,Blue AWACS,us,,152.506162803446,96.2342147827148,0.501597658114163,8981.55859375,6248.99975585938,152.503887789838,-0.8330078125,6.18577576655122,-0.0302397015639751,0,0.404937796784549,5000,1.14365978847587,-0.00150422440048839,0.044200952875263,1162.90648465157,8807.90015833984,9970.80664299141,,,4.98000001907349,2732.55883789062,604.2630769128,605.302933554202
2018-07-19T08:00:06Z,1531987206,202,43.0205964,42.9388424,8982.12,-0.1,6.3,240.6,718344.19,-195111.33,233.7,Air+FixedWing,Blue,Enemies,E-2C,Blue AWACS,us,,151.732953118061,95.7232666015625,0.49905847503686,8982.1162109375,6205.84545898438,151.73192849562,0.5576171875,5.93014574635842,-0.0317121694508035,0,0.190517748211618,5000,1.09137990016566,-0.0051860252511078,0.0470994215719376,1151.14445309639,8808.44699399902,9959.59144709541,,,5.98000001907349,2776.27075195312,754.743619434758,755.996417883995
2018-07-19T08:00:07Z,1531987207,202,43.0189989,42.9381792,8983.56,-0.1,6.4,240.6,718222.5,-195200.75,233.7,Air+FixedWing,Blue,Enemies,E-2C,Blue AWACS,us,,151.017189121188,95.2454452514648,0.496714379185115,8983.5556640625,6150.96606445312,151.010328735374,1.439453125,5.74682464440891,-0.0451859790077721,0,0.0523391626455858,5000,1.04103020023302,0.0110240949763684,0.126259601162058,1140.30957050323,8809.85861529785,9950.16818580109,,,6.98000001907349,2832.58959960938,904.40717382918,905.877667708468
2018-07-19T08:00:08Z,1531987208,202,43.0173991,42.9375149,8985.47,-0.1,6.3,240.6,718100.81,-195290.33,233.7,Air+FixedWing,Blue,Enemies,E-2C,Blue AWACS,us,,151.115053024644,95.2990493774414,0.497049710490339,8985.4716796875,6084.90356445312,151.102905778696,1.916015625,5.54976261038316,-0.0442703126312691,0,0.0504352774299245,5000,1.00860809104809,-0.00810147544487339,0.114877029158548,1141.78796253204,8811.73758476074,9953.52554729279,,,7.98000001907349,2900.56811523438,1054.29982362595,1055.99369072799
2018-07-19T08:00:09Z,1531987209,202,43.0157999,42.9368507,8987.54,-0.1,6.3,240.6,717979.06,-195379.88,233.7,Air+FixedWing,Blue,Enemies,E-2C,Blue AWACS,us,,151.148824967219,95.3095626831055,0.497175284390859,8987.5361328125,6032.96484375,151.134725732591,2.064453125,5.51645072874172,-0.0609550188876533,0,0.0998959722426529,5000,0.993936113149175,0.000278881806951597,0.0555276173400941,1142.29836444855,8813.76212168457,9956.06048613312,,,8.98000001907349,2954.5712890625,1204.1432873852,1206.06247780377
2018-07-19T08:00:10Z,1531987210,202,43.0142066,42.9361888,8989.54,0,6.2,240.6,717857.75,-195469.12,233.7,Air+FixedWing,Blue,Enemies,E-2C,Blue AWACS,us,,150.619748466402,94.9514923095703,0.495449019374461,8989.5419921875,6008.29443359375,150.606391485388,2.005859375,5.4663457362099,-0.0539535224712915,0,0.0998959722426529,5000,0.982839776106649,0.00329761215466703,0.0535260878463468,1134.31543140411,8815.72919776855,9950.04462917267,,,9.98000001907349,2981.24755859375,1353.44393471508,1355.58698539733
2018-07-19T08:00:11Z,1531987211,202,43.0126179,42.9355287,8991.38,0,6.1,240.6,717736.88,-195558.09,233.7,Air+FixedWing,Blue,Enemies,E-2C,Blue AWACS,us,,150.09857408887,94.5997314453125,0.49374747991718,8991.3798828125,6004.70336914062,150.087321588342,1.837890625,5.43992355223326,-0.0309097315431776,0,0.0766166998594792,5000,0.971468396138466,-0.00385227207443761,0.100973927676628,1126.4790971756,8817.53155277832,9944.01064995392,,,10.9800000190735,2986.67651367188,1502.31509644982,1504.67932061512
2018-07-19T08:00:12Z,1531987212,202,43.0110306,42.9348691,8992.99,0,6,240.6,717616,-195647.02,233.7,Air+FixedWing,Blue,Enemies,E-2C,Blue AWACS,us,,150.06816973098,94.5709075927734,0.49365868356449,8992.9892578125,6001.46899414062,150.059539778435,1.609375,5.43168216621221,-0.0676588568526634,0,0.0720088301298065,5000,0.977298668274181,0.00305990076047964,0.0254632983604666,1126.02277832031,8819.10981051269,9945.13258883301,,,11.9800000190735,2991.52026367188,1651.06735110169,1653.64998642444
2018-07-19T08:00:13Z,1531987213,202,43.0094509,42.9342125,8994.35,0,5.9,240.6,717495.75,-195735.52,233.6,Air+FixedWing,Blue,Enemies,E-2C,Blue AWACS,us,,149.312300418866,94.0678024291992,0.491181639311627,8994.349609375,6004.763671875,149.306103358168,1.3603515625,5.45584655292223,0.0564355410833568,0,0.089568392712263,5000,0.97074239955814,0.00134777656518542,0.109847010617892,1114.70815281868,8820.44385967773,9935.15201249641,,,12.9800000190735,2989.5859375,1799.11664728995,1801.91428450636
2018-07-19T08:00:14Z,1531987214,202,43.0078701,42.9335554,8995.48,0,5.9,240.6,717375.44,-195824.08,233.6,Air+FixedWing,Blue,Enemies,E-2C,Blue AWACS,us,,149.397789609279,94.1176834106445,0.491470735657845,8995.4833984375,6019.20922851562,149.393487349683,1.1337890625,5.50465546084467,0.0526986684011679,0,0.0523391626455858,5000,0.975830646235157,-0.00397799566208531,0.0819733085263815,1115.98497700691,8821.55572692871,9937.54070393562,,,13.9800000190735,2976.27416992188,1947.26719584791,1950.27809807506
2018-07-19T08:00:15Z,1531987215,202,43.0062916,42.9328993,8996.41,0,5.9,240.6,717255.25,-195912.5,233.6,Air+FixedWing,Blue,Enemies,E-2C,Blue AWACS,us,,149.212350825161,93.991455078125,0.490867139472885,8996.412109375,6058.0166015625,149.209460607448,0.9287109375,5.56141282791743,0.0500404376809216,0,0.0523391626455858,5000,0.981860200043736,0.00460709785909026,0.0408701973742794,1113.21628193855,8822.46648124023,9935.68276317879,,,14.9800000190735,2938.3955078125,2095.20858394327,2098.43105876932
2018-07-19T08:00:16Z,1531987216,202,43.0047193,42.9322456,8997.15,0,5.8,240.6,717135.56,-196000.61,233.6,Air+FixedWing,Blue,Enemies,E-2C,Blue AWACS,us,,148.623379765078,93.601432800293,0.488934706463979,8997.1533203125,6122.01586914062,148.621531478923,0.7412109375,5.54178928827122,0.0354402263704646,0,0.0523391626455858,5000,0.979488919735964,-0.0037166595282015,0.112656383937233,1104.44545063972,8823.19336086426,9927.63881150398,,,15.9800000190735,2875.13745117188,2242.56979820196,2246.00199720378
2018-07-19T08:00:17Z,1531987217,202,43.0031457,42.9315914,8997.76,0,5.8,240.6,717015.75,-196088.77,233.6,Air+FixedWing,Blue,Enemies,E-2C,Blue AWACS,us,,148.751210494686,93.6817855834961,0.489359402589287,8997.755859375,6195.07177734375,148.749990152311,0.6025390625,5.59337631263545,0.0603391400869418,0,0.0171320104161963,5000,0.98451541647285,-0.000196002100412858,0.0759817665944931,1106.34613118172,8823.78424983399,9930.1303810157,,,16.9800000190735,2802.68408203125,2390.05951416585,2393.70100170794
2018-07-19T08:00:18Z,1531987218,202,43.0015748,42.9309383,8998.23,0,5.8,240.6,716896.12,-196176.78,233.6,Air+FixedWing,Blue,Enemies,E-2C,Blue AWACS,us,,148.516389603831,93.5254516601562,0.488590180918721,8998.232421875,6264.142578125,148.515625,0.4765625,5.638401271865,0.0462683443006571,0,0.0171320104161963,5000,0.980780104959008,0.00667354879245616,0.136404958699361,1102.85589904785,8824.25159799805,9927.1074970459,,,17.9800000190735,2734.08984375,2537.3014223029,2541.15140236075
2018-07-19T08:00:19Z,1531987219,202,42.9999993,42.9302832,8998.61,0,5.8,240.6,716776.25,-196265.06,233.6,Air+FixedWing,Blue,Enemies,E-2C,Blue AWACS,us,,148.874895869298,93.7583770751953,0.489772184300046,8998.6064453125,6309.68139648438,148.874426032689,0.3740234375,5.66887672326698,0.0479122109869692,0,0.0171320104161963,5000,1.00153054161516,-0.00630578272933503,-0.0462001963298028,1108.18673100472,8824.61838969238,9932.8051206971,,,18.9800000190735,2688.92504882812,2684.97548244304,2689.03427738188
2018-07-19T08:00:20Z,1531987220,202,42.9984398,42.9296348,8998.9,0,5.8,240.6,716657.5,-196352.44,233.6,Air+FixedWing,Blue,Enemies,E-2C,Blue AWACS,us,,147.431472066477,92.8120269775391,0.485025581101826,8998.8994140625,6360.69750976562,147.431180979466,0.29296875,5.69904976409244,0.0462733182181589,0,0.0171320104161963,5000,0.981800513109672,0.00443533389638198,0.174644162577899,1086.80194778442,8824.9056938916,9911.70764167603,,,19.9800000190735,2638.20190429688,2831.15035144505,2835.41567400218
2018-07-19T08:00:21Z,1531987221,202,42.9968723,42.9289829,8999.14,0,5.8,240.6,716538.19,-196440.28,233.6,Air+FixedWing,Blue,Enemies,E-2C,Blue AWACS,us,,148.162255140324,93.2886199951172,0.487431379000657,8999.1376953125,6382.88452148438,148.162063532851,0.23828125,5.71976512647697,0.0487411942350844,0,0.0171320104161963,5000,0.988810615743109,-0.00506443609338693,0.104645628721105,1097.60269241333,8825.13936797363,9922.74206038696,,,20.9800000190735,2616.25317382812,2978.0840812926,2982.55690800622
2018-07-19T08:00:22Z,1531987222,202,42.9953048,42.9283311,8999.32,0,5.8,240.6,716418.81,-196528.11,233.6,Air+FixedWing,Blue,Enemies,E-2C,Blue AWACS,us,,148.203250689898,93.3145141601562,0.487567505669728,8999.3203125,6400.302734375,148.203138178703,0.1826171875,5.73742588206906,0.0449343040670525,0,0.0171320104161963,5000,0.998074557776736,0.00325932129390483,0.0321666085286422,1098.21017575264,8825.31845425781,9923.52863001045,,,21.9800000190735,2599.017578125,3125.01656133542,3129.69681567822
2018-07-19T08:00:23Z,1531987223,202,42.9937438,42.927682,8999.47,0,5.8,240.6,716300,-196615.56,233.6,Air+FixedWing,Blue,Enemies,E-2C,Blue AWACS,us,,147.527897026424,92.8718719482422,0.485346686096617,8999.4658203125,6417.15478515625,147.527825268712,0.1455078125,5.75084724864933,0.0579886853165215,0,0.0171320104161963,5000,0.991195386096265,-0.00249955102995799,0.106788592224692,1088.22402005196,8825.46114867676,9913.68516872871,,,22.9800000190735,2582.31103515625,3271.33792662285,3276.22470902863
2018-07-19T08:00:24Z,1531987224,202,42.9921828,42.9270328,8999.58,0,5.8,240.6,716181.12,-196703.03,233.6,Air+FixedWing,Blue,Enemies,E-2C,Blue AWACS,us,,147.587469422454,92.910514831543,0.485543461393231,8999.5810546875,6442.44311523438,147.587424435697,0.115234375,5.75895732300925,0.0460339094240203,0,0.0171320104161963,5000,0.993610511381601,-0.00269555313037085,0.0830121431276663,1089.10305652618,8825.57415499512,9914.6772115213,,,23.9800000190735,2557.13793945312,3417.66428057097,3422.75757413365
2018-07-19T08:00:25Z,1531987225,202,42.9906239,42.9263845,8999.67,0,5.8,240.6,716062.38,-196790.38,233.6,Air+FixedWing,Blue,Enemies,E-2C,Blue AWACS,us,,147.41268731837,92.7956619262695,0.48496903308078,8999.666015625,6487.76708984375,147.412662834855,0.0849609375,5.77076884261392,0.0504029430572345,0,0.0171320104161963,5000,0.995846734749071,0.00871576158811748,0.0757780498093604,1086.52501912117,8825.65747321289,9912.18249233406,,,24.9800000190735,2511.89892578125,3563.79710955525,3569.09662285743
2018-07-19T08:00:26Z,1531987226,202,42.9890668,42.9257368,8999.74,0,5.8,240.6,715943.88,-196877.64,233.6,Air+FixedWing,Blue,Enemies,E-2C,Blue AWACS,us,,147.165023406083,92.6333770751953,0.484154724359328,8999.7353515625,6547.6171875,147.165007072472,0.0693359375,5.77452206846849,0.0610888282459185,0,0.0171320104161963,5000,0.992846000866127,-0.0101288721867739,0.109261330951342,1082.87720570564,8825.72546854004,9908.60267424568,,,25.9800000190735,2452.1181640625,3709.77034671188,3715.27584811442
2018-07-19T08:00:27Z,1531987227,202,42.9875097,42.9250892,8999.79,0,5.8,240.6,715825.25,-196964.88,233.6,Air+FixedWing,Blue,Enemies,E-2C,Blue AWACS,us,,147.247173576884,92.6866302490234,0.4844253824673,8999.79296875,6590.28491210938,147.247162304204,0.0576171875,5.78172649090296,0.0323416045491394,0,0.0171320104161963,5000,0.998948316437172,0.00595487442427568,0.050170601459852,1084.08650631905,8825.78197169922,9909.86847801826,,,26.9800000190735,2409.50805664062,3855.73427647107,3861.44574920527
2018-07-19T08:00:28Z,1531987228,202,42.9859575,42.9244436,8999.84,0,5.8,240.6,715707.06,-197051.86,233.6,Air+FixedWing,Blue,Enemies,E-2C,Blue AWACS,us,,146.74661443337,92.359130859375,0.482778923079866,8999.83984375,6637.4599609375,146.746606946773,0.046875,5.78516997040838,0.0709455615420395,0,0.0171320104161963,5000,0.984954821374796,0.00321822539813847,0.182021458731268,1076.72844238281,8825.82794037109,9902.55638275391,,,27.9800000190735,2362.3798828125,4001.2443814409,4007.16118252052
2018-07-19T08:00:29Z,1531987229,202,42.9843963,42.9237942,8999.87,0,5.8,240.6,715588.25,-197139.34,233.6,Air+FixedWing,Blue,Enemies,E-2C,Blue AWACS,us,,147.546355230726,92.8819046020508,0.485410182814611,8999.8701171875,6692.64306640625,147.546352124987,0.0302734375,5.78933868614428,0.0619415760058762,0,0.0171320104161963,5000,1.00433234522542,-0.00463133599679484,0.00307830220706826,1088.49634709358,8825.85762847168,9914.35397556526,,,28.9800000190735,2307.22705078125,4147.6025845823,4153.72590718221
2018-07-19T08:00:30Z,1531987230,202,42.9828458,42.9231492,8999.9,0,5.8,240.6,715470.19,-197226.22,233.6,Air+FixedWing,Blue,Enemies,E-2C,Blue AWACS,us,,146.581104430052,92.2507019042969,0.482234793960128,8999.8955078125,6730.15234375,146.581102230983,0.025390625,5.78890217692039,0.0399978058051805,0,0.0171320104161963,5000,0.995586527296323,-6.53340334709527e-05,0.0931208431153507,1074.30100879669,8825.88252816895,9900.18353696564,,,29.9800000190735,2269.7431640625,4292.96408921757,4299.29252666959
2018-07-19T08:00:31Z,1531987231,202,42.9812962,42.9225046,8999.92,0,5.8,240.6,715352.19,-197313.05,233.6,Air+FixedWing,Blue,Enemies,E-2C,Blue AWACS,us,,146.50298251934,92.1994400024414,0.481977948149025,8999.919921875,6754.50927734375,146.502980485093,0.0244140625,5.79238276056005,0.0572887485000314,0,0.0171320104161963,5000,0.995381337221563,-0.00263021909689989,0.0911992735964186,1073.1561943531,8825.90647018555,9899.06266453865,,,30.9800000190735,2245.41064453125,4438.24379735072,4444.77723463772
2018-07-19T08:00:32Z,1531987232,202,42.9797482,42.9218606,8999.94,0,5.9,240.6,715234.25,-197399.8,233.6,Air+FixedWing,Blue,Enemies,E-2C,Blue AWACS,us,,146.406341350775,92.1361618041992,0.481660142696444,8999.939453125,6753.3544921875,146.406340047998,0.01953125,5.89617847981066,0.0438612928311947,0,0.0523391626455858,5000,0.993714019866153,0.00128244253171447,0.103640887452646,1071.74083938599,8825.92562379883,9897.66646318481,,,31.9800000190735,2246.5849609375,4583.378767135,4590.11699978668
2018-07-19T08:00:33Z,1531987233,202,42.9781997,42.9212164,8999.95,0,5.9,240.5,715116.31,-197486.56,233.6,Air+FixedWing,Blue,Enemies,E-2C,Blue AWACS,us,,146.415599248459,92.1421508789062,0.48169067320425,8999.9501953125,6754.28735351562,146.415598854393,0.0107421875,5.8919698039165,0.0589956093113206,0,0.0523391626455858,5000,1.00168192325223,0.00325932129390483,0.0342871589755809,1071.87638516426,8825.93615828613,9897.81254345039,,,32.9800000190735,2245.66284179688,4728.55685768727,4735.49994597828
2018-07-19T08:00:34Z,1531987234,202,42.9766579,42.920575,8999.96,0,5.9,240.5,714998.94,-197572.95,233.6,Air+FixedWing,Blue,Enemies,E-2C,Blue AWACS,us,,145.740285467876,91.7010040283203,0.479469033784852,8999.9599609375,6775.2548828125,145.740285140693,0.009765625,5.89999926828606,0.0604187031972482,0,0.0139882274201861,5000,0.988540479294106,-0.00460709785909026,0.162423095993864,1062.0115404129,8825.94573509277,9887.95727550568,,,33.9800000190735,2224.705078125,4873.10310634607,4880.25015887453
2018-07-19T08:00:35Z,1531987235,202,42.9751105,42.9199311,8999.97,0,5.9,240.5,714881.06,-197659.66,233.6,Air+FixedWing,Blue,Enemies,E-2C,Blue AWACS,us,,146.328218758834,92.084831237793,0.481403334125718,8999.9697265625,6832.05883789062,146.328218432965,0.009765625,5.89616572399658,0.0554512415280399,0,0.0139882274201861,5000,1.00180741668675,0.00319398726043388,0.0262914387451729,1070.59738025665,8825.95531189941,9896.55269215607,,,34.9800000190735,2167.91088867188,5018.18604957704,5025.53782387321
2018-07-19T08:00:36Z,1531987236,202,42.9735708,42.9192905,8999.97,0,5.9,240.5,714763.81,-197745.94,233.6,Air+FixedWing,Blue,Enemies,E-2C,Blue AWACS,us,,145.574780114473,91.5929336547852,0.47892461918375,8999.9716796875,6905.1796875,145.574780101371,0.001953125,5.89616367100915,0.0557339231841525,0,0.0139882274201861,5000,0.995297021855864,-0,0.102853941304291,1059.60083026886,8825.95722726074,9885.5580575296,,,35.9800000190735,2094.7919921875,5162.54965199601,5170.10513284093
2018-07-19T08:00:37Z,1531987237,202,42.9720313,42.9186499,8999.98,0,5.9,240.5,714646.56,-197832.22,233.6,Air+FixedWing,Blue,Enemies,E-2C,Blue AWACS,us,,145.574780311006,91.5929336547852,0.478924672675511,8999.9794921875,6976.59924316406,145.574780101371,0.0078125,5.89999926828606,0.0466304622474158,0,0.0139882274201861,5000,0.989094220483087,-0.000890438330888754,0.149314542753307,1059.60083312988,8825.96488870605,9885.56572183594,,,36.9800000190735,2023.38024902344,5306.90145857217,5314.66062962962
2018-07-19T08:00:38Z,1531987238,202,42.9704867,42.9180071,8999.98,0,5.9,240.5,714528.94,-197918.77,233.6,Air+FixedWing,Blue,Enemies,E-2C,Blue AWACS,us,,146.034250082868,91.8927383422852,0.480436276605966,8999.9794921875,7006.71215820312,146.034250082868,0,5.89578435782098,0.0601331894525174,0,0.0139882274201861,5000,1.00089990653875,-0.00295688926425466,0.0534797438835327,1066.30010986328,8825.96488870605,9892.26499856934,,,37.9800000190735,1993.26733398438,5451.72843695308,5459.69196859934
2018-07-19T08:00:39Z,1531987239,202,42.9689478,42.9173667,8999.99,0,5.9,240.5,714411.69,-198005,233.6,Air+FixedWing,Blue,Enemies,E-2C,Blue AWACS,us,,145.547002878916,91.5744705200195,0.478833360692882,8999.990234375,7018.17492675781,145.547002482499,0.0107421875,5.89999926828606,0.0518882140077232,0,0.0139882274201861,5000,0.991489406464146,0.00654288072551425,0.123230507528618,1059.19650235176,8825.97542319336,9885.17192554512,,,38.9800000190735,1981.81530761719,5596.02239509417,5604.18953572329
2018-07-19T08:00:40Z,1531987240,202,42.9674059,42.916725,8999.99,0,5.9,240.5,714294.31,-198091.41,233.6,Air+FixedWing,Blue,Enemies,E-2C,Blue AWACS,us,,145.749547731931,91.7070236206055,0.479499710605569,8999.990234375,7015.76000976562,145.749547731931,0,5.89999926828606,0.0682807708503985,0,0.0139882274201861,5000,1.0039046726709,-0.00328355943160942,0.0137468127433496,1062.14653320313,8825.97542319336,9888.12195639649,,,39.9800000190735,1984.23022460938,5740.60110007909,5748.97225121097
2018-07-19T08:00:41Z,1531987241,202,42.965874,42.9160874,8999.99,0,5.9,240.5,714177.62,-198177.27,233.6,Air+FixedWing,Blue,Enemies,E-2C,Blue AWACS,us,,144.871684368066,91.1335906982422,0.476611638323529,8999.990234375,7007.93530273438,144.871684368066,0,5.89999926828606,0.0344223559352607,0,0.0139882274201861,5000,0.989983843609591,-0.00217288086260322,0.148455942851495,1049.39024658203,8825.97542319336,9875.36566977539,,,40.9800000190735,1992.05493164062,5884.25125140312,5892.82510278404
2018-07-19T08:00:42Z,1531987242,202,42.9643375,42.915448,8999.99,0,5.9,240.5,714060.56,-198263.38,233.6,Air+FixedWing,Blue,Enemies,E-2C,Blue AWACS,us,,145.321895697588,91.4277420043945,0.478092783243539,8999.990234375,6960.18310546875,145.321895697588,0,5.89961462972947,0.0671192501576161,0,0.0523391626455858,5000,0.998774347260058,0.00230354892954513,0.0730796002099988,1055.92266845703,8825.97542319336,9881.89809165039,,,41.9800000190735,2039.80712890625,6028.32344921374,6037.10059638014
2018-07-19T08:00:43Z,1531987243,202,42.9628037,42.9148095,9000,0,6,240.5,713943.75,-198349.33,233.6,Air+FixedWing,Blue,Enemies,E-2C,Blue AWACS,us,,145.027928168622,91.2357788085938,0.477125728760591,9000,6910.17358398438,145.027927839832,0.009765625,5.99651503479423,0.0597343956242398,0,0.0523391626455858,5000,0.995098005211422,0.00115177446477256,0.0895193218950513,1051.65499744415,8825.985,9877.63999744415,,,42.9800000190735,2089.82641601562,6172.15666164975,6181.13676781867
2018-07-19T08:00:44Z,1531987244,202,42.9612716,42.9141717,9000,0,6,240.5,713827.06,-198435.2,233.6,Air+FixedWing,Blue,Enemies,E-2C,Blue AWACS,us,,144.880945197255,91.1396484375,0.476642171157483,9000,6880.47045898438,144.880945197255,0,5.99999314935044,0.0483148713133548,0,0.0139882274201861,5000,0.994719459745744,-0.00256488506342894,0.1026477073981,1049.5244140625,8825.985,9875.5094140625,,,43.9800000190735,2119.52954101562,6315.83630734245,6325.01915559895
2018-07-19T08:00:45Z,1531987245,202,42.9597396,42.913534,9000,0,6,240.5,713710.38,-198521.05,233.6,Air+FixedWing,Blue,Enemies,E-2C,Blue AWACS,us,,144.862424632175,91.1275329589844,0.476581240561407,9000,6871.23486328125,144.862424632175,0,5.99999314935044,0.0555817035159197,0,0.0139882274201861,5000,0.997852598330469,-0.000261336133883811,0.0728378429867621,1049.25610351562,8825.985,9875.24110351562,,,44.9800000190735,2128.76513671875,6459.50020617342,6468.88577429757
2018-07-19T08:00:46Z,1531987246,202,42.9582113,42.9128978,9000,0,6,240.5,713593.94,-198606.7,233.6,Air+FixedWing,Blue,Enemies,E-2C,Blue AWACS,us,,144.549937981005,90.9235534667969,0.475553194287493,9000,6896.892578125,144.549937981005,0,5.99999314935044,0.0561530800077309,0,0.0139882274201861,5000,0.991924864696464,0.00147844463212733,0.129236540688061,1044.73422851563,8825.985,9870.71922851562,,,45.9800000190735,2103.107421875,6602.82267795661,6612.41048417146
2018-07-19T08:00:47Z,1531987247,202,42.9566802,42.9122604,9000,0,6,240.5,713477.31,-198692.52,233.6,Air+FixedWing,Blue,Enemies,E-2C,Blue AWACS,us,,144.793562637467,91.0824584960938,0.476354692269475,9000,6935.7373046875,144.793562637467,0,5.99999314935044,0.0544426478933455,0,0.0139882274201861,5000,0.993787928062651,-0.00121710849824352,0.111510651828087,1048.2587890625,8825.985,9874.2437890625,,,46.9800000190735,2064.2626953125,6746.41282418852,6756.20324620064
2018-07-19T08:00:48Z,1531987248,202,42.9551485,42.9116226,9000,0,6,240.5,713360.62,-198778.36,233.6,Air+FixedWing,Blue,Enemies,E-2C,Blue AWACS,us,,144.862424632175,91.1275329589844,0.476581240561407,9000,6951.67797851562,144.862424632175,0,5.99999314935044,0.0656143461897933,0,0.0139882274201861,5000,1.00162077452446,0.0045417638256193,0.036985990799742,1049.25610351562,8825.985,9875.24110351562,,,47.9800000190735,2048.32202148438,6890.06086798105,6900.05398748866
2018-07-19T08:00:49Z,1531987249,202,42.9536234,42.9109876,9000,0,6,240.5,713244.5,-198863.84,233.6,Air+FixedWing,Blue,Enemies,E-2C,Blue AWACS,us,,144.196373026996,90.69287109375,0.474390004973021,9000,6919.12744140625,144.196373026996,0,5.99999314935044,0.0525524156203219,0,0.0139882274201861,5000,0.990118583226597,-0.0073026509894611,0.146422185130339,1039.62969970703,8825.985,9865.61469970703,,,48.9800000190735,2080.87255859375,7033.08865856769,7043.28360034959
2018-07-19T08:00:50Z,1531987250,202,42.952095,42.9103512,9000,0,6,240.5,713128,-198949.52,233.6,Air+FixedWing,Blue,Enemies,E-2C,Blue AWACS,us,,144.609543827562,90.962646484375,0.475749290883066,9000,6896.04907226562,144.609543827562,0,5.99999314935044,0.0500016543660891,0,0.0139882274201861,5000,1.0000542052321,0.00338998936084674,0.051890923005411,1045.59600830078,8825.985,9871.58100830078,,,49.9800000190735,2103.95092773438,7176.44073964895,7186.83796130169
2018-07-19T08:00:51Z,1531987251,202,42.9505713,42.9097167,9000,0,6,240.5,713011.94,-199034.91,233.6,Air+FixedWing,Blue,Enemies,E-2C,Blue AWACS,us,,144.090467221606,90.6239700317383,0.474041586670319,9000,6847.95776367188,144.090467221606,0,5.99999314935044,0.0539802958943332,0,0.0139882274201861,5000,1.00015303659004,0.00210754682913227,0.0509506041206427,1038.10313720703,8825.985,9864.08813720703,,,50.9800000190735,2152.04223632812,7319.34588114563,7329.94475200602
2018-07-19T08:00:52Z,1531987252,202,42.9490532,42.9090845,9000,0,6,240.5,712896.31,-199120,233.6,Air+FixedWing,Blue,Enemies,E-2C,Blue AWACS,us,,143.562136073766,90.2794342041016,0.472303436045655,9000,6799.86157226562,143.562136073766,0,5.99999314935044,0.0712194049836168,0,0.0139882274201861,5000,0.988354351218352,-0.00588954039080473,0.163207755105545,1030.50434570312,8825.985,9856.48934570312,,,51.9800000190735,2200.13842773438,7461.72839612026,7472.52817872599
2018-07-19T08:00:53Z,1531987253,202,42.9475298,42.90845,9000,0,6,240.5,712780.19,-199205.39,233.6,Air+FixedWing,Blue,Enemies,E-2C,Blue AWACS,us,,144.140814701772,90.6567153930664,0.474207224271773,9000,6742.68115234375,144.140814701772,0,5.99999314935044,0.0483660709198876,0,0.0139882274201861,5000,0.99216457687397,0.00910776578894319,0.126955828451453,1038.82872314453,8825.985,9864.81372314453,,,52.9800000190735,2257.31884765625,7604.61184626945,7615.61324747505
2018-07-19T08:00:54Z,1531987254,202,42.9460028,42.9078141,9000,0,6.1,240.5,712663.94,-199290.98,233.6,Air+FixedWing,Blue,Enemies,E-2C,Blue AWACS,us,,144.361880491571,90.8008804321289,0.474934506095305,9000,6676.46801757812,144.361880491571,0,6.09998740397696,0.0617640582401859,0,0.0523391626455858,5000,1.00669158030303,-0.00732688912716568,-0.00933311456943048,1042.01762695313,8825.985,9868.00262695312,,,53.9800000190735,2323.53198242188,7747.83602231751,7759.03952291092
2018-07-19T08:00:55Z,1531987255,202,42.944489,42.9071836,9000,0,6.1,240.5,712548.56,-199375.84,233.6,Air+FixedWing,Blue,Enemies,E-2C,Blue AWACS,us,,143.2218703634,90.0574417114258,0.471183999761344,9000,6615.6650390625,143.2218703634,0,6.09998740397696,0.061071460749742,0,0.0523391626455858,5000,0.98472465599699,0.00456600196332389,0.196217051134599,1025.62520751953,8825.985,9851.61020751953,,,54.9800000190735,2384.3349609375,7889.82811131395,7901.23197273368
2018-07-19T08:00:56Z,1531987256,202,42.9429652,42.9065488,9000,0,6.1,240.5,712432.5,-199461.27,233.6,Air+FixedWing,Blue,Enemies,E-2C,Blue AWACS,us,,144.108988736878,90.6357727050781,0.47410252039242,9000,6563.92211914062,144.108988736878,0,6.09998740397696,0.0534180926764155,0,0.0139882274201861,5000,0.99887190315756,-0.00417399776249817,0.0638376175098517,1038.37003173828,8825.985,9864.35503173828,,,55.9800000190735,2436.07788085938,8032.76475740357,8044.37031248659
2018-07-19T08:00:57Z,1531987257,202,42.9414461,42.9059161,9000,0,6.1,240.5,712316.75,-199546.41,233.6,Air+FixedWing,Blue,Enemies,E-2C,Blue AWACS,us,,143.690599989667,90.3631134033203,0.472726068019151,9000,6518.689453125,143.690599989667,0,6.09998740397696,0.0480921463493418,0,0.0139882274201861,5000,0.994237384828974,0.00128244253171447,0.107203998580208,1032.34942626953,8825.985,9858.33442626953,,,56.9800000190735,2481.310546875,8175.24997143828,8187.05658318167
2018-07-19T08:00:58Z,1531987258,202,42.939927,42.9052833,9000,0,6.1,240.5,712201,-199631.56,233.6,Air+FixedWing,Blue,Enemies,E-2C,Blue AWACS,us,,143.699858782333,90.3688430786133,0.472756528415668,9000,6477.615234375,143.699858782333,0,6.09998740397696,0.0548509028270004,0,0.0139882274201861,5000,1.00185611741829,0.000694436230475896,0.0359135564422177,1032.48247070313,8825.985,9858.46747070312,,,57.9800000190735,2522.384765625,8317.74966784807,8329.75735668813
2018-07-19T08:00:59Z,1531987259,202,42.9384153,42.9046535,9000,0,6.1,240.5,712085.81,-199716.31,233.6,Air+FixedWing,Blue,Enemies,E-2C,Blue AWACS,us,,143.006023146754,89.9166946411133,0.470473886462176,9000,6443.35717773438,143.006023146754,0,6.09998740397696,0.0584618169493301,0,0.0139882274201861,5000,0.992544333142458,0.00141311059865637,0.123046319055317,1022.5361328125,8825.985,9848.5211328125,,,58.9800000190735,2556.64282226562,8459.55947369996,8471.76726615191
2018-07-19T08:01:00Z,1531987260,202,42.9369018,42.9040229,9000,0,6.1,240.5,711970.5,-199801.17,233.6,Air+FixedWing,Blue,Enemies,E-2C,Blue AWACS,us,,143.171527133158,90.0244750976562,0.471018376141667,9000,6425.548828125,143.171527133158,0,6.09998740397696,0.0580307274827586,0,0.0139882274201861,5000,0.991353642846316,-0.00486843399297407,0.134187914677196,1024.90430908203,8825.985,9850.88930908203,,,59.9800000190735,2574.451171875,8601.53608808415,8613.94421952733
2018-07-19T08:01:01Z,1531987261,202,42.9353855,42.9033911,9000,0,6.1,240.5,711854.94,-199886.16,233.6,Air+FixedWing,Blue,Enemies,E-2C,Blue AWACS,us,,143.446977662099,90.2040863037109,0.471924577698966,9000,6414.02856445312,143.446977662099,0,6.09998740397696,0.0548509028270004,0,0.0139882274201861,5000,0.99572949195934,0.0037166595282015,0.0932419680463909,1028.85177001953,8825.985,9854.83677001953,,,60.9800000190735,2585.97143554688,8743.77465035189,8756.38349041242
2018-07-19T08:01:02Z,1531987262,202,42.9338705,42.9027599,9000,0,6.1,240.5,711739.5,-199971.09,233.6,Air+FixedWing,Blue,Enemies,E-2C,Blue AWACS,us,,143.318510013536,90.1202621459961,0.47150193344543,9000,6421.763671875,143.318510013536,0,6.09998740397696,0.0557143418703805,0,0.0139882274201861,5000,1.00344869682673,0.00184621069524846,0.0210113809377547,1027.009765625,8825.985,9852.994765625,,,61.9800000190735,2578.236328125,8885.9042137956,8898.71360866872
2018-07-19T08:01:03Z,1531987263,202,42.9323642,42.9021322,9000,0,6.1,240.5,711624.75,-200055.55,233.6,Air+FixedWing,Blue,Enemies,E-2C,Blue AWACS,us,,142.477692367141,89.572135925293,0.468735737048937,9000,6446.75512695312,142.477692367141,0,6.09998740397696,0.0724012240122839,0,0.0139882274201861,5000,0.986920069073878,-0.00197687876219037,0.17567400580626,1014.99464111328,8825.985,9840.97964111328,,,62.9800000190735,2553.24487304688,9027.21512905117,9040.22392356641
2018-07-19T08:01:04Z,1531987264,202,42.9308509,42.9015016,9000,0,6.1,240.5,711509.44,-200140.39,233.6,Air+FixedWing,Blue,Enemies,E-2C,Blue AWACS,us,,143.162266572978,90.0187225341797,0.470987909930226,9000,6494.47509765625,143.162266572978,0,6.09998740397696,0.045867396817507,0,0.0139882274201861,5000,0.996332325627787,-0.00397799566208531,0.0876010982225151,1024.77172851562,8825.985,9850.75672851562,,,63.9800000190735,2505.52490234375,9169.18731008395,9182.3964373345
2018-07-19T08:01:05Z,1531987265,202,42.92934,42.900872,9000,0,6.1,240.5,711394.25,-200225.09,233.6,Air+FixedWing,Blue,Enemies,E-2C,Blue AWACS,us,,142.978248489117,89.8982620239258,0.470382510932417,9000,6547.82568359375,142.978248489117,0,6.09998740397696,0.0520805182772797,0,0.0139882274201861,5000,0.997121126811632,0.00743331905640301,0.0802200824832199,1022.13897705078,8825.985,9848.12397705078,,,64.9800000190735,2452.17431640625,9310.93052117499,9324.3396580679
2018-07-19T08:01:06Z,1531987266,202,42.927831,42.9002431,9000,0,6.1,240.5,711279.31,-200309.7,233.6,Air+FixedWing,Blue,Enemies,E-2C,Blue AWACS,us,,142.721320215799,89.7311172485352,0.46953724553289,9000,6601.85595703125,142.721320215799,0,6.09998740397696,0.0685044983921536,0,0.0139882274201861,5000,0.997824432758153,-0.00154377866559828,0.0736390676886981,1018.46876220703,8825.985,9844.45376220703,,,65.9800000190735,2398.14404296875,9452.5012675889,9466.11017076464
2018-07-19T08:01:07Z,1531987267,202,42.9263256,42.8996157,9000,0,6.2,240.5,711164.62,-200394.11,233.6,Air+FixedWing,Blue,Enemies,E-2C,Blue AWACS,us,,142.399570558736,89.5212478637695,0.46847872500141,9000,6655.86450195312,142.399570558736,0,6.20000822753505,0.050373231026889,0,0.0523391626455858,5000,0.989397215369874,-0.00473776592603216,0.151757658583034,1013.88188476563,8825.985,9839.86688476562,,,66.9800000190735,2344.13549804688,9593.74472784288,9607.55293547664
2018-07-19T08:01:08Z,1531987268,202,42.9248162,42.8989865,9000,0,6.2,240.5,711049.56,-200478.73,233.6,Air+FixedWing,Blue,Enemies,E-2C,Blue AWACS,us,,142.831262443661,89.802619934082,0.4698989432159,9000,6701.74389648438,142.831262443661,0,6.20000822753505,0.0532413122795118,0,0.0484566469995765,5000,0.998248413448958,0.00223821489607418,0.0702810834627233,1020.0384765625,8825.985,9846.0234765625,,,67.9800000190735,2298.25610351562,9735.36511815006,9749.3731621179
2018-07-19T08:01:09Z,1531987269,202,42.9233105,42.8983589,9000,0,6.2,240.5,710934.81,-200563.16,233.6,Air+FixedWing,Blue,Enemies,E-2C,Blue AWACS,us,,142.459171268527,89.560188293457,0.468674804697596,9000,6706.81396484375,142.459171268527,0,6.20000822753505,0.0586240251916169,0,0.0171320104161963,5000,0.99693616169649,-0.0027608871638418,0.0823605531041641,1014.73077392578,8825.985,9840.71577392578,,,68.9800000190735,2293.18603515625,9876.63240431971,9890.83978636636
2018-07-19T08:01:10Z,1531987270,202,42.9218077,42.8977324,9000,0,6.2,240.5,710820.25,-200647.41,233.6,Air+FixedWing,Blue,Enemies,E-2C,Blue AWACS,us,,142.206289967251,89.3954925537109,0.467842853385288,9000,6684.58032226562,142.206289967251,0,6.20000822753505,0.0640133490270626,0,0.0171320104161963,5000,0.987617842753287,0.00686955089286902,0.16813704421727,1011.1314453125,8825.985,9837.1164453125,,,69.9800000190735,2315.41967773438,10017.6393959136,10032.0457487452
2018-07-19T08:01:11Z,1531987271,202,42.9202981,42.8971031,9000,0,6.2,240.5,710705.25,-200732.06,233.6,Air+FixedWing,Blue,Enemies,E-2C,Blue AWACS,us,,142.799442099969,89.7822494506836,0.469794257829678,9000,6636.87036132812,142.799442099969,0,6.20000822753505,0.0490087364898021,0,0.0171320104161963,5000,1.00047968526171,-0.00430466582944008,0.0497418995193153,1019.58403320313,8825.985,9845.56903320312,,,70.9800000190735,2363.12963867188,10159.2834123712,10173.8896348742
2018-07-19T08:01:12Z,1531987272,202,42.9187949,42.8964764,9000,0,6.2,240.5,710590.69,-200816.34,233.6,Air+FixedWing,Blue,Enemies,E-2C,Blue AWACS,us,,142.22480623229,89.4074630737305,0.467903769834706,9000,6585.75170898438,142.22480623229,0,6.20000822753505,0.0535298513194777,0,0.0171320104161963,5000,0.995871582460128,-0.000130668066941905,0.092160160947981,1011.39477539062,8825.985,9837.37977539062,,,71.9800000190735,2414.24829101562,10300.3324215096,10315.1376740872
2018-07-19T08:01:13Z,1531987273,202,42.9172937,42.8958505,9000,0,6.2,240.5,710476.25,-200900.53,233.6,Air+FixedWing,Blue,Enemies,E-2C,Blue AWACS,us,,142.068562893062,89.3058853149414,0.467389746652865,9000,6525.80346679688,142.068562893062,0,6.20000822753505,0.071201970966243,0,0.0171320104161963,NaN,0.994150877347533,-0,0.107999503612518,1009.173828125,8825.985,9835.158828125,,,72.9800000190735,2474.19653320312,10441.1932621368,10456.19727927
2018-07-19T08:01:14Z,1531987274,202,42.9157921,42.8952244,9000,0,6.2,240.5,710361.81,-200984.72,233.6,Air+FixedWing,Blue,Enemies,E-2C,Blue AWACS,us,,142.068562893062,89.3058853149414,0.467389746652865,9000,6454.6943359375,142.068562893062,0,6.20000822753505,0.0439102566627158,0,0.0171320104161963,5000,0.995667355780064,0.00243421699648703,0.0940400974595292,1009.173828125,8825.985,9835.158828125,,,73.9800000190735,2545.3056640625,10582.0987831722,10597.3016279079
2018-07-19T08:01:15Z,1531987275,202,42.9142918,42.8945989,9000,0,6.2,240.5,710247.5,-201068.84,233.6,Air+FixedWing,Blue,Enemies,E-2C,Blue AWACS,us,,141.930839782092,89.2161865234375,0.466936652958992,9000,6384.94165039062,141.930839782092,0,6.20000822753505,0.0563021274701507,0,0.0171320104161963,5000,0.993596864811331,-0.00378199356167246,0.113099270177465,1007.2181640625,8825.985,9833.2031640625,,,74.9800000190735,2615.05834960938,10722.8792485164,10738.2807443923
2018-07-19T08:01:16Z,1531987276,202,42.9127917,42.8939733,9000,0,6.2,240.5,710133.12,-201152.97,233.6,Air+FixedWing,Blue,Enemies,E-2C,Blue AWACS,us,,141.981182732079,89.2490615844727,0.467102275656658,9000,6315.5966796875,141.981182732079,0,6.20000822753505,0.0681703875134943,0,0.0171320104161963,5000,0.994602776543702,0.00506443609338693,0.103839705303346,1007.9328125,8825.985,9833.9178125,,,75.9800000190735,2684.4033203125,10863.6488631956,10879.2489949008
2018-07-19T08:01:17Z,1531987277,202,42.9112915,42.8933477,9000,0,6.2,240.5,710018.81,-201237.11,233.6,Air+FixedWing,Blue,Enemies,E-2C,Blue AWACS,us,,141.940101562739,89.2219848632812,0.466967123185633,9000,6255.404296875,141.940101562739,0,6.20000822753505,0.05102206497736,0,0.0171320104161963,5000,0.993494751471299,-0.00249955102995799,0.114039238433239,1007.34962158203,8825.985,9833.33462158203,,,76.9800000190735,2744.595703125,11004.4338213926,11020.2326105774
2018-07-19T08:01:18Z,1531987278,202,42.9097906,42.8927218,9000,0,6.2,240.5,709904.44,-201321.27,233.6,Air+FixedWing,Blue,Enemies,E-2C,Blue AWACS,us,,141.999700841454,89.2610473632812,0.467163198173738,9000,6212.80126953125,141.999700841454,0,6.20000822753505,0.0612606458986716,0,0.0171320104161963,5000,0.998554753469054,-0.00160911269906923,0.0674611786954009,1008.19575195313,8825.985,9834.18075195312,,,77.9800000190735,2787.19873046875,11145.2779706237,11161.2755008116
2018-07-19T08:01:19Z,1531987279,202,42.9082943,42.8920977,9000,0,6.2,240.5,709790.38,-201405.17,233.6,Air+FixedWing,Blue,Enemies,E-2C,Blue AWACS,us,,141.599832963576,89.0004577636719,0.465847677397499,9000,6177.12158203125,141.599832963576,0,6.20000822753505,0.0498696928651832,0,0.0171320104161963,5000,0.991365592998575,0.0027608871638418,0.133638454120873,1002.52563476562,8825.985,9828.51063476562,,,78.9800000190735,2822.87841796875,11285.6961868461,11301.8918570152
2018-07-19T08:01:20Z,1531987280,202,42.9067953,42.8914725,9000,0,6.2,240.5,709676.12,-201489.25,233.6,Air+FixedWing,Blue,Enemies,E-2C,Blue AWACS,us,,141.852717998337,89.1651077270508,0.466679640992557,9000,6167.03881835938,141.852717998337,0,6.20000822753505,0.0672741811995552,0,0.0171320104161963,5000,0.998758980149118,-0.00417399776249817,0.0655812421838526,1006.10968017578,8825.985,9832.09468017578,,,79.9800000190735,2832.96118164062,11426.3742768889,11442.7684537394
2018-07-19T08:01:21Z,1531987281,202,42.905301,42.8908492,9000,0,6.2,240.5,709562.19,-201573.05,233.6,Air+FixedWing,Blue,Enemies,E-2C,Blue AWACS,us,,141.434331638452,88.8925933837891,0.465303196473324,9000,6194.12622070312,141.434331638452,0,6.20000822753505,0.05246969744304,0,0.0523391626455858,5000,0.995565242440032,0.0037166595282015,0.0949800657153034,1000.18350830078,8825.985,9826.16850830078,,,80.9800000190735,2805.87377929688,11566.6199731066,11583.212046501
2018-07-19T08:01:22Z,1531987282,202,42.9038076,42.8902263,9000,0,6.3,240.5,709448.38,-201656.8,233.6,Air+FixedWing,Blue,Enemies,E-2C,Blue AWACS,us,,141.305865611623,88.80908203125,0.464880557555111,9000,6238.46044921875,141.305865611623,0,6.30000282459342,0.0504548911276666,0,0.0523391626455858,5000,0.990671614555213,-0.00230354892954513,0.139527402929599,998.3673828125,8825.985,9824.3523828125,,,81.9800000190735,2761.53955078125,11706.7717333035,11723.5615706911
2018-07-19T08:01:23Z,1531987283,202,42.9023113,42.8896021,9000,0,6.3,240.5,709334.31,-201740.7,233.6,Air+FixedWing,Blue,Enemies,E-2C,Blue AWACS,us,,141.599832963576,89.0004577636719,0.465847677397499,9000,6315.0576171875,141.599832963576,0,6.30000282459342,0.0615669914727962,0,0,5000,0.999102080780717,0.000890438330888754,0.0631652098472519,1002.52563476562,8825.985,9828.51063476562,,,82.9800000190735,2684.9423828125,11847.2035375475,11864.1915340892
2018-07-19T08:01:24Z,1531987284,202,42.9008201,42.88898,9000,0,6.3,240.5,709220.62,-201824.34,233.6,Air+FixedWing,Blue,Enemies,E-2C,Blue AWACS,us,,141.140362074924,88.7013702392578,0.4643360693551,9000,6396.87475585938,141.140362074924,0,6.30000282459342,0.0476339052265313,0,0,5000,0.989693688222209,-0.000955772364359706,0.148385347136206,996.030090332031,8825.985,9822.01509033203,,,83.9800000190735,2603.12524414062,11987.1574967627,12004.3429781871
2018-07-19T08:01:25Z,1531987285,202,42.8993249,42.8883562,9000,0,6.3,240.5,709106.62,-201908.2,233.6,Air+FixedWing,Blue,Enemies,E-2C,Blue AWACS,us,,141.521711321587,88.9496459960938,0.465590665897463,9000,6464.25122070312,141.521711321587,0,6.30000282459342,0.0587894749073287,0,0,5000,0.997146228114708,0.0035859914612596,0.0808810982604661,1001.41973876953,8825.985,9827.40473876953,,,84.9800000190735,2535.74877929688,12127.4962168891,12144.8797261202
2018-07-19T08:01:26Z,1531987286,202,42.8978325,42.8877335,9000,0,6.3,240.5,708992.88,-201991.92,233.6,Air+FixedWing,Blue,Enemies,E-2C,Blue AWACS,us,,141.237005071484,88.7643814086914,0.464654014048551,9000,6527.06909179688,141.237005071484,0,6.30000282459342,0.0576139149867948,0,0,5000,0.995146231726531,-0.00391266162861436,0.0989968354300169,997.394580078125,8825.985,9823.37958007812,,,85.9800000190735,2472.93090820312,12267.5765480437,12285.1577204764
2018-07-19T08:01:27Z,1531987287,202,42.8963412,42.8871113,9000,0,6.3,240.5,708879.19,-202075.55,233.6,Air+FixedWing,Blue,Enemies,E-2C,Blue AWACS,us,,141.13110316741,88.6951446533203,0.464305608580743,9000,6600,141.13110316741,0,6.30000282459342,0.0596745703791464,0,0,5000,0.994419956362547,0.00506443609338693,0.105575354113561,995.8994140625,8825.985,9821.8844140625,,,86.9800000190735,2400,12407.5458317865,12425.3245107251
2018-07-19T08:01:28Z,1531987288,202,42.8948502,42.8864891,9000,0,6.3,240.5,708765.56,-202159.19,233.6,Air+FixedWing,Blue,Enemies,E-2C,Blue AWACS,us,,141.090023656496,88.6686859130859,0.464170461565756,9000,6672.98876953125,141.090023656496,0,6.30000282459342,0.0510318221309888,0,0,5000,0.989901195469061,-0.00352065742778865,0.146505770369479,995.319738769531,8825.985,9821.30473876953,,,87.9800000190735,2327.01123046875,12547.5012784295,12565.4774443491
2018-07-19T08:01:29Z,1531987289,202,42.8933555,42.8858654,9000,0,6.3,240.5,708651.62,-202243.02,233.6,Air+FixedWing,Blue,Enemies,E-2C,Blue AWACS,us,,141.452848848178,88.9046249389648,0.46536411603066,9000,6738.11767578125,141.452848848178,0,6.30000282459342,0.060266273389727,0,0,5000,0.999205834404143,-0.000392004200825716,0.0622254214638885,1000.44542236328,8825.985,9826.43042236328,,,88.9800000190735,2261.88232421875,12687.7949680523,12705.9690982377
2018-07-19T08:01:30Z,1531987290,202,42.8918662,42.8852439,9000,0,6.3,240.5,708538.06,-202326.56,233.6,Air+FixedWing,Blue,Enemies,E-2C,Blue AWACS,us,,140.984118710285,88.5997619628906,0.463822046089657,9000,6795.73120117188,140.984118710285,0,6.30000282459342,0.0587894749073287,0,0,5000,0.998331661694565,-0.000326670167354763,0.0701435772871322,993.826086425781,8825.985,9819.81108642578,,,89.9800000190735,2204.26879882812,12827.59269277,12845.9640873793
2018-07-19T08:01:31Z,1531987291,202,42.890381,42.884624,9000,0,6.3,240.5,708424.81,-202409.88,233.6,Air+FixedWing,Blue,Enemies,E-2C,Blue AWACS,us,,140.59351036321,88.3454284667969,0.462536988138327,9000,6837.8701171875,140.59351036321,0,6.30000282459342,0.0593792112282981,0,0,5000,0.98938242735193,0.0028915552307837,0.151204712286296,988.3267578125,8825.985,9814.3117578125,,,90.9800000190735,2162.1298828125,12967.0127001264,12985.5808261741
2018-07-19T08:01:32Z,1531987292,202,42.8888909,42.8840021,9000,0,6.3,240.5,708311.25,-202493.45,233.6,Air+FixedWing,Blue,Enemies,E-2C,Blue AWACS,us,,141.002639637581,88.6118469238281,0.463882977877385,9000,6877.81591796875,141.002639637581,0,6.30000282459342,0.0678843009953523,0,0,5000,1.00234712065001,-0.00700021895981092,0.0337720120773403,994.087219238281,8825.985,9820.07221923828,,,91.9800000190735,2122.18408203125,13106.8900540226,13125.6555568567
2018-07-19T08:01:33Z,1531987293,202,42.8874097,42.8833839,9000,0,6.3,240.5,708198.25,-202576.53,233.6,Air+FixedWing,Blue,Enemies,E-2C,Blue AWACS,us,,140.253252559488,88.1240463256836,0.461417577865994,9000,6909.57788085938,140.253252559488,0,6.30000282459342,0.0459408692054785,0,0,5000,0.984596549310334,0.00834799552499634,0.194554644935968,983.548742675781,8825.985,9809.53374267578,,,92.9800000190735,2090.42211914062,13245.9338082395,13264.8955115929
2018-07-19T08:01:34Z,1531987294,202,42.8859187,42.8827615,9000,0,6.3,240.5,708084.62,-202660.17,233.6,Air+FixedWing,Blue,Enemies,E-2C,Blue AWACS,us,,141.090023656496,88.6686859130859,0.464170461565756,9000,6958.33557128906,141.090023656496,0,6.30000282459342,0.0551062412666245,0,0,5000,0.999620848897848,-0.00552177432768359,0.0584662679304349,995.319738769531,8825.985,9821.30473876953,,,93.9800000190735,2041.66442871094,13385.8985842874,13405.0577877858
2018-07-19T08:01:35Z,1531987295,202,42.8844338,42.8821417,9000,0,6.3,240.5,707971.38,-202743.47,233.6,Air+FixedWing,Blue,Enemies,E-2C,Blue AWACS,us,,140.584251908831,88.3391799926758,0.462506528854736,9000,7025.15551757812,140.584251908831,0,6.30000282459342,0.0536438351393562,0,0,5000,0.989486180975356,0.00160911269906923,0.150264923902933,988.196594238281,8825.985,9814.18159423828,,,94.9800000190735,1974.84448242188,13525.2934653438,13544.6493648259
2018-07-19T08:01:36Z,1531987296,202,42.8829444,42.8815199,9000,0,6.3,240.5,707857.81,-202827.02,233.6,Air+FixedWing,Blue,Enemies,E-2C,Blue AWACS,us,,140.984118710285,88.5997619628906,0.463822046089657,9000,7111.74523925781,140.984118710285,0,6.30000282459342,0.0553996980847743,0,0,5000,1.00413960979133,0.00306331919349198,0.0175358516745163,993.826086425781,8825.985,9819.81108642578,,,95.9800000190735,1888.25476074219,13665.119365202,13684.6725688649
2018-07-19T08:01:37Z,1531987297,202,42.8814643,42.880902,9000,0,6.3,240.5,707745,-202910.05,233.6,Air+FixedWing,Blue,Enemies,E-2C,Blue AWACS,us,,140.074439612702,88.0076599121094,0.460829303189354,9000,7186.68737792969,140.074439612702,0,6.30000282459342,0.0565767954514724,0,0,5000,0.992316206350943,-0.00115177446477256,0.124630879666475,981.042431640625,8825.985,9807.02743164062,,,96.9800000190735,1813.31262207031,13804.0722290757,13823.8215050049
2018-07-19T08:01:38Z,1531987298,202,42.879983,42.8802836,9000,0,6.3,240.5,707632.06,-202993.16,233.6,Air+FixedWing,Blue,Enemies,E-2C,Blue AWACS,us,,140.221421755524,88.1032867431641,0.461312858066642,9000,7231.69970703125,140.221421755524,0,6.30000282459342,0.0551062412666245,0,0,5000,0.984552405588165,-0.00184621069524846,0.194954493692305,983.102355957031,8825.985,9809.08735595703,,,97.9800000190735,1768.30029296875,13943.1373032915,13963.0828098234
2018-07-19T08:01:39Z,1531987299,202,42.878493,42.8796615,9000,0,6.4,240.5,707518.44,-203076.75,233.6,Air+FixedWing,Blue,Enemies,E-2C,Blue AWACS,us,,141.062240390767,88.6503829956055,0.464079057716334,9000,7225.42529296875,141.062240390767,0,6.38571127103185,0.0660367589995448,0,0.0504352774299245,5000,1.00630502704678,-0.0021971190003078,-0.00055431064461095,994.927783203125,8825.985,9820.91278320312,,,98.9800000190735,1774.57470703125,14083.0296914196,14103.1725959523
2018-07-19T08:01:40Z,1531987300,202,42.8770146,42.8790441,9000,0,6.4,240.5,707405.69,-203159.67,233.6,Air+FixedWing,Blue,Enemies,E-2C,Blue AWACS,us,,139.959279269063,87.932731628418,0.460450438486694,9000,7203.12854003906,139.959279269063,0,6.39999669631503,0.0471078152967489,0,0.0504352774299245,5000,0.988123675228693,0.00423933179596913,0.161787404127715,979.429992675781,8825.985,9805.41499267578,,,99.9800000190735,1796.87145996094,14221.8358022596,14242.1745719797
2018-07-19T08:01:41Z,1531987301,202,42.8755309,42.8784246,9000,0,6.4,240.5,707292.56,-203242.92,233.6,Air+FixedWing,Blue,Enemies,E-2C,Blue AWACS,us,,140.455787082626,88.2559356689453,0.462083893886443,9000,7178.48547363281,140.455787082626,0,6.39999669631503,0.0605743802129279,0,0.00989117029631303,5000,0.994655788694193,-6.53340334709527e-05,0.103552255190865,986.39140625,8825.985,9812.37640625,,,100.980000019073,1821.51452636719,14361.1365805988,14381.6719135166
2018-07-19T08:01:42Z,1531987302,202,42.8740478,42.8778053,9000,0,6.4,240.5,707179.5,-203326.12,233.6,Air+FixedWing,Blue,Enemies,E-2C,Blue AWACS,us,,140.377665303337,88.2050857543945,0.461826881934703,9000,7191.67517089844,140.377665303337,0,6.39999669631503,0.0568829351441505,0,0.00989117029631303,5000,0.999201134184823,-0.00167444673254019,0.0630295556060706,985.294445800781,8825.985,9811.27944580078,,,101.980000019073,1808.32482910156,14500.3894991586,14521.1213277406
2018-07-19T08:01:43Z,1531987303,202,42.8725701,42.8771881,9000,0,6.4,240.5,707066.81,-203409.03,233.6,Air+FixedWing,Blue,Enemies,E-2C,Blue AWACS,us,,139.899674571861,87.8938598632812,0.460254345672369,9000,7230.09790039062,139.899674571861,0,6.39999669631503,0.0519977781204537,0,0.00989117029631303,5000,0.987657259299441,-0.000825104297417801,0.165945599059562,978.595947265625,8825.985,9804.58094726562,,,102.980000019073,1769.90209960938,14639.1360007682,14660.0636104249
2018-07-19T08:01:44Z,1531987304,202,42.8710871,42.8765688,9000,0,6.4,240.5,706953.69,-203492.25,233.6,Air+FixedWing,Blue,Enemies,E-2C,Blue AWACS,us,,140.437267050319,88.2438049316406,0.462022965043131,9000,7276.80529785156,140.437267050319,0,6.39999669631503,0.0571784163192053,0,0.00989117029631303,5000,0.999095740573186,-0.000392004200825716,0.0639691615549068,986.131298828125,8825.985,9812.11629882812,,,103.980000019073,1723.19470214844,14778.3795399059,14799.5036319916
2018-07-19T08:01:45Z,1531987305,202,42.8696087,42.8759513,9000,0,6.4,240.5,706840.94,-203575.19,233.6,Air+FixedWing,Blue,Enemies,E-2C,Blue AWACS,us,,139.968537201222,87.9390106201172,0.460480896052241,9000,7317.77355957031,139.968537201222,0,6.39999669631503,0.0626584620287883,0,0.00989117029631303,5000,0.992879807942596,6.53340334709527e-05,0.119385492645248,979.5595703125,8825.985,9805.5445703125,,,104.980000019073,1682.22644042969,14917.1921294343,14938.5120958491
2018-07-19T08:01:46Z,1531987306,202,42.8681294,42.8753335,9000,0,6.4,240.5,706728.12,-203658.17,233.6,Air+FixedWing,Blue,Enemies,E-2C,Blue AWACS,us,,140.046658833371,87.9896240234375,0.460737907519905,9000,7349.26916503906,140.046658833371,0,6.39999669631503,0.0709042678520138,0,0.00989117029631303,5000,0.993662404706758,0.00128244253171447,0.112408479866893,980.653332519531,8825.985,9806.63833251953,,,105.980000019073,1650.73083496094,15056.0971759068,15077.6131471136
2018-07-19T08:01:47Z,1531987307,202,42.8666503,42.8747156,9000,0,6.4,240.5,706615.31,-203741.17,233.6,Air+FixedWing,Blue,Enemies,E-2C,Blue AWACS,us,,140.055917962255,87.9954986572266,0.460768369022543,9000,7388.57116699219,140.055917962255,0,6.39999669631503,0.0482710204470918,0,0.00989117029631303,5000,0.997891569362477,0.00352065742778865,0.074704598128607,980.7830078125,8825.985,9806.7680078125,,,106.980000019073,1611.42883300781,15194.9848223279,15216.6967737749
2018-07-19T08:01:48Z,1531987308,202,42.8651745,42.8740991,9000,0,6.4,240.5,706502.81,-203823.98,233.6,Air+FixedWing,Blue,Enemies,E-2C,Blue AWACS,us,,139.693092729204,87.7594833374023,0.459574714421541,9000,7429.2587890625,139.693092729204,0,6.39999669631503,0.0485626353805413,0,0.00989117029631303,5000,0.992518785624981,-0.00628154459163044,0.122604081628259,975.7080078125,8825.985,9801.6930078125,,,107.980000019073,1570.7412109375,15333.5711068789,15355.4786133224
2018-07-19T08:01:49Z,1531987309,202,42.8636981,42.8734824,9000,0,6.4,240.5,706390.19,-203906.81,233.6,Air+FixedWing,Blue,Enemies,E-2C,Blue AWACS,us,,139.803036147344,87.8310241699219,0.459936416020433,9000,7506.38403320312,139.803036147344,0,6.39999669631503,0.0557042976011897,0,0.00989117029631303,5000,0.992669020719322,0.00263021909689989,0.12126470454292,977.244445800781,8825.985,9803.22944580078,,,108.980000019073,1493.61596679688,15472.2090103235,15494.3121446019
2018-07-19T08:01:50Z,1531987310,202,42.8622208,42.8728652,9000,0,6.4,240.5,706277.5,-203989.72,233.6,Air+FixedWing,Blue,Enemies,E-2C,Blue AWACS,us,,139.899674571861,87.8938598632812,0.460254345672369,9000,7556.11755371094,139.899674571861,0,6.39999669631503,0.0681453542087165,0,0.00989117029631303,5000,0.997996962974114,0.00223821489607418,0.0737649921797708,978.595947265625,8825.985,9804.58094726562,,,109.980000019073,1443.88244628906,15610.940572934,15633.2394672074
2018-07-19T08:01:51Z,1531987311,202,42.8607468,42.8722494,9000,0,6.4,240.5,706165.12,-204072.42,233.6,Air+FixedWing,Blue,Enemies,E-2C,Blue AWACS,us,,139.527586913003,87.6520538330078,0.459030218722221,9000,7590.21032714844,139.527586913003,0,6.39999669631503,0.0540549684609547,0,0.00989117029631303,5000,0.988650643286876,-0.00217288086260322,0.157089374383534,973.397375488281,8825.985,9799.38237548828,,,110.980000019073,1409.78967285156,15749.3558106383,15771.8500185492
2018-07-19T08:01:52Z,1531987312,202,42.8592685,42.8716316,9000,0,6.4,240.5,706052.38,-204155.38,233.6,Air+FixedWing,Blue,Enemies,E-2C,Blue AWACS,us,,139.977796265214,87.9448928833008,0.460511357341388,9000,7622.42395019531,139.977796265214,0,6.39999669631503,0.0497323661251691,0,0.00989117029631303,5000,0.999201134184823,-0.00167444673254019,0.0630295556060706,979.689172363281,8825.985,9805.67417236328,,,111.980000019073,1377.57604980469,15888.1921072017,15910.8822228934
2018-07-19T08:01:53Z,1531987313,202,42.8577956,42.8710162,9000,0,6.4,240.5,705940,-204238.03,233.6,Air+FixedWing,Blue,Enemies,E-2C,Blue AWACS,us,,139.499807487546,87.6339416503906,0.458938827506868,9000,7654.95556640625,139.499807487546,0,6.39999669631503,0.0672404496377831,0,0.00989117029631303,5000,0.992563627107686,0.00391266162861436,0.122204310491757,973.009814453125,8825.985,9798.99481445312,,,112.980000019073,1345.04443359375,16026.5129087259,16049.3982047994
2018-07-19T08:01:54Z,1531987314,202,42.8563211,42.8704001,9000,0,6.4,240.5,705827.56,-204320.78,233.6,Air+FixedWing,Blue,Enemies,E-2C,Blue AWACS,us,,139.605708716549,87.7028274536133,0.459287230753764,9000,7699.17504882812,139.605708716549,0,6.39999669631503,0.0543501699910067,0,0.00989117029631303,5000,0.992097211178434,-0.00115177446477256,0.126362505423604,974.4876953125,8825.985,9800.4726953125,,,113.980000019073,1300.82495117188,16164.9886921226,16188.0693872683
2018-07-19T08:01:55Z,1531987315,202,42.8548451,42.8697833,9000,0,6.4,240.5,705715,-204403.61,233.6,Air+FixedWing,Blue,Enemies,E-2C,Blue AWACS,us,,139.752691198651,87.7984008789062,0.459770786747245,9000,7722.26550292969,139.752691198651,0,6.39999669631503,0.053465556060262,0,0.00989117029631303,5000,0.995754566293265,-0.00269555313037085,0.0937564245660008,976.540734863281,8825.985,9802.52573486328,,,114.980000019073,1277.73449707031,16303.6064532152,16326.8827477733
2018-07-19T08:01:56Z,1531987316,202,42.8533711,42.8691673,9000,0,6.4,240.5,705602.56,-204486.31,233.6,Air+FixedWing,Blue,Enemies,E-2C,Blue AWACS,us,,139.57792909703,87.6847305297852,0.459195838899967,9000,7723.18188476562,139.57792909703,0,6.39999669631503,0.0604505992943853,0,0.00989117029631303,5000,0.99444500147092,0.00249955102995799,0.105431467088537,974.099914550781,8825.985,9800.08491455078,,,115.980000019073,1276.81811523438,16442.0453220597,16465.5169636005
2018-07-19T08:01:57Z,1531987317,202,42.8518978,42.8685515,9000,0,6.4,240.5,705490.19,-204569,233.6,Air+FixedWing,Blue,Enemies,E-2C,Blue AWACS,us,,139.518325969207,87.6461486816406,0.458999751248726,9000,7717.14001464844,139.518325969207,0,6.39999669631503,0.0598526551949392,0,0.00989117029631303,5000,0.994550395082556,0.00121710849824352,0.104491861139701,973.2681640625,8825.985,9799.2531640625,,,116.980000019073,1282.85998535156,16580.4143028466,16604.0811927537
2018-07-19T08:01:58Z,1531987318,202,42.8504251,42.867936,9000,0,6.4,240.5,705377.88,-204651.66,233.6,Air+FixedWing,Blue,Enemies,E-2C,Blue AWACS,us,,139.449465113038,87.6012420654297,0.458773206702461,9000,7704.14697265625,139.449465113038,0,6.39999669631503,0.0473981294870851,0,0.00989117029631303,5000,0.99930652779646,-0.00295688926425466,0.0620899496572344,972.307666015625,8825.985,9798.29266601562,,,117.980000019073,1295.85302734375,16718.7323788522,16742.5944452948
2018-07-19T08:01:59Z,1531987319,202,42.8489578,42.8673227,9000,0,6.4,240.5,705265.94,-204734,233.6,Air+FixedWing,Blue,Enemies,E-2C,Blue AWACS,us,,138.962214541625,87.2843246459961,0.457170206598202,9000,7667.46740722656,138.962214541625,0,6.39999669631503,0.0613500365809547,0,0.00989117029631303,5000,0.983217307420448,-0.000498434130063038,0.20552869269552,965.524853515625,8825.985,9791.50985351562,,,118.980000019073,1332.53259277344,16856.5537704732,16880.6103125947
2018-07-19T08:02:00Z,1531987320,202,42.8474805,42.8667052,9000,0,6.4,240.5,705153.25,-204816.89,233.6,Air+FixedWing,Blue,Enemies,E-2C,Blue AWACS,us,,139.890415572836,87.8879852294922,0.460223884596952,9000,7609.37768554688,139.890415572836,0,6.39999669631503,0.0650602998801965,0,0.0197823405926261,5000,1.00666607950883,0.00414975962479358,-0.00352198319447307,978.466418457031,8825.985,9804.45141845703,,,119.980000019073,1390.62231445312,16995.302385459,17019.5547116372
2018-07-19T08:02:01Z,1531987321,202,42.8460151,42.8660927,9000,0,6.5,240.5,705041.5,-204899.14,233.6,Air+FixedWing,Blue,Enemies,E-2C,Blue AWACS,us,,138.755630516387,87.1501846313477,0.456490568166924,9000,7543.19665527344,138.755630516387,0,6.49999046451537,0.050035489767593,0,0.0513960362511687,5000,0.983178228276031,-0.00434576172520645,0.204426052697219,962.65625,8825.985,9788.64125,,,120.980000019073,1456.80334472656,17132.9482582293,17157.394812417
2018-07-19T08:02:02Z,1531987322,202,42.8445406,42.8654762,9000,0,6.5,240.5,704929,-204981.89,233.6,Air+FixedWing,Blue,Enemies,E-2C,Blue AWACS,us,,139.656050710308,87.735481262207,0.459452850305547,9000,7477.99975585938,139.656050710308,0,6.49999046451537,0.0607620614726448,0,0.0395646845203054,5000,1.00439342212326,-0.000784008401651432,0.0182223622543188,975.190625,8825.985,9801.175625,,,121.980000019073,1522.00024414062,17271.4469137626,17296.0888992969
2018-07-19T08:02:03Z,1531987323,202,42.8430765,42.8648641,9000,0,6.5,240.5,704817.25,-205064.08,233.6,Air+FixedWing,Blue,Enemies,E-2C,Blue AWACS,us,,138.718591602748,87.1260147094727,0.456368714266883,9000,7440.49877929688,138.718591602748,0,6.49999046451537,0.0393238006391822,0,0.0139882274201861,5000,0.981634223348183,0.00341422749855133,0.217977633592388,962.1423828125,8825.985,9788.1273828125,,,122.980000019073,1559.50122070312,17408.9778164349,17433.8138677479
2018-07-19T08:02:04Z,1531987324,202,42.8416008,42.8642471,9000,0,6.5,240.4,704704.69,-205146.91,233.6,Air+FixedWing,Blue,Enemies,E-2C,Blue AWACS,us,,139.752691198651,87.7984008789062,0.459770786747245,9000,7371.49853515625,139.752691198651,0,6.49999046451537,0.070282501139793,0,0.0139882274201861,5000,1.00428638885014,0.000498434130063038,0.0191617828694616,976.540734863281,8825.985,9802.52573486328,,,123.980000019073,1628.50146484375,17547.5993381523,17572.6309941843
