ISOTime,UnixTime,Id,Longitude,Latitude,Altitude,Roll,Pitch,Yaw,U,V,Heading,Type,Color,Coalition,Name,Group,Country,Pilot,TAS,CAS,M,ASL,AGL,GS,VS,AOA,AOS,RRT,TRT,TRD,G,LatG,LonG,Ek,Ep,Em,FFW,FFV,RelativeTime,Elev,GroundDistance,AirDistance
2018-07-19T09:01:43Z,1531990903,2D00B,40.6317084,43.4643423,2466.38,13.8,-4.1,309.9,517922.78,-157359.7,304.6,Weapon+Missile,Blue,Enemies,R-77,,cn,,194.756649764765,174.2314453125,0.588701783120464,2466.37841796875,381.921875,NaN,NaN,NaN,NaN,NaN,NaN,NaN,NaN,NaN,NaN,NaN,2418.69099125732,NaN,,,0.160000085830688,2084.45654296875,NaN,NaN
2018-07-19T09:01:44Z,1531990904,2D00B,40.6297207,43.4655108,2434.52,11,-4.9,310.8,517749.97,-157244.7,305.5,Weapon+Missile,Blue,Enemies,R-77,,cn,,210.010507570653,188.445709228516,0.634569436742337,2434.51538085938,388.5380859375,207.579286433522,-31.863037109375,3.48864014848934,NaN,2.86152141315518,8.85699662593601,2391.72347371177,2.74582052230835,2.74582052230835,2.74582052230835,2205.22066450417,2387.44402597046,4592.66469047463,,,1.16000008583069,2045.97729492188,206.668434945392,209.188720474605
2018-07-19T09:01:45Z,1531990905,2D00B,40.6268855,43.4674335,2403.13,11.7,-0.3,315.9,517500.84,-157052.23,310.6,Weapon+Missile,Blue,Enemies,R-77,,cn,,316.374430151482,287.761077880859,0.955602212723406,2403.1259765625,408.796875,314.813413550888,-31.389404296875,0.91482433345855,NaN,1.86153732243571,5.13394840190687,2142.67811158421,6.14658546447754,6.14658546447754,6.14658546447754,5004.63900268376,2356.66153580566,7361.30053848942,,,2.16000008583069,1994.3291015625,520.166134873148,524.372254283657
2018-07-19T09:01:46Z,1531990906,2D00B,40.6232184,43.4703526,2414.03,10.7,1.3,318,517174.22,-156755.22,312.7,Weapon+Missile,Blue,Enemies,R-77,,cn,,441.611858104358,402.375671386719,1.33405235485823,2414.0283203125,503.308837890625,441.477261157515,10.90234375,0.270107300851761,NaN,2.72305981830068,2.51561758169729,5000,0.81456458568573,0.81456458568573,0.81456458568573,9751.05166091919,2367.35308273926,12118.4047436584,,,3.16000008583069,1910.71948242188,959.899416590556,964.406672166187
2018-07-19T09:01:47Z,1531990907,2D00B,40.6184178,43.4740846,2416.06,7.8,-0.6,315.7,516747.59,-156376.33,310.4,Weapon+Missile,Blue,Enemies,R-77,,cn,,570.588401825987,513.17822265625,1.72371553119239,2416.06005859375,591.510986328125,570.584784530652,2.03173828125,0.0322364335581513,NaN,2.47695444212678,2.26036700911156,5000,2.54245471954346,2.54245471954346,2.54245471954346,16278.5562149167,2369.34553736084,18647.9017522775,,,4.16000008583069,1824.54907226562,1528.23129684967,1532.95737822049
2018-07-19T09:01:48Z,1531990908,2D00B,40.6122778,43.478499,2402.68,6.3,-1.3,313.9,516205.66,-155931.56,308.6,Weapon+Missile,Blue,Enemies,R-77,,cn,,701.207346571021,624.906494140625,2.11797057489899,2402.67993164062,787.877685546875,701.079678130732,-13.380126953125,0.105705875753065,NaN,1.3384438697557,1.88756012973005,5000,1.31052422523499,1.31052422523499,1.31052422523499,24584.5871442586,2356.22411516235,26940.811259421,,,5.16000008583069,1614.80224609375,2226.433745163,2231.55172170959
2018-07-19T09:01:49Z,1531990909,2D00B,40.6048747,43.4836379,2379.02,4.9,-1.9,313.7,515554.25,-155415.66,308.4,Weapon+Missile,Blue,Enemies,R-77,,cn,,831.293530162197,737.181579589844,2.51018421441178,2379.02465820312,870.93017578125,830.956894988016,-23.6552734375,0.0519007183488994,NaN,1.26156326045804,0.611186671273897,5000,0.516669034957886,0.516669034957886,0.516669034957886,34552.4466644764,2333.02621643677,36885.4728809132,,,6.16000008583069,1508.09448242188,3053.97569560176,3059.74177440071
2018-07-19T09:01:50Z,1531990910,2D00B,40.5964997,43.4894463,2347.01,4.1,-2,313.7,514817.44,-154832.53,308.4,Weapon+Missile,Blue,Enemies,R-77,,cn,,940.187308954221,832.335876464844,2.83792048954553,2347.01293945312,886.731201171875,939.642179652047,-32.01171875,0.0664590120556671,NaN,0.769243225083516,0.0989117513214033,5000,1.01254487037659,1.01254487037659,1.01254487037659,44197.608795929,2301.6334442688,46499.2422401978,,,7.16000008583069,1460.28173828125,3989.71886448633,3996.37882103326
2018-07-19T09:01:51Z,1531990911,2D00B,40.5883216,43.4951164,2315.91,3.4,-1.9,313.6,514098.12,-154263.2,308.4,Weapon+Missile,Blue,Enemies,R-77,,cn,,917.884891180373,814.207275390625,2.76957733144722,2315.9052734375,1159.29272460938,917.357611061393,-31.107666015625,0.0599273543670316,NaN,0.569255286185543,0.0395646845203054,5000,1.02704739570618,1.02704739570618,1.02704739570618,42125.6336728603,2271.12724497559,44396.7609178359,,,8.16000008583069,1156.61254882812,4903.29003044794,4910.81320396449
2018-07-19T09:01:52Z,1531990912,2D00B,40.5807717,43.5003497,2287.41,2.9,-1.9,313.6,513434.16,-153737.73,308.4,Weapon+Missile,Blue,Enemies,R-77,,cn,,847.221245110329,754.036376953125,2.5554956193766,2287.41088867188,791.10693359375,846.741937194046,-28.494384765625,0.055246064560076,NaN,0.47691112860697,0,5000,1.02095675468445,1.02095675468445,1.02095675468445,35889.1919083148,2243.1837991394,38132.3757074542,,,9.16000008583069,1496.30395507812,5746.54292202891,5754.85151399485
2018-07-19T09:01:53Z,1531990913,2D00B,40.573843,43.5051511,2261.44,2.4,-1.9,313.6,512824.94,-153255.58,308.4,Weapon+Missile,Blue,Enemies,R-77,,cn,,777.365075124247,694.470397949219,2.34406405505788,2261.44311523438,267.80029296875,776.931229109517,-25.9677734375,0.0503269795735164,NaN,0.538492114163805,0,5000,1.01390087604523,1.01390087604523,1.01390087604523,30214.8230011463,2217.71811260132,32432.5411137476,,,10.1600000858307,1993.64282226562,6520.28045498263,6529.30044028883
2018-07-19T09:01:54Z,1531990914,2D00B,40.5674289,43.5095948,2237.54,2.1,-1.9,313.6,512261.06,-152809.31,308.4,Weapon+Missile,Blue,Enemies,R-77,,cn,,719.499550042035,645.201293945312,2.1689613620738,2237.53540039062,125.03369140625,719.102234513035,-23.90771484375,0.0509870398032306,NaN,0.199987938897973,0,5000,1.0114643573761,1.0114643573761,1.0114643573761,25883.9801255345,2194.27265342407,28078.2527789586,,,11.1600000858307,2112.50170898438,7236.43857860158,7246.10995133326
2018-07-19T09:01:55Z,1531990915,2D00B,40.561498,43.513703,2215.55,1.7,-1.9,313.6,511739.75,-152396.73,308.4,Weapon+Missile,Blue,Enemies,R-77,,cn,,665.184906130551,598.92919921875,2.00470492898059,2215.54614257812,-264.219482421875,664.821353361011,-21.9892578125,0.0519612522999779,NaN,0.307686361730734,0,5000,1.0069328546524,1.0069328546524,1.0069328546524,22123.5479671955,2172.70855791138,24296.2565251069,,,12.1600000858307,2479.765625,7898.55943802741,7908.82685761673
2018-07-19T09:01:56Z,1531990916,2D00B,40.5559862,43.5175201,2195.19,1.5,-1.9,313.6,511255.31,-152013.36,308.4,Weapon+Missile,Blue,Enemies,R-77,,cn,,618.11845720645,558.834289550781,1.8624088727018,2195.19067382812,-368.2294921875,617.78319986161,-20.35546875,0.0554037919048631,NaN,0.24616001768726,0,5000,1.00588572025299,1.00588572025299,1.00588572025299,19103.5213569641,2152.74666214966,21256.2680191138,,,13.1600000858307,2563.42016601562,8513.81425649732,8524.63093077619
2018-07-19T09:01:57Z,1531990917,2D00B,40.5508847,43.5210522,2176.43,1.2,-1.9,313.6,510807,-151658.56,308.4,Weapon+Missile,Blue,Enemies,R-77,,cn,,572.028865560674,519.479370117188,1.72315658914701,2176.42626953125,-362.044677734375,571.721016026187,-18.764404296875,0.0536867048122898,NaN,0.184579032130425,0,5000,1.00245773792267,1.00245773792267,1.00245773792267,16360.8511517316,2134.34506760986,18495.1962193415,,,14.1600000858307,2538.47094726562,9083.18510642914,9094.50591966603
2018-07-19T09:01:58Z,1531990918,2D00B,40.5461303,43.5243436,2158.98,1,-1.9,313.6,510389.25,-151327.97,308.4,Weapon+Missile,Blue,Enemies,R-77,,cn,,533.021107656546,486.102783203125,1.6053196832903,2158.98461914062,-68.904296875,532.735666197658,-17.441650390625,0.0595552432644067,NaN,0.169224766876236,0,5000,1.00270891189575,1.00270891189575,1.00270891189575,14205.5750603706,2117.24065152954,16322.8157119001,,,15.1600000858307,2227.88891601562,9613.77274470274,9625.56038519655
2018-07-19T09:01:59Z,1531990919,2D00B,40.5417132,43.527401,2142.83,0.9,-1.9,313.6,510001.16,-151020.83,308.4,Weapon+Missile,Blue,Enemies,R-77,,cn,,495.189986836033,453.551116943359,1.49109717069271,2142.8291015625,-106.915283203125,494.926380701669,-16.155517578125,0.0620318867122106,NaN,0.107698422832761,0,5000,1.00104737281799,1.00104737281799,1.00104737281799,12260.6561531335,2101.39750088379,14362.0536540173,,,16.1600000858307,2249.74438476562,10106.6673555594,10118.8858184828
2018-07-19T09:02:00Z,1531990920,2D00B,40.5376186,43.5302348,2127.89,0.7,-1.9,313.6,509641.44,-150736.16,308.4,Weapon+Missile,Blue,Enemies,R-77,,cn,,458.975855010541,422.116363525391,1.3818063350685,2127.88989257812,-4.377197265625,458.732662361836,-14.939208984375,0.0627532922587248,NaN,0.199987938897973,0,5000,0.999540448188782,0.999540448188782,0.999540448188782,10532.9417741328,2086.74714150513,12619.688915638,,,17.1600000858307,2132.26708984375,10563.5333407002,10576.1488635174
2018-07-19T09:02:01Z,1531990921,2D00B,40.5338285,43.5328574,2114.09,0.6,-1.9,313.6,509308.53,-150472.69,308.4,Weapon+Missile,Blue,Enemies,R-77,,cn,,424.773958914723,392.024169921875,1.27862834027995,2114.08544921875,39.71875,424.549588994766,-13.804443359375,0.0650466079626887,NaN,0.199987938897973,0,5000,1.0001859664917,1.0001859664917,1.0001859664917,9021.64580860436,2073.20960705811,11094.8554156625,,,18.1600000858307,2074.36669921875,10986.377310641,10999.3586457519
2018-07-19T09:02:02Z,1531990922,2D00B,40.5302957,43.5353017,2101.25,0.5,-1.9,313.6,508998.25,-150227.12,308.4,Weapon+Missile,Blue,Enemies,R-77,,cn,,395.904361386499,366.162841796875,1.19154597460054,2101.24536132812,-153.894775390625,395.696089831341,-12.840087890625,0.0664599945111693,NaN,0.199987938897973,0,5000,0.998963594436646,0.998963594436646,0.998963594436646,7837.01316824257,2060.61778226685,9897.63095050942,,,19.1600000858307,2255.14013671875,11380.4913472714,11393.8119561013
2018-07-19T09:02:03Z,1531990923,2D00B,40.5270365,43.5375565,2089.42,0.4,-1.9,313.6,508711.97,-150000.58,308.4,Weapon+Missile,Blue,Enemies,R-77,,cn,,365.267529788242,337.981689453125,1.09918519303227,2089.41625976562,-178.1015625,365.07593822906,-11.8291015625,0.0664789401596681,NaN,0.199987938897973,0,5000,0.997860789299011,0.997860789299011,0.997860789299011,6671.0184158802,2049.01739638306,8720.03581226326,,,20.1600000858307,2267.51782226562,11744.0535170971,11757.6858882515
2018-07-19T09:02:04Z,1531990924,2D00B,40.5240207,43.5396426,2078.48,0.4,-1.9,313.6,508447.12,-149791,308.4,Weapon+Missile,Blue,Enemies,R-77,,cn,,337.912468902028,312.132568359375,1.0167352801163,2078.478515625,-120.633056640625,337.735402930427,-10.937744140625,0.0714099000606794,NaN,0,0,5000,0.999446868896484,0.999446868896484,0.999446868896484,5709.2418319732,2038.29113352539,7747.53296549859,,,21.1600000858307,2199.11157226562,12080.4357686382,12094.3557667869
2018-07-19T09:02:05Z,1531990925,2D00B,40.5212373,43.5415677,2068.4,0.3,-1.9,313.6,508202.72,-149597.56,308.4,Weapon+Missile,Blue,Enemies,R-77,,cn,,311.855682022539,287.420379638672,0.938222096324528,2068.40454101562,41.3712158203125,311.692928128491,-10.073974609375,0.0718103816952119,NaN,0,0.0171320104161963,5000,0.997423052787781,0.997423052787781,0.997423052787781,4862.69832048714,2028.41193921509,6891.11025970223,,,22.1600000858307,2027.03332519531,12390.8809168998,12405.065190982
2018-07-19T09:02:06Z,1531990926,2D00B,40.5186414,43.5433631,2059.01,0.3,-1.8,313.6,507974.75,-149417.17,308.4,Weapon+Missile,Blue,Enemies,R-77,,cn,,290.858806683223,267.590240478516,0.874955596684984,2059.0068359375,34.57666015625,290.706946192301,-9.397705078125,0.0706303501603608,NaN,0,0.0513960362511687,5000,1.00223791599274,1.00223791599274,1.00223791599274,4229.94227125943,2019.19593876465,6249.13821002408,,,23.1600000858307,2024.43017578125,12680.3992963662,12694.829681123
2018-07-19T09:02:07Z,1531990927,2D00B,40.5161722,43.5450706,2050.08,0.2,-1.8,313.6,507757.97,-149245.61,308.4,Weapon+Missile,Blue,Enemies,R-77,,cn,,276.59975306341,254.200637817383,0.831974140192529,2050.08374023438,21.5645751953125,276.45578626213,-8.923095703125,0.0684968540828677,NaN,0,0.0370093733476075,5000,1.00173282623291,1.00173282623291,1.00173282623291,3825.37116973698,2010.44537111694,5835.81654085393,,,24.1600000858307,2028.51916503906,12955.759668304,12970.4232456961
2018-07-19T09:02:08Z,1531990928,2D00B,40.5138357,43.5466863,2041.65,0.2,-1.8,313.6,507552.81,-149083.25,308.4,Weapon+Missile,Blue,Enemies,R-77,,cn,,261.764794990987,240.301742553711,0.787274221503938,2041.6484375,48.8568115234375,261.628846965416,-8.435302734375,0.0672046624153179,NaN,0,0.0139882274201861,5000,1.00097250938416,1.00097250938416,1.00097250938416,3426.04039483368,2002.17316496094,5428.21355979462,,,25.1600000858307,1992.79162597656,13216.3158375618,13231.1994552223
2018-07-19T09:02:09Z,1531990929,2D00B,40.5116074,43.548227,2033.61,0.2,-1.8,313.6,507357.19,-148928.42,308.4,Weapon+Missile,Blue,Enemies,R-77,,cn,,249.610731749601,228.956726074219,0.750648878630311,2033.60925292969,-49.1112060546875,249.481239607341,-8.0391845703125,0.0695736811732324,NaN,0,0.0139882274201861,5000,1.00094032287598,1.00094032287598,1.00094032287598,3115.27587022856,1994.28941802429,5109.56528825285,,,26.1600000858307,2082.72045898438,13464.7934355427,13479.8864079604
2018-07-19T09:02:10Z,1531990930,2D00B,40.5094731,43.5497026,2025.92,0.1,-1.8,313.6,507169.81,-148780.16,308.4,Weapon+Missile,Blue,Enemies,R-77,,cn,,239.063341969023,219.139877319336,0.718864676082444,2025.91540527344,-162.909545898438,238.939503183631,-7.69384765625,0.0639678072932727,NaN,0,0.0139882274201861,5000,1.00139188766479,1.00139188766479,1.00139188766479,2857.56407366991,1986.74433091248,4844.30840458239,,,27.1600000858307,2188.82495117188,13702.7783415977,13718.0713454657
2018-07-19T09:02:11Z,1531990931,2D00B,40.5074319,43.5511137,2018.57,0.1,-1.8,313.6,506990.62,-148638.34,308.4,Weapon+Missile,Blue,Enemies,R-77,,cn,,228.632751719312,209.447677612305,0.687440241240007,2018.56762695312,-194.78662109375,228.514650104758,-7.3477783203125,0.0645110061426317,NaN,0,0.0139882274201861,5000,1.00256741046906,1.00256741046906,1.00256741046906,2613.64675793722,1979.53862188599,4593.18537982321,,,28.1600000858307,2213.35424804688,13930.3683079121,13945.8520147151
2018-07-19T09:02:12Z,1531990932,2D00B,40.50547,43.55247,2011.53,0.1,-1.8,313.6,506818.41,-148502.05,308.4,Weapon+Missile,Blue,Enemies,R-77,,cn,,219.740018646977,201.205825805664,0.660647212103742,2011.52917480469,-147.646850585938,219.627266035727,-7.0384521484375,0.0564074230003185,NaN,0,0.0139882274201861,5000,1.00150370597839,1.00150370597839,1.00150370597839,2414.2837897487,1972.63625820984,4386.92004795854,,,29.1600000858307,2159.17602539062,14149.1147725666,14164.7807587121
2018-07-19T09:02:13Z,1531990933,2D00B,40.5035876,43.5537713,2004.79,0.1,-1.8,313.6,506653.16,-148371.28,308.4,Weapon+Missile,Blue,Enemies,R-77,,cn,,210.837920634557,192.965393066406,0.633832719048537,2004.78991699219,-114.182250976562,210.730185739112,-6.7392578125,0.0607754449934433,NaN,0,0.0139882274201861,5000,0.999211490154266,0.999211490154266,0.999211490154266,2222.6314388752,1966.02730394714,4188.65874282234,,,30.1600000858307,2118.97216796875,14358.9872943712,14374.8274998893
2018-07-19T09:02:14Z,1531990934,2D00B,40.5017752,43.5550241,1998.3,0.1,-1.8,313.6,506494.09,-148245.39,308.4,Weapon+Missile,Blue,Enemies,R-77,,cn,,202.956913096772,185.684463500977,0.610093667062093,1998.29528808594,-143.328002929688,202.852972295554,-6.49462890625,0.0572930482920542,NaN,0,0.0139882274201861,5000,0.998260498046875,0.998260498046875,0.998260498046875,2059.57542868853,1959.6582486908,4019.23367737932,,,31.1600000858307,2141.62329101562,14561.0438631362,14577.0517941952
2018-07-19T09:02:15Z,1531990935,2D00B,40.5000374,43.5562252,1992.05,0.1,-1.8,313.6,506341.56,-148124.66,308.4,Weapon+Missile,Blue,Enemies,R-77,,cn,,194.631898904887,177.998199462891,0.585025380467481,1992.04992675781,-258.992065429688,194.531672313799,-6.245361328125,0.063268348344145,NaN,0,0.0139882274201861,5000,0.998932361602783,0.998932361602783,0.998932361602783,1894.0788035661,1953.53364142395,3847.61244499005,,,32.1600000858307,2251.0419921875,14754.7795326939,14770.9486737689
2018-07-19T09:02:16Z,1531990936,2D00B,40.4983596,43.5573848,1986.01,0,-1.8,313.6,506194.31,-148008.11,308.4,Weapon+Missile,Blue,Enemies,R-77,,cn,,187.888819046105,171.787658691406,0.56471679571682,1986.0107421875,-373.474609375,187.791737231076,-6.0391845703125,0.0627312032073246,NaN,0.153870501622047,0.0139882274201861,5000,0.999691128730774,0.999691128730774,0.999691128730774,1765.110416127,1947.6112244873,3712.7216406143,,,33.1600000858307,2359.4853515625,14941.8225678073,14958.1474783412
2018-07-19T09:02:17Z,1531990937,2D00B,40.4967435,43.5585018,1980.19,0,-1.8,313.6,506052.47,-147895.88,308.4,Weapon+Missile,Blue,Enemies,R-77,,cn,,180.969824947174,165.418273925781,0.54388382134981,1980.19067382812,-451.62548828125,180.876212769129,-5.820068359375,0.0681765987753022,NaN,0,0.0139882274201861,5000,0.998381078243256,0.998381078243256,0.998381078243256,1637.50387707055,1941.90368714966,3579.4075642202,,,34.1600000858307,2431.81616210938,15121.9806353799,15138.455516895
2018-07-19T09:02:18Z,1531990938,2D00B,40.4951864,43.5595779,1974.57,0,-1.8,313.6,505915.81,-147787.72,308.4,Weapon+Missile,Blue,Enemies,R-77,,cn,,174.368380079947,159.347518920898,0.524009211658828,1974.56689453125,-447.988037109375,174.277666607414,-5.623779296875,0.0649787728996719,NaN,0,0.0139882274201861,5000,1.0000307559967,1.0000307559967,1.0000307559967,1520.21659858525,1936.38864362549,3456.60524221074,,,35.1600000858307,2422.55493164062,15295.5531414334,15312.1728882799
2018-07-19T09:02:19Z,1531990939,2D00B,40.4936885,43.560613,1969.16,0,-1.8,313.6,505784.38,-147683.67,308.4,Weapon+Missile,Blue,Enemies,R-77,,cn,,167.722496262567,153.239181518555,0.504004970245027,1969.15698242188,-424.18408203125,167.635224829138,-5.409912109375,0.0691133574469967,NaN,0,0.0139882274201861,5000,0.999573886394501,0.999573886394501,0.999573886394501,1406.54178762734,1931.08333216675,3337.62511979409,,,36.1600000858307,2393.34106445312,15462.5164665448,15479.2754270803
2018-07-19T09:02:20Z,1531990940,2D00B,40.4922459,43.5616099,1963.94,0,-1.9,313.6,505657.75,-147583.48,308.4,Weapon+Missile,Blue,Enemies,R-77,,cn,,161.550694033593,147.572784423828,0.485428914494513,1963.94152832031,-361.085083007812,161.466485009274,-5.2154541015625,0.0688538894692186,NaN,0,0.0513960362511687,5000,0.998771488666534,0.998771488666534,0.998771488666534,1304.93133713678,1925.96871887024,3230.90005600701,,,37.1600000858307,2325.02661132812,15623.3239619997,15640.2170316463
2018-07-19T09:02:21Z,1531990941,2D00B,40.4908557,43.5625706,1958.92,0,-1.9,313.6,505535.78,-147486.94,308.4,Weapon+Missile,Blue,Enemies,R-77,,cn,,155.637196587803,142.147583007812,0.467632295147045,1958.91540527344,-307.345336914062,155.556019005463,-5.026123046875,0.0694720996282102,NaN,0,0.0513960362511687,5000,0.998671412467957,0.998671412467957,0.998671412467957,1211.14684808552,1921.03977591248,3132.186623998,,,38.1600000858307,2266.2607421875,15778.278382272,15795.3005716224
2018-07-19T09:02:22Z,1531990942,2D00B,40.4895151,43.5634969,1954.06,0,-1.9,313.6,505418.12,-147393.83,308.4,Weapon+Missile,Blue,Enemies,R-77,,cn,,150.119550456961,137.089950561523,0.451028032697475,1954.06457519531,-243.763793945312,150.041157276772,-4.850830078125,0.0704722324006741,NaN,0,0,5000,0.998622119426727,0.998622119426727,0.998622119426727,1126.79397147,1916.28273663391,3043.07670810391,,,39.1600000858307,2197.82836914062,15927.7035881188,15944.8503056006
2018-07-19T09:02:23Z,1531990943,2D00B,40.4882228,43.5643897,1949.39,0,-1.9,313.6,505304.75,-147304.08,308.4,Weapon+Missile,Blue,Enemies,R-77,,cn,,144.674950065896,132.101776123047,0.434646001882272,1949.38610839844,-173.127807617188,144.599284662823,-4.678466796875,0.071381195850052,NaN,0,0,5000,0.999115645885468,0.999115645885468,0.999115645885468,1046.54205882847,1911.69472799255,2958.23678682103,,,40.1600000858307,2122.51391601562,16071.7319329375,16088.9986654034
2018-07-19T09:02:24Z,1531990944,2D00B,40.4869815,43.5652474,1944.89,0,-1.9,313.6,505195.81,-147217.89,308.4,Weapon+Missile,Blue,Enemies,R-77,,cn,,138.981478941777,126.885627746582,0.417519049902581,1944.89306640625,-97.464599609375,138.90883363739,-4.4930419921875,0.0661116635795373,NaN,0,0,5000,0.998655080795288,0.998655080795288,0.998655080795288,965.792574442178,1907.28855896729,2873.08113340946,,,41.1600000858307,2042.35766601562,16210.0801277352,16227.4620129002
2018-07-19T09:02:25Z,1531990945,2D00B,40.4857862,43.5660731,1940.56,0,-1.9,313.6,505090.97,-147134.88,308.4,Weapon+Missile,Blue,Enemies,R-77,,cn,,133.800403906214,122.143280029297,0.401933912135333,1940.56384277344,-37.6212158203125,133.730347745765,-4.3292236328125,0.0660324568100558,NaN,0,0,5000,0.999024033546448,0.999024033546448,0.999024033546448,895.127404273301,1903.04304087341,2798.17044514671,,,42.1600000858307,1978.18505859375,16343.2890371255,16360.7818054795
2018-07-19T09:02:26Z,1531990946,2D00B,40.4846396,43.5668653,1936.41,0,-1.9,313.6,504990.34,-147055.25,308.4,Weapon+Missile,Blue,Enemies,R-77,,cn,,128.385304415894,117.186820983887,0.38564819106938,1936.40991210938,2.7723388671875,128.318086215467,-4.1539306640625,0.0682136865764649,NaN,0,0,5000,0.884644746780396,0.884644746780396,0.884644746780396,824.139319498092,1898.96942645874,2723.10874595683,,,43.1600000858307,1933.63757324219,16471.0783640869,16488.6774467329
2018-07-19T09:02:27Z,1531990947,2D00B,40.4835437,43.5676224,1931.32,-1.4,-4,313.6,504894.22,-146979.16,308.4,Weapon+Missile,Blue,Enemies,R-77,,cn,,122.703665889229,111.993385314941,0.368559399213669,1931.31921386719,11.3824462890625,122.598019617213,-5.0906982421875,0.0591433918851239,NaN,2.58459822344619,2.1620901919086,1851.99328859905,0.186017632484436,0.186017632484436,0.186017632484436,752.809481132776,1893.97715686707,2646.78663799984,,,44.1600000858307,1919.93676757812,16593.2114211894,16610.9535508394
2018-07-19T09:02:28Z,1531990948,2D00B,40.4824929,43.5683477,1918.6,-3.8,-8.5,313.5,504802,-146906.25,308.3,Weapon+Missile,Blue,Enemies,R-77,,cn,,118.242634190565,107.96257019043,0.355106843862715,1918.60302734375,-24.5518798828125,117.556876194568,-12.7161865234375,0.142729063067835,NaN,2.40001919131576,4.31952091414278,1551.29080338196,0.0833122283220291,0.0833122283220291,0.0833122283220291,699.066027016193,1881.50683781006,2580.57286482625,,,45.1600000858307,1943.15490722656,16710.2701937066,16728.7361048276
2018-07-19T09:02:29Z,1531990949,2D00B,40.4814837,43.5690433,1897.61,-5.8,-12.8,313.5,504713.47,-146836.34,308.3,Weapon+Missile,Blue,Enemies,R-77,,cn,,114.73990459149,104.8525390625,0.344502334052898,1897.61303710938,-82.814208984375,112.803661357356,-20.989990234375,0.149793944011135,NaN,1.89229024917369,4.36567975944055,1526.3189944897,0.109860599040985,0.109860599040985,0.109860599040985,658.262285283208,1860.92268903687,2519.18497432007,,,46.1600000858307,1980.42724609375,16822.617911266,16843.0608290058
2018-07-19T09:02:30Z,1531990950,2D00B,40.4805191,43.5697058,1869.08,-7.5,-17,313.3,504628.88,-146769.8,308.1,Weapon+Missile,Blue,Enemies,R-77,,cn,,111.349159265908,101.878349304199,0.334209592891707,1869.08154296875,-141.444946289062,107.631729110556,-28.531494140625,0.0320544475438402,NaN,1.53848645016703,4.31724688803599,1515.56592332148,0.130752578377724,0.130752578377724,0.130752578377724,619.931763461232,1832.94285133545,2452.87461479668,,,47.1600000858307,2010.52648925781,16929.8123440214,16954.0179357147
2018-07-19T09:02:31Z,1531990951,2D00B,40.4795839,43.5703446,1833.14,-8.7,-21.1,313.2,504546.91,-146705.67,308,Weapon+Missile,Blue,Enemies,R-77,,cn,,110.103822757878,100.909652709961,0.330332218966087,1833.1376953125,-234.681640625,104.071569612275,-35.94384765625,0.00228043692094994,NaN,1.13845593085773,4.10437465104244,1546.21690836788,0.143057808279991,0.143057808279991,0.143057808279991,606.14258929491,1797.69397797363,2403.83656726854,,,48.1600000858307,2067.8193359375,17033.4828491614,17063.7711735012
2018-07-19T09:02:32Z,1531990952,2D00B,40.4786808,43.570957,1790.36,-9.6,-25.2,312.9,504467.81,-146644.23,307.7,Weapon+Missile,Blue,Enemies,R-77,,cn,,108.905720402704,100.01407623291,0.326573631308297,1790.3583984375,-334.217529296875,100.151823225104,-42.779296875,0.063274321702176,NaN,0.769243225083516,3.97309286566609,1591.29018937159,0.155571684241295,0.155571684241295,0.155571684241295,593.022796821594,1755.74181880371,2348.7646156253,,,49.1600000858307,2124.57592773438,17133.243691174,17172.3434932782
2018-07-19T09:02:33Z,1531990953,2D00B,40.4778025,43.5715467,1740.86,-10.3,-28.9,312.6,504390.94,-146585.14,307.4,Weapon+Missile,Blue,Enemies,R-77,,cn,,108.864848342474,100.217460632324,0.326261640617752,1740.86376953125,-427.615966796875,96.9630698465271,-49.49462890625,0.02391289731705,NaN,0.60001845820728,3.85541510956912,1670.19475557905,0.164908856153488,0.164908856153488,0.164908856153488,592.577760231495,1707.20416854736,2299.78192877886,,,50.1600000858307,2168.47973632812,17229.8147253599,17280.8831031927
2018-07-19T09:02:34Z,1531990954,2D00B,40.4769526,43.5721106,1685.29,-10.8,-32.6,312.2,504316.59,-146528.69,307,Weapon+Missile,Blue,Enemies,R-77,,cn,,108.636485658113,100.276329040527,0.325365411299617,1685.29455566406,-521.203979492188,93.3485323201609,-55.5692138671875,0.0430012714394614,NaN,0.369267347287569,3.60869032061486,1831.87279061345,0.196397542953491,0.196397542953491,0.196397542953491,590.094300807267,1652.7093854303,2242.80368623757,,,51.1600000858307,2206.49853515625,17322.765361923,17389.1993072559
2018-07-19T09:02:35Z,1531990955,2D00B,40.4761216,43.5726542,1623.81,-10.3,-35,311.9,504244.03,-146474.34,306.6,Weapon+Missile,Blue,Enemies,R-77,,cn,,109.541696687581,101.417625427246,0.327840638640793,1623.80615234375,-602.233154296875,90.6562715442925,-61.4884033203125,0.128249918089771,NaN,1.18461093417409,1.9459701999647,5000,0.714924454689026,0.714924454689026,0.714924454689026,599.969165659696,1592.40986038818,2192.37902604788,,,52.1600000858307,2226.03930664062,17413.0651201149,17498.4655010105
2018-07-19T09:02:36Z,1531990956,2D00B,40.4752829,43.5731967,1560.79,-8.1,-34.4,311.6,504170.84,-146420.23,306.3,Weapon+Missile,Blue,Enemies,R-77,,cn,,110.705307763063,102.813087463379,0.331079358739049,1560.78686523438,-674.3466796875,91.0177708974496,-63.019287109375,0.0172135112733366,NaN,1.92306708157377,0.243090194500883,5000,0.923468410968781,0.923468410968781,0.923468410968781,612.783258345723,1530.60905119507,2143.39230954079,,,53.1600000858307,2235.13354492188,17503.7370851087,17608.9052639106
