ISOTime,UnixTime,Id,Longitude,Latitude,Altitude,Roll,Pitch,Yaw,U,V,Heading,Type,Color,Coalition,Name,Group,Country,Pilot,TAS,CAS,M,ASL,AGL,GS,VS,AOA,AOS,RRT,TRT,TRD,G,LatG,LonG,Ek,Ep,Em,FFW,FFV,RelativeTime,Elev,GroundDistance,AirDistance
2018-07-19T09:02:01Z,1531990921,2F705,40.6046693,43.3126732,6018.41,11.3,-3.7,352.4,517280.16,-174412.77,347.1,Weapon+Missile,Blue,Enemies,R-27ET,,cn,,354.470756021556,278.121826171875,1.11995991589244,6018.4130859375,3848.84521484375,NaN,NaN,1.68640454185646,NaN,2.64617920900302,3.73648192119736,NaN,NaN,NaN,NaN,NaN,5902.0470689209,NaN,,,0.799999952316284,2169.56787109375,NaN,NaN
2018-07-19T09:02:02Z,1531990922,2F705,40.6038909,43.3178398,5960.44,8.4,-5.5,355.9,517164.44,-173844.5,350.6,Weapon+Missile,Blue,Enemies,R-27ET,,cn,,582.818466852238,450.658996582031,1.84004164358408,5960.44140625,3720.7158203125,579.928141805692,-57.9716796875,0.931745393284029,NaN,2.90769349194447,3.29000820809405,5000,3.71437239646912,3.71437239646912,3.71437239646912,16983.8682651997,5845.19627166016,22829.0645368598,,,1.79999995231628,2239.7255859375,578.588516864921,582.026123277965
2018-07-19T09:02:03Z,1531990923,2F705,40.6032986,43.3252939,5854.32,7,-8.4,354.5,517040.5,-173020.69,349.2,Weapon+Missile,Blue,Enemies,R-27ET,,cn,,839.814871465366,632.786437988281,2.64776403789714,5854.3212890625,3568.0478515625,833.083152549912,-106.1201171875,0.261176323693278,NaN,0.0615263440434749,2.45882498563545,5000,6.57672071456909,6.57672071456909,6.57672071456909,35264.4509167194,5741.12798693848,41005.5789036579,,,2.79999995231628,2286.2734375,1409.75554020987,1420.70388699899
2018-07-19T09:02:04Z,1531990924,2F705,40.6017515,43.3341399,5697.08,6.1,-9.1,352.3,516825,-172049.3,347,Weapon+Missile,Blue,Enemies,R-27ET,,cn,,1007.35458465236,757.03564453125,3.16952462233811,5697.0849609375,3350.24609375,995.007535819649,-157.236328125,0.0251722805272323,NaN,1.16921910287946,3.0516621402607,5000,1.17499947547913,1.17499947547913,1.17499947547913,50738.1629610062,5586.93182321777,56325.0947842239,,,3.79999995231628,2346.8388671875,2402.41988671064,2426.63191424984
2018-07-19T09:02:05Z,1531990925,2F705,40.6000755,43.3430472,5535.43,4.9,-9.2,352.2,516598.47,-171072.06,346.9,Weapon+Missile,Blue,Enemies,R-27ET,,cn,,1016.08843142323,769.474548339844,3.19034911438567,5535.43017578125,3287.38671875,1003.14676439104,-161.65478515625,0.0622720457188541,NaN,1.15381019611191,0.164324693116134,5000,0.99374395608902,0.99374395608902,0.99374395608902,51621.7850236058,5428.40263333252,57050.1876569383,,,4.79999995231628,2248.04345703125,3403.22809053958,3441.28163274083
2018-07-19T09:02:06Z,1531990926,2F705,40.5983979,43.3519485,5373.94,4,-9.1,352.2,516371.84,-170095.52,346.9,Weapon+Missile,Blue,Enemies,R-27ET,,cn,,1015.42150817899,775.196838378906,3.1816521023663,5373.94287109375,3625.31262207031,1002.49822428634,-161.4873046875,0.0608295389839795,NaN,0.815415303872802,0.0513960362511687,5000,0.996582746505737,0.996582746505737,0.996582746505737,51554.041963625,5270.03768568115,56824.0796493061,,,5.79999995231628,1748.63024902344,4403.37656059692,4455.22777709778
2018-07-19T09:02:07Z,1531990927,2F705,40.5967258,43.3608147,5213.18,3.3,-9.1,352.2,516146.06,-169122.83,346.9,Weapon+Missile,Blue,Enemies,R-27ET,,cn,,1011.40649775575,778.446105957031,3.16256476193211,5213.17919921875,3855.07165527344,998.548018628955,-160.763671875,0.0565963841388169,NaN,0.769243225083516,0.0395646845203054,5000,0.993701219558716,0.993701219558716,0.993701219558716,51147.1551851273,5112.38237940186,56259.5375645291,,,6.79999995231628,1358.10754394531,5399.58821835791,5465.14394399425
2018-07-19T09:02:08Z,1531990928,2F705,40.5950579,43.3696535,5052.97,2.7,-9.1,352.2,515920.94,-168153.14,346.9,Weapon+Missile,Blue,Enemies,R-27ET,,cn,,1008.28675901751,782.316589355469,3.14638469875269,5052.9697265625,4013.73461914062,995.477329365792,-160.20947265625,0.0515090555808912,NaN,0.569255286185543,0.0139882274201861,5000,0.994355618953705,0.994355618953705,0.994355618953705,50832.1094205022,4955.27055689941,55787.3799774016,,,7.79999995231628,1039.23510742188,6392.7375419482,6471.92142640313
2018-07-19T09:02:09Z,1531990929,2F705,40.5933828,43.3785266,4892.21,2.1,-9.1,352.2,515694.88,-167179.69,346.9,Weapon+Missile,Blue,Enemies,R-27ET,,cn,,1012.20537821535,791.484436035156,3.15218014373898,4892.20751953125,4040.34320068359,999.357413780733,-160.76220703125,0.0491875899532461,NaN,0.538437472650445,0.0139882274201861,5000,0.992546141147614,0.992546141147614,0.992546141147614,51227.9863844037,4797.61668714111,56025.6030715448,,,8.79999995231628,851.864318847656,7389.74373809494,7482.57289187282
2018-07-19T09:02:10Z,1531990930,2F705,40.5917311,43.387272,4733.8,1.8,-9.1,352.2,515472.06,-166220.25,346.9,Weapon+Missile,Blue,Enemies,R-27ET,,cn,,997.626393644136,786.623107910156,3.10056927507117,4733.80078125,4273.34274291992,984.969911501108,-158.40673828125,0.0468458230354975,NaN,0.369212705774209,0.0139882274201861,5000,0.992975831031799,0.992975831031799,0.992975831031799,49762.9210647702,4642.27274314453,54405.1938079148,,,9.79999995231628,460.458038330078,8372.40050957086,8478.64763750042
2018-07-19T09:02:11Z,1531990931,2F705,40.5901236,43.3957807,4579.72,1.4,-9.1,352.2,515255.25,-165286.8,346.9,Weapon+Missile,Blue,Enemies,R-27ET,,cn,,970.609636879586,771.927795410156,3.01076100481953,4579.720703125,3854.40905761719,958.30182965938,-154.080078125,0.0423788773713713,NaN,0.353858440520021,0.0139882274201861,5000,0.994920909404755,0.994920909404755,0.994920909404755,47104.1533601761,4491.17180333008,51595.3251635062,,,10.7999999523163,725.311645507812,9328.47730751438,9447.74967996571
2018-07-19T09:02:12Z,1531990932,2F705,40.5886399,43.4036304,4437.6,1.1,-9.1,352.2,515055.22,-164425.62,346.9,Weapon+Missile,Blue,Enemies,R-27ET,,cn,,895.448282692511,719.488586425781,2.77267261460016,4437.6005859375,2868.08654785156,884.098127623613,-142.1201171875,0.0431419074268262,NaN,0.353858440520021,0.0139882274201861,5000,0.993440389633179,0.993440389633179,0.993440389633179,40091.3813488483,4351.7995786084,44443.1809274567,,,11.7999999523163,1569.51403808594,10210.5005550442,10341.7650051363
2018-07-19T09:02:13Z,1531990933,2F705,40.5872702,43.4108753,4306.45,1,-9.1,352.2,514870.56,-163630.81,346.9,Weapon+Missile,Blue,Enemies,R-27ET,,cn,,826.453348777224,670.736083984375,2.55484749487196,4306.45068359375,2493.21105957031,815.980907142019,-131.14990234375,0.0403372075112563,NaN,0.169224766876236,0.0139882274201861,5000,0.991732358932495,0.991732358932495,0.991732358932495,34151.2568852544,4223.18545962646,38374.4423448809,,,12.7999999523163,1813.23962402344,11024.5713208564,11166.8833954945
2018-07-19T09:02:14Z,1531990934,2F705,40.5859946,43.4176214,4184.35,0.8,-9.1,352.2,514698.62,-162890.75,346.9,Weapon+Missile,Blue,Enemies,R-27ET,,cn,,769.522186543336,630.444763183594,2.37523998410949,4184.3466796875,1943.61645507812,759.772997554204,-122.10400390625,0.0395231666759477,NaN,0.169224766876236,0.0139882274201861,5000,0.992453634738922,0.992453634738922,0.992453634738922,29608.2197791219,4103.44233663574,33711.6621157576,,,13.7999999523163,2240.73022460938,11782.5896950128,11935.1713717569
2018-07-19T09:02:15Z,1531990935,2F705,40.5848122,43.4238727,4071.21,0.6,-9.1,352.2,514539.31,-162204.94,346.9,Weapon+Missile,Blue,Enemies,R-27ET,,cn,,713.104607049791,589.816650390625,2.19800970721281,4071.21435546875,1941.41845703125,704.073332695182,-113.13232421875,0.0376334820630287,NaN,0.199987938897973,0.0139882274201861,5000,0.990921556949615,0.990921556949615,0.990921556949615,25425.9090297818,3992.49742590576,29418.4064556876,,,14.7999999523163,2129.7958984375,12485.0243636231,12647.1069345587
2018-07-19T09:02:16Z,1531990936,2F705,40.5837059,43.4297205,3965.39,0.5,-9.1,352.2,514390.25,-161563.39,346.9,Weapon+Missile,Blue,Enemies,R-27ET,,cn,,667.083095967963,556.654113769531,2.05346491950986,3965.39453125,2071.55627441406,658.636486788058,-105.81982421875,0.0372678192239616,NaN,0.199987938897973,0.0139882274201861,5000,0.989323437213898,0.989323437213898,0.989323437213898,22249.9928463101,3888.72362798828,26138.7164742984,,,15.7999999523163,1893.83825683594,13142.1064809245,13313.0640951184
2018-07-19T09:02:17Z,1531990937,2F705,40.5826658,43.4352176,3865.92,0.4,-9.1,352.2,514250.09,-160960.33,346.9,Weapon+Missile,Blue,Enemies,R-27ET,,cn,,627.075119516313,527.670837402344,1.92793944856508,3865.92065429688,2195.23645019531,619.135004114864,-99.473876953125,0.037743522201333,NaN,0.12310732960031,0.0139882274201861,5000,0.989824235439301,0.989824235439301,0.989824235439301,19661.1602758199,3791.17307844604,23452.3333542659,,,16.7999999523163,1670.68420410156,13759.7922689858,13939.0827790162
2018-07-19T09:02:18Z,1531990938,2F705,40.5816939,43.4403531,3773,0.3,-9.1,352.2,514119.22,-160396.95,346.9,Weapon+Missile,Blue,Enemies,R-27ET,,cn,,585.793552142362,497.182556152344,1.79895872783814,3772.9990234375,1967.44689941406,578.376742487109,-92.921630859375,0.0381913733441467,NaN,0.199987938897973,0.0139882274201861,5000,0.989966511726379,0.989966511726379,0.989966511726379,17157.7042865783,3700.04808731934,20857.7523738976,,,17.7999999523163,1805.55212402344,14336.8500458322,14523.9152733963
2018-07-19T09:02:19Z,1531990939,2F705,40.5807774,43.4451955,3685.38,0.3,-9.1,352.2,513995.75,-159865.7,346.9,Weapon+Missile,Blue,Enemies,R-27ET,,cn,,552.401712854254,472.467376708984,1.69458692817374,3685.38305664062,1877.73645019531,545.409107667412,-87.615966796875,0.0359028206051094,NaN,0,0.0139882274201861,5000,0.988832950592041,0.988832950592041,0.988832950592041,15257.3826182157,3614.12617524048,18871.5087934562,,,18.7999999523163,1807.64660644531,14880.9716501128,15075.3599139221
2018-07-19T09:02:20Z,1531990940,2F705,40.5799126,43.4497637,3602.73,0.2,-9.1,352.2,513879.31,-159364.56,346.9,Weapon+Missile,Blue,Enemies,R-27ET,,cn,,521.085926768815,448.975860595703,1.59690043870278,3602.73364257812,1855.04443359375,514.48966698238,-82.6494140625,0.0347974634456365,NaN,0,0.0139882274201861,5000,0.989068448543549,0.989068448543549,0.989068448543549,13576.5271538258,3533.07478759888,17109.6019414246,,,19.7999999523163,1747.68920898438,15394.2746038545,15595.5637249553
2018-07-19T09:02:21Z,1531990941,2F705,40.5790974,43.4540696,3524.83,0.2,-9.1,352.2,513769.53,-158892.19,346.9,Weapon+Missile,Blue,Enemies,R-27ET,,cn,,491.181297353609,426.173461914062,1.50382076776501,3524.82983398438,1773.40576171875,484.963981628082,-77.90380859375,0.0366977889480738,NaN,0,0.0139882274201861,5000,0.989366710186005,0.989366710186005,0.989366710186005,12062.9533434987,3456.67724914429,15519.630592643,,,20.7999999523163,1751.42407226562,15878.1144402668,16085.9020484163
2018-07-19T09:02:22Z,1531990942,2F705,40.5783314,43.4581154,3451.63,0.1,-9.1,352.2,513666.38,-158448.33,346.9,Weapon+Missile,Blue,Enemies,R-27ET,,cn,,461.529967024272,403.078582763672,1.41177561636196,3451.63452148438,1769.52124023438,455.688881463497,-73.1953125,0.0341619058665639,NaN,0.199987938897973,0.0139882274201861,5000,0.988446950912476,0.988446950912476,0.988446950912476,10650.4955230713,3384.89716801147,14035.3926910828,,,21.7999999523163,1682.11328125,16332.7265068745,16546.6143301575
2018-07-19T09:02:23Z,1531990943,2F705,40.5776018,43.4619687,3381.93,0.1,-9.1,352.2,513568.16,-158025.61,346.9,Weapon+Missile,Blue,Enemies,R-27ET,,cn,,439.542076221673,385.849792480469,1.34337387354103,3381.9267578125,1838.19055175781,433.979336435648,-69.707763671875,0.0360364649122452,NaN,0,0.0139882274201861,5000,0.989107310771942,0.989107310771942,0.989107310771942,9659.86183846295,3316.53720395019,12976.3990424131,,,22.7999999523163,1543.73620605469,16765.7009957008,16985.3933028442
2018-07-19T09:02:24Z,1531990944,2F705,40.5769148,43.4655959,3316.31,0.1,-9.1,352.2,513475.69,-157627.69,346.9,Weapon+Missile,Blue,Enemies,R-27ET,,cn,,413.760141968965,364.921936035156,1.26356628486963,3316.31298828125,1768.35534667969,408.524525983543,-65.61376953125,0.0338611672540046,NaN,0,0.0139882274201861,5000,0.986778974533081,0.986778974533081,0.986778974533081,8559.87275410891,3252.19207665283,11812.0648307617,,,23.7999999523163,1547.95764160156,17173.2741110344,17398.4253956356
2018-07-19T09:02:25Z,1531990945,2F705,40.5762627,43.4690393,3254.01,0.1,-9.1,352.2,513387.91,-157249.94,346.9,Weapon+Missile,Blue,Enemies,R-27ET,,cn,,392.787819927605,347.547515869141,1.19861124850695,3254.01000976562,1633.50280761719,387.81517550447,-62.302978515625,0.037501711411725,NaN,0,0.0139882274201861,5000,0.990440189838409,0.990440189838409,0.990440189838409,7714.11357417405,3191.09372622681,10905.2073004009,,,24.7999999523163,1620.50720214844,17560.202658715,17790.5345981929
2018-07-19T09:02:26Z,1531990946,2F705,40.5756472,43.4722887,3195.23,0.1,-9.1,352.2,513305.06,-156893.45,346.9,Weapon+Missile,Blue,Enemies,R-27ET,,cn,,370.673480537284,328.55712890625,1.13032125788867,3195.23388671875,1594.75158691406,365.983874690133,-58.776123046875,0.0333339567645133,NaN,0,0.0139882274201861,5000,0.986903369426727,0.986903369426727,0.986903369426727,6869.94145868123,3133.45403951904,10003.3954982003,,,25.7999999523163,1600.48229980469,17925.319521044,18160.5343095546
2018-07-19T09:02:27Z,1531990947,2F705,40.5750656,43.4753592,3139.68,0.1,-9.1,352.2,513226.78,-156556.61,346.9,Weapon+Missile,Blue,Enemies,R-27ET,,cn,,350.253674765678,310.534881591797,1.0673344658336,3139.68237304688,1654.10888671875,345.820279936884,-55.551513671875,0.0345635207886041,NaN,0,0.0139882274201861,5000,0.989206910133362,0.989206910133362,0.989206910133362,6133.88183434308,3078.97661436401,9212.85844870709,,,26.7999999523163,1485.57348632812,18270.3427951038,18510.1702545915
2018-07-19T09:02:28Z,1531990948,2F705,40.5745129,43.4782768,3086.91,0,-9.1,352.2,513152.41,-156236.55,346.9,Weapon+Missile,Blue,Enemies,R-27ET,,cn,,332.801339801412,294.949279785156,1.0135037149406,3086.90844726562,1721.22241210938,328.590390199181,-52.77392578125,0.0352507859480434,NaN,0,0.0139882274201861,5000,0.987613022327423,0.987613022327423,0.987613022327423,5537.83658868074,3027.22307243774,8565.05966111849,,,27.7999999523163,1365.68603515625,18598.1822817686,18842.3882054475
2018-07-19T09:02:29Z,1531990949,2F705,40.5739902,43.4810355,3037,0,-9.1,352.2,513082.06,-155933.91,346.9,Weapon+Missile,Blue,Enemies,R-27ET,,cn,,314.690913541173,278.719024658203,0.957772422411765,3037.00073242188,1888.20947265625,310.708208878448,-49.90771484375,0.0347858652846067,NaN,0,0.0139882274201861,5000,0.988595962524414,0.988595962524414,0.988595962524414,4951.51855326891,2978.2803232605,7929.79887652941,,,28.7999999523163,1148.79125976562,18908.1665733627,19156.5113076785
2018-07-19T09:02:30Z,1531990950,2F705,40.573495,43.4836496,2989.71,0,-9.1,352.2,513015.44,-155647.11,346.9,Weapon+Missile,Blue,Enemies,R-27ET,,cn,,298.207338369324,263.987426757812,0.907085746941981,2989.71142578125,1937.99304199219,294.433928301012,-47.289306640625,0.0338689560875623,NaN,0,0.0139882274201861,5000,0.987783968448639,0.987783968448639,0.987783968448639,4446.38083286583,2931.90535536377,7378.2861882296,,,29.7999999523163,1051.71838378906,19201.9088120399,19454.1727444362
2018-07-19T09:02:31Z,1531990951,2F705,40.5730206,43.4861532,2944.42,0,-9.1,352.2,512951.59,-155372.47,346.9,Weapon+Missile,Blue,Enemies,R-27ET,,cn,,285.577537904714,252.829666137695,0.868193873371433,2944.42309570312,1951.177734375,281.963645377295,-45.288330078125,0.0376640499632172,NaN,0,0.0139882274201861,5000,0.988223493099213,0.988223493099213,0.988223493099213,4077.72650778592,2887.49267514771,6965.21918293362,,,30.7999999523163,993.245361328125,19483.2291594723,19739.2443489786
2018-07-19T09:02:32Z,1531990952,2F705,40.5725678,43.4885429,2901.19,0,-9.1,352.2,512890.69,-155110.3,346.9,Weapon+Missile,Blue,Enemies,R-27ET,,cn,,272.602949164566,241.351165771484,0.828317646704651,2901.19458007812,1916.64263916016,269.153605456212,-43.228515625,0.0332330367654952,NaN,0,0.0139882274201861,5000,0.987849116325378,0.987849116325378,0.987849116325378,3715.61839466095,2845.09998287231,6560.71837753326,,,31.7999999523163,984.551940917969,19751.7529139124,20011.3469238742
2018-07-19T09:02:33Z,1531990953,2F705,40.5721335,43.4908351,2859.73,0,-9.1,352.2,512832.25,-154858.83,346.9,Weapon+Missile,Blue,Enemies,R-27ET,,cn,,261.478119352317,231.570022583008,0.794117676223861,2859.72973632812,1727.55249023438,258.169466887183,-41.46484375,0.0332660511469416,NaN,0,0.0139882274201861,5000,0.987915575504303,0.987915575504303,0.987915575504303,3418.54034500122,2804.43686187622,6222.97720687744,,,32.7999999523163,1132.17724609375,20009.3156338697,20272.340832764
2018-07-19T09:02:34Z,1531990954,2F705,40.571716,43.4930382,2819.88,0,-9.1,352.2,512776.06,-154617.16,346.9,Weapon+Missile,Blue,Enemies,R-27ET,,cn,,251.297316236132,222.646743774414,0.762832446917003,2819.8798828125,1565.98852539062,248.117573586124,-39.849853515625,0.0378062070143425,NaN,0,0.0139882274201861,5000,0.98761522769928,0.98761522769928,0.98761522769928,3157.51705737412,2765.35750527832,5922.87456265244,,,33.7999999523163,1253.89135742188,20256.8708097355,20523.1917046373
2018-07-19T09:02:35Z,1531990955,2F705,40.5713145,43.4951567,2781.56,0,-9.1,352.2,512722.06,-154384.75,346.9,Weapon+Missile,Blue,Enemies,R-27ET,,cn,,241.655368693442,214.206832885742,0.733225764236229,2781.55688476562,1404.61181640625,238.597286319569,-38.322998046875,0.0319768324843792,NaN,0,0.0139882274201861,5000,0.987285256385803,0.987285256385803,0.987285256385803,2919.86586091816,2727.77548239868,5647.64134331685,,,34.7999999523163,1376.94506835938,20494.9158131622,20764.4049955853
2018-07-19T09:02:36Z,1531990956,2F705,40.5709262,43.4972056,2744.49,0,-9.1,352.2,512669.84,-154159.97,346.9,Weapon+Missile,Blue,Enemies,R-27ET,,cn,,233.725476085286,207.320709228516,0.70884943767347,2744.48681640625,1224.48083496094,230.766999813936,-37.070068359375,0.0341333646253896,NaN,0,0.0139882274201861,5000,0.989106714725494,0.989106714725494,0.989106714725494,2731.37990856469,2691.42216381104,5422.80207237572,,,35.7999999523163,1520.00598144531,20725.1514656833,20997.704336236
2018-07-19T09:02:37Z,1531990957,2F705,40.5705517,43.4991817,2708.75,0,-9.1,352.2,512619.47,-153943.17,346.9,Weapon+Missile,Blue,Enemies,R-27ET,,cn,,225.423878262168,200.082489013672,0.683379011077635,2708.74609375,1066.05078125,222.572517698762,-35.74072265625,0.0371114387288126,NaN,0,0.0139882274201861,5000,0.986867487430573,0.986867487430573,0.986867487430573,2540.79624453783,2656.37248802734,5197.16873256517,,,36.7999999523163,1642.6953125,20947.1896896194,21222.6944091552
2018-07-19T09:02:38Z,1531990958,2F705,40.5701913,43.501083,2674.35,0,-9.1,352.2,512571,-153734.59,346.9,Weapon+Missile,Blue,Enemies,R-27ET,,cn,,216.880276948481,192.61181640625,0.657207807750606,2674.35131835938,909.323852539062,214.13559712266,-34.394775390625,0.0363642255547354,NaN,0,0.0139882274201861,5000,0.988134205341339,0.988134205341339,0.988134205341339,2351.85272646248,2622.6427356189,4974.49546208138,,,37.7999999523163,1765.02746582031,21160.8360006357,21439.1806182297
2018-07-19T09:02:39Z,1531990959,2F705,40.5698426,43.502923,2641.07,0,-9.1,352.2,512524.06,-153532.75,346.9,Weapon+Missile,Blue,Enemies,R-27ET,,cn,,209.884935554091,186.539138793945,0.635756481077524,2641.06982421875,771.249633789062,207.229409882653,-33.281494140625,0.0326896214386193,NaN,0,0.0139882274201861,5000,0.987108111381531,0.987108111381531,0.987108111381531,2202.58430862725,2590.00473916748,4792.58904779473,,,38.7999999523163,1869.82019042969,21367.593046633,21648.684239038
2018-07-19T09:02:40Z,1531990960,2F705,40.5695051,43.5047033,2608.86,0,-9.1,352.2,512478.69,-153337.44,346.9,Weapon+Missile,Blue,Enemies,R-27ET,,cn,,203.084420760725,180.631484985352,0.614920143194587,2608.86083984375,673.641479492188,200.513997718987,-32.208984375,0.032521453417067,NaN,0,0.0139882274201861,5000,0.988053381443024,0.988053381443024,0.988053381443024,2062.16409778595,2558.41851550537,4620.58261329132,,,39.7999999523163,1935.21936035156,21567.6428753105,21851.3916645419
2018-07-19T09:02:41Z,1531990961,2F705,40.5691782,43.506428,2577.66,0,-9.1,352.2,512434.72,-153148.22,346.9,Weapon+Missile,Blue,Enemies,R-27ET,,cn,,196.749801066254,175.135314941406,0.595517267637166,2577.65991210938,604.93701171875,194.260099681136,-31.200927734375,0.0367659905061755,NaN,0,0.0139882274201861,5000,0.987819135189056,0.987819135189056,0.987819135189056,1935.52421098053,2527.82085770874,4463.34506868927,,,40.7999999523163,1972.72290039062,21761.4416395617,22047.7637761007
2018-07-19T09:02:42Z,1531990962,2F705,40.5688615,43.5080987,2547.44,0,-9.1,352.2,512392.12,-152964.94,346.9,Weapon+Missile,Blue,Enemies,R-27ET,,cn,,190.576848116434,169.774124145508,0.576624842747579,2547.43920898438,521.401977539062,188.165470107097,-30.220703125,0.0393041291360978,NaN,0,0.0139882274201861,5000,0.987859785556793,0.987859785556793,0.987859785556793,1815.97675189972,2498.18447187866,4314.16122377838,,,41.7999999523163,2026.03723144531,21949.1732352445,22237.9867188445
