ISOTime,UnixTime,Id,Longitude,Latitude,Altitude,Roll,Pitch,Yaw,U,V,Heading,Type,Color,Coalition,Name,Group,Country,Pilot,TAS,CAS,M,ASL,AGL,GS,VS,AOA,AOS,RRT,TRT,TRD,G,LatG,LonG,Ek,Ep,Em,FFW,FFV,RelativeTime,Elev,GroundDistance,AirDistance
2018-07-19T08:41:00Z,1531989660,5C04,41.5612788,43.5497278,8183.77,-1.4,-1.6,352.6,592172.06,-140509.09,346.6,Weapon+Missile,Blue,Enemies,R-27ER,,cn,,369.489889469328,262.89013671875,1.20180489603336,8183.77001953125,6091.287109375,NaN,NaN,0.817037009728772,NaN,0.369254754126287,0.862534797367716,NaN,NaN,NaN,NaN,NaN,8025.53682620361,NaN,,,0.649999856948853,2092.48291015625,NaN,NaN
2018-07-19T08:41:01Z,1531989661,5C04,41.5603512,43.5548841,8157.99,-1.2,-1.7,353,592037.69,-139943.91,347,Weapon+Missile,Blue,Enemies,R-27ER,,cn,,581.513604810226,407.933898925781,1.8907616624093,8157.99169921875,5958.982421875,580.941951300859,-25.7783203125,0.843394330370748,NaN,0.199987938897973,1.38433324274637,5000,4.05763053894043,4.05763053894043,4.05763053894043,16907.9036289692,8000.25692971436,24908.1605586836,,,1.64999985694885,2199.00927734375,578.859385017743,580.173922940188
2018-07-19T08:41:02Z,1531989662,5C04,41.5595074,43.5623996,8122.71,-1.4,-2.7,357.3,591882.88,-139115.89,351.3,Weapon+Missile,Blue,Enemies,R-27ER,,cn,,843.102296933305,568.424987792969,2.73997062716084,8122.71142578125,5846.37036132812,842.363808220884,-35.2802734375,0.495825380187371,NaN,0.215396845665522,2.12349620800344,5000,1.96992945671082,1.96992945671082,1.96992945671082,35541.0741547108,7965.65880036377,43506.7329550745,,,2.64999985694885,2276.34106445312,1418.23989875115,1421.3658967817
2018-07-19T08:41:03Z,1531989663,5C04,41.5587651,43.5718825,8071.45,-1,-2.8,356.5,591713.56,-138068.39,350.5,Weapon+Missile,Blue,Enemies,R-27ER,,cn,,1062.33275702504,704.874328613281,3.45000391331664,8071.4482421875,5537.24267578125,1061.09517605927,-51.26318359375,0.0986374043430045,NaN,0.353866978256483,0.73056156929706,5000,1.31721258163452,1.31721258163452,1.31721258163452,56427.5443324208,7915.3867904248,64342.9311228456,,,3.64999985694885,2534.20556640625,2475.56998603488,2481.27868028515
2018-07-19T08:41:04Z,1531989664,5C04,41.5579693,43.5817498,8021.11,-0.8,-2.5,357,591535.56,-136978.64,351,Weapon+Missile,Blue,Enemies,R-27ER,,cn,,1105.33841645485,733.504211425781,3.58718364644208,8021.10986328125,5295.7197265625,1104.19158776908,-50.33837890625,0.0408943834613669,NaN,0.16922060472971,0.373909821530342,5000,1.77156090736389,1.77156090736389,1.77156090736389,61088.6507445455,7866.02170407471,68954.6724486202,,,4.64999985694885,2725.39013671875,3575.87020708941,3584.11640661588
2018-07-19T08:41:05Z,1531989665,5C04,41.557315,43.5918535,7971.5,-0.8,-2.6,357.8,591366.25,-135861.44,351.8,Weapon+Missile,Blue,Enemies,R-27ER,,cn,,1131.04829591663,751.511352539062,3.66812065887929,7971.50439453125,5598.97387695312,1129.95997502833,-49.60546875,0.0511486684280932,NaN,0,0.773308094774173,5000,1.69021034240723,1.69021034240723,1.69021034240723,63963.5123847961,7817.37535706299,71780.8877418591,,,5.64999985694885,2372.53051757812,4701.84294974487,4712.59159262
2018-07-19T08:41:06Z,1531989666,5C04,41.5568537,43.6021014,7914.41,-0.7,-3.1,358.5,591210.88,-134726.59,352.5,Weapon+Missile,Blue,Enemies,R-27ER,,cn,,1146.85295596784,763.723205566406,3.71646576052138,7914.408203125,5866.58544921875,1145.43080434353,-57.09619140625,0.0335279824941608,NaN,0,0.805959707379713,5000,1.07472252845764,1.07472252845764,1.07472252845764,65763.5851306081,7761.38312051758,73524.9682511257,,,6.64999985694885,2047.82275390625,5843.23664964383,5856.83211961997
2018-07-19T08:41:07Z,1531989667,5C04,41.5565148,43.6125793,7845.56,-0.7,-3.6,359,591062.62,-133565.19,353,Weapon+Missile,Blue,Enemies,R-27ER,,cn,,1172.85248144129,782.949768066406,3.79713835069128,7845.5576171875,6068.4111328125,1170.82985101981,-68.8505859375,0.042106361134868,NaN,0,0.650654545866846,5000,0.84682297706604,0.84682297706604,0.84682297706604,68779.14716115,7693.86376065918,76473.0109218092,,,7.64999985694885,1777.146484375,7009.95532972151,7027.01948801343
2018-07-19T08:41:08Z,1531989668,5C04,41.5562729,43.6231935,7767.17,-0.6,-4,359.2,590920.69,-132387.81,353.3,Weapon+Missile,Blue,Enemies,R-27ER,,cn,,1188.48785762699,796.164672851562,3.84363926077545,7767.166015625,6238.79931640625,1185.89971942456,-78.3916015625,0.0199905502454795,NaN,0,0.460980192615592,5000,0.53449285030365,0.53449285030365,0.53449285030365,70625.1693863392,7616.98786071289,78242.1572470521,,,8.64999985694885,1528.36669921875,8191.67574383339,8212.78034276712
2018-07-19T08:41:09Z,1531989669,5C04,41.5560778,43.63396,7681.17,-0.5,-4.2,359.3,590780.75,-131193.12,353.4,Weapon+Missile,Blue,Enemies,R-27ER,,cn,,1205.92556760835,810.976318359375,3.89546424191382,7681.16748046875,6268.57421875,1202.85523923808,-85.99853515625,0.0553313307726232,NaN,0.199987938897973,0.295083275329886,5000,0.496151655912399,0.496151655912399,0.496151655912399,72712.823730576,7532.65210723389,80245.4758378099,,,9.64999985694885,1412.59326171875,9390.30267388923,9415.93626995102
2018-07-19T08:41:10Z,1531989670,5C04,41.5559054,43.6447619,7589.56,-0.5,-4.5,359.6,590642.25,-129994.31,353.6,Weapon+Missile,Blue,Enemies,R-27ER,,cn,,1210.25818081561,817.73876953125,3.90459253029146,7589.56396484375,6085.27124023438,1206.78650148079,-91.603515625,0.0397605913423693,NaN,0,0.420349424955596,5000,1.20311748981476,1.20311748981476,1.20311748981476,73236.2432115555,7442.8197455835,80679.062957139,,,10.6499998569489,1504.29272460938,10592.8440214655,10623.3969441246
2018-07-19T08:41:11Z,1531989671,5C04,41.5558719,43.6550473,7497.72,-0.5,-4.6,0.3,590520.81,-128851.73,354.3,Weapon+Missile,Blue,Enemies,R-27ER,,cn,,1152.67796227844,784.5244140625,3.71419419109082,7497.7236328125,6036.53308105469,1149.01341947549,-91.84033203125,0.0520031681871693,NaN,0,0.604263794302413,5000,1.40466475486755,1.40466475486755,1.40466475486755,66433.3242361188,7352.75514637207,73786.0793824909,,,11.6499998569489,1461.19055175781,11737.8169833226,11773.3972079316
2018-07-19T08:41:12Z,1531989672,5C04,41.5559801,43.6648057,7408.04,-0.5,-4.8,0.8,590416.94,-127766.52,354.8,Weapon+Missile,Blue,Enemies,R-27ER,,cn,,1093.85355105691,750.105834960938,3.52037345306426,7408.0419921875,5675.01318359375,1090.17099323667,-89.681640625,0.045423259085369,NaN,0,0.527217019308848,5000,1.24423348903656,1.24423348903656,1.24423348903656,59825.779557991,7264.80750026855,67090.5870582596,,,12.6499998569489,1733.02880859375,12824.1520593129,12864.6928900576
2018-07-19T08:41:13Z,1531989673,5C04,41.5561938,43.6741239,7320.74,-0.3,-4.7,0.5,590326.62,-126729.34,354.5,Weapon+Missile,Blue,Enemies,R-27ER,,cn,,1044.75821795852,721.611022949219,3.35840835644884,7320.73974609375,5729.54956054688,1041.10424637442,-87.30224609375,0.653561176124993,NaN,0.399975877795947,2.07630451003712,5000,7.45829343795776,7.45829343795776,7.45829343795776,54575.9866995931,7179.19324310303,61755.1799426961,,,13.6499998569489,1591.19018554688,13861.5903392449,13906.991651774
2018-07-19T08:41:14Z,1531989674,5C04,41.555544,43.6827289,7253.26,0.5,-3.6,354.6,590174.88,-125778.66,348.6,Weapon+Missile,Blue,Enemies,R-27ER,,cn,,965.084624745578,672.29052734375,3.09947611957678,7253.259765625,5489.12866210938,962.722589927259,-67.47998046875,0.235008979799133,NaN,0.43076925206042,3.36239562013491,5000,4.62862586975098,4.62862586975098,4.62862586975098,46569.4166460156,7113.01798805664,53682.4346340723,,,14.6499998569489,1764.13110351562,14820.9247895768,14869.7897964837
2018-07-19T08:41:15Z,1531989675,5C04,41.5544369,43.690874,7196.77,0.5,-3.5,354.4,589991.56,-124882.9,348.4,Weapon+Missile,Blue,Enemies,R-27ER,,cn,,916.065990286491,642.327392578125,2.93981287549633,7196.767578125,5542.52868652344,914.322443840812,-56.4921875,0.0349686315194513,NaN,0.0769352508110236,1.04721516899523,5000,1.0224050283432,1.0224050283432,1.0224050283432,41958.8449279785,7057.61807700195,49016.4630049805,,,15.6499998569489,1654.23889160156,15732.0005450741,15783.6453703751
2018-07-19T08:41:16Z,1531989676,5C04,41.5533681,43.6986572,7142.95,0.4,-3.5,354.4,589815.5,-124027.03,348.4,Weapon+Missile,Blue,Enemies,R-27ER,,cn,,875.444404107079,617.608764648438,2.80742149435003,7142.95068359375,5650.79064941406,873.788673848208,-53.81689453125,0.0357542014428539,NaN,0,0.0139882274201861,5000,1.00022339820862,1.00022339820862,1.00022339820862,38320.1452341199,7004.84173212646,45324.9869662464,,,16.6499998569489,1492.16003417969,16602.6857403933,16656.9690880844
2018-07-19T08:41:17Z,1531989677,5C04,41.5523397,43.7061444,7091.19,0.3,-3.5,354.4,589646.12,-123203.72,348.4,Weapon+Missile,Blue,Enemies,R-27ER,,cn,,842.14656741403,597.483154296875,2.69876616613815,7091.18701171875,5688.32080078125,840.554200085426,-51.763671875,0.038468872716687,NaN,0,0.0139882274201861,5000,1.0003559589386,1.0003559589386,1.0003559589386,35460.5420503616,6954.07891084717,42414.6209612088,,,17.6499998569489,1402.8662109375,17440.250724935,17497.0649345242
2018-07-19T08:41:18Z,1531989678,5C04,41.5513521,43.7133335,7041.49,0.2,-3.5,354.4,589483.5,-122413.19,348.4,Weapon+Missile,Blue,Enemies,R-27ER,,cn,,808.6137046858,577.045349121094,2.58958182621558,7041.4921875,5735.99304199219,807.085217217837,-49.69482421875,0.0348531833131451,NaN,0.199987938897973,0.0139882274201861,5000,0.998947858810425,0.998947858810425,0.998947858810425,32692.8061702847,6905.34493605469,39598.1511063394,,,18.6499998569489,1305.49914550781,18244.4712697143,18303.7087027854
2018-07-19T08:41:19Z,1531989679,5C04,41.5504005,43.72026,6993.61,0.2,-3.5,354.4,589326.88,-121651.52,348.4,Weapon+Missile,Blue,Enemies,R-27ER,,cn,,779.074060654047,559.06787109375,2.4933838900273,6993.6083984375,5738.015625,777.601141157216,-47.8837890625,0.0377265009447265,NaN,0,0.0139882274201861,5000,1.00116300582886,1.00116300582886,1.00116300582886,30347.8195991993,6858.38698005371,37206.206579253,,,19.6499998569489,1255.5927734375,19019.3239221038,19080.8904001491
2018-07-19T08:41:20Z,1531989680,5C04,41.5494862,43.726914,6947.62,0.2,-3.5,354.4,589176.31,-120919.84,348.4,Weapon+Missile,Blue,Enemies,R-27ER,,cn,,748.431815130986,540.228088378906,2.39384418755865,6947.62451171875,5696.33020019531,747.017847218191,-45.98388671875,0.0359150835218594,NaN,0,0.0139882274201861,5000,0.998142242431641,0.998142242431641,0.998142242431641,28007.5090950131,6813.29219178467,34820.8012867978,,,20.6499998569489,1251.29431152344,19763.6791549934,19827.4766030733
2018-07-19T08:41:21Z,1531989681,5C04,41.5486073,43.7333091,6903.42,0.1,-3.5,354.4,589031.69,-120216.62,348.4,Weapon+Missile,Blue,Enemies,R-27ER,,cn,,719.296276285273,522.236145019531,2.29929825625707,6903.4189453125,5702.37780761719,717.936627409803,-44.20556640625,0.0352703999818931,NaN,0,0.0139882274201861,5000,0.99989265203476,0.99989265203476,0.99989265203476,25869.356653893,6769.94134000488,32639.2979938979,,,21.6499998569489,1201.04113769531,20479.0861346673,20545.0233576795
2018-07-19T08:41:22Z,1531989682,5C04,41.5477561,43.7395029,6860.61,0.1,-3.5,354.4,588891.62,-119535.53,348.4,Weapon+Missile,Blue,Enemies,R-27ER,,cn,,696.654810393914,508.386108398438,2.22565268762654,6860.61279296875,5638.58142089844,695.338448646775,-42.80615234375,0.0366983225547146,NaN,0,0.0139882274201861,5000,0.999811351299286,0.999811351299286,0.999811351299286,24266.396242249,6727.9628446167,30994.3590868657,,,22.6499998569489,1222.03137207031,21171.969898521,21239.9743390037
2018-07-19T08:41:23Z,1531989683,5C04,41.5469361,43.7454691,6819.39,0.1,-3.5,354.4,588756.62,-118879.48,348.4,Weapon+Missile,Blue,Enemies,R-27ER,,cn,,671.060513049617,492.471557617188,2.14270852211492,6819.38525390625,5640.72509765625,669.792880073583,-41.2275390625,0.0372712468783894,NaN,0,0.0139882274201861,5000,0.998860895633698,0.998860895633698,0.998860895633698,22516.1106087208,6687.53244002197,29203.6430487428,,,23.6499998569489,1178.66015625,21839.3908427272,21909.3818035532
2018-07-19T08:41:24Z,1531989684,5C04,41.5461466,43.7512126,6779.69,0.1,-3.5,354.4,588626.75,-118247.92,348.4,Weapon+Missile,Blue,Enemies,R-27ER,,cn,,645.998510834547,476.777557373047,2.06159673791342,6779.6943359375,5597.49963378906,644.778029271508,-39.69091796875,0.0332437470865981,NaN,0,0.0139882274201861,5000,0.99891185760498,0.99891185760498,0.99891185760498,20865.7038000226,6648.60894595215,27514.3127459747,,,24.6499998569489,1182.19470214844,22481.8961863043,22553.7955913635
2018-07-19T08:41:25Z,1531989685,5C04,41.5453821,43.7567732,6741.27,0.1,-3.5,354.4,588500.94,-117636.47,348.4,Weapon+Missile,Blue,Enemies,R-27ER,,cn,,625.444222175594,463.948852539062,1.99498252071153,6741.265625,5553.81628417969,624.262532295921,-38.4287109375,0.0411382060061383,NaN,0,0.0139882274201861,5000,0.999326407909393,0.999326407909393,0.999326407909393,19559.0237526417,6610.92325414063,26169.9470067823,,,25.6499998569489,1187.44934082031,23103.9385669551,23177.6819494683
2018-07-19T08:41:26Z,1531989686,5C04,41.5446425,43.7621531,6704.09,0,-3.5,354.4,588379.31,-117044.88,348.4,Weapon+Missile,Blue,Enemies,R-27ER,,cn,,605.102140786414,451.145263671875,1.92914535317485,6704.08984375,5496.17590332031,603.959073176945,-37.17578125,0.0357776218506225,NaN,0.169224766876236,0.0139882274201861,5000,0.998359978199005,0.998359978199005,0.998359978199005,18307.4300392151,6574.46626662109,24881.8963058362,,,26.6499998569489,1207.91394042969,23705.7756295968,23781.2992446179
2018-07-19T08:41:27Z,1531989687,5C04,41.5439303,43.7673329,6668.29,0,-3.5,354.4,588262.12,-116475.31,348.4,Weapon+Missile,Blue,Enemies,R-27ER,,cn,,582.601846902536,436.762756347656,1.85653011019551,6668.28955078125,5459.63537597656,581.500860736764,-35.80029296875,0.0326603099655934,NaN,0,0.0139882274201861,5000,0.999747574329376,0.999747574329376,0.999747574329376,16971.2456007123,6539.35817231689,23510.6037730292,,,27.6499998569489,1208.65417480469,24285.2267897607,24362.4615608781
2018-07-19T08:41:28Z,1531989688,5C04,41.5432417,43.7723402,6633.69,0,-3.5,354.4,588148.88,-115924.7,348.4,Weapon+Missile,Blue,Enemies,R-27ER,,cn,,563.206933744275,424.325988769531,1.79390361312223,6633.68896484375,5459.95654296875,562.143086473907,-34.6005859375,0.0405985834314714,NaN,0,0.0139882274201861,5000,0.998956322669983,0.998956322669983,0.998956322669983,15860.1025108814,6505.4265887085,22365.5290995899,,,28.6499998569489,1173.732421875,24845.376623504,24924.2620229516
2018-07-19T08:41:29Z,1531989689,5C04,41.5425724,43.7772071,6600.06,0,-3.5,354.4,588038.81,-115389.52,348.4,Weapon+Missile,Blue,Enemies,R-27ER,,cn,,547.413849216412,414.205902099609,1.74282439620001,6600.060546875,5449.48608398438,546.379951882248,-33.62841796875,0.0326011292898346,NaN,0,0.0139882274201861,5000,0.998680472373962,0.998680472373962,0.998680472373962,14983.0961156964,6472.44837620117,21455.5444918976,,,29.6499998569489,1150.57446289062,25389.8259628774,25470.3126740786
2018-07-19T08:41:30Z,1531989690,5C04,41.5419277,43.7818954,6567.66,0,-3.5,354.4,587932.69,-114874,348.4,Weapon+Missile,Blue,Enemies,R-27ER,,cn,,527.321950122912,401.004302978516,1.67813802191513,6567.66357421875,5448.74072265625,526.325826123078,-32.39697265625,0.0409342050244135,NaN,0,0.0139882274201861,5000,0.998606622219086,0.998606622219086,0.998606622219086,13903.4219540715,6440.67779901123,20344.0997530828,,,30.6499998569489,1118.9228515625,25914.287376651,25996.3140951482
2018-07-19T08:41:31Z,1531989691,5C04,41.541303,43.7864376,6536.27,0,-3.5,354.4,587830,-114374.54,348.4,Weapon+Missile,Blue,Enemies,R-27ER,,cn,,510.873007820871,390.145904541016,1.62511725542441,6536.2744140625,5470.66052246094,509.90778651108,-31.38916015625,0.0307788992318574,NaN,0,0.0139882274201861,5000,0.99845415353775,0.99845415353775,0.99845415353775,13049.5615059972,6409.8955482666,19459.4570542638,,,31.6499998569489,1065.61389160156,26422.4079901152,26505.9242953834
2018-07-19T08:41:32Z,1531989692,5C04,41.5406965,43.7908473,6505.8,0,-3.5,354.4,587730.25,-113889.64,348.4,Weapon+Missile,Blue,Enemies,R-27ER,,cn,,495.989352282131,380.228729248047,1.57713687922334,6505.796875,5465.94604492188,495.052075230416,-30.4775390625,0.0384636042980217,NaN,0,0.0139882274201861,5000,0.999607920646667,0.999607920646667,0.999607920646667,12300.2718788624,6380.00729242187,18680.2791712843,,,32.6499998569489,1039.85083007812,26915.7109176405,27000.6712132787
2018-07-19T08:41:33Z,1531989693,5C04,41.5401122,43.7950944,6476.45,0,-3.5,354.4,587634.12,-113422.62,348.4,Weapon+Missile,Blue,Enemies,R-27ER,,cn,,477.707929478805,367.72412109375,1.51841814918834,6476.44970703125,5437.44970703125,476.805630859306,-29.34716796875,0.0380537999049086,NaN,0,0.0139882274201861,5000,0.999087631702423,0.999087631702423,0.999087631702423,11410.2432943463,6351.2275519458,17761.4708462921,,,33.6499998569489,1039,27390.816892008,27477.1653114629
2018-07-19T08:41:34Z,1531989694,5C04,41.5395452,43.7992167,6447.97,0,-3.5,354.4,587540.94,-112969.34,348.4,Weapon+Missile,Blue,Enemies,R-27ER,,cn,,463.644253308374,358.028045654297,1.47316302726896,6447.9697265625,5421.88037109375,462.76871581642,-28.47998046875,0.0326587563817479,NaN,0,0.0139882274201861,5000,0.998567402362823,0.998567402362823,0.998567402362823,10748.299681294,6323.29823189941,17071.5979131934,,,34.6499998569489,1026.08935546875,27851.9700464507,27939.6634090552
2018-07-19T08:41:35Z,1531989695,5C04,41.5389965,43.8032048,6420.42,0,-3.5,354.4,587450.75,-112530.8,348.4,Weapon+Missile,Blue,Enemies,R-27ER,,cn,,448.556243057696,347.382934570312,1.42470595898023,6420.4150390625,5404.00659179688,447.709104645877,-27.5546875,0.0372875592734944,NaN,0,0.0139882274201861,5000,0.997792541980743,0.997792541980743,0.997792541980743,10060.1351593018,6296.27631428223,16356.411473584,,,35.6499998569489,1016.40844726562,28298.1021840358,28387.0948717322
2018-07-19T08:41:36Z,1531989696,5C04,41.5384644,43.8070731,6393.68,0,-3.5,354.4,587363.25,-112105.45,348.4,Weapon+Missile,Blue,Enemies,R-27ER,,cn,,435.088098012967,337.713043212891,1.38144225741909,6393.67919921875,5347.75903320312,434.265872364374,-26.73583984375,0.0381299346856371,NaN,0,0.0139882274201861,5000,0.999326109886169,0.999326109886169,0.999326109886169,9465.08265162706,6270.05741190186,15735.1400635289,,,36.6499998569489,1045.92016601562,28730.837281479,28821.0889679608
2018-07-19T08:41:37Z,1531989697,5C04,41.5379489,43.8108191,6367.79,0,-3.5,354.4,587278.5,-111693.53,348.4,Weapon+Missile,Blue,Enemies,R-27ER,,cn,,421.338080971463,327.598937988281,1.33732945804249,6367.79443359375,5243.76293945312,420.542218314944,-25.884765625,0.0354577374945586,NaN,0,0.0139882274201861,5000,0.998532593250275,0.998532593250275,0.998532593250275,8876.28892383575,6244.67312822021,15120.962052056,,,37.6499998569489,1124.03149414062,29149.8949382651,29241.3637332691
2018-07-19T08:41:38Z,1531989698,5C04,41.5374508,43.8144393,6342.78,0,-3.5,354.4,587196.62,-111295.45,348.4,Weapon+Missile,Blue,Enemies,R-27ER,,cn,,407.179984260342,316.927398681641,1.29196675405378,6342.77783203125,5196.13146972656,406.410764164184,-25.0166015625,0.0364930805613802,NaN,0,0.0139882274201861,5000,0.998698592185974,0.998698592185974,0.998698592185974,8289.77697911262,6220.14022264893,14509.9172017616,,,38.6499998569489,1146.64636230469,29554.8753669757,29647.5188562659
2018-07-19T08:41:39Z,1531989699,5C04,41.5369695,43.8179367,6318.61,0,-3.5,354.4,587117.5,-110910.88,348.4,Weapon+Missile,Blue,Enemies,R-27ER,,cn,,393.369014533235,306.288818359375,1.24774895853988,6318.60986328125,5193.70056152344,392.625891761289,-24.16796875,0.0358994438087038,NaN,0,0.0139882274201861,5000,0.999464631080627,0.999464631080627,0.999464631080627,7736.95907974243,6196.43954157471,13933.3986213171,,,39.6499998569489,1124.90930175781,29946.1147629641,30039.8915946772
2018-07-19T08:41:40Z,1531989700,5C04,41.5365015,43.8213383,6295.11,0,-3.5,354.4,587040.56,-110536.84,348.4,Weapon+Missile,Blue,Enemies,R-27ER,,cn,,382.592095442914,297.898834228516,1.2131908414795,6295.11279296875,5179.92700195312,381.869872053464,-23.4970703125,0.0326998007238583,NaN,0,0.0139882274201861,5000,0.997189104557037,0.997189104557037,0.997189104557037,7318.83557476997,6173.3967871167,13492.2323618867,,,40.6499998569489,1115.18579101562,30326.6362876251,30421.5134515973
2018-07-19T08:41:41Z,1531989701,5C04,41.5360502,43.8246177,6272.45,0,-3.5,354.4,586966.38,-110176.25,348.4,Weapon+Missile,Blue,Enemies,R-27ER,,cn,,368.843368152581,286.915863037109,1.16924623720617,6272.44580078125,5152.74682617188,368.146217820192,-22.6669921875,0.0394290837639432,NaN,0,0.0139882274201861,5000,1.0001026391983,1.0001026391983,1.0001026391983,6802.27151150704,6151.16806122314,12953.4395727302,,,41.6499998569489,1119.69897460938,30693.496740495,30789.4342394074
2018-07-19T08:41:42Z,1531989702,5C04,41.5356141,43.8277862,6250.56,0,-3.5,354.4,586894.69,-109827.84,348.4,Weapon+Missile,Blue,Enemies,R-27ER,,cn,,356.377666462075,276.816833496094,1.12940542909455,6250.55908203125,5134.0146484375,355.704951744156,-21.88671875,0.0330665377260788,NaN,0,0.0139882274201861,5000,0.997151672840118,0.997151672840118,0.997151672840118,6350.25205764771,6129.70452218018,12479.9565798279,,,42.6499998569489,1116.54443359375,31047.9415947764,31144.9014978627
2018-07-19T08:41:43Z,1531989703,5C04,41.5351915,43.8308576,6229.33,0,-3.5,354.4,586825.25,-109490.11,348.4,Weapon+Missile,Blue,Enemies,R-27ER,,cn,,345.451539005733,267.885803222656,1.09447468991829,6229.32958984375,5120.33959960938,344.798599856337,-21.2294921875,0.0406750028684998,NaN,0,0.0139882274201861,5000,0.999549806118011,0.999549806118011,0.999549806118011,5966.83829007149,6108.88550222412,12075.7237922956,,,43.6499998569489,1108.98999023438,31391.5289597518,31489.4796031869
2018-07-19T08:41:44Z,1531989704,5C04,41.5347839,43.8338184,6208.87,0,-3.5,354.4,586758.31,-109164.54,348.4,Weapon+Missile,Blue,Enemies,R-27ER,,cn,,333.009170235559,257.584320068359,1.05477164979676,6208.87353515625,5099.44091796875,332.380290161131,-20.4560546875,0.0389997636610804,NaN,0,0.0139882274201861,5000,0.998164236545563,0.998164236545563,0.998164236545563,5544.75537304878,6088.824965354,11633.5803384028,,,44.6499998569489,1109.4326171875,31722.7461099463,31821.6501825556
2018-07-19T08:41:45Z,1531989705,5C04,41.5343907,43.8366756,6189.13,0,-3.5,354.4,586693.62,-108850.38,348.4,Weapon+Missile,Blue,Enemies,R-27ER,,cn,,321.361790627794,247.912170410156,1.0176167816552,6189.12841796875,5084.0546875,320.754627126023,-19.7451171875,0.0311197802219544,NaN,0,0.0139882274201861,5000,0.998762726783752,0.998762726783752,0.998762726783752,5163.6700237751,6069.46162000732,11233.1316437824,,,45.6499998569489,1105.07373046875,32042.3708735299,32142.1943091736
2018-07-19T08:41:46Z,1531989706,5C04,41.5340092,43.8394464,6169.98,0,-3.5,354.4,586631,-108545.69,348.4,Weapon+Missile,Blue,Enemies,R-27ER,,cn,,311.645553706726,239.923004150391,0.986602431512142,6169.98193359375,5069.45825195312,311.056848954094,-19.146484375,0.0352771944252985,NaN,0,0.0139882274201861,5000,0.998810946941376,0.998810946941376,0.998810946941376,4856.14755725861,6050.68533290771,10906.8328901663,,,46.6499998569489,1100.52368164062,32352.333634119,32453.0475899401
2018-07-19T08:41:47Z,1531989707,5C04,41.5336427,43.8421092,6151.58,0,-3.5,354.4,586570.75,-108252.89,348.4,Weapon+Missile,Blue,Enemies,R-27ER,,cn,,299.497203680113,229.899887084961,0.947915323504028,6151.58349609375,5057.44470214844,298.931551546112,-18.3984375,0.0367593848673544,NaN,0,0.0139882274201861,5000,0.998159170150757,0.998159170150757,0.998159170150757,4484.92875061035,6032.64262919678,10517.5713798071,,,47.6499998569489,1094.13879394531,32650.2164939783,32751.7852743976
2018-07-19T08:41:48Z,1531989708,5C04,41.5332886,43.8446821,6133.8,0,-3.5,354.4,586512.56,-107969.97,348.4,Weapon+Missile,Blue,Enemies,R-27ER,,cn,,289.390299355953,221.64485168457,0.915713926635241,6133.80224609375,5047.59191894531,288.843508685526,-17.78125,0.0392399141059605,NaN,0,0.0139882274201861,5000,0.999250888824463,0.999250888824463,0.999250888824463,4187.33726806641,6015.20517966553,10202.5424477319,,,48.6499998569489,1086.21032714844,32938.0409742161,33040.4351502141
2018-07-19T08:41:49Z,1531989709,5C04,41.5329434,43.8471892,6116.48,0,-3.5,354.4,586455.81,-107694.3,348.4,Weapon+Missile,Blue,Enemies,R-27ER,,cn,,281.984876788556,215.672927856445,0.892079209060977,6116.48388671875,5050.01013183594,281.452562905396,-17.318359375,0.0349537473837855,NaN,0,0.0139882274201861,5000,0.99772173166275,0.99772173166275,0.99772173166275,3975.77353687286,5998.22167076904,9973.99520764191,,,49.6499998569489,1066.47375488281,33218.4967776459,33321.6939755683
2018-07-19T08:41:50Z,1531989710,5C04,41.5326103,43.8496094,6099.76,0,-3.5,354.4,586401.12,-107428.17,348.4,Weapon+Missile,Blue,Enemies,R-27ER,,cn,,272.200263604212,207.757537841797,0.860936851077341,6099.75830078125,5047.74743652344,271.685918444902,-16.7255859375,0.0315678990145414,NaN,0,0.0139882274201861,5000,0.999564468860626,0.999564468860626,0.999564468860626,3704.64917531013,5981.81947403564,9686.46864934578,,,50.6499998569489,1052.01086425781,33489.2351960751,33593.20731972
2018-07-19T08:41:51Z,1531989711,5C04,41.5322894,43.8519659,6083.48,0,-3.5,354.4,586348.06,-107169.02,348.4,Weapon+Missile,Blue,Enemies,R-27ER,,cn,,265.025338231909,202.022171020508,0.838065382086777,6083.48291015625,5040.05847167969,264.525124638363,-16.275390625,0.047216147301191,NaN,0,0.0139882274201861,5000,0.997383177280426,0.997383177280426,0.997383177280426,3511.92149524689,5965.85876808838,9477.78026333527,,,51.6499998569489,1043.42443847656,33752.8240090902,33857.549389699
2018-07-19T08:41:52Z,1531989712,5C04,41.5319775,43.8542555,6067.66,0,-3.5,354.4,586296.56,-106917.23,348.4,Weapon+Missile,Blue,Enemies,R-27ER,,cn,,257.496196579852,196.015670776367,0.814088596496035,6067.65966796875,5032.94519042969,257.009564529738,-15.8232421875,0.0387515895569029,NaN,0,0.0139882274201861,5000,0.998730897903442,0.998730897903442,0.998730897903442,3315.2145626545,5950.34146828857,9265.55603094307,,,52.6499998569489,1034.71447753906,34008.9277558302,34114.384977249
2018-07-19T08:41:53Z,1531989713,5C04,41.5316755,43.8564732,6052.34,0,-3.5,354.4,586246.69,-106673.34,348.4,Weapon+Missile,Blue,Enemies,R-27ER,,cn,,249.401570983518,189.569580078125,0.788339439540921,6052.33642578125,5029.43176269531,248.930395608713,-15.3232421875,0.0469202804226248,NaN,0,0.0139882274201861,5000,0.999167799949646,0.999167799949646,0.999167799949646,3110.05718045235,5935.31450098877,9045.37168144112,,,53.6499998569489,1022.90466308594,34256.9884903296,34363.1537754542
2018-07-19T08:41:54Z,1531989714,5C04,41.5313812,43.8586341,6037.41,0,-3.5,354.4,586198.06,-106435.72,348.4,Weapon+Missile,Blue,Enemies,R-27ER,,cn,,243.007659856138,184.524230957031,0.767979363828892,6037.41357421875,5025.8623046875,242.549028548869,-14.9228515625,0.0459542100406821,NaN,0,0.0139882274201861,5000,0.9977707862854,0.9977707862854,0.9977707862854,2952.63613743782,5920.68018276123,8873.31632019905,,,54.6499998569489,1011.55126953125,34498.6921636141,34605.5463206065
2018-07-19T08:41:55Z,1531989715,5C04,41.5310937,43.860745,6022.83,0,-3.5,354.4,586150.56,-106203.57,348.4,Weapon+Missile,Blue,Enemies,R-27ER,,cn,,237.406516078124,180.131744384766,0.750135445060232,6022.8291015625,5020.79461669922,236.958112403208,-14.58447265625,0.0423891580179435,NaN,0,0.0139882274201861,5000,0.998321235179901,0.998321235179901,0.998321235179901,2818.09269381762,5906.37770088379,8724.47039470141,,,55.6499998569489,1002.03448486328,34734.8120830898,34842.3390445846
2018-07-19T08:41:56Z,1531989716,5C04,41.530815,43.862791,6008.69,0,-3.5,354.4,586104.5,-105978.57,348.4,Weapon+Missile,Blue,Enemies,R-27ER,,cn,,230.101283619337,174.377563476562,0.726919170715005,6008.6923828125,5012.95495605469,229.666614696716,-14.13671875,0.0587438586267799,NaN,0,0.0139882274201861,5000,0.998668551445007,0.998668551445007,0.998668551445007,2647.33003616333,5892.51431559082,8539.84435175415,,,56.6499998569489,995.737426757812,34963.6709081814,35071.8495157857
2018-07-19T08:41:57Z,1531989717,5C04,41.5305432,43.8647865,5994.91,0,-3.5,354.4,586059.62,-105759.12,348.4,Weapon+Missile,Blue,Enemies,R-27ER,,cn,,224.410370555552,169.933822631836,0.708813622369845,5994.908203125,5005.59375,223.986630858234,-13.7841796875,0.0401364160965381,NaN,0,0.0356631257199208,5000,0.893609821796417,0.893609821796417,0.893609821796417,2518.000720644,5878.99665301758,8396.99737366158,,,57.6499998569489,989.314453125,35186.8769102866,35295.6903736631
2018-07-19T08:41:58Z,1531989718,5C04,41.5302793,43.8667237,5980.5,-0.2,-4.7,354.4,586016.06,-105546.07,348.4,Weapon+Missile,Blue,Enemies,R-27ER,,cn,,217.939670938105,164.885192871094,0.688246408820562,5980.49609375,5003.34216308594,217.462620401697,-14.412109375,0.0626886790183535,NaN,0.399975877795947,1.25010988699357,5000,0.151860550045967,0.151860550045967,0.151860550045967,2374.88500843048,5864.86320177734,8239.74821020782,,,58.6499998569489,977.153930664062,35403.562561943,35513.0577559431
2018-07-19T08:41:59Z,1531989719,5C04,41.5300225,43.8686079,5958.27,-0.5,-7.4,354.4,585973.62,-105338.88,348.4,Weapon+Missile,Blue,Enemies,R-27ER,,cn,,212.654168318763,160.859008789062,0.671360765728757,5958.265625,4996.77484130859,211.489010500546,-22.23046875,0.0530291162489401,NaN,0.199987938897973,2.55773124745912,4633.57195941193,0.00663929991424084,0.00663929991424084,0.00663929991424084,2261.08976516724,5843.06255914063,8104.15232430786,,,59.6499998569489,961.490783691406,35614.3185911436,35725.179134987
2018-07-19T08:42:00Z,1531989720,5C04,41.529772,43.8704422,5927.01,-0.8,-10,354.4,585932.31,-105137.16,348.4,Weapon+Missile,Blue,Enemies,R-27ER,,cn,,208.263775760266,157.622665405273,0.657232975611305,5927.0146484375,4970.60815429688,205.905747267561,-31.2509765625,0.0626087897995201,NaN,0.199987938897973,2.67695134564804,4485.44023480533,0.0121991503983736,0.0121991503983736,0.0121991503983736,2168.69001469612,5812.41582020996,7981.10583490608,,,60.6499998569489,956.406494140625,35819.4947055523,35932.9105570489
2018-07-19T08:42:01Z,1531989721,5C04,41.5295281,43.872223,5887.1,-1,-12.7,354.4,585892.12,-104941.34,348.4,Weapon+Missile,Blue,Enemies,R-27ER,,cn,,203.854235286308,154.440048217773,0.642984065345337,5887.10400390625,4930.14514160156,199.909203633214,-39.91064453125,0.0397071126327043,NaN,0.169224766876236,2.67308716612511,4356.87812363735,0.0137364631518722,0.0137364631518722,0.0137364631518722,2077.82746220827,5773.27684799072,7851.10431019899,,,61.6499998569489,956.958862304688,36018.6998976171,36136.2553523126
2018-07-19T08:42:02Z,1531989722,5C04,41.5292896,43.8739559,5838.7,-1.2,-15.4,354.4,585852.94,-104750.78,348.4,Weapon+Missile,Blue,Enemies,R-27ER,,cn,,200.472808373418,152.137329101562,0.63192164547673,5838.70361328125,4880.85021972656,194.542409475345,-48.400390625,0.0588437749370389,NaN,0.184633673643785,2.68874729578807,4249.81516521598,0.0100382752716541,0.0100382752716541,0.0100382752716541,2009.46734485626,5725.81227891846,7735.27962377472,,,62.6499998569489,957.853393554688,36212.5546964742,36336.2338524365
2018-07-19T08:42:03Z,1531989723,5C04,41.5290556,43.8756466,5781.86,-1.4,-18.1,354.3,585814.62,-104564.9,348.3,Weapon+Missile,Blue,Enemies,R-27ER,,cn,,198.120141775453,150.711486816406,0.624045894152289,5781.85888671875,4824.50280761719,189.79006201369,-56.8447265625,0.0681307601183461,NaN,0.199987938897973,2.68121188958625,4222.2030403782,0.0169692002236843,0.0169692002236843,0.0169692002236843,1962.57952885628,5670.06664514404,7632.64617400032,,,63.6499998569489,957.356079101562,36401.69621683,36533.8978255139
2018-07-19T08:42:04Z,1531989724,5C04,41.5288257,43.8772949,5716.83,-1.5,-20.7,354.3,585777.12,-104383.68,348.3,Weapon+Missile,Blue,Enemies,R-27ER,,cn,,196.1516895703,149.648208618164,0.617326060656639,5716.828125,4759.49938964844,185.05805940721,-65.03076171875,0.0443571213670082,NaN,0.107698422832761,2.66604054533577,4216.17018342286,0.0237872041761875,0.0237872041761875,0.0237872041761875,1923.77426606417,5606.29325320313,7530.06751926729,,,64.6499998569489,957.328735351562,36586.1027934162,36729.5917694332
2018-07-19T08:42:05Z,1531989725,5C04,41.5286009,43.8788903,5644.35,-1.6,-23.4,354.2,585740.62,-104208.29,348.2,Weapon+Missile,Blue,Enemies,R-27ER,,cn,,193.254199916928,147.894226074219,0.607638161743718,5644.35009765625,4684.08282470703,179.148322174367,-72.47802734375,0.051901475324121,NaN,0,2.67733554378886,4178.85776854491,0.0240073222666979,0.0240073222666979,0.0240073222666979,1867.3592892766,5535.21658851807,7402.57587779467,,,65.6499998569489,960.267272949219,36764.6195441087,36922.4079666171
2018-07-19T08:42:06Z,1531989726,5C04,41.5283792,43.8804463,5564.07,-1.7,-26,354.1,585704.81,-104037.26,348.1,Weapon+Missile,Blue,Enemies,R-27ER,,cn,,192.300236958439,147.742248535156,0.604013415674876,5564.068359375,4595.29913330078,174.740446470794,-80.28173828125,0.0343645811911668,NaN,0.199987938897973,2.62731977604415,4247.41458695813,0.0212196260690689,0.0212196260690689,0.0212196260690689,1848.96905671358,5456.48709764648,7305.45615436007,,,66.6499998569489,968.769226074219,36938.7472052141,37114.2904982528
2018-07-19T08:42:07Z,1531989727,5C04,41.5281607,43.8819602,5476.43,-1.7,-28.6,354.1,585669.81,-103870.88,348.1,Weapon+Missile,Blue,Enemies,R-27ER,,cn,,191.282825799393,147.590789794922,0.600140977467668,5476.427734375,4509.65905761719,170.024234435595,-87.640625,0.078139954019253,NaN,0,2.56692638962925,4304.99832979341,0.0348121598362923,0.0348121598362923,0.0348121598362923,1829.45597229004,5370.54100413086,7199.9969764209,,,67.6499998569489,966.768676757812,37108.1783807734,37305.1766300758
2018-07-19T08:42:08Z,1531989728,5C04,41.5279438,43.883441,5381.1,-1.7,-31.1,354,585635.25,-103708.14,348,Weapon+Missile,Blue,Enemies,R-27ER,,cn,,191.740939089744,148.681564331055,0.600842995397467,5381.09912109375,4421.47967529297,166.364188492868,-95.32861328125,0.0634299465567087,NaN,0,2.52841628898483,4394.84128044149,0.0287562385201454,0.0287562385201454,0.0287562385201454,1838.22938615084,5277.0555695874,7115.28495573824,,,68.6499998569489,959.619445800781,37273.9397166401,37496.5170564856
2018-07-19T08:42:09Z,1531989729,5C04,41.5277307,43.8848728,5279.36,-1.7,-33.5,353.9,585601.56,-103550.84,347.9,Weapon+Missile,Blue,Enemies,R-27ER,,cn,,190.336625800853,148.318557739258,0.595666367289601,5279.35986328125,4329.89593505859,160.863776348237,-101.7392578125,0.0158865637565538,NaN,0,2.45916350688619,4511.61488603242,0.0285607520490885,0.0285607520490885,0.0285607520490885,1811.4015560627,5177.28344032471,6988.68499638741,,,69.6499998569489,949.463928222656,37434.2358760927,37686.4873168182
2018-07-19T08:42:10Z,1531989730,5C04,41.5275196,43.8862677,5170.71,-1.7,-35.9,353.8,585568.5,-103397.62,347.8,Weapon+Missile,Blue,Enemies,R-27ER,,cn,,190.727413525763,149.458526611328,0.596062213725222,5170.70703125,4227.24188232422,156.753017074047,-108.65283203125,0.0473430200816498,NaN,0,2.36298291742819,4655.30220107489,0.0322920978069305,0.0322920978069305,0.0322920978069305,1818.84731351137,5070.73141080078,6889.57872431215,,,70.6499998569489,943.465148925781,37590.4425946616,37876.8710649103
2018-07-19T08:42:11Z,1531989731,5C04,41.5273101,43.8876267,5055.31,-1.7,-38.2,353.6,585536,-103248.38,347.6,Weapon+Missile,Blue,Enemies,R-27ER,,cn,,191.426384683792,150.907150268555,0.597368694672418,5055.30810546875,4113.61450195312,152.732277798901,-115.39892578125,0.0553624908589537,NaN,0,2.30910638525513,4822.90549247209,0.0383158512413502,0.0383158512413502,0.0383158512413502,1832.20303765535,4957.56372324951,6789.76676090487,,,71.6499998569489,941.693603515625,37742.6488909569,38067.9752947477
2018-07-19T08:42:12Z,1531989732,5C04,41.5271026,43.8889473,4933.59,-1.6,-40.5,353.5,585504.06,-103103.39,347.5,Weapon+Missile,Blue,Enemies,R-27ER,,cn,,191.982089449663,152.294662475586,0.598178342325413,4933.59375,3995.80786132812,148.467970762334,-121.71435546875,0.0103707690608594,NaN,0.199987938897973,2.2600852638083,5000,0.0360461585223675,0.0360461585223675,0.0360461585223675,1842.85613347292,4838.20271484375,6681.05884831667,,,72.6499998569489,937.785888671875,37890.6008059244,38259.6480596506
2018-07-19T08:42:13Z,1531989733,5C04,41.5268965,43.8902336,4805.48,-1.6,-42.7,353.4,585472.62,-102962.19,347.4,Weapon+Missile,Blue,Enemies,R-27ER,,cn,,193.235677561577,154.316192626953,0.601109450490674,4805.47900390625,3877.80963134766,144.660426226441,-128.11474609375,0.0736207992427452,NaN,0,2.1414286562259,5000,0.0349627956748009,0.0349627956748009,0.0349627956748009,1867.00135413408,4712.56506736572,6579.56642149981,,,73.6499998569489,927.669372558594,38034.742821724,38452.578218611
2018-07-19T08:42:14Z,1531989734,5C04,41.5266917,43.8914862,4671.16,-1.5,-44.7,353.2,585441.69,-102824.72,347.3,Weapon+Missile,Blue,Enemies,R-27ER,,cn,,194.671168012443,156.55207824707,0.604550379590837,4671.158203125,3756.22778320312,140.907012362098,-134.32080078125,0.0364744410704273,NaN,0.200042580411333,2.00941561372154,5000,0.0284973289817572,0.0284973289817572,0.0284973289817572,1894.84318276644,4580.84135926758,6475.68454203402,,,74.6499998569489,914.930419921875,38175.1518270503,38646.9646102802
2018-07-19T08:42:15Z,1531989735,5C04,41.5264885,43.8927032,4531.12,-1.5,-46.7,353.1,585411.38,-102691.2,347.1,Weapon+Missile,Blue,Enemies,R-27ER,,cn,,195.847412036181,158.633605957031,0.607134145994987,4531.119140625,3629.32360839844,136.913365948656,-140.0390625,0.0599103809479566,NaN,0,1.97924581438395,5000,0.047504797577858,0.047504797577858,0.047504797577858,1917.81044006348,4443.50995204102,6361.32039210449,,,75.6499998569489,901.795532226562,38311.5956807404,38842.5527851106
2018-07-19T08:42:16Z,1531989736,5C04,41.5262863,43.8938896,4385.02,-1.4,-48.5,352.9,585381.38,-102561.07,347,Weapon+Missile,Blue,Enemies,R-27ER,,cn,,197.941010122129,161.552871704102,0.612503158764407,4385.01611328125,3489.77795410156,133.546055311118,-146.10302734375,0.0320633471102759,NaN,0,1.91037445566177,5000,0.028660761192441,0.028660761192441,0.028660761192441,1959.03217440844,4300.23182673096,6259.26400113939,,,76.6499998569489,895.238159179688,38444.6579403971,39040.2303487913
2018-07-19T08:42:17Z,1531989737,5C04,41.5260851,43.8950458,4233.06,-1.3,-50.3,352.8,585351.88,-102434.29,346.8,Weapon+Missile,Blue,Enemies,R-27ER,,cn,,200.084813831897,164.588973999023,0.617964697963047,4233.0615234375,3340.41973876953,130.168104202076,-151.95458984375,0.0302194663381693,NaN,0.199987938897973,1.76079438005555,5000,0.0395836383104324,0.0395836383104324,0.0395836383104324,2001.69663630724,4151.21527888184,6152.91191518908,,,77.6499998569489,892.641784667969,38574.3729548377,39240.0776032958
2018-07-19T08:42:18Z,1531989738,5C04,41.5258848,43.8961727,4075.36,-1.3,-52.1,352.7,585322.75,-102310.75,346.7,Weapon+Missile,Blue,Enemies,R-27ER,,cn,,202.435123445553,167.877502441406,0.623999946128995,4075.35986328125,3184.23852539062,126.925827113235,-157.70166015625,0.0857216766961081,NaN,0,1.71796386459599,5000,0.0289225745946169,0.0289225745946169,0.0289225745946169,2048.99896022081,3996.56278032471,6045.56174054552,,,78.6499998569489,891.121337890625,38700.8483194568,39442.282141623
2018-07-19T08:42:19Z,1531989739,5C04,41.5256872,43.8972623,3913.29,-1.2,-53.7,352.5,585294.31,-102191.34,346.5,Weapon+Missile,Blue,Enemies,R-27ER,,cn,,203.313314460861,169.963470458984,0.625451334798965,3913.2861328125,3023.95239257812,122.753450986129,-162.07373046875,0.0464624611478816,NaN,0,1.68258423174726,5000,0.0397836342453957,0.0397836342453957,0.0397836342453957,2066.81519185305,3837.62274543457,5904.43793728762,,,79.6499998569489,889.333740234375,38823.1746609324,39645.3840272335
2018-07-19T08:42:20Z,1531989740,5C04,41.5254904,43.898326,3745.53,-1.1,-55.3,352.4,585266.19,-102074.79,346.4,Weapon+Missile,Blue,Enemies,R-27ER,,cn,,206.193023061886,173.851516723633,0.633000169615961,3745.5322265625,2858.10864257812,119.892408839199,-167.75390625,0.0641191488850534,NaN,0.0923272955490589,1.54092408064879,5000,0.0302233807742596,0.0302233807742596,0.0302233807742596,2125.77813796997,3673.11236096191,5798.89049893188,,,80.6499998569489,887.423583984375,38942.6336224517,39851.3669331536
2018-07-19T08:42:21Z,1531989741,5C04,41.5252946,43.8993624,3572.5,-1.1,-56.7,352.2,585238.5,-101961.27,346.2,Weapon+Missile,Blue,Enemies,R-27ER,,cn,,208.790304119818,177.577743530273,0.639613989609252,3572.49755859375,2686.73376464844,116.843462698564,-173.03466796875,0.00812631799142744,NaN,0.0153837204449843,1.49153914490695,5000,0.0289153549820185,0.0289153549820185,0.0289153549820185,2179.66955472231,3503.42331829834,5683.09287302065,,,81.6499998569489,885.763793945312,39059.0712989637,40059.9677215327
2018-07-19T08:42:22Z,1531989742,5C04,41.525102,43.900363,3395.88,-1,-58.2,352,585211.5,-101851.7,346.1,Weapon+Missile,Blue,Enemies,R-27ER,,cn,,209.591782991494,179.78596496582,0.640685016898354,3395.87915039062,2511.36950683594,112.847921475531,-176.618408203125,0.0347378955330133,NaN,0,1.44073555753016,5000,0.0376726277172565,0.0376726277172565,0.0376726277172565,2196.43577487767,3330.21982701782,5526.65560189549,,,82.6499998569489,884.509643554688,39171.5171983492,40269.3763181865
2018-07-19T08:42:23Z,1531989743,5C04,41.5249105,43.9013389,3214.05,-0.9,-59.5,351.9,585184.81,-101744.87,345.9,Weapon+Missile,Blue,Enemies,R-27ER,,cn,,212.573351275459,183.994552612305,0.648363243110559,3214.05151367188,2330.65942382812,110.118754977315,-181.82763671875,0.026476605559736,NaN,0.199987938897973,1.32560887708819,5000,0.0230749808251858,0.0230749808251858,0.0230749808251858,2259.37148362398,3151.90782765503,5411.27931127901,,,83.6499998569489,883.39208984375,39281.2376365241,40481.7729832667
2018-07-19T08:42:24Z,1531989744,5C04,41.5247211,43.9022865,3027.93,-0.9,-60.8,351.8,585158.69,-101641.16,345.8,Weapon+Missile,Blue,Enemies,R-27ER,,cn,,214.659363499008,187.481964111328,0.653251388556023,3027.92846679688,2145.67358398438,106.943226806402,-186.123046875,0.0673444024426244,NaN,0,1.29067000488434,5000,0.0340123251080513,0.0340123251080513,0.0340123251080513,2303.93211688995,2969.38346989136,5273.31558678131,,,84.6499998569489,882.2548828125,39387.8151669136,40696.276310908
2018-07-19T08:42:25Z,1531989745,5C04,41.5245356,43.9031975,2839.47,-0.8,-62,351.6,585133.25,-101541.49,345.6,Weapon+Missile,Blue,Enemies,R-27ER,,cn,,214.702020396889,189.175216674805,0.651898200323564,2839.47314453125,1958.68255615234,102.866656756529,-188.455322265625,0.0151360055368101,NaN,0,1.22104113549452,5000,0.027750700712204,0.027750700712204,0.027750700712204,2304.84787812531,2784.57193128174,5089.41980940705,,,85.6499998569489,880.790588378906,39490.3120509745,40910.8239427212
2018-07-19T08:42:26Z,1531989746,5C04,41.5243544,43.9040725,2648.95,-0.7,-63.2,351.5,585108.56,-101445.8,345.5,Weapon+Missile,Blue,Enemies,R-27ER,,cn,,214.626802267068,190.785232543945,0.650181311918413,2648.95385742188,1769.75561523438,98.8284649821227,-190.519287109375,0.0179490041149374,NaN,0.107685829671479,1.19048297586959,5000,0.0234220530837774,0.0234220530837774,0.0234220530837774,2303.23321256936,2597.73633458862,4900.96954715798,,,86.6499998569489,879.1982421875,39588.7914638205,41125.3097013761
2018-07-19T08:42:27Z,1531989747,5C04,41.5241771,43.9049132,2456.37,-0.7,-64.3,351.3,585084.62,-101353.88,345.3,Weapon+Missile,Blue,Enemies,R-27ER,,cn,,214.733056844982,192.584045410156,0.649008157452697,2456.37231445312,1577.37231445312,94.9875518674191,-192.58154296875,0.0141211281867698,NaN,0,1.17050403221707,5000,0.0227409172803164,0.0227409172803164,0.0227409172803164,2305.51428509951,2408.87835575317,4714.39264085268,,,87.6499998569489,879,39683.4545344413,41339.9161362738
2018-07-19T08:42:28Z,1531989748,5C04,41.5240046,43.9057182,2262.47,-0.7,-65.4,351.2,585061.5,-101265.86,345.2,Weapon+Missile,Blue,Enemies,R-27ER,,cn,,214.192667108194,193.803970336914,0.645883745924451,2262.47290039062,1384.3359375,91.0028344016857,-193.8994140625,0.0206487001973357,NaN,0,1.09029530652461,5000,0.0277016442269087,0.0277016442269087,0.0277016442269087,2293.92493214607,2218.72798686157,4512.65291900765,,,88.6499998569489,878.136962890625,39774.1251597658,41553.9820807757
2018-07-19T08:42:29Z,1531989749,5C04,41.523836,43.9064923,2066.43,-0.6,-66.5,351,585039,-101181.26,345,Weapon+Missile,Blue,Enemies,R-27ER,,cn,,214.699663789363,196.01530456543,0.645911830221344,2066.43139648438,1189.22338867188,87.5424147338957,-196.04150390625,0,NaN,0,1.04393945295797,5000,0.026529947295785,0.026529947295785,0.026529947295785,2304.79728156328,2026.47694543335,4331.27422699663,,,89.6499998569489,877.2080078125,39861.3501234712,41768.5645362047
2018-07-19T08:42:30Z,1531989750,5C04,41.5236727,43.90723,1870.14,-0.6,-67.5,350.9,585017.31,-101100.66,344.9,Weapon+Missile,Blue,Enemies,R-27ER,,cn,,213.30152442037,196.45622253418,0.640223059523049,1870.13610839844,993.8134765625,83.46077039731,-196.295288085938,0.00522401148390025,NaN,0,0.990154914895295,5000,0.0118447784334421,0.0118447784334421,0.0118447784334421,2274.87701600268,1833.97702674255,4108.85404274524,,,90.6499998569489,876.322631835938,39944.5161500524,41981.7609190473
2018-07-19T08:42:31Z,1531989751,5C04,41.5235133,43.9079388,1672.01,-0.5,-68.5,350.7,584996.38,-101023.23,344.8,Weapon+Missile,Blue,Enemies,R-27ER,,cn,,213.749611162123,198.642059326172,0.640078863823065,1672.01000976562,796.537841796875,80.2181108759113,-198.126098632812,0.0681624075874924,NaN,0.16922060472971,0.990056090595741,5000,0.0264102872461081,0.0264102872461081,0.0264102872461081,2284.44481359795,1639.68169622681,3924.12650982475,,,91.6499998569489,875.47216796875,40024.4438238785,42195.4100060039
2018-07-19T08:42:32Z,1531989752,5C04,41.5233592,43.9086138,1473.82,-0.5,-69.4,350.6,584976.19,-100949.53,344.6,Weapon+Missile,Blue,Enemies,R-27ER,,cn,,212.40742964471,199.138656616211,0.634589692080738,1473.822265625,599.160034179688,76.4103019279642,-198.187744140625,0.0313133995291876,NaN,0,0.962695526719433,5000,0.0173565950244665,0.0173565950244665,0.0173565950244665,2255.84580841363,1445.32591211914,3701.17172053277,,,92.6499998569489,874.662231445312,40100.589397963,42407.7290831062
2018-07-19T08:42:33Z,1531989753,5C04,41.5232093,43.9092605,1274.4,-0.5,-70.2,350.5,584956.69,-100878.92,344.5,Weapon+Missile,Blue,Enemies,R-27ER,,cn,,212.446828271488,200.955764770508,0.633238264384587,1274.40380859375,400.500732421875,73.2525346857747,-199.41845703125,0.0355072301395147,NaN,0,0.878457256220932,5000,0.0226231049746275,0.0226231049746275,0.0226231049746275,2256.68274213076,1249.76321095459,3506.44595308535,,,93.6499998569489,873.903076171875,40173.5820000461,42620.0918315244
2018-07-19T08:42:34Z,1531989754,5C04,41.5230643,43.9098775,1074.66,-0.4,-71.1,350.3,584937.88,-100811.59,344.4,Weapon+Missile,Blue,Enemies,R-27ER,,cn,,211.625427251894,201.951782226562,0.629334225110689,1074.66076660156,201.239135742188,69.9145094758871,-199.743041992188,0.0348057192208875,NaN,0,0.870175385048027,5000,0.00697172619402409,0.00697172619402409,0.00697172619402409,2239.26607297733,1053.88220067932,3293.14827365666,,,94.6499998569489,873.421630859375,40243.243469589,42831.6380217072
2018-07-19T08:42:35Z,1531989755,5C04,41.522924,43.9104658,874.68,-0.4,-72,350.2,584919.88,-100747.4,344.2,Weapon+Missile,Blue,Enemies,R-27ER,,cn,,210.795652642338,202.936111450195,0.625424954345847,874.683837890625,1.7528076171875,66.6635969345339,-199.976928710938,0.0118054449229313,NaN,0,0.820279839304879,5000,0.0287584401667118,0.0287584401667118,0.0287584401667118,2221.74035864547,857.77182588501,3079.51218453048,,,95.6499998569489,872.931030273438,40309.6864851985,43042.3672216192
2018-07-19T08:42:36Z,1531989756,5C04,41.5227884,43.9110267,674.45,-0.4,-72.7,350.1,584902.44,-100686.2,344.1,Weapon+Missile,Blue,Enemies,R-27ER,,cn,,210.107904476371,204.055435180664,0.621955459770971,674.445373535156,-198.056030273438,63.6387375425976,-200.238464355469,0.0318688255670127,NaN,0,0.785983805295806,5000,0.0244832336902618,0.0244832336902618,0.0244832336902618,2207.2665761726,661.404972237854,2868.67154841045,,,96.6499998569489,872.501403808594,40373.0721516416,43252.400936078
