ISOTime,UnixTime,Id,Longitude,Latitude,Altitude,Roll,Pitch,Yaw,U,V,Heading,Type,Color,Coalition,Name,Group,Country,Pilot,TAS,CAS,M,ASL,AGL,GS,VS,AOA,AOS,RRT,TRT,TRD,G,LatG,LonG,Ek,Ep,Em,FFW,FFV,RelativeTime,Elev,GroundDistance,AirDistance
2018-07-19T08:36:10Z,1531989370,60E,41.1457294,43.2565022,10771.88,-14.1,3.9,359.4,561792.62,-176488.75,353.7,Weapon+Missile,Blue,Enemies,AIM-7M,,us,,259.410266011984,153.665374755859,0.875625063207987,10771.8759765625,8782.00170898438,NaN,NaN,7.37800163883266,NaN,3.07689264561132,1.14237216643451,NaN,NaN,NaN,NaN,NaN,10563.6017545557,NaN,,,0.599999904632568,1989.87426757812,NaN,NaN
2018-07-19T08:36:11Z,1531989371,60E,41.1458191,43.2591633,10758.24,-11.4,3.7,359.7,561770.88,-176192.34,354.1,Weapon+Missile,Blue,Enemies,AIM-7M,,us,,297.515861152526,179.834335327148,1.0040448523801,10758.2392578125,8627.51635742188,297.203175519816,-13.63671875,5.99507604999864,NaN,2.47691346099176,1.89299866785667,5000,1.40246307849884,1.40246307849884,1.40246307849884,4425.78438186646,10550.2287017627,14976.0130836292,,,1.59999990463257,2130.72290039062,296.315536175532,297.128752741522
2018-07-19T08:36:12Z,1531989372,60E,41.1460177,43.2627402,10751.27,-9.3,-1,3.2,561748.06,-175793.3,357.5,Weapon+Missile,Blue,Enemies,AIM-7M,,us,,399.759172117253,251.110870361328,1.34895184469594,10751.26953125,8502.38793945312,399.698409558401,-6.9697265625,0.348774695996287,NaN,1.90767866537373,3.09652687815416,5000,0.892923176288605,0.892923176288605,0.892923176288605,7990.36978459358,10543.3937348633,18533.7635194569,,,2.59999990463257,2248.88159179688,694.824666265543,696.370686455159
2018-07-19T08:36:13Z,1531989373,60E,41.146331,43.2673064,10740.68,-7.5,-1.3,2.4,561723.69,-175283.41,356.8,Weapon+Missile,Blue,Enemies,AIM-7M,,us,,510.582699976975,320.989715576172,1.72264501304657,10740.681640625,8621.74243164062,510.472908280048,-10.587890625,0.0464351396853004,NaN,1.73845731359208,1.13130514968355,5000,1.43687677383423,1.43687677383423,1.43687677383423,13034.7346757889,10533.0105611035,23567.7452368924,,,3.59999990463257,2118.93920898438,1203.76657345682,1206.2800029019
2018-07-19T08:36:14Z,1531989374,60E,41.1465643,43.2729191,10726.04,-6,-1.4,1.3,561681.44,-174657.89,355.6,Weapon+Missile,Blue,Enemies,AIM-7M,,us,,627.111707078497,386.036926269531,2.11534010087863,10726.044921875,8784.05859375,626.94087410149,-14.63671875,0.0701436938981049,NaN,1.33849082730624,1.07951641424069,5000,1.35618841648102,1.35618841648102,1.35618841648102,19663.4546577454,10518.6568433105,30182.1115010559,,,4.59999990463257,1941.986328125,1828.85036821169,1832.58676422749
2018-07-19T08:36:15Z,1531989375,60E,41.1466832,43.2790149,10708.54,-4.8,-1.5,0.5,561624.62,-173979.59,354.8,Weapon+Missile,Blue,Enemies,AIM-7M,,us,,680.897080541216,414.722351074219,2.29616927294033,10708.537109375,8524.16674804688,680.671955343406,-17.5078125,0.0608460130411592,NaN,1.16921910287946,0.832710783594303,5000,1.21488320827484,1.21488320827484,1.21488320827484,23181.0417144775,10501.4875443652,33682.5292588428,,,5.59999990463257,2184.37036132812,2507.50960841308,2512.61178097213
2018-07-19T08:36:16Z,1531989376,60E,41.1466987,43.2852098,10689.25,-3.9,-1.7,359.8,561558.31,-173291.09,354.1,Weapon+Missile,Blue,Enemies,AIM-7M,,us,,691.954959219441,420.895538330078,2.33279177224853,10689.248046875,8302.45385742188,691.686054258903,-19.2890625,0.0489245114364237,NaN,0.769188583570156,0.685867586132846,5000,1.14392447471619,1.14392447471619,1.14392447471619,23940.0832794189,10482.5714358887,34422.6547153076,,,6.59999990463257,2386.79418945312,3197.11788959988,3203.64609666959
2018-07-19T08:36:17Z,1531989377,60E,41.1466136,43.2914768,10667.62,-3.2,-1.9,359.2,561483.06,-172595.41,353.5,Weapon+Missile,Blue,Enemies,AIM-7M,,us,,700.079586546285,425.587738037109,2.35942565753322,10667.6201171875,8369.17651367188,699.745425248533,-21.6279296875,0.0573123533613922,NaN,0.569251444204135,0.69844879458401,5000,1.14833056926727,1.14833056926727,1.14833056926727,24505.5713749409,10461.3616822217,34966.9330571626,,,7.59999990463257,2298.44360351562,3894.78694816619,3902.81780537526
2018-07-19T08:36:18Z,1531989378,60E,41.1464225,43.2978511,10643.19,-2.5,-2.1,358.4,561398,-171888.62,352.8,Weapon+Missile,Blue,Enemies,AIM-7M,,us,,712.30055346357,432.480163574219,2.39974435724396,10643.1923828125,8294.30322265625,711.881566173624,-24.427734375,0.0233573723813337,NaN,0.569204486653591,0.746198326906452,5000,1.13883590698242,1.13883590698242,1.13883590698242,25368.6039232254,10437.4062580908,35806.0101813162,,,8.59999990463257,2348.88916015625,4604.54574694423,4614.18187647643
2018-07-19T08:36:19Z,1531989379,60E,41.1461148,43.3042839,10614.92,-2,-2.5,357.7,561302.88,-171176.28,352,Weapon+Missile,Blue,Enemies,AIM-7M,,us,,719.222956125448,436.700622558594,2.42205198554298,10614.9208984375,8298.408203125,718.667088288494,-28.271484375,0.0227944960350879,NaN,0.369254540682876,0.859540246901789,5000,1.04146933555603,1.04146933555603,1.04146933555603,25864.0830308914,10409.6814028662,36273.7644337576,,,9.59999990463257,2316.5126953125,5321.06948825127,5332.45629486089
2018-07-19T08:36:20Z,1531989380,60E,41.1456846,43.3107971,10579.92,-1.6,-3.1,356.9,561196.94,-170455.98,351.2,Weapon+Missile,Blue,Enemies,AIM-7M,,us,,728.886558727608,442.509368896484,2.45332455966841,10579.9169921875,8269.40942382812,728.045563162784,-35.00390625,0.0355045494378877,NaN,0.307673768569452,0.986838644609842,5000,0.976196348667145,0.976196348667145,0.976196348667145,26563.7807746887,10375.3542971436,36939.1350718323,,,10.5999999046326,2310.50756835938,6046.96276049438,6060.39774391854
2018-07-19T08:36:21Z,1531989381,60E,41.1451332,43.3173701,10535.8,-1.3,-3.8,356.2,561080.5,-169730,350.5,Weapon+Missile,Blue,Enemies,AIM-7M,,us,,736.58473503918,447.511260986328,2.47762020236512,10535.802734375,8525.20434570312,735.262540967776,-44.1142578125,0.0505820817478588,NaN,0.399975877795947,0.981569153665177,5000,0.941938936710358,0.941938936710358,0.941938936710358,27127.8535946369,10332.0929885059,37459.9465831428,,,11.5999999046326,2010.59838867188,6780.02436642002,6795.99677063556
2018-07-19T08:36:22Z,1531989382,60E,41.1444611,43.3240344,10481.84,-1.1,-4.5,355.5,560953.19,-168994.84,349.8,Weapon+Missile,Blue,Enemies,AIM-7M,,us,,748.047507007143,454.729644775391,2.51417480522153,10481.8408203125,8696.34655761719,746.098642654115,-53.9619140625,0.0314888855383291,NaN,0.200042580411333,0.945206187019381,5000,0.912812769412994,0.912812769412994,0.912812769412994,27978.7536369801,10279.1744280518,38257.9280650318,,,12.5999999046326,1785.49426269531,7523.88377213784,7543.03329151864
2018-07-19T08:36:23Z,1531989383,60E,41.1436738,43.3307403,10418.79,-0.9,-5.1,354.8,560816.19,-168255.98,349.1,Weapon+Missile,Blue,Enemies,AIM-7M,,us,,754.093878135624,459.347412109375,2.53214423690583,10418.7900390625,8790.72680664062,751.453375816085,-63.05078125,0.0366190956677726,NaN,0.199987938897973,0.944947386882861,5000,0.886883556842804,0.886883556842804,0.886883556842804,28432.8788520813,10217.3427336572,38650.2215857385,,,13.5999999046326,1628.06323242188,8273.09584951903,8296.11697887469
2018-07-19T08:36:24Z,1531989384,60E,41.1427723,43.3375236,10346.67,-0.7,-5.7,354.2,560669,-167509.42,348.6,Weapon+Missile,Blue,Enemies,AIM-7M,,us,,764.343718224112,466.423095703125,2.56384259759473,10346.66796875,8891.57824707031,760.933457381459,-72.1220703125,0.0222398268433634,NaN,0.199987938897973,0.873878361434379,5000,0.780393719673157,0.780393719673157,0.780393719673157,29211.0659794331,10146.6151435742,39357.6811230073,,,14.5999999046326,1455.08972167969,9031.73566141756,9059.40674283411
2018-07-19T08:36:25Z,1531989385,60E,41.1417735,43.3443326,10265.95,-0.6,-6.4,353.7,560513.75,-166760.78,348,Weapon+Missile,Blue,Enemies,AIM-7M,,us,,768.817733178091,470.689788818359,2.57579899967141,10265.9501953125,8654.93859863281,764.568733274119,-80.7177734375,0.0485459147835743,NaN,0,0.844727274139324,5000,0.796286940574646,0.796286940574646,0.796286940574646,29554.0353424549,10067.4580482861,39621.493390741,,,15.5999999046326,1611.01159667969,9794.00702935905,9827.16474783751
2018-07-19T08:36:26Z,1531989386,60E,41.140698,43.3510187,10177.28,-0.5,-7.2,353,560353.56,-166026.42,347.4,Weapon+Missile,Blue,Enemies,AIM-7M,,us,,756.839992733591,466.393463134766,2.53238247489267,10177.2763671875,8204.65966796875,751.627385615134,-88.673828125,0.0608034688028557,NaN,0,0.947119493760631,5000,0.804496347904205,0.804496347904205,0.804496347904205,28640.3387300491,9980.49872862793,38620.8374586771,,,16.5999999046326,1972.61669921875,10543.3743229398,10582.9528907633
2018-07-19T08:36:27Z,1531989387,60E,41.1395556,43.3575199,10081.42,-0.3,-7.7,352.4,560190,-165313.12,346.8,Weapon+Missile,Blue,Enemies,AIM-7M,,us,,738.06081634208,458.533020019531,2.46609626555771,10081.4189453125,7938.98559570312,731.809485652527,-95.857421875,0.0692154213518582,NaN,0.199987938897973,0.849866351159523,5000,1.22421813011169,1.22421813011169,1.22421813011169,27236.6884309769,9886.49471000488,37123.1831409818,,,17.5999999046326,2142.43334960938,11272.9660316217,11319.9636040531
2018-07-19T08:36:28Z,1531989388,60E,41.1383274,43.3638352,9985.56,-0.1,-7.7,351.6,560021.5,-164621.17,345.9,Weapon+Missile,Blue,Enemies,AIM-7M,,us,,718.59638979552,450.170532226562,2.39771315725666,9985.5576171875,8095.91564941406,712.173698754219,-95.861328125,0.0625562038038946,NaN,0.199987938897973,0.787165588104777,5000,1.44086301326752,1.44086301326752,1.44086301326752,25819.0385713577,9792.48686065918,35611.5254320169,,,18.5999999046326,1889.64196777344,11982.9824230185,12037.5289299409
2018-07-19T08:36:29Z,1531989389,60E,41.1370156,43.369999,9892.86,0.1,-7.4,350.8,559847.94,-163946.7,345.1,Weapon+Missile,Blue,Enemies,AIM-7M,,us,,702.583870441839,443.484893798828,2.34113419425004,9892.8642578125,8067.81213378906,696.442414082322,-92.693359375,0.0600626640865584,NaN,0.20000001179094,0.791751473163058,5000,1.72954118251801,1.72954118251801,1.72954118251801,24681.2047502518,9701.5857273877,34382.7904776395,,,19.5999999046326,1825.05212402344,12677.290242989,12739.0693786518
2018-07-19T08:36:30Z,1531989390,60E,41.1356294,43.3759816,9807.17,0.3,-7.1,350.1,559670.31,-163292.98,344.5,Weapon+Missile,Blue,Enemies,AIM-7M,,us,,682.819790326968,434.473022460938,2.27245685767117,9807.1669921875,7605.27197265625,677.420729478042,-85.697265625,0.0154484693159186,NaN,0.0769230845365645,0.777598200624881,5000,1.45646440982819,1.45646440982819,1.45646440982819,23312.1433031082,9617.54541839355,32929.6887215018,,,20.5999999046326,2201.89501953125,13352.6485576576,13420.8778100442
2018-07-19T08:36:31Z,1531989391,60E,41.1341759,43.3818122,9725.31,0.4,-7,349.4,559488.88,-162656.69,343.7,Weapon+Missile,Blue,Enemies,AIM-7M,,us,,666.703770093613,427.264526367188,2.21620152296474,9725.3095703125,7390.66845703125,661.659489118849,-81.857421875,0.0627586970427707,NaN,0,0.720853949495767,5000,1.32252657413483,1.32252657413483,1.32252657413483,22224.6958528519,9537.27070977051,31761.9665626224,,,21.5999999046326,2334.64111328125,14012.2790942081,14086.5703783685
2018-07-19T08:36:32Z,1531989392,60E,41.1326584,43.3874745,9645.6,0.5,-7.1,348.5,559304.12,-162039.59,342.9,Weapon+Missile,Blue,Enemies,AIM-7M,,us,,649.069404876082,419.050415039062,2.15510724875503,9645.5986328125,7290.6982421875,644.156237871731,-79.7109375,0.0183154065135577,NaN,0.20000005181158,0.819265289408868,5000,1.24989211559296,1.24989211559296,1.24989211559296,21064.5546173096,9459.10098324707,30523.6556005566,,,22.5999999046326,2354.900390625,14654.4483114524,14734.6355932939
2018-07-19T08:36:33Z,1531989393,60E,41.1310692,43.3929699,9566.17,0.5,-7.4,347.7,559115.44,-161441.61,342,Weapon+Missile,Blue,Enemies,AIM-7M,,us,,632.058404005236,411.051696777344,2.09623152494681,9566.166015625,7021.57885742188,627.047275251548,-79.4326171875,0.0333937328102411,NaN,0,0.866287246502145,5000,1.13778650760651,1.13778650760651,1.13778650760651,19974.8913036823,9381.20419571289,29356.0954993952,,,23.5999999046326,2544.58715820312,15279.5612546533,15365.7090094083
2018-07-19T08:36:34Z,1531989394,60E,41.12941,43.3983099,9485.19,0.5,-7.6,346.8,558922.75,-160861.44,341.2,Weapon+Missile,Blue,Enemies,AIM-7M,,us,,616.672459831949,403.877319335938,2.04283087372202,9485.1904296875,6701.8212890625,611.332869390536,-80.9755859375,0.0305707174794798,NaN,0,0.850096603239747,5000,1.24135053157806,1.24135053157806,1.24135053157806,19014.2461357594,9301.79427272949,28316.0404084888,,,24.5999999046326,2783.369140625,15888.9694175295,15981.3757063925
2018-07-19T08:36:35Z,1531989395,60E,41.1276851,43.4035061,9404.74,0.6,-7.7,346.1,558726.31,-160297.8,340.4,Weapon+Missile,Blue,Enemies,AIM-7M,,us,,602.288131831311,397.14697265625,1.9928857501608,9404.73828125,6820.8525390625,596.890647905159,-80.4521484375,0.0494180702718951,NaN,0,0.764143581733602,5000,1.18470752239227,1.18470752239227,1.18470752239227,18137.5496872425,9222.89766658203,27360.4473538245,,,25.5999999046326,2583.8857421875,16483.989737537,16582.6835162174
2018-07-19T08:36:36Z,1531989396,60E,41.1259292,43.4085515,9326.31,0.6,-7.6,345.5,558529,-159751.12,339.9,Weapon+Missile,Blue,Enemies,AIM-7M,,us,,586.458504460131,389.418884277344,1.93833701900782,9326.30859375,6832.36303710938,581.190469271706,-78.4296875,0.0228506977508707,NaN,0,0.550636724116617,5000,1.29397737979889,1.29397737979889,1.29397737979889,17196.6788726807,9145.98441708984,26342.6632897705,,,26.5999999046326,2493.94555664062,17063.3129351318,17168.1345628415
2018-07-19T08:36:37Z,1531989397,60E,41.1241597,43.413468,9251.86,0.7,-7.2,345.1,558332.12,-159218.89,339.4,Weapon+Missile,Blue,Enemies,AIM-7M,,us,,572.342070366855,382.485900878906,1.88967566336225,9251.8623046875,6456.18603515625,567.479687351574,-74.4462890625,0.0397165284428891,NaN,0.261538508768661,0.759455457281182,5000,1.89664196968079,1.89664196968079,1.89664196968079,16378.7722755909,9072.97754702637,25451.7498226173,,,27.5999999046326,2795.67626953125,17629.0152696718,17739.5312800385
2018-07-19T08:36:38Z,1531989398,60E,41.1223545,43.4182517,9186.8,1,-6.2,344.3,558133.75,-158701.7,338.6,Weapon+Missile,Blue,Enemies,AIM-7M,,us,,557.735313287136,374.969146728516,1.8397472875434,9186.7998046875,6071.60693359375,553.927387643227,-65.0625,0.0615633488332701,NaN,0.200000105172432,1.11943534812312,5000,2.0001208782196,2.0001208782196,2.0001208782196,15553.433984375,9009.17303046387,24562.6070148389,,,28.5999999046326,3115.19287109375,18181.177053528,18296.3057332306
2018-07-19T08:36:39Z,1531989399,60E,41.1205053,43.4229022,9131.63,1.1,-5.4,343.5,557933.31,-158199.66,337.8,Weapon+Missile,Blue,Enemies,AIM-7M,,us,,543.387104542842,367.301605224609,1.79101592491345,9131.6337890625,6306.25537109375,540.579555757999,-55.166015625,0.0357871325058194,NaN,0,1.08498696887904,5000,1.80354237556458,1.80354237556458,1.80354237556458,14763.4772691727,8955.07364975098,23718.5509189236,,,29.5999999046326,2825.37841796875,18720.0231519717,18838.7381484272
2018-07-19T08:36:40Z,1531989400,60E,41.1186156,43.4274216,9084.06,1.2,-4.9,342.7,557731,-157712.48,337.1,Weapon+Missile,Blue,Enemies,AIM-7M,,us,,529.650562237607,359.742523193359,1.7445638810184,9084.0634765625,6454.26000976562,527.509984215717,-47.5703125,0.0239902029829196,NaN,0,0.977823541957365,5000,1.63569641113281,1.63569641113281,1.63569641113281,14026.4859039307,8908.42310924316,22934.9090131738,,,30.5999999046326,2629.80346679688,19245.8073459644,19367.4176770985
2018-07-19T08:36:41Z,1531989401,60E,41.1166944,43.4318023,9042.32,1.2,-4.5,342,557527.62,-157240.98,336.3,Weapon+Missile,Blue,Enemies,AIM-7M,,us,,515.185452863612,351.496002197266,1.69591676154151,9042.3212890625,6291.36865234375,513.491616898465,-41.7421875,0.091050764447373,NaN,0.0154089067675488,0.738089985227147,5000,1.08163356781006,1.08163356781006,1.08163356781006,13270.8025421143,8867.48800693848,22138.2905490527,,,31.5999999046326,2750.95263671875,19757.6029004261,19881.6375090174
2018-07-19T08:36:42Z,1531989402,60E,41.1147563,43.4360534,9000.82,0.9,-4.9,341.3,557324.44,-156784,335.6,Weapon+Missile,Blue,Enemies,AIM-7M,,us,,501.838748155611,343.787933349609,1.65101273200518,9000.8212890625,6151.94946289062,500.119864782824,-41.5,0.0502492532500145,NaN,0.215396845665522,0.726734475566884,5000,1.10338187217712,1.10338187217712,1.10338187217712,12592.1064575195,8826.79040943848,21418.896866958,,,32.5999999046326,2848.87182617188,20256.091872207,20382.5536299863
2018-07-19T08:36:43Z,1531989403,60E,41.1127925,43.4401834,8959.32,0.9,-4.8,340.6,557120.44,-156340.7,335,Weapon+Missile,Blue,Enemies,AIM-7M,,us,,489.745374146561,336.728546142578,1.61028278637194,8959.3193359375,5998.38134765625,487.983728606565,-41.501953125,0.0549026923880096,NaN,0,0.718678907771089,5000,1.17544651031494,1.17544651031494,1.17544651031494,11992.5265748978,8786.09089657715,20778.6174714749,,,33.5999999046326,2960.93798828125,20742.470881537,20871.3823953113
2018-07-19T08:36:44Z,1531989404,60E,41.1108101,43.4441887,8918.93,0.8,-4.9,339.9,556916.31,-155911.38,334.2,Weapon+Missile,Blue,Enemies,AIM-7M,,us,,477.096403509731,329.141998291016,1.56779989833723,8918.9296875,6122.18115234375,475.383691917398,-40.3896484375,0.0455488449989715,NaN,0,0.71738437347996,5000,1.14942216873169,1.14942216873169,1.14942216873169,11381.048912096,8746.48218199219,20127.5310940882,,,34.5999999046326,2796.74853515625,21216.2636654585,21347.5552575253
2018-07-19T08:36:45Z,1531989405,60E,41.1087961,43.4480942,8878.98,0.7,-5,339,556710.75,-155493.41,333.4,Weapon+Missile,Blue,Enemies,AIM-7M,,us,,467.493306420086,323.418518066406,1.53537874219608,8878.9775390625,6202.2685546875,465.783015343854,-39.9521484375,0.0384726608197401,NaN,0.199987938897973,0.829767932557379,5000,1.03127670288086,1.03127670288086,1.03127670288086,10927.4995773792,8707.30250834473,19634.802085724,,,35.5999999046326,2676.708984375,21680.4918747405,21814.1447869599
2018-07-19T08:36:46Z,1531989406,60E,41.106757,43.4518768,8837.78,0.7,-5.2,338.1,556504.5,-155089.28,332.4,Weapon+Missile,Blue,Enemies,AIM-7M,,us,,455.580171671218,316.05615234375,1.49538579004121,8837.7802734375,6040.82202148438,453.713652125435,-41.197265625,0.0484785002022969,NaN,0.199999998450727,0.936312960554907,5000,1.38085055351257,1.38085055351257,1.38085055351257,10377.6646409988,8666.90179185059,19044.5664328494,,,36.5999999046326,2796.95825195312,22132.6679174221,22268.8190952837
2018-07-19T08:36:47Z,1531989407,60E,41.1046689,43.455555,8798.57,0.8,-5,337.1,556295.44,-154697.14,331.4,Weapon+Missile,Blue,Enemies,AIM-7M,,us,,446.115425519098,310.197082519531,1.46351232755274,8798.568359375,5861.04467773438,444.388792254756,-39.2119140625,0.0180003638865165,NaN,0.123076913914162,1.06963569183262,5000,1.33880686759949,1.33880686759949,1.33880686759949,9950.94864430428,8628.44804014648,18579.3966844508,,,37.5999999046326,2937.52368164062,22575.528426893,22714.0220729828
2018-07-19T08:36:48Z,1531989408,60E,41.1025484,43.4590971,8760.85,0.8,-4.9,335.9,556085.25,-154320.38,330.2,Weapon+Missile,Blue,Enemies,AIM-7M,,us,,433.074679592793,301.726470947266,1.419979318499,8760.8515625,5800.60205078125,431.429161436603,-37.716796875,0.0691238742653754,NaN,0,1.14275211984566,5000,1.4741485118866,1.4741485118866,1.4741485118866,9377.68390522003,8591.46049753906,17969.1444027591,,,38.5999999046326,2960.24951171875,23005.4529349455,23146.1873798392
2018-07-19T08:36:49Z,1531989409,60E,41.1003796,43.462529,8725.81,1,-4.5,334.7,555872.38,-153956.23,329.1,Weapon+Missile,Blue,Enemies,AIM-7M,,us,,423.251413977256,295.322418212891,1.38708884352753,8725.814453125,5812.17065429688,421.798720245084,-35.037109375,0.0360291726777698,NaN,0.123077020635868,1.20928285811664,5000,1.57850635051727,1.57850635051727,1.57850635051727,8957.08797168732,8557.10083067383,17514.1888023611,,,39.5999999046326,2913.64379882812,23425.7585100924,23568.5249697425
2018-07-19T08:36:50Z,1531989410,60E,41.0981681,43.4658411,8694.57,1.1,-4.1,333.5,555657.38,-153605.73,327.8,Weapon+Missile,Blue,Enemies,AIM-7M,,us,,412.373315656818,288.002624511719,1.3508474129616,8694.5654296875,5740.41430664062,411.187609249112,-31.2490234375,0.0455827484752917,NaN,0.199999891729021,1.25452528412687,5000,1.56849443912506,1.56849443912506,1.56849443912506,8502.58757328987,8526.45600710449,17029.0435803944,,,40.5999999046326,2954.15112304688,23835.4828409435,23979.9971440426
2018-07-19T08:36:51Z,1531989411,60E,41.0959165,43.4690414,8667.04,1.2,-3.8,332.3,555440.31,-153267.97,326.7,Weapon+Missile,Blue,Enemies,AIM-7M,,us,,402.441788917291,281.197326660156,1.31780600967127,8667.0400390625,5677.45751953125,401.499372773969,-27.525390625,0.0325202606109992,NaN,0,1.21134472147234,5000,1.42756175994873,1.42756175994873,1.42756175994873,8097.96967334747,8499.46281990723,16597.4324932547,,,41.5999999046326,2989.58251953125,24235.4913225582,24381.4946848786
2018-07-19T08:36:52Z,1531989412,60E,41.0936287,43.4721337,8641.73,1.1,-3.7,331.1,555221.56,-152942.5,325.5,Weapon+Missile,Blue,Enemies,AIM-7M,,us,,392.965829233649,274.595733642578,1.28632125073042,8641.728515625,5620.36157226562,392.14980521041,-25.3115234375,0.039782864211265,NaN,0.199987938897973,1.21312078409995,5000,1.32503628730774,1.32503628730774,1.32503628730774,7721.10714726448,8474.64069477539,16195.7478420399,,,42.5999999046326,3021.36694335938,24626.2023902561,24773.5538168418
2018-07-19T08:36:53Z,1531989413,60E,41.0913093,43.4751143,8617.25,1.1,-3.6,329.8,555001.44,-152629.67,324.2,Weapon+Missile,Blue,Enemies,AIM-7M,,us,,383.295959515104,267.747680664062,1.25423896331432,8617.2470703125,5775.10961914062,382.513334951888,-24.4814453125,0.0226592751070158,NaN,0,1.28222554319268,5000,1.40331518650055,1.40331518650055,1.40331518650055,7345.78962903023,8450.63259820801,15796.4222272382,,,43.5999999046326,2842.13745117188,25007.2543982031,25155.9059407328
2018-07-19T08:36:54Z,1531989414,60E,41.0889641,43.477971,8594.35,1.1,-3.5,328.5,554780.69,-152330.81,322.8,Weapon+Missile,Blue,Enemies,AIM-7M,,us,,372.252009609888,259.750152587891,1.21771098752823,8594.3544921875,5880.1484375,371.547424328834,-22.892578125,0.0551318469835879,NaN,0.0154089067675488,1.41236529959545,5000,1.38803017139435,1.38803017139435,1.38803017139435,6928.57793292999,8428.18264808105,15356.760581011,,,44.5999999046326,2714.2060546875,25377.4157812346,25527.2730371796
2018-07-19T08:36:55Z,1531989415,60E,41.0865701,43.4807256,8572,1,-3.5,326.9,554557.06,-152043.67,321.3,Weapon+Missile,Blue,Enemies,AIM-7M,,us,,364.633218713827,254.251541137695,1.19241631927851,8572.0048828125,5896.18408203125,363.94763242861,-22.349609375,0.0485462393223164,NaN,0,1.53647111747506,5000,1.47925460338593,1.47925460338593,1.47925460338593,6647.86920948029,8406.26516840332,15054.1343778836,,,45.5999999046326,2675.82080078125,25739.9385401452,25890.9710024409
2018-07-19T08:36:56Z,1531989416,60E,41.084139,43.4833578,8550.96,1.1,-3.3,325.3,554331.75,-151770.44,319.7,Weapon+Missile,Blue,Enemies,AIM-7M,,us,,354.775471354229,246.964569091797,1.15983913590397,8550.9599609375,5897.46215820312,354.150739569877,-21.044921875,0.149094207840172,NaN,0,1.31787112653221,5000,1.29709696769714,1.29709696769714,1.29709696769714,6293.28175373077,8385.62715009277,14678.9089038235,,,46.5999999046326,2653.49780273438,26092.6637752137,26244.7961193773
2018-07-19T08:36:57Z,1531989417,60E,41.0816987,43.4858996,8531.6,1.1,-3,325,554106.69,-151507.31,319.4,Weapon+Missile,Blue,Enemies,AIM-7M,,us,,346.789154593787,241.035385131836,1.13342410775975,8531.599609375,5922.9814453125,346.248313398419,-19.3603515625,0.0482451520613083,NaN,0,0.638434430307194,5000,1.20849668979645,1.20849668979645,1.20849668979645,6013.13588719368,8366.64113092773,14379.7770181214,,,47.5999999046326,2608.6181640625,26437.4974558412,26590.6339152174
2018-07-19T08:36:58Z,1531989418,60E,41.0793033,43.4883803,8514.67,1,-2.7,324.9,553886,-151250.61,319.2,Weapon+Missile,Blue,Enemies,AIM-7M,,us,,338.948298582451,235.14924621582,1.10753626797722,8514.673828125,5964.43701171875,338.525430419955,-16.92578125,0.0377907179053437,NaN,0.169224766876236,0.316209797484676,5000,1.17470991611481,1.17470991611481,1.17470991611481,5744.29745559692,8350.0426096582,14094.3400652551,,,48.5999999046326,2550.23681640625,26774.6778085606,26928.6888308316
2018-07-19T08:36:59Z,1531989419,60E,41.076967,43.4907888,8499.89,1,-2.4,324.7,553670.88,-151001.45,319.1,Weapon+Missile,Blue,Enemies,AIM-7M,,us,,329.508858592034,227.959259033203,1.07647059716997,8499.892578125,6033.7607421875,329.177159807698,-14.78125,0.0435120557660315,NaN,0,0.26906991290651,5000,1.0944904088974,1.0944904088974,1.0944904088974,5428.80439453125,8335.54715512695,13764.3515496582,,,49.5999999046326,2466.1318359375,27102.526054362,27257.306965768
2018-07-19T08:37:00Z,1531989420,60E,41.0746699,43.4931464,8486.3,0.8,-2.5,324.7,553459.44,-150757.64,319,Weapon+Missile,Blue,Enemies,AIM-7M,,us,,323.009465886409,223.033447265625,1.05503806233697,8486.2998046875,6122.69653320312,322.723335943498,-13.5927734375,0.0375106682629125,NaN,0.323095268498283,0.0998959722426529,5000,0.895115733146667,0.895115733146667,0.895115733146667,5216.75575261116,8322.21719796387,13538.972950575,,,50.5999999046326,2363.60327148438,27423.9181405954,27579.4139484792
2018-07-19T08:37:01Z,1531989421,60E,41.0724231,43.4954442,8472.01,0.6,-2.7,324.5,553252.75,-150520.08,318.9,Weapon+Missile,Blue,Enemies,AIM-7M,,us,,315.21382846131,217.099273681641,1.02937065082245,8472.013671875,6150.07177734375,314.889923723354,-14.2861328125,0.0406510128860156,NaN,0.199987938897973,0.223812199011933,5000,0.914973974227905,0.914973974227905,0.914973974227905,4967.98788266182,8308.2072875293,13276.1951701911,,,51.5999999046326,2321.94189453125,27737.5216511225,27893.7591672192
2018-07-19T08:37:02Z,1531989422,60E,41.0702172,43.4976898,8457.2,0.5,-2.8,324.4,553050,-150287.97,318.7,Weapon+Missile,Blue,Enemies,AIM-7M,,us,,308.547924024317,212.063140869141,1.00739461927689,8457.1982421875,6129.19799804688,308.192025307097,-14.8154296875,0.0523736110995201,NaN,0,0.180226000493945,5000,1.01144599914551,1.01144599914551,1.01144599914551,4760.09107098579,8293.67831417481,13053.7693851606,,,52.5999999046326,2328.00024414062,28044.4806406772,28201.4823843701
2018-07-19T08:37:03Z,1531989423,60E,41.068046,43.4998825,8442.75,0.4,-2.7,324.1,552850.62,-150061.48,318.5,Weapon+Missile,Blue,Enemies,AIM-7M,,us,,302.083150469144,207.227294921875,0.986089309138362,8442.7529296875,6043.69873046875,301.737572642422,-14.4453125,0.0533574827708291,NaN,0.107698422832761,0.302613025281296,5000,1.00951027870178,1.00951027870178,1.00951027870178,4562.71148986816,8279.51230179199,12842.2237916602,,,53.5999999046326,2399.05419921875,28345.0060952755,28502.7524969517
2018-07-19T08:37:04Z,1531989424,60E,41.0659088,43.5020157,8428.6,0.4,-2.8,323.8,552654.62,-149841.33,318.1,Weapon+Missile,Blue,Enemies,AIM-7M,,us,,295.101831390337,201.991073608398,0.963110684829486,8428.599609375,5973.16284179688,294.76223369703,-14.1533203125,0.0708673570557034,NaN,0,0.372205129043468,5000,1.01241815090179,1.01241815090179,1.01241815090179,4354.25454449654,8265.63263592774,12619.8871804243,,,54.5999999046326,2455.43676757812,28638.5601616445,28797.0353595954
2018-07-19T08:37:05Z,1531989425,60E,41.0637855,43.5041045,8414.6,0.3,-2.8,323.3,552460.25,-149625.98,317.7,Weapon+Missile,Blue,Enemies,AIM-7M,,us,,290.431509876806,198.552017211914,0.947684023398414,8414.603515625,5944.7783203125,290.094073171209,-13.99609375,0.0381217903996646,NaN,0,0.401784543904678,5000,1.00660812854767,1.00660812854767,1.00660812854767,4217.52309646606,8251.90715665039,12469.4302531165,,,55.5999999046326,2469.8251953125,28927.4524550846,29086.6474948205
2018-07-19T08:37:06Z,1531989426,60E,41.0616849,43.5061394,8400.75,0.3,-2.8,322.9,552268.31,-149416.45,317.3,Weapon+Missile,Blue,Enemies,AIM-7M,,us,,284.491387759824,194.156219482422,0.92812261637112,8400.7470703125,5912.67114257812,284.153741190948,-13.8564453125,0.0551909112525192,NaN,0.0769352508110236,0.387403633968069,5000,0.863227605819702,0.863227605819702,0.863227605819702,4046.76748547554,8238.31862570801,12285.0861111835,,,56.5999999046326,2488.07592773438,29210.440617183,29370.3472824038
2018-07-19T08:37:07Z,1531989427,60E,41.0595963,43.508145,8385.64,-0.1,-3.3,324,552077.69,-149210.08,318.4,Weapon+Missile,Blue,Enemies,AIM-7M,,us,,281.34827878333,191.916809082031,0.917675995860959,8385.63671875,5892.52392578125,280.942220483145,-15.1103515625,0.368397449022293,NaN,0.415384784563495,2.46687905932737,3230.02304856453,2.54482293128967,2.54482293128967,2.54482293128967,3957.84269871712,8223.50043279297,12181.3431315101,,,57.5999999046326,2493.11279296875,29490.2254656475,29650.9075090993
2018-07-19T08:37:08Z,1531989428,60E,41.0578565,43.5101582,8370.27,-0.8,-3.3,332,551915.19,-149000.09,326.3,Weapon+Missile,Blue,Enemies,AIM-7M,,us,,265.961986328008,180.456771850586,0.86730541211645,8370.271484375,5869.9794921875,265.517772934583,-15.365234375,0.136597109022402,NaN,0.569255286185543,6.47907006223673,1964.37533900509,3.69623255729675,3.69623255729675,3.69623255729675,3536.78890857697,8208.43228522461,11745.2211938016,,,58.5999999046326,2500.2919921875,29754.7197385208,29916.1945519023
2018-07-19T08:37:09Z,1531989429,60E,41.0565932,43.5121855,8355.92,-1.3,-3.3,339.5,551791.06,-148784.8,333.9,Weapon+Missile,Blue,Enemies,AIM-7M,,us,,248.928936143699,167.928070068359,0.81159884577903,8355.923828125,5831.8251953125,248.515110224239,-14.34765625,0.125982289620157,NaN,0.569255286185543,7.48378790093784,1960.34727712051,3.29005146026611,3.29005146026611,3.29005146026611,3098.28076248169,8194.3620409082,11292.6428033899,,,59.5999999046326,2524.0986328125,30002.3739495571,30164.5882096064
2018-07-19T08:37:10Z,1531989430,60E,41.0557478,43.5141839,8342.65,-1.7,-3.2,346.5,551701.06,-148569.41,340.9,Weapon+Missile,Blue,Enemies,AIM-7M,,us,,233.814959162608,156.971908569336,0.762181413414579,8342.6455078125,5757.84375,233.437617658103,-13.2783203125,0.167417842288631,NaN,0.338504175265832,7.05031037214981,2013.07500087911,2.88543248176575,2.88543248176575,2.88543248176575,2733.4717564106,8181.34045691894,10914.8122133295,,,60.5999999046326,2584.8017578125,30235.0701784686,30397.9670966638
2018-07-19T08:37:11Z,1531989431,60E,41.055256,43.5161261,8330.35,-1.8,-3.2,351.9,551640.25,-148357.5,346.3,Weapon+Missile,Blue,Enemies,AIM-7M,,us,,220.802192162347,147.658126831055,0.719640187096417,8330.349609375,5670.00927734375,220.459563061602,-12.2958984375,0.344847677224448,NaN,0.0307631720217374,4.4891328673676,5000,1.36579024791718,1.36579024791718,1.36579024791718,2437.68040318489,8169.28229967773,10606.9627028626,,,61.5999999046326,2660.34033203125,30454.8796259276,30618.4070374865
2018-07-19T08:37:12Z,1531989432,60E,41.0548812,43.5180398,8318.43,-1.5,-3.2,351.8,551589.25,-148147.81,346.2,Weapon+Missile,Blue,Enemies,AIM-7M,,us,,216.129541617442,144.397888183594,0.704294670191354,8318.427734375,5560.11181640625,215.800481130719,-11.921875,0.0476088585892273,NaN,0.261577248747859,0.848771866705882,5000,1.00941467285156,1.00941467285156,1.00941467285156,2335.59893798828,8157.59093413086,10493.1898721191,,,62.5999999046326,2758.31591796875,30670.0521257767,30834.1899583584
2018-07-19T08:37:13Z,1531989433,60E,41.0544975,43.5199302,8306.68,-1.2,-3.1,351.5,551537.69,-147940.78,345.9,Weapon+Missile,Blue,Enemies,AIM-7M,,us,,213.678839589206,142.734878540039,0.696195317465385,8306.6796875,5557.02368164062,213.355641788101,-11.748046875,0.0633362091766849,NaN,0.246151479950797,0.356907746458461,5000,1.01188504695892,1.01188504695892,1.01188504695892,2282.93232440948,8146.07003574219,10429.0023601517,,,63.5999999046326,2749.65600585938,30882.7555289644,31047.4943415201
2018-07-19T08:37:14Z,1531989434,60E,41.0541003,43.5218037,8295.07,-0.9,-3.1,351.1,551485.31,-147735.73,345.5,Weapon+Missile,Blue,Enemies,AIM-7M,,us,,211.948221217289,141.587585449219,0.690445732910172,8295.07421875,5627.33569335938,211.630247300015,-11.60546875,0.050890333208907,NaN,0.199987938897973,0.353049143144653,5000,1.01491725444794,1.01491725444794,1.01491725444794,2246.10242385864,8134.68895873047,10380.7913825891,,,64.5999999046326,2667.73852539062,31093.7705283058,31259.1024537578
2018-07-19T08:37:15Z,1531989435,60E,41.0536913,43.5236519,8283.67,-0.7,-3.1,350.7,551432.25,-147533.61,345.1,Weapon+Missile,Blue,Enemies,AIM-7M,,us,,209.284713183305,139.773208618164,0.681661451203127,8283.6748046875,5665.12915039062,208.974028365369,-11.3994140625,0.0328148760638137,NaN,0.199987938897973,0.395649966812949,5000,1.01842629909515,1.01842629909515,1.01842629909515,2190.00455861092,8123.50995233887,10313.5145109498,,,65.5999999046326,2618.54565429688,31302.1408567924,31468.0547714641
2018-07-19T08:37:16Z,1531989436,60E,41.0532689,43.5254828,8272.46,-0.5,-3.1,350.3,551378.25,-147333.5,344.7,Weapon+Missile,Blue,Enemies,AIM-7M,,us,,207.570500746589,138.636260986328,0.675973158116811,8272.4609375,5695.78344726562,207.26736830213,-11.2138671875,0.0324623176943773,NaN,0.199987938897973,0.399219487706221,5000,1.01667737960815,1.01667737960815,1.01667737960815,2154.27563900948,8112.51290527344,10266.7885442829,,,66.5999999046326,2576.67749023438,31508.7892930706,31675.2750584908
2018-07-19T08:37:17Z,1531989437,60E,41.0528363,43.5272837,8261.5,-0.4,-3.1,349.9,551323.75,-147136.81,344.3,Weapon+Missile,Blue,Enemies,AIM-7M,,us,,204.392673075942,136.455841064453,0.665523312200936,8261.5,5671.64282226562,204.098561132238,-10.9609375,0.0570461546673594,NaN,0.16922060472971,0.391798300410017,5000,1.01502203941345,1.01502203941345,1.01502203941345,2088.81824035645,8101.7638975,10190.5821378564,,,67.5999999046326,2589.85717773438,31712.2805200958,31879.3246465084
2018-07-19T08:37:18Z,1531989438,60E,41.0523897,43.529071,8250.68,-0.3,-3,349.5,551268.31,-146941.73,343.9,Weapon+Missile,Blue,Enemies,AIM-7M,,us,,203.090741516924,135.611038208008,0.661185127665003,8250.6806640625,5676.24194335938,202.802345301443,-10.8193359375,0.0488712043183984,NaN,0,0.379622767842955,5000,1.01654350757599,1.01654350757599,1.01654350757599,2062.29246449471,8091.15375342285,10153.4462179176,,,68.5999999046326,2574.43872070312,31914.4833609789,32082.0781026878
2018-07-19T08:37:19Z,1531989439,60E,41.0519329,43.5308308,8240.09,-0.2,-3,349.2,551212.31,-146749.8,343.6,Weapon+Missile,Blue,Enemies,AIM-7M,,us,,200.220457109938,133.65104675293,0.651745100860009,8240.0869140625,5745.41577148438,199.940000765855,-10.59375,0.0380037113699884,NaN,0,0.410338101860076,5000,1.0150443315506,1.0150443315506,1.0150443315506,2004.41157226563,8080.7648335791,10085.1764058447,,,69.5999999046326,2494.67114257812,32113.8246634009,32281.9580398607
2018-07-19T08:37:20Z,1531989440,60E,41.051463,43.5325748,8229.64,-0.1,-3,348.8,551155.44,-146559.72,343.1,Weapon+Missile,Blue,Enemies,AIM-7M,,us,,198.67960183092,132.634704589844,0.646636011966326,8229.640625,5812.93530273438,198.404786304453,-10.4462890625,0.0504034239808953,NaN,0.153836964326005,0.41871695638311,5000,1.01439046859741,1.01439046859741,1.01439046859741,1973.67920918465,8070.52052351562,10044.1997327003,,,70.5999999046326,2416.70532226562,32311.6335182177,32480.2975746449
2018-07-19T08:37:21Z,1531989441,60E,41.050985,43.5342854,8219.44,-0.1,-3,348.3,551098.31,-146373.42,342.7,Weapon+Missile,Blue,Enemies,AIM-7M,,us,,195.124974235518,130.191299438477,0.63497739271133,8219.4443359375,5816.71948242188,194.858387706985,-10.1962890625,0.0312403271938034,NaN,0,0.380137860155909,5000,1.01324808597565,1.01324808597565,1.01324808597565,1903.68777852058,8060.52137970215,9964.20915822273,,,71.5999999046326,2402.72485351562,32505.9166202418,32675.0982337095
2018-07-19T08:37:22Z,1531989442,60E,41.0504952,43.5359776,8209.39,0,-3,348,551040.44,-146189.27,342.4,Weapon+Missile,Blue,Enemies,AIM-7M,,us,,193.297797745653,128.971771240234,0.628944038389988,8209.39453125,5768.29711914062,193.03636973136,-10.0498046875,0.0449763950144902,NaN,0,0.368904760292177,5000,1.0132931470871,1.0132931470871,1.0132931470871,1868.20193066597,8050.66588798828,9918.86781865425,,,72.5999999046326,2441.09741210938,32698.3952511501,32868.0866060941
2018-07-19T08:37:23Z,1531989443,60E,41.0499965,43.5376421,8199.53,0,-3,347.6,550982.06,-146008.23,341.9,Weapon+Missile,Blue,Enemies,AIM-7M,,us,,190.465694114448,127.042190551758,0.619644657949801,8199.5341796875,5702.9716796875,190.21028915798,-9.8603515625,0.0613671326340882,NaN,0,0.418483235847448,5000,1.00944304466248,1.00944304466248,1.00944304466248,1813.85903172493,8040.99618632324,9854.85521804817,,,73.5999999046326,2496.5625,32888.0075062243,33058.1986480495
2018-07-19T08:37:24Z,1531989444,60E,41.0494857,43.5392903,8189.78,0.1,-3,347.1,550922.94,-145829.12,341.5,Weapon+Missile,Blue,Enemies,AIM-7M,,us,,188.868072322126,125.984321594238,0.614364301253613,8189.7763671875,5622.20849609375,188.615836657187,-9.7578125,0.0393671856168872,NaN,0.20000001179094,0.446424072318516,5000,0.845631897449493,0.845631897449493,0.845631897449493,1783.55743713379,8031.42704112793,9814.98447826172,,,74.5999999046326,2567.56787109375,33076.0636657574,33246.7490840256
2018-07-19T08:37:25Z,1531989445,60E,41.0489725,43.5409012,8178.65,-0.4,-4.7,347,550864,-145654.17,341.3,Weapon+Missile,Blue,Enemies,AIM-7M,,us,,184.948880170029,123.302993774414,0.60152322791023,8178.64697265625,5559.45361328125,184.613717945107,-11.12939453125,0.0574740185817594,NaN,0.769243225083516,1.63911616081736,3833.9318326535,0.105751171708107,0.105751171708107,0.105751171708107,1710.30441380739,8020.51283343994,9730.81724724733,,,75.5999999046326,2619.193359375,33260.1034950975,33431.3608424905
2018-07-19T08:37:26Z,1531989446,60E,41.0484787,43.5424454,8159.38,-1,-7.8,346.9,550807.44,-145486.48,341.3,Weapon+Missile,Blue,Enemies,AIM-7M,,us,,178.015933122672,118.570457458496,0.578820753972666,8159.37890625,5523.9541015625,176.970093695234,-19.26806640625,0.0337778460257328,NaN,0.569200644672183,3.11154347593126,3252.37245808554,0.0254796706140041,0.0254796706140041,0.0254796706140041,1584.48362227678,8001.61731509766,9586.10093737444,,,76.5999999046326,2635.4248046875,33436.5668460119,33609.0976960774
2018-07-19T08:37:27Z,1531989447,60E,41.0480092,43.5439116,8131.71,-1.6,-11.1,346.9,550753.56,-145327.27,341.3,Weapon+Missile,Blue,Enemies,AIM-7M,,us,,170.349542821971,113.397468566895,0.553682051482727,8131.705078125,5501.91357421875,168.086662101912,-27.673828125,0.0994520778706525,NaN,0.569255286185543,3.17693997591319,3024.3874353063,0.0172659959644079,0.0172659959644079,0.0172659959644079,1450.94833698273,7974.47856043945,9425.42689742218,,,77.5999999046326,2629.79150390625,33604.1210819523,33779.1330348362
2018-07-19T08:37:28Z,1531989448,60E,41.0475572,43.545319,8095.71,-2.1,-14.2,346.9,550701.81,-145174.45,341.3,Weapon+Missile,Blue,Enemies,AIM-7M,,us,,165.303556118109,110.111366271973,0.537014833841796,8095.71142578125,5498.00415039062,161.337294684924,-35.99365234375,0.0510272295208036,NaN,0.523083207396256,3.22730472363581,2891.1115687035,0.0255028828978539,0.0255028828978539,0.0255028828978539,1366.26328326464,7939.18084536377,9305.44412862841,,,78.5999999046326,2597.70727539062,33764.9804850857,33944.1698979499
2018-07-19T08:37:29Z,1531989449,60E,41.0471233,43.5466641,8051.91,-2.4,-17.6,346.8,550652.19,-145028.41,341.2,Weapon+Missile,Blue,Enemies,AIM-7M,,us,,160.345463507356,106.933792114258,0.520593758958836,8051.91259765625,5492.5205078125,154.247626634142,-43.798828125,0.0561501035027448,NaN,0.369212705774209,3.28510199783587,2784.77347372892,0.0312218926846981,0.0312218926846981,0.0312218926846981,1285.53338336945,7896.22886758057,9181.76225095001,,,79.5999999046326,2559.39208984375,33918.753898055,34104.246452652
2018-07-19T08:37:30Z,1531989450,60E,41.0467071,43.547947,8000.82,-2.7,-20.8,346.7,550604.69,-144889.16,341.1,Weapon+Missile,Blue,Enemies,AIM-7M,,us,,155.747500774605,104.045333862305,0.505310542992407,8000.81982421875,5488.04174804688,147.128557730986,-51.0927734375,0.0248367269387015,NaN,0.199987938897973,3.3272747874227,2695.01187692197,0.0414562895894051,0.0414562895894051,0.0414562895894051,1212.86419987679,7846.12397291748,9058.98817279427,,,80.5999999046326,2512.77807617188,34065.4585095765,34259.7678871993
2018-07-19T08:37:31Z,1531989451,60E,41.0463038,43.5491804,7942.3,-3,-24.2,346.6,550558.69,-144755.28,341,Weapon+Missile,Blue,Enemies,AIM-7M,,us,,153.175789779637,102.600044250488,0.49656784842396,7942.30224609375,5478.755859375,141.55746403846,-58.517578125,0.0665942309810249,NaN,0.230805752433071,3.32186271627911,2669.38054573893,0.0310215428471565,0.0310215428471565,0.0310215428471565,1173.14112873077,7788.73783216553,8961.8789608963,,,81.5999999046326,2463.54638671875,34206.5623026434,34412.6874321823
2018-07-19T08:37:32Z,1531989452,60E,41.0459128,43.5503647,7876.73,-3.1,-27.5,346.5,550514.31,-144626.77,340.9,Weapon+Missile,Blue,Enemies,AIM-7M,,us,,150.945951509503,101.426132202148,0.488899695731369,7876.7333984375,5457.84643554688,135.961047709043,-65.56884765625,0.0884682939677468,NaN,0.0769352508110236,3.22974929102844,2679.20008829592,0.047880046069622,0.047880046069622,0.047880046069622,1139.23401385546,7724.43675817871,8863.67077203417,,,82.5999999046326,2418.88696289062,34342.121300084,34563.4226985518
2018-07-19T08:37:33Z,1531989453,60E,41.0455352,43.5514954,7804.82,-3.3,-30.6,346.3,550471.56,-144504.11,340.7,Weapon+Missile,Blue,Enemies,AIM-7M,,us,,148.471616068969,100.109260559082,0.480412840448985,7804.81884765625,5422.42895507812,129.892717902362,-71.91455078125,0.0666104190503755,NaN,0.199987938897973,3.17965433577804,2680.16717038677,0.0438394770026207,0.0438394770026207,0.0438394770026207,1102.19103890657,7653.91267523682,8756.10371414339,,,83.5999999046326,2382.38989257812,34471.622074663,34711.6907365766
2018-07-19T08:37:34Z,1531989454,60E,41.0451674,43.552582,7726.33,-3.3,-33.7,346.1,550430.12,-144386.27,340.5,Weapon+Missile,Blue,Enemies,AIM-7M,,us,,147.528131098506,99.8911590576172,0.476848917514624,7726.3310546875,5377.81567382812,124.916835615991,-78.48779296875,0.0274197039531286,NaN,0,3.13148528043017,2753.56970870542,0.0619326569139957,0.0619326569139957,0.0619326569139957,1088.22747327089,7576.94244374512,8665.16991701601,,,84.5999999046326,2348.51538085938,34596.1745179881,34859.0387722998
2018-07-19T08:37:35Z,1531989455,60E,41.0448086,43.5536265,7641.51,-3.3,-36.8,345.9,550389.75,-144273.03,340.3,Weapon+Missile,Blue,Enemies,AIM-7M,,us,,147.126878556256,100.085136413574,0.475003015134251,7641.5126953125,5320.55004882812,120.217154793485,-84.818359375,0.0709745809432512,NaN,0,3.03134275436674,2829.74134162899,0.0422762744128704,0.0422762744128704,0.0422762744128704,1082.31591968536,7493.76404734863,8576.07996703399,,,85.5999999046326,2320.96264648438,34715.995703858,35005.9601266211
2018-07-19T08:37:36Z,1531989456,60E,41.0444599,43.5546251,7551.08,-3.3,-39.7,345.7,550350.81,-144164.83,340.1,Weapon+Missile,Blue,Enemies,AIM-7M,,us,,146.29276655858,100.003723144531,0.47173018975107,7551.0830078125,5262.037109375,114.995848472958,-90.4296875,0.0570134785021621,NaN,0,2.93352569427228,2935.02120911996,0.061048861593008,0.061048861593008,0.061048861593008,1070.07867736816,7405.08281785645,8475.16149522461,,,86.5999999046326,2289.0458984375,34830.6578062286,35152.0979437321
2018-07-19T08:37:37Z,1531989457,60E,41.0441199,43.5555811,7455.16,-3.2,-42.5,345.4,550313,-144061.28,339.8,Weapon+Missile,Blue,Enemies,AIM-7M,,us,,146.126751846796,100.423179626465,0.470582788308915,7455.15966796875,5200.09497070312,110.234933113399,-95.92333984375,0.0385225140213218,NaN,0.199987938897973,2.79865336382662,3066.00384142171,0.0600253567099571,0.0600253567099571,0.0600253567099571,1067.65138026476,7311.01415578857,8378.66553605333,,,87.5999999046326,2255.06469726562,34940.560175806,35298.071409117
2018-07-19T08:37:38Z,1531989458,60E,41.0437875,43.5564986,7353.75,-3.1,-45.1,345.1,550276.19,-143961.95,339.5,Weapon+Missile,Blue,Enemies,AIM-7M,,us,,146.649069577981,101.364189147949,0.471618020629064,7353.74609375,5108.93286132812,105.93033829959,-101.41357421875,0.0508766065595068,NaN,0.199987938897973,2.66383460767727,3220.52824340994,0.051789753139019,0.051789753139019,0.051789753139019,1075.29748040438,7211.56141302734,8286.85889343172,,,88.5999999046326,2244.81323242188,35046.1587482597,35444.5694546781
2018-07-19T08:37:39Z,1531989459,60E,41.0434625,43.5573784,7247.12,-3,-47.7,344.9,550240.44,-143866.75,339.3,Weapon+Missile,Blue,Enemies,AIM-7M,,us,,147.34336602251,102.463714599609,0.47317045468786,7247.12353515625,5025.63525390625,101.694137047155,-106.62255859375,0.0534528762537819,NaN,0.199987938897973,2.51616271617042,3410.53723616604,0.0673698857426643,0.0673698857426643,0.0673698857426643,1085.50337554216,7107.000401604,8192.50377714617,,,89.5999999046326,2221.48828125,35147.5479075683,35591.7824893771
2018-07-19T08:37:40Z,1531989460,60E,41.0431458,43.5582185,7135.95,-2.9,-50.1,344.6,550205.69,-143775.91,338.9,Weapon+Missile,Blue,Enemies,AIM-7M,,us,,147.718470771482,103.36646270752,0.473666890423217,7135.9453125,4925.3662109375,97.2632994199894,-111.17822265625,0.0683408396403782,NaN,0.184654591098118,2.41576192357899,3589.77817825251,0.047500591725111,0.047500591725111,0.047500591725111,1091.03733035326,6997.97180988281,8089.00914023607,,,90.5999999046326,2210.5791015625,35244.4907701776,35739.362029296
2018-07-19T08:37:41Z,1531989461,60E,41.0428373,43.5590199,7020.52,-2.7,-52.3,344.2,550172.12,-143689.28,338.6,Weapon+Missile,Blue,Enemies,AIM-7M,,us,,148.167703803344,104.352363586426,0.474373282342317,7020.5185546875,4813.19116210938,92.8995803610006,-115.4267578125,0,NaN,0.123069336673052,2.31533295645724,3830.04634591558,0.0606998279690742,0.0606998279690742,0.0606998279690742,1097.68342251778,6884.77682843262,7982.46025095039,,,91.5999999046326,2207.32739257812,35337.1128639682,35887.4202619566
2018-07-19T08:37:42Z,1531989462,60E,41.0425343,43.5597905,6900.14,-2.6,-54.5,344,550139.31,-143606.05,338.3,Weapon+Missile,Blue,Enemies,AIM-7M,,us,,149.982930751602,106.371719360352,0.479413615769883,6900.14306640625,4702.73754882812,89.4685494343718,-120.37548828125,0.06066903097787,NaN,0.107685616228067,2.15778311730667,4090.07636915769,0.0544051863253117,0.0544051863253117,0.0544051863253117,1124.743975842,6766.72880021729,7891.47277605929,,,92.5999999046326,2197.40551757812,35426.3037142545,36037.2956692176
2018-07-19T08:37:43Z,1531989463,60E,41.0422414,43.5605203,6776.79,-2.4,-56.5,343.6,550107.75,-143527.27,338,Weapon+Missile,Blue,Enemies,AIM-7M,,us,,149.728574803477,106.904098510742,0.477815385463078,6776.7900390625,4586.68383789062,84.8685852233469,-123.35302734375,0.0256601184060081,NaN,0.200042580411333,2.02470691316932,4331.85003577432,0.0579948090016842,0.0579948090016842,0.0579948090016842,1120.93230563402,6645.76080365723,7766.69310929125,,,93.5999999046326,2190.10620117188,35510.9131310384,36186.9288267642
2018-07-19T08:37:44Z,1531989464,60E,41.0419549,43.561219,6649.27,-2.3,-58.4,343.3,550077,-143451.88,337.7,Weapon+Missile,Blue,Enemies,AIM-7M,,us,,151.296610071545,108.81177520752,0.482003188816046,6649.27001953125,4466.60278320312,81.4205676588577,-127.52001953125,0.038588842120718,NaN,0.0307674408899687,1.89736401250995,4623.71873085673,0.044007733464241,0.044007733464241,0.044007733464241,1144.53321095705,6520.70638370361,7665.23959466066,,,94.5999999046326,2182.66723632812,35592.0540230202,36338.1209763695
2018-07-19T08:37:45Z,1531989465,60E,41.0416769,43.5618835,6518.67,-2.1,-60.2,343,550047.38,-143380.25,337.4,Weapon+Missile,Blue,Enemies,AIM-7M,,us,,151.868073275656,110.011650085449,0.482989066274521,6518.6708984375,4343.044921875,77.5098784026914,-130.59912109375,0.0488021327581031,NaN,0.199987938897973,1.79537093206827,4978.38080241323,0.055433165282011,0.055433165282011,0.055433165282011,1153.195584023,6392.63239661621,7545.82798063921,,,95.5999999046326,2175.6259765625,35669.3452807857,36489.9182384601
2018-07-19T08:37:46Z,1531989466,60E,41.0414069,43.5625155,6385.05,-1.9,-61.9,342.6,550018.69,-143312.12,337,Weapon+Missile,Blue,Enemies,AIM-7M,,us,,152.707658309104,111.439483642578,0.484804935646253,6385.0458984375,4212.21655273438,73.9187951826191,-133.625,0.0167369056937203,NaN,0.199987938897973,1.7406359304939,5000,0.0404094122350216,0.0404094122350216,0.0404094122350216,1165.9814453125,6261.59103599121,7427.57248130371,,,96.5999999046326,2172.82934570312,35743.0021480457,36642.5352635766
2018-07-19T08:37:47Z,1531989467,60E,41.0411439,43.5631189,6248.05,-1.8,-63.6,342.3,549990.94,-143247.16,336.7,Weapon+Missile,Blue,Enemies,AIM-7M,,us,,154.143228089538,113.35090637207,0.488483090098133,6248.04541015625,4069.38696289062,70.6470167562828,-137.00048828125,0.0477022071923419,NaN,0.199987938897973,1.64546418132065,5000,0.0413319729268551,0.0413319729268551,0.0413319729268551,1188.00673829317,6127.23945215088,7315.24619044405,,,97.5999999046326,2178.65844726562,35813.4403614035,36796.6148138619
2018-07-19T08:37:48Z,1531989468,60E,41.0408903,43.5636897,6109.06,-1.6,-65,342,549964.31,-143185.73,336.4,Weapon+Missile,Blue,Enemies,AIM-7M,,us,,154.271911264277,114.295379638672,0.48800281819573,6109.05517578125,3926.53979492188,66.9442854433119,-138.990234375,0.0255121547053658,NaN,0.199987938897973,1.50004593207479,5000,0.049584798514843,0.049584798514843,0.049584798514843,1189.99113025665,5990.93659395752,7180.92772421417,,,98.5999999046326,2182.51538085938,35880.1872781551,36950.8291835089
2018-07-19T08:37:49Z,1531989469,60E,41.0406458,43.5642295,5968.26,-1.5,-66.4,341.7,549938.69,-143127.67,336.1,Weapon+Missile,Blue,Enemies,AIM-7M,,us,,154.435802480491,115.282119750977,0.487625628078622,5968.2626953125,3779.44970703125,63.4656957044512,-140.79248046875,0.0205069811228076,NaN,0.200042580411333,1.3946524846435,5000,0.033532839268446,0.033532839268446,0.033532839268446,1192.52085438967,5852.86633609863,7045.3871904883,,,99.5999999046326,2188.81298828125,35943.4388285084,37105.2016564381
2018-07-19T08:37:50Z,1531989470,60E,41.0404064,43.5647483,5823.43,-1.4,-67.8,341.3,549913.75,-143071.92,335.7,Weapon+Missile,Blue,Enemies,AIM-7M,,us,,157.183146546523,118.299163818359,0.495367768202743,5823.4296875,3628.4931640625,61.0732462396588,-144.8330078125,0.0136287533939202,NaN,0,1.34353929759823,5000,0.0370887480676174,0.0370887480676174,0.0370887480676174,1235.32707791328,5710.83367449219,6946.16075240547,,,100.599999904633,2194.9365234375,36004.3344465883,37262.3376973777
2018-07-19T08:37:51Z,1531989471,60E,41.0401675,43.5652571,5671.73,-1.2,-69,341,549888.94,-143017.27,335.4,Weapon+Missile,Blue,Enemies,AIM-7M,,us,,163.147026031428,123.91333770752,0.513155156323565,5671.72607421875,3468.77001953125,60.0247100810366,-151.70361328125,0.0139018058240351,NaN,0.199987938897973,1.24339847908209,5000,0.0324967615306377,0.0324967615306377,0.0324967615306377,1330.84760514498,5562.06325057373,6892.91085571871,,,101.599999904633,2202.9560546875,36064.1556240466,37425.4297328461
2018-07-19T08:37:52Z,1531989472,60E,41.0399249,43.565765,5510.67,-1.1,-70.1,340.8,549863.88,-142962.73,335.1,Weapon+Missile,Blue,Enemies,AIM-7M,,us,,171.875492448275,131.865661621094,0.539488709167497,5510.6689453125,3293.04956054688,60.0148825943407,-161.05712890625,0.0336366332537303,NaN,0.123103060732079,1.0895770694447,5000,0.0390210635960102,0.0390210635960102,0.0390210635960102,1477.05924521685,5404.12016125488,6881.17940647173,,,102.599999904633,2217.61938476562,36123.982099719,37597.257797831
2018-07-19T08:37:53Z,1531989473,60E,41.0396803,43.5662693,5341.11,-1,-71.1,340.5,549838.62,-142908.64,334.9,Weapon+Missile,Blue,Enemies,AIM-7M,,us,,179.760892822501,139.342926025391,0.563013675434825,5341.10986328125,3092.6552734375,59.6967024973951,-169.55908203125,0.00454302760899128,NaN,0,1.00457760637972,5000,0.0289552100002766,0.0289552100002766,0.0289552100002766,1615.69892941713,5237.83950407471,6853.53843349184,,,103.599999904633,2248.45458984375,36183.4978328197,37776.9754483963
2018-07-19T08:37:54Z,1531989474,60E,41.0394321,43.5667733,5161.99,-0.8,-72,340.2,549813.12,-142854.59,334.6,Weapon+Missile,Blue,Enemies,AIM-7M,,us,,188.821560957632,147.975173950195,0.590040519576646,5161.99462890625,2880.68359375,59.7604777195232,-179.115234375,0.0276778361221162,NaN,0.123069550116463,0.922626862283788,5000,0.033550500869751,0.033550500869751,0.033550500869751,1782.67909412384,5062.18746275635,6844.86655688019,,,104.599999904633,2281.31103515625,36243.0598884212,37965.7497847859
2018-07-19T08:37:55Z,1531989475,60E,41.0391818,43.5672747,4974.11,-0.8,-72.8,340,549787.44,-142800.84,334.4,Weapon+Missile,Blue,Enemies,AIM-7M,,us,,197.104403187768,156.193664550781,0.614453918236578,4974.1083984375,2659.12280273438,59.5727299714391,-187.88623046875,0.0174507192030977,NaN,0.0615347750582316,0.821829118307709,5000,0.0216386541724205,0.0216386541724205,0.0216386541724205,1942.50728780031,4877.93401255371,6820.44130035402,,,105.599999904633,2314.98559570312,36302.4208101922,38162.8044897137
2018-07-19T08:37:56Z,1531989476,60E,41.0389296,43.5677737,4777.54,-0.7,-73.6,339.8,549761.69,-142747.38,334.1,Weapon+Missile,Blue,Enemies,AIM-7M,,us,,205.33165765157,164.58268737793,0.638511891146736,4777.5400390625,2437.56713867188,59.3461854423896,-196.568359375,0.0290485510062366,NaN,0,0.772358538396982,5000,0.0262092165648937,0.0262092165648937,0.0262092165648937,2108.05448169708,4685.16630240723,6793.22078410431,,,106.599999904633,2339.97290039062,36361.5722745697,38368.0929872331
2018-07-19T08:37:57Z,1531989477,60E,41.0386756,43.5682703,4572.19,-0.6,-74.3,339.5,549735.81,-142694.2,333.9,Weapon+Missile,Blue,Enemies,AIM-7M,,us,,213.692357943338,173.307342529297,0.66279561545294,4572.1923828125,2215.65063476562,59.1334416046929,-205.34765625,0.0138800964698185,NaN,0,0.695500714183503,5000,0.0283069107681513,0.0283069107681513,0.0283069107681513,2283.22119216919,4483.78904309082,6767.01023526001,,,107.599999904633,2356.54174804688,36420.5259538453,38581.7475984498
2018-07-19T08:37:58Z,1531989478,60E,41.0384196,43.5687653,4357.78,-0.5,-74.9,339.4,549709.75,-142641.2,333.7,Weapon+Missile,Blue,Enemies,AIM-7M,,us,,222.395973455905,182.559494018555,0.687941861985029,4357.7822265625,1985.3916015625,59.0614417894619,-214.41015625,0.020630570953183,NaN,0.0923021092264945,0.621662633995963,5000,0.0206725858151913,0.0206725858151913,0.0206725858151913,2472.99845046997,4273.52450721191,6746.52295768189,,,108.599999904633,2372.390625,36479.3778072026,38804.0989121774
2018-07-19T08:37:59Z,1531989479,60E,41.0381623,43.5692579,4134.75,-0.5,-75.5,339.2,549683.62,-142588.5,333.6,Weapon+Missile,Blue,Enemies,AIM-7M,,us,,230.661219379626,191.675689697266,0.711530128441228,4134.74755859375,1751.14990234375,58.822912285653,-223.03466796875,0.0121812629069017,NaN,0.0153836137232786,0.597506282614038,5000,0.0156730227172375,0.0156730227172375,0.0156730227172375,2660.22990628481,4054.80221454834,6715.03212083315,,,109.599999904633,2383.59765625,36538.0085110143,39034.7211166596
2018-07-19T08:38:00Z,1531989480,60E,41.0379052,43.5697455,3904.34,-0.4,-76.1,339,549657.62,-142536.36,333.4,Weapon+Missile,Blue,Enemies,AIM-7M,,us,,237.660887288479,199.909576416016,0.731033767213115,3904.33911132812,1519.29272460938,58.2635801799943,-230.408447265625,0,NaN,0,0.570533652138246,5000,0.02529651299119,0.02529651299119,0.02529651299119,2824.13486733735,3828.8487146106,6652.98358194794,,,110.599999904633,2385.04638671875,36596.1041387052,39272.3498394386
2018-07-19T08:38:01Z,1531989481,60E,41.037647,43.5702309,3665.25,-0.4,-76.6,338.8,549631.5,-142484.45,333.2,Weapon+Missile,Blue,Enemies,AIM-7M,,us,,246.054050369274,209.594604492188,0.754626378245517,3665.24536132812,1285.33911132812,58.1100199110489,-239.09375,0,NaN,0,0.521432329329523,5000,0.0162872653454542,0.0162872653454542,0.0162872653454542,3027.12978515625,3594.37784226685,6621.5076274231,,,111.599999904633,2379.90625,36654.0154250816,39518.3651230208
2018-07-19T08:38:02Z,1531989482,60E,41.0373887,43.5707124,3418.42,-0.3,-77.1,338.7,549605.44,-142432.98,333.1,Weapon+Missile,Blue,Enemies,AIM-7M,,us,,253.475597440188,218.646224975586,0.775043150245459,3418.42236328125,1049.02197265625,57.691300321734,-246.822998046875,0.0193686524477075,NaN,0,0.470538135224525,5000,0.0189805142581463,0.0189805142581463,0.0189805142581463,3212.49392488301,3352.32716688721,6564.82109177022,,,112.599999904633,2369.400390625,36711.5227003036,39771.8061477071
2018-07-19T08:38:03Z,1531989483,60E,41.0371289,43.5711928,3162.39,-0.3,-77.6,338.5,549579.25,-142381.64,332.9,Weapon+Missile,Blue,Enemies,AIM-7M,,us,,262.438739160577,229.333267211914,0.799954555668545,3162.39086914062,811.68701171875,57.6364972939239,-256.031494140625,0.0488646099906345,NaN,0,0.470226134317673,5000,0.0185023061931133,0.0185023061931133,0.0185023061931133,3443.70459060967,3101.24604168579,6544.95063229546,,,113.599999904633,2350.70385742188,36768.9639247658,40034.2085590477
2018-07-19T08:38:04Z,1531989484,60E,41.0368715,43.5716656,2900.86,-0.3,-78,338.4,549553.31,-142331.14,332.8,Weapon+Missile,Blue,Enemies,AIM-7M,,us,,267.618063172765,236.775909423828,0.813167581199603,2900.86376953125,567.336669921875,56.7715061122215,-261.527099609375,0.0205146992135379,NaN,0,0.451111423038569,5000,0.00876711960881948,0.00876711960881948,0.00876711960881948,3580.9713868171,2844.77556854736,6425.74695536446,,,114.599999904633,2333.52709960938,36825.5350470658,40301.7898714122
2018-07-19T08:38:05Z,1531989485,60E,41.0366137,43.5721357,2631.05,-0.2,-78.4,338.3,549527.44,-142280.92,332.6,Weapon+Missile,Blue,Enemies,AIM-7M,,us,,275.660614618397,247.058715820312,0.834895602144216,2631.05395507812,309.275634765625,56.492817920179,-269.809814453125,0.0294522732472919,NaN,0,0.416256274012907,5000,0.0186028108000755,0.0186028108000755,0.0186028108000755,3799.43872258961,2580.18252685669,6379.6212494463,,,115.599999904633,2321.7783203125,36881.8531952148,40577.4197342808
2018-07-19T08:38:06Z,1531989486,60E,41.0363572,43.5726006,2354.7,-0.2,-78.8,338.1,549501.69,-142231.28,332.5,Weapon+Missile,Blue,Enemies,AIM-7M,,us,,281.959125861038,255.927947998047,0.851160908863765,2354.69604492188,44.765869140625,55.9218575370188,-276.35791015625,0.0445535392085548,NaN,0,0.389041732110535,5000,0.013371841982007,0.013371841982007,0.013371841982007,3975.04743281603,2309.16799689331,6284.21542970934,,,116.599999904633,2309.93017578125,36937.5800914845,40859.3445637787
2018-07-19T08:38:07Z,1531989487,60E,41.0361016,43.5730609,2071.29,-0.2,-79.1,338,549476.06,-142182.16,332.4,Weapon+Missile,Blue,Enemies,AIM-7M,,us,,288.766759121863,265.471771240234,0.868788412311787,2071.29467773438,-226.912353515625,55.4067346989515,-283.4013671875,0.0180319477105701,NaN,0,0.351382470265465,5000,0.0145885730162263,0.0145885730162263,0.0145885730162263,4169.31205868721,2031.24619514038,6200.55825382759,,,117.599999904633,2298.20703125,36992.8141438729,41148.0819061489
2018-07-19T08:38:08Z,1531989488,60E,41.035849,43.5735131,1783.2,-0.2,-79.4,337.9,549450.75,-142133.89,332.3,Weapon+Missile,Blue,Enemies,AIM-7M,,us,,293.209033730785,272.930145263672,0.879166780322243,1783.1953125,-503.93310546875,54.5003964470959,-288.099365234375,0.0267447897445605,NaN,0,0.320512229692402,5000,0.0108117926865816,0.0108117926865816,0.0108117926865816,4298.57687306702,1748.71723113281,6047.29410419983,,,118.599999904633,2287.12841796875,37047.1213179804,41441.258126201
2018-07-19T08:38:09Z,1531989489,60E,41.0356003,43.5739559,1491.56,-0.2,-79.8,337.8,549425.88,-142086.66,332.2,Weapon+Missile,Blue,Enemies,AIM-7M,,us,,296.481102817079,279.379821777344,0.885951751049953,1491.55993652344,-786.141235351562,53.3840032841358,-291.635375976562,0.0157480484354032,NaN,0,0.342927656568341,5000,0.0125378454104066,0.0125378454104066,0.0125378454104066,4395.05221638158,1462.72062515076,5857.77284153234,,,119.599999904633,2277.701171875,37100.33691288,41737.7114045455
