ISOTime,UnixTime,Id,Longitude,Latitude,Altitude,Roll,Pitch,Yaw,U,V,Heading,Type,Color,Coalition,Name,Group,Country,Pilot,TAS,CAS,M,ASL,AGL,GS,VS,AOA,AOS,RRT,TRT,TRD,G,LatG,LonG,Ek,Ep,Em,FFW,FFV,RelativeTime,Elev,GroundDistance,AirDistance
2018-07-19T08:41:25Z,1531989685,6B04,41.557934,43.6137341,7435.97,-6.6,-6.6,336.4,591163.88,-133424.98,330.5,Weapon+Missile,Blue,Enemies,R-27ET,,cn,,396.661685760014,293.676086425781,1.27706744128651,7435.974609375,5637.44567871094,NaN,NaN,0.649183077706916,NaN,1.43075473016207,3.0963175699345,NaN,NaN,NaN,NaN,NaN,7292.20004030273,NaN,,,0.720000028610229,1798.52893066406,NaN,NaN
2018-07-19T08:41:26Z,1531989686,6B04,41.5550348,43.6187446,7366.43,-4.9,-4.3,338.4,590872.06,-132892.53,332.4,Weapon+Missile,Blue,Enemies,R-27ET,,cn,,611.143805026086,441.857543945312,1.96575266778888,7366.43408203125,5682.07995605469,607.174493435384,-69.54052734375,0.39970313415142,NaN,2.06153550661744,2.40012121726649,5000,5.78746747970581,5.78746747970581,5.78746747970581,18674.8375210881,7224.00407905518,25898.8416001433,,,1.72000002861023,1684.35412597656,604.727392532145,609.409799496507
2018-07-19T08:41:27Z,1531989687,6B04,41.5511303,43.6260351,7320.93,-3.4,-2.2,338.5,590472.81,-132115.14,332.6,Weapon+Missile,Blue,Enemies,R-27ET,,cn,,875.104042503537,611.968017578125,2.81305697460471,7320.93310546875,5818.16748046875,873.920331802557,-45.5009765625,0.0761462701336462,NaN,0.96922305313185,2.0008699798528,5000,2.66014313697815,2.66014313697815,2.66014313697815,38290.3542603016,7179.38286387451,45469.7371241761,,,2.72000002861023,1502.765625,1475.16491467863,1482.03660491933
2018-07-19T08:41:28Z,1531989688,6B04,41.5461984,43.6349178,7281.04,-2.6,-2.1,337.6,589972.38,-131169.42,331.6,Weapon+Missile,Blue,Enemies,R-27ET,,cn,,1070.70686005657,739.994384765625,3.43998006440641,7281.0390625,5402.95751953125,1069.96338512484,-39.89404296875,0.0291639364372003,NaN,0.769238956215285,0.988176401191812,5000,2.10348320007324,2.10348320007324,2.10348320007324,57320.6590086103,7140.26017222656,64460.9191808368,,,3.72000002861023,1878.08154296875,2540.84182324107,2549.67899301144
2018-07-19T08:41:29Z,1531989689,6B04,41.5409911,43.6438396,7239.23,-2.3,-2.4,336.8,589449.38,-130221.65,330.8,Weapon+Missile,Blue,Enemies,R-27ET,,cn,,1083.30585239358,749.837158203125,3.47849983381617,7239.22900390625,5407.6904296875,1082.4987246323,-41.81005859375,0.0432955669764066,NaN,0.261522820677911,0.786854761136688,5000,1.01590955257416,1.01590955257416,1.01590955257416,58677.578491509,7099.25851111572,65776.8370026247,,,4.72000002861023,1831.53857421875,3618.97791544203,3629.85178133851
2018-07-19T08:41:30Z,1531989690,6B04,41.53565,43.6527795,7191.54,-1.9,-2.6,336.4,588915.5,-129272.95,330.5,Weapon+Missile,Blue,Enemies,R-27ET,,cn,,1089.64193612046,755.853454589844,3.49660221467325,7191.5400390625,5382.50903320312,1088.59786495495,-47.68896484375,0.0304734638843892,NaN,0.369254967569699,0.383086234041107,5000,0.889578819274902,0.889578819274902,0.889578819274902,59365.9774476171,7052.49161240723,66418.4690600243,,,5.72000002861023,1809.03100585938,4703.17257110982,4716.32007599836
2018-07-19T08:41:31Z,1531989691,6B04,41.5302493,43.6617112,7141.35,-1.6,-2.7,336.3,588377,-128325.64,330.3,Weapon+Missile,Blue,Enemies,R-27ET,,cn,,1090.82647562186,758.606628417969,3.49804492773266,7141.3486328125,5261.40283203125,1089.6711534478,-50.19140625,0.0841594730435616,NaN,0.230755379787942,0.112342177736003,5000,0.933754742145538,0.933754742145538,0.933754742145538,59495.1199958801,7003.27065699707,66498.3906528772,,,6.72000002861023,1879.94580078125,5788.41819396595,5803.94380355445
2018-07-19T08:41:32Z,1531989692,6B04,41.52488,43.670673,7089.59,-1.4,-2.9,337.1,587840.81,-127374.69,331.2,Weapon+Missile,Blue,Enemies,R-27ET,,cn,,1092.92625680019,762.034606933594,3.50234675009358,7089.59033203125,5078.69885253906,1091.6999959254,-51.75830078125,0.0603418281756864,NaN,0.0153837204449843,1.02649920524258,5000,3.21762442588806,3.21762442588806,3.21762442588806,59724.3901401639,6952.51310296142,66676.9032431253,,,7.72000002861023,2010.89147949219,6875.70941658772,6893.67786868963
2018-07-19T08:41:33Z,1531989693,6B04,41.5198742,43.679705,7019.62,-2,-4.7,339.2,587333.31,-126412.91,333.2,Weapon+Missile,Blue,Enemies,R-27ET,,cn,,1089.71360097071,762.675354003906,3.48878175739007,7019.61669921875,5239.76611328125,1087.46467659946,-69.9736328125,0.0721896466535857,NaN,0.615372723461469,2.32594749731426,5000,4.56075143814087,4.56075143814087,4.56075143814087,59373.7866070271,6883.89241033936,66257.6790173664,,,8.72000002861023,1779.8505859375,7958.91464382048,7980.33644621139
2018-07-19T08:41:34Z,1531989694,6B04,41.5152952,43.6888203,6913.03,-2.5,-6.5,340.9,586859.25,-125438.27,335,Weapon+Missile,Blue,Enemies,R-27ET,,cn,,1089.04605452404,766.450073242188,3.48168423422293,6913.025390625,5236.55578613281,1083.81714408227,-106.59130859375,0.0768061610010018,NaN,0.369267347287569,2.57614586434829,5000,3.96539711952209,3.96539711952209,3.96539711952209,59301.0654437184,6779.36204469727,66080.4274884157,,,9.72000002861023,1676.46960449219,9038.5112682471,9066.35578025852
2018-07-19T08:41:35Z,1531989695,6B04,41.5111767,43.6977705,6774.38,-3,-8.6,342.3,586424.38,-124478.11,336.4,Weapon+Missile,Blue,Enemies,R-27ET,,cn,,1063.12750197659,754.518676757812,3.39255468725699,6774.37548828125,5199.70056152344,1054.04757484616,-138.64990234375,0.0769035015545421,NaN,0.47696577012033,2.51557873499638,5000,3.96992468833923,3.96992468833923,3.96992468833923,56512.0042729497,6643.39293821533,63155.397211165,,,10.7200000286102,1574.67492675781,10088.5429289095,10126.6187885479
2018-07-19T08:41:36Z,1531989696,6B04,41.5076156,43.7061243,6605.78,-3.4,-10.9,343.3,586041.38,-123579.57,337.4,Weapon+Missile,Blue,Enemies,R-27ET,,cn,,991.204961206199,712.290405273438,3.1559793353164,6605.77587890625,5268.25964355469,976.760690670125,-168.599609375,0.0583065669256003,NaN,0.338504175265832,2.47874331135909,5000,2.99698662757874,2.99698662757874,2.99698662757874,49124.3637559891,6478.0532022876,55602.4169582767,,,11.7200000286102,1337.51623535156,11061.6367713336,11115.2162503462
2018-07-19T08:41:37Z,1531989697,6B04,41.5044489,43.7139039,6413.82,-3.4,-12.9,343.8,585696.81,-122741.53,337.8,Weapon+Missile,Blue,Enemies,R-27ET,,cn,,926.218070226078,674.777709960938,2.94160179347959,6413.81982421875,5280.30432128906,906.108595413447,-191.9560546875,0.0655756230030222,NaN,0.199987938897973,1.88007616339042,5000,0.577162563800812,0.577162563800812,0.577162563800812,42893.995680666,6289.80861791748,49183.8042985835,,,12.7200000286102,1133.51550292969,11964.3751742581,12039.038807842
2018-07-19T08:41:38Z,1531989698,6B04,41.5015007,43.7210997,6221.85,-1.5,-10.9,342,585376.56,-121966.55,336,Weapon+Missile,Blue,Enemies,R-27ET,,cn,,860.240973341399,635.734619140625,2.7251860166827,6221.8466796875,5081.89038085938,838.546864518699,-191.97314453125,0.152850829376598,NaN,3.53844139811446,2.78788343616598,5000,8.85277843475342,8.85277843475342,8.85277843475342,37000.7266107678,6101.54727413574,43102.2738849036,,,13.7200000286102,1139.95629882812,12799.7818520819,12897.0255803421
2018-07-19T08:41:39Z,1531989699,6B04,41.4982594,43.7276239,6107.5,0.5,-7.2,339.4,585040.5,-121268.6,333.4,Weapon+Missile,Blue,Enemies,R-27ET,,cn,,783.03266618388,585.871337890625,2.47688901996758,6107.5029296875,4846.95178222656,774.639053461012,-114.34375,0.134683030499157,NaN,0.646153931451483,3.84377817477071,5000,1.83853900432587,1.83853900432587,1.83853900432587,30657.0078155518,5989.41436054199,36646.4221760938,,,14.7200000286102,1260.55114746094,13571.4465424848,13677.853678388
2018-07-19T08:41:40Z,1531989700,6B04,41.4951689,43.7336782,6006.78,-1.3,-10.8,341,584722,-120621.61,335.1,Weapon+Missile,Blue,Enemies,R-27ET,,cn,,728.13905901012,550.582275390625,2.30022641535083,6006.77880859375,4660.64697265625,721.138780461871,-100.72412109375,0.213410846397693,NaN,3.46153987136246,3.51718029988868,5000,7.3454418182373,7.3454418182373,7.3454418182373,26509.3244628072,5890.63774032959,32399.9622031368,,,15.7200000286102,1346.1318359375,14289.8000927215,14403.9099843769
2018-07-19T08:41:41Z,1531989701,6B04,41.4927528,43.7391917,5844.87,-3.6,-16.6,343.6,584464.12,-120029.09,337.6,Weapon+Missile,Blue,Enemies,R-27ET,,cn,,666.175630576453,511.371154785156,2.10005758443981,5844.8662109375,4565.91979980469,646.199877355405,-161.91259765625,0.376954899229505,NaN,1.58460388744296,5.2053699825104,5000,2.53992486000061,2.53992486000061,2.53992486000061,22189.4985386968,5731.85572274902,27921.3542614458,,,16.7200000286102,1278.94641113281,14933.5837310274,15068.3221689591
2018-07-19T08:41:42Z,1531989702,6B04,41.4906538,43.7443497,5664.68,-3.1,-16.7,343.7,584235.88,-119473.44,337.7,Weapon+Missile,Blue,Enemies,R-27ET,,cn,,627.152008515405,487.928039550781,1.97243564045262,5664.67822265625,4339.70947265625,600.709522701332,-180.18798828125,0.0510945411988512,NaN,0.569225830994747,1.20380782116664,5000,1.24243891239166,1.24243891239166,1.24243891239166,19665.9820892453,5555.15166922119,25221.1337584665,,,17.7200000286102,1324.96875,15532.0720864585,15693.8640748764
2018-07-19T08:41:43Z,1531989703,6B04,41.4886739,43.7492636,5495.96,-2.4,-16,343.9,584020.06,-118943.9,338,Weapon+Missile,Blue,Enemies,R-27ET,,cn,,596.198377813145,469.41845703125,1.87101419396856,5495.9599609375,4171.68591308594,571.827468621112,-168.71826171875,0.065351728502472,NaN,0.769238956215285,0.730494601426682,5000,2.02633690834045,2.02633690834045,2.02633690834045,17772.6252853513,5389.69557509277,23162.3208604441,,,18.7200000286102,1324.27404785156,16101.7873896791,16288.5148783509
2018-07-19T08:41:44Z,1531989704,6B04,41.4868323,43.7539383,5346.07,-2,-15.3,344.4,583818.06,-118439.79,338.5,Weapon+Missile,Blue,Enemies,R-27ET,,cn,,563.380647681354,448.709014892578,1.76462821734611,5346.068359375,4109.13684082031,543.07482169853,-149.8916015625,0.0451323090430165,NaN,0.200042580411333,0.672687775633955,5000,1.14562368392944,1.14562368392944,1.14562368392944,15869.8877090931,5242.70212764648,21112.5898367396,,,19.7200000286102,1236.93151855469,16642.8344564464,16850.3842932989
2018-07-19T08:41:45Z,1531989705,6B04,41.4851342,43.7584348,5202.38,-2,-15.4,345.1,583629.75,-117954.3,339.2,Weapon+Missile,Blue,Enemies,R-27ET,,cn,,540.195001898978,434.454254150391,1.68890187439222,5202.3798828125,3889.20300292969,520.734348569196,-143.6884765625,0.153380641267115,NaN,0,0.932543016298177,5000,2.15597867965698,2.15597867965698,2.15597867965698,14590.5320038319,5101.79186777832,19692.3238716102,,,20.7200000286102,1313.17687988281,17161.6687148482,17389.1613778279
2018-07-19T08:41:46Z,1531989706,6B04,41.4836214,43.7627335,5075.71,-1.5,-13.1,346.4,583458.69,-117489.23,340.4,Weapon+Missile,Blue,Enemies,R-27ET,,cn,,511.46006240151,415.403869628906,1.59648558246588,5075.70751953125,3729.82922363281,495.525486541812,-126.67236328125,0.166051512034351,NaN,0.553867510315739,1.83415872259113,5000,2.83484816551208,2.83484816551208,2.83484816551208,13079.5697715878,4977.56871464111,18057.138486229,,,21.7200000286102,1345.87829589844,17655.4098294506,17899.2782029996
2018-07-19T08:41:47Z,1531989707,6B04,41.4822707,43.766862,4971.5,-1,-11.6,346.9,583302.62,-117041.73,340.9,Weapon+Missile,Blue,Enemies,R-27ET,,cn,,485.261230795724,397.407531738281,1.51270488138697,4971.49755859375,3620.93603515625,473.939601800467,-104.2099609375,0.0303511743414052,NaN,0.569251017317311,1.94448527415046,5000,2.48223614692688,2.48223614692688,2.48223614692688,11773.923105669,4875.37365329834,16649.2967589674,,,22.7200000286102,1350.5615234375,18127.6482538864,18383.2413012828
2018-07-19T08:41:48Z,1531989708,6B04,41.4810017,43.7708073,4886.65,-0.4,-9.6,347,583155.19,-116613.9,341,Weapon+Missile,Blue,Enemies,R-27ET,,cn,,460.405904766014,379.671356201172,1.43368168834137,4886.6513671875,3528.88330078125,452.520409426211,-84.84619140625,0.0806778990185594,NaN,0.769238956215285,1.79452548271507,5000,2.42297887802124,2.42297887802124,2.42297887802124,10598.6798571706,4792.16796300293,15390.8478201735,,,23.7200000286102,1357.76806640625,18578.527435196,18842.3766245896
2018-07-19T08:41:49Z,1531989709,6B04,41.4797947,43.7745847,4819.36,0,-8.2,347,583014.69,-116204.22,341.1,Weapon+Missile,Blue,Enemies,R-27ET,,cn,,438.299405176639,363.351928710938,1.36368240921992,4819.35595703125,3516.62573242188,433.10240861729,-67.29541015625,0.0519866717061315,NaN,0.369210304535829,1.60767071693056,5000,2.05956935882568,2.05956935882568,2.05956935882568,9605.31842890978,4726.17370960205,14331.4921385118,,,24.7200000286102,1302.73022460938,19010.0764259982,19279.4655356375
2018-07-19T08:41:50Z,1531989710,6B04,41.4786416,43.7781687,4765.82,0.4,-6.6,346.9,582880.81,-115815.58,340.9,Weapon+Missile,Blue,Enemies,R-27ET,,cn,,414.524467942785,344.989318847656,1.2888400068669,4765.81640625,3516.35168457031,411.052370173669,-53.53955078125,0.0816726307576299,NaN,0.40000002358188,1.40736688178347,5000,1.98859560489655,1.98859560489655,1.98859560489655,8591.52672616243,4673.66934603516,13265.1960721976,,,25.7200000286102,1249.46472167969,19419.6687611601,19692.8474179813
2018-07-19T08:41:51Z,1531989711,6B04,41.4775301,43.7815974,4724.14,0.7,-5.4,346.8,582752,-115443.83,340.9,Weapon+Missile,Blue,Enemies,R-27ET,,cn,,395.636094165267,329.908630371094,1.22946598584982,4724.13671875,3483.86059570312,393.434521434317,-41.6796875,0.0318342932683022,NaN,0.307692338146258,1.34219097556739,5000,1.89155864715576,1.89155864715576,1.89155864715576,7826.39595031738,4632.79553529297,12459.1914856104,,,26.7200000286102,1240.27612304688,19811.6633491168,20087.3416091659
2018-07-19T08:41:52Z,1531989712,6B04,41.476471,43.7848508,4693.18,0.8,-4.2,346.8,582629.5,-115091.13,340.8,Weapon+Missile,Blue,Enemies,R-27ET,,cn,,374.644956386551,312.414703369141,1.16378062409957,4693.17529296875,3457.77905273438,373.363406695772,-30.96142578125,0.034753188474185,NaN,0.123076913914162,1.27022436721243,5000,1.77843463420868,1.77843463420868,1.77843463420868,7017.94216729403,4602.4327486792,11620.3749159732,,,27.7200000286102,1235.39624023438,20183.701938906,20460.9400082878
2018-07-19T08:41:53Z,1531989713,6B04,41.4754649,43.7879404,4671.26,1,-2.9,346.8,582513.12,-114756.2,340.8,Weapon+Missile,Blue,Enemies,R-27ET,,cn,,355.248350791942,295.738983154297,1.10322344113182,4671.25830078125,3445.8623046875,354.571623503415,-21.9169921875,0.0401126228715256,NaN,0.200000105172432,1.23850891741001,5000,1.77553486824036,1.77553486824036,1.77553486824036,6310.06953701973,4580.93952153564,10891.0090585554,,,28.7200000286102,1225.39599609375,20537.012910723,20815.1889872156
2018-07-19T08:41:54Z,1531989714,6B04,41.4745051,43.7908784,4657.85,1.1,-1.6,346.7,582402.19,-114437.72,340.8,Weapon+Missile,Blue,Enemies,R-27ET,,cn,,337.519232230228,280.158447265625,1.04798884280647,4657.84912109375,3455.1416015625,337.252762813577,-13.4091796875,0.0702192894078788,NaN,0.199999891729021,1.24331971846323,5000,1.74007177352905,1.74007177352905,1.74007177352905,5695.96160626411,4567.7896083374,10263.7512146015,,,29.7200000286102,1202.70751953125,20873.0369609768,21151.726031288
2018-07-19T08:41:55Z,1531989715,6B04,41.473594,43.7936558,4652.21,1.2,-0.4,346.7,582297,-114136.69,340.7,Weapon+Missile,Blue,Enemies,R-27ET,,cn,,318.929548349816,263.672302246094,0.990198052731299,4652.20703125,3475.48388671875,318.879638159624,-5.64208984375,0.0614482048475382,NaN,0,1.23177403072326,5000,1.64731228351593,1.64731228351593,1.64731228351593,5085.80284053087,4562.25660830078,9648.05944883165,,,30.7200000286102,1176.72314453125,21190.7664681727,21469.737484918
2018-07-19T08:41:56Z,1531989716,6B04,41.4727302,43.7962888,4653.02,1.2,0.7,346.7,582197.38,-113851.3,340.8,Weapon+Missile,Blue,Enemies,R-27ET,,cn,,302.280681507827,248.91716003418,0.938517000892892,4653.02001953125,3505.85009765625,302.279588233957,0.81298828125,0.0738318297911177,NaN,0,1.04735529459492,5000,1.46462321281433,1.46462321281433,1.46462321281433,4568.6805206418,4563.05387745361,9131.73439809542,,,31.7200000286102,1147.169921875,21491.9762295877,21771.1680639981
2018-07-19T08:41:57Z,1531989717,6B04,41.471908,43.7988023,4658.22,1.2,1.4,346.7,582102.38,-113578.84,340.8,Weapon+Missile,Blue,Enemies,R-27ET,,cn,,288.587539007892,236.830429077148,0.896061354635574,4658.22216796875,3528.59802246094,288.540647608384,5.2021484375,0.0674212568907678,NaN,0,0.594469196310909,5000,1.18139183521271,1.18139183521271,1.18139183521271,4164.13838353157,4568.15544235107,8732.29382588265,,,32.7200000286102,1129.62414550781,21779.4754553143,22058.9241721844
2018-07-19T08:41:58Z,1531989718,6B04,41.4711275,43.8011975,4664.88,1,1.4,346.8,582012.12,-113319.19,340.9,Weapon+Missile,Blue,Enemies,R-27ET,,cn,,274.974029372845,224.889831542969,0.853863036837146,4664.876953125,3546.052734375,274.893489672023,6.65478515625,0.0539674161021659,NaN,0.0922895160652123,0.323399131875069,5000,1.14379906654358,1.14379906654358,1.14379906654358,3780.53584147692,4574.68155723633,8355.21739871325,,,33.7200000286102,1118.82421875,22053.3832469838,22333.1129235838
2018-07-19T08:41:59Z,1531989719,6B04,41.4703833,43.8034967,4672.66,1,2.1,346.9,581925.94,-113069.89,341,Weapon+Missile,Blue,Enemies,R-27ET,,cn,,263.889870435133,215.21174621582,0.819524264330605,4672.66455078125,3559.7880859375,263.774936339705,7.78759765625,0.128242972361891,NaN,0.200000105172432,0.34576890854136,5000,1.09675633907318,1.09675633907318,1.09675633907318,3481.89318591356,4582.31858169189,8064.21176760546,,,34.7200000286102,1112.87646484375,22316.2166418811,22596.2539727808
2018-07-19T08:42:00Z,1531989720,6B04,41.4696362,43.8056907,4680.58,0.4,1,344.8,581840.69,-112832.32,338.8,Weapon+Missile,Blue,Enemies,R-27ET,,cn,,252.527017656813,205.355773925781,0.784314461841937,4680.58154296875,3573.24365234375,252.402884059092,7.9169921875,0.0456730897741841,NaN,0.769243225083516,1.99550422592952,4254.66250649278,1.30683040618896,1.30683040618896,1.30683040618896,3188.49473233223,4590.08249883545,7778.57723116768,,,35.7200000286102,1107.337890625,22567.7134790263,22848.0597035773
2018-07-19T08:42:01Z,1531989721,6B04,41.4687768,43.8077549,4680.86,-0.2,-0.8,341.7,581747.88,-112610.09,335.8,Weapon+Missile,Blue,Enemies,R-27ET,,cn,,240.829569085665,195.351654052734,0.747986380139323,4680.857421875,3584.55969238281,240.829411071024,0.27587890625,0.0461853505318024,NaN,0.569255286185543,3.56547059109431,3914.06806183426,1.29447066783905,1.29447066783905,1.29447066783905,2899.94406729937,4590.35304362305,7490.29711092241,,,36.7200000286102,1096.29772949219,22807.6522837649,23088.1747505439
2018-07-19T08:42:02Z,1531989722,6B04,41.4678092,43.8096999,4673.84,-0.6,-2.5,339,581647.75,-112402.01,333.1,Weapon+Missile,Blue,Enemies,R-27ET,,cn,,231.028208494451,187.082458496094,0.717481199790368,4673.8388671875,3603.64111328125,230.921573288972,-7.0185546875,0.27458283466013,NaN,0.338449533752472,2.44398020980467,5000,0.865415990352631,0.865415990352631,0.865415990352631,2668.70165600777,4583.47019269043,7252.1718486982,,,37.7200000286102,1070.19775390625,23037.6962656534,23318.4943964857
2018-07-19T08:42:03Z,1531989723,6B04,41.4668189,43.8115668,4664.31,-0.4,-2.3,339.2,581546.69,-112202.79,333.3,Weapon+Missile,Blue,Enemies,R-27ET,,cn,,223.590047937611,180.869766235352,0.694298001450087,4664.3115234375,3623.65563964844,223.386971996606,-9.52734375,0.0417961129431594,NaN,0.199987938897973,0.395155071582814,5000,1.0975136756897,1.0975136756897,1.0975136756897,2499.62547683716,4574.12706013184,7073.75253696899,,,38.7200000286102,1040.65588378906,23260.2304860978,23541.3952261435
2018-07-19T08:42:04Z,1531989724,6B04,41.4658844,43.8133691,4655.97,-0.3,-2.1,339.8,581450.81,-112010.3,333.9,Weapon+Missile,Blue,Enemies,R-27ET,,cn,,215.20900721049,173.872360229492,0.668202792704363,4655.96533203125,3626.73291015625,215.047106173357,-8.34619140625,0.0279618847618539,NaN,0.199987938897973,0.576080192631119,5000,1.10054552555084,1.10054552555084,1.10054552555084,2315.74583922625,4565.94224233643,6881.68808156267,,,39.7200000286102,1029.232421875,23474.4381960967,23755.9218618204
2018-07-19T08:42:05Z,1531989725,6B04,41.465008,43.8151156,4648.63,-0.2,-2,340.4,581360.31,-111823.49,334.5,Weapon+Missile,Blue,Enemies,R-27ET,,cn,,207.701674607606,167.624862670898,0.644833796622696,4648.63427734375,3626.89526367188,207.572255544841,-7.3310546875,0.0457143119541701,NaN,0.200042580411333,0.636900038982321,5000,1.01543438434601,1.01543438434601,1.01543438434601,2156.99928174019,4558.75293359131,6715.7522153315,,,40.7200000286102,1021.73901367188,23681.2196400023,23962.983953989
2018-07-19T08:42:06Z,1531989726,6B04,41.4641916,43.8168025,4641.46,-0.5,-2.9,340.9,581275.31,-111642.84,335,Weapon+Missile,Blue,Enemies,R-27ET,,cn,,199.782778252697,161.051773071289,0.62019270454099,4641.45947265625,3624.75823974609,199.65390220094,-7.1748046875,0.0639484543422673,NaN,0.584609551439731,1.19548694321027,5000,0.252858847379684,0.252858847379684,0.252858847379684,1995.65792431831,4551.71685375244,6547.37477807075,,,41.7200000286102,1016.70123291016,23880.1227383398,24162.1611768915
2018-07-19T08:42:07Z,1531989727,6B04,41.4634046,43.8184431,4627.17,-1.3,-5.6,340.9,581193.25,-111467.06,335,Weapon+Missile,Blue,Enemies,R-27ET,,cn,,194.511451170808,156.7626953125,0.603720272360741,4627.17138671875,3614.30444335938,193.985966597629,-14.2880859375,0.0378750282005652,NaN,0.615427364974829,2.59335345874508,3922.00010098327,0.0293151661753654,0.0293151661753654,0.0293151661753654,1891.73523182869,4537.70502795654,6429.44025978523,,,42.7200000286102,1012.86694335938,24073.3847160506,24356.0906434261
2018-07-19T08:42:08Z,1531989728,6B04,41.4626456,43.8200239,4604.04,-1.9,-8.5,340.9,581114.06,-111297.72,334.9,Weapon+Missile,Blue,Enemies,R-27ET,,cn,,188.369504549101,151.821914672852,0.584487095328738,4604.0390625,3594.06903076172,186.943750417906,-23.13232421875,0.0438922562317697,NaN,0.569200644672183,2.86584577667345,3744.52273871891,0.0341608338057995,0.0341608338057995,0.0341608338057995,1774.15351220369,4515.01996722656,6289.17347943026,,,43.7200000286102,1009.97003173828,24259.6161559442,24543.886990536
2018-07-19T08:42:09Z,1531989729,6B04,41.4619085,43.8215563,4572.29,-2.5,-11.4,340.8,581037.25,-111133.56,334.9,Weapon+Missile,Blue,Enemies,R-27ET,,cn,,183.998464829323,148.422515869141,0.570696708201801,4572.2900390625,3562.99127197266,181.238612250018,-31.7490234375,0.0259426944752433,NaN,0.569255286185543,2.8847619855798,3610.54536557639,0.0410329923033714,0.0410329923033714,0.0410329923033714,1692.77175297737,4483.88481115723,6176.6565641346,,,44.7200000286102,1009.29876708984,24440.182320697,24727.3510614564
2018-07-19T08:42:10Z,1531989730,6B04,41.4611947,43.8230361,4532.34,-3,-14.4,340.8,580962.88,-110975.07,334.8,Weapon+Missile,Blue,Enemies,R-27ET,,cn,,179.576569616422,145.037933349609,0.556702433943827,4532.3359375,3525.41632080078,175.075452658376,-39.9541015625,0.0664831987592958,NaN,0.538492114163805,2.92733839665789,3520.53679001016,0.0454976633191109,0.0454976633191109,0.0454976633191109,1612.38721776009,4444.70322214844,6057.09043990852,,,45.7200000286102,1006.91961669922,24614.5997248601,24906.4074838812
2018-07-19T08:42:11Z,1531989731,6B04,41.4604986,43.8244735,4484.26,-3.3,-17.3,340.7,580890.44,-110821.11,334.8,Weapon+Missile,Blue,Enemies,R-27ET,,cn,,176.81172496886,143.08479309082,0.547801007100768,4484.2607421875,3474.07141113281,170.15040899783,-48.0751953125,0.0202767596846004,NaN,0.292277454963186,2.95928831404792,3472.1225509265,0.0552488677203655,0.0552488677203655,0.0552488677203655,1563.1193043232,4397.5575607373,5960.6768650605,,,46.7200000286102,1010.18933105469,24784.1025776663,25082.7114044227
2018-07-19T08:42:12Z,1531989732,6B04,41.4598201,43.825867,4428.41,-3.6,-20.2,340.6,580819.88,-110671.89,334.6,Weapon+Missile,Blue,Enemies,R-27ET,,cn,,174.253599691358,141.352661132812,0.539498107400603,4428.41259765625,3412.64337158203,165.061509013496,-55.84814453125,0.0933652563505804,NaN,0.199987938897973,2.92845982834225,3424.65967041238,0.0512039884924889,0.0512039884924889,0.0512039884924889,1518.21585026979,4342.78924008057,5861.00509035036,,,47.7200000286102,1015.76922607422,24948.5208878167,25256.4646346928
2018-07-19T08:42:13Z,1531989733,6B04,41.4591611,43.8272117,4365.3,-3.8,-23.1,340.4,580751.5,-110527.95,334.5,Weapon+Missile,Blue,Enemies,R-27ET,,cn,,171.39589863959,139.413986206055,0.530232086188524,4365.29833984375,3340.93408203125,159.352265535354,-63.1142578125,0.0717284573658509,NaN,0.199987938897973,2.89102313461458,3436.76166169865,0.0666505768895149,0.0666505768895149,0.0666505768895149,1468.82770352364,4280.89529644287,5749.72299996651,,,48.7200000286102,1024.3642578125,25107.2850343519,25427.4155867665
2018-07-19T08:42:14Z,1531989734,6B04,41.4585161,43.8285173,4294.85,-4,-25.9,340.3,580684.69,-110388.23,334.4,Weapon+Missile,Blue,Enemies,R-27ET,,cn,,170.143305708077,138.859130859375,0.525894543974992,4294.84619140625,3263.01623535156,154.871686430453,-70.4521484375,0.0467961342315716,NaN,0.199987938897973,2.830233170341,3463.88252271832,0.0700071454048157,0.0700071454048157,0.0700071454048157,1447.4372238636,4211.80534029541,5659.24256415901,,,49.7200000286102,1031.82995605469,25261.5829236976,25597.1320585531
2018-07-19T08:42:15Z,1531989735,6B04,41.4578841,43.8297851,4217.23,-4.1,-28.7,340.1,580619.31,-110252.61,334.2,Weapon+Missile,Blue,Enemies,R-27ET,,cn,,169.386248228436,138.764892578125,0.523048717329657,4217.23388671875,3183.15576171875,150.559062331033,-77.6123046875,0.0299378124676137,NaN,0.199987938897973,2.73106885543276,3514.49741377557,0.0648453012108803,0.0648453012108803,0.0648453012108803,1434.58505444527,4135.69366951904,5570.27872396431,,,50.7200000286102,1034.078125,25411.5617185316,25766.0916339668
2018-07-19T08:42:16Z,1531989736,6B04,41.4572651,43.8310139,4132.8,-4.1,-31.4,339.9,580555.5,-110121.2,334,Weapon+Missile,Blue,Enemies,R-27ET,,cn,,168.72807764425,138.797973632812,0.520469821223459,4132.79736328125,3097.92028808594,146.080928581771,-84.4365234375,0.0364567187305977,NaN,0,2.69789654762471,3594.5428167085,0.0780704468488693,0.0780704468488693,0.0780704468488693,1423.4582092762,4052.88972626221,5476.34793553841,,,51.7200000286102,1034.87707519531,25557.1036125689,25934.4356561055
2018-07-19T08:42:17Z,1531989737,6B04,41.4566584,43.8322043,4041.77,-4.1,-34.1,339.7,580493.06,-109993.97,333.7,Weapon+Missile,Blue,Enemies,R-27ET,,cn,,168.441168061306,139.188049316406,0.518998554463506,4041.77319335938,3008.11975097656,141.728711233436,-91.024169921875,0.0567544532845248,NaN,0,2.66602218920238,3721.78338257555,0.078491322696209,0.078491322696209,0.078491322696209,1418.62135489285,3963.62550866577,5382.24686355862,,,52.7200000286102,1033.65344238281,25698.2894948255,26102.4963857593
2018-07-19T08:42:18Z,1531989738,6B04,41.4560645,43.8333549,3944.64,-4.1,-36.6,339.4,580432.12,-109871.04,333.5,Weapon+Missile,Blue,Enemies,R-27ET,,cn,,168.107004897947,139.579498291016,0.517346763171035,3944.63989257812,2910.6474609375,137.204544294632,-97.13330078125,0.0218924113794106,NaN,0,2.56608670324816,3864.18824804381,0.0835502967238426,0.0835502967238426,0.0835502967238426,1412.99825478792,3868.37028025513,5281.36853504305,,,53.7200000286102,1033.99243164062,25834.9636619133,26270.240546378
2018-07-19T08:42:19Z,1531989739,6B04,41.4554818,43.8344693,3841.47,-4,-38.7,339.3,580372.5,-109752.04,333.4,Weapon+Missile,Blue,Enemies,R-27ET,,cn,,168.40763215793,140.554229736328,0.517612342064115,3841.46533203125,2807.04345703125,133.101993317155,-103.174560546875,0.329258830368821,NaN,0,1.41104792685929,5000,0.703254878520966,0.703254878520966,0.703254878520966,1418.05652845204,3767.19059983643,5185.24712828847,,,54.7200000286102,1034.421875,25967.5503656736,26438.3050885664
2018-07-19T08:42:20Z,1531989740,6B04,41.4549128,43.8355894,3737.02,-3.9,-37.5,340.4,580313.94,-109632.3,334.5,Weapon+Missile,Blue,Enemies,R-27ET,,cn,,169.334279726355,142.078369140625,0.519791652913563,3737.02294921875,2701.84411621094,133.288735318821,-104.4423828125,0.0292074295930899,NaN,0.0461507344481299,0.783365121440193,5000,1.15240979194641,1.15240979194641,1.15240979194641,1433.70491452217,3664.76761049561,5098.47252501778,,,55.7200000286102,1035.17883300781,26100.3441491328,26607.3120688367
2018-07-19T08:42:21Z,1531989741,6B04,41.4543601,43.8367412,3634.46,-3.8,-36.4,341.4,580256.31,-109508.91,335.5,Weapon+Missile,Blue,Enemies,R-27ET,,cn,,170.491736716787,143.797698974609,0.522685852147545,3634.45776367188,2600.33532714844,136.190363104154,-102.565185546875,0.0723561799620389,NaN,0.107715498305686,1.32870615443338,5000,1.10659456253052,1.10659456253052,1.10659456253052,1453.37161443532,3564.18552281128,5017.55713724659,,,56.7200000286102,1034.12243652344,26236.0286878431,26777.4625758234
2018-07-19T08:42:22Z,1531989742,6B04,41.4538301,43.8379077,3534.56,-3.7,-35.7,342.3,580200.38,-109383.68,336.4,Weapon+Missile,Blue,Enemies,R-27ET,,cn,,169.677034745213,143.801055908203,0.519551994611976,3534.55981445312,2502.42932128906,137.152090256825,-99.89794921875,0.049038605160239,NaN,0.169220498008005,1.07597528132115,5000,1.06530737876892,1.06530737876892,1.06530737876892,1439.51480599642,3466.21910044067,4905.73390643709,,,57.7200000286102,1032.13049316406,26372.6777898457,26946.7953004645
2018-07-19T08:42:23Z,1531989743,6B04,41.4533221,43.8390865,3436.91,-3.6,-34.9,343.2,580146.06,-109256.91,337.2,Weapon+Missile,Blue,Enemies,R-27ET,,cn,,168.981877033114,143.887680053711,0.516806342160491,3436.90991210938,2404.89501953125,137.910736847755,-97.64990234375,0.0391797602554958,NaN,0.0307674408899687,0.970490693553122,5000,1.0277007818222,1.0277007818222,1.0277007818222,1427.74373828173,3370.45725895874,4798.20099724047,,,58.7200000286102,1032.01489257812,26510.0960942598,27115.4367542321
2018-07-19T08:42:24Z,1531989744,6B04,41.4528305,43.8402865,3340.2,-3.5,-34.4,343.9,580092.75,-109127.66,338,Weapon+Missile,Blue,Enemies,R-27ET,,cn,,170.010348291323,145.468948364258,0.519339070129847,3340.1953125,2308.33215332031,139.820616321539,-96.714599609375,0.105776828191151,NaN,0,0.658130454717689,5000,0.784189641475677,0.784189641475677,0.784189641475677,1445.17592630684,3275.61263613281,4720.78856243966,,,59.7200000286102,1031.86315917969,26649.3851381083,27285.0709843714
2018-07-19T08:42:25Z,1531989745,6B04,41.4523581,43.8414811,3243.55,-3.4,-36,344,580041.12,-108998.84,338.1,Weapon+Missile,Blue,Enemies,R-27ET,,cn,,169.110587823539,145.368087768555,0.515983643735156,3243.54858398438,2212.49743652344,138.772478471958,-96.646728515625,0.0510368063877012,NaN,0,1.32276335624694,4029.15873531083,0.0960823968052864,0.0960823968052864,0.0960823968052864,1429.91954570115,3180.83457211304,4610.75411781418,,,60.7200000286102,1031.05114746094,26787.66998165,27453.8401531201
2018-07-19T08:42:26Z,1531989746,6B04,41.451896,43.842637,3141.32,-3.4,-38.5,343.8,579990.75,-108874.23,337.9,Weapon+Missile,Blue,Enemies,R-27ET,,cn,,168.87407228976,145.885650634766,0.514623258407371,3141.31665039062,2114.50952148438,134.413853621605,-102.23193359375,0.0524611653020133,NaN,0,2.55276655370616,3891.99498667727,0.066806249320507,0.066806249320507,0.066806249320507,1425.92261458635,3080.57929295532,4506.50190754168,,,61.7200000286102,1026.80712890625,26921.5911298514,27622.3756107151
2018-07-19T08:42:27Z,1531989747,6B04,41.4514425,43.8437543,3033.19,-3.3,-40.9,343.6,579941.5,-108753.84,337.6,Weapon+Missile,Blue,Enemies,R-27ET,,cn,,169.145548972859,146.893981933594,0.514776496644942,3033.19287109375,2011.83581542969,130.074844177845,-108.123779296875,0.043111787879471,NaN,0,2.43069805318993,4049.8292378664,0.0674941837787628,0.0674941837787628,0.0674941837787628,1430.5108368665,2974.54608693115,4405.05692379765,,,62.7200000286102,1021.35705566406,27051.1906156522,27791.2040505678
2018-07-19T08:42:28Z,1531989748,6B04,41.4509982,43.844832,2919.61,-3.2,-43.3,343.3,579893.44,-108637.78,337.4,Weapon+Missile,Blue,Enemies,R-27ET,,cn,,169.350442042082,147.886306762695,0.514693971574297,2919.61083984375,1908.51721191406,125.613273171957,-113.58203125,0.0303385707027157,NaN,0,2.31632696242489,4213.76915367691,0.0713109374046326,0.0713109374046326,0.0713109374046326,1433.97861099243,2863.16016425537,4297.1387752478,,,63.7200000286102,1011.09362792969,27176.3467661185,27960.2589609314
2018-07-19T08:42:29Z,1531989749,6B04,41.4505605,43.8458758,2800.21,-3.1,-45.6,343,579846.25,-108525.42,337.1,Weapon+Missile,Blue,Enemies,R-27ET,,cn,,170.608034056323,149.864364624023,0.517771457666746,2800.21313476562,1798.1826171875,121.865866043944,-119.397705078125,0.025250592119714,NaN,0,2.26478208607974,4416.54551671858,0.0568913146853447,0.0568913146853447,0.0568913146853447,1455.35506422818,2746.07101380493,4201.42607803311,,,64.7200000286102,1002.03051757812,27297.7397927297,28130.5683767819
2018-07-19T08:42:30Z,1531989750,6B04,41.4501341,43.846876,2676.5,-2.9,-47.7,342.7,579800.56,-108417.82,336.8,Weapon+Missile,Blue,Enemies,R-27ET,,cn,,170.205110264494,150.395843505859,0.515782312642248,2676.50244140625,1676.63885498047,116.899289598746,-123.710693359375,0.0349887193928102,NaN,0.200042580411333,2.16453475930123,4627.94144926577,0.0679813995957375,0.0679813995957375,0.0679813995957375,1448.48897800744,2624.75226670166,4073.2412447091,,,65.7200000286102,999.863586425781,27414.2190516126,28300.5195634121
2018-07-19T08:42:31Z,1531989751,6B04,41.4497136,43.8478454,2547.24,-2.8,-49.7,342.5,579755.69,-108313.59,336.6,Weapon+Missile,Blue,Enemies,R-27ET,,cn,,172.012678944782,152.962371826172,0.520454316685894,2547.23608398438,1547.93499755859,113.483789840843,-129.266357421875,0.045141649307594,NaN,0.199987938897973,2.05189682903808,4893.83836404427,0.0676977410912514,0.0676977410912514,0.0676977410912514,1479.41808588803,2497.98527430054,3977.40336018857,,,66.7200000286102,999.301086425781,27527.2934178198,28472.2928944792
2018-07-19T08:42:32Z,1531989752,6B04,41.4493039,43.8487738,2414.14,-2.7,-51.7,342.2,579712.12,-108213.84,336.3,Weapon+Missile,Blue,Enemies,R-27ET,,cn,,171.929496427017,153.859970092773,0.519377504881457,2414.14379882812,1413.52026367188,108.840228654368,-133.09228515625,0.0144820899050252,NaN,0,1.97837987446324,5000,0.0653445795178413,0.0653445795178413,0.0653445795178413,1477.98758708239,2367.46632847778,3845.45391556017,,,67.7200000286102,1000.62353515625,27635.7476789305,28644.0049630546
2018-07-19T08:42:33Z,1531989753,6B04,41.4489013,43.8496698,2276.31,-2.5,-53.6,341.9,579669.5,-108117.6,335.9,Weapon+Missile,Blue,Enemies,R-27ET,,cn,,173.427170642122,156.238739013672,0.523043998333346,2276.31225585938,1275.244140625,105.258962942759,-137.83154296875,0.0276417733339028,NaN,0.199987938897973,1.89341232118828,5000,0.0619423538446426,0.0619423538446426,0.0619423538446426,1503.84917584658,2232.29975839233,3736.14893423891,,,68.7200000286102,1001.06811523438,27740.6036849334,28817.2112078488
2018-07-19T08:42:34Z,1531989754,6B04,41.4485066,43.8505335,2134.11,-2.4,-55.4,341.6,579627.88,-108024.91,335.7,Weapon+Missile,Blue,Enemies,R-27ET,,cn,,174.773449510729,158.529571533203,0.526216836220665,2134.10766601562,1130.86145019531,101.605183338499,-142.20458984375,0.0361415911507127,NaN,0.107715071418863,1.79695148053089,5000,0.0581057406961918,0.0581057406961918,0.0581057406961918,1527.28793269396,2092.84469429321,3620.13262698717,,,69.7200000286102,1003.24621582031,27841.829564867,28991.7847191357
2018-07-19T08:42:35Z,1531989755,6B04,41.4481212,43.8513618,1988.35,-2.2,-57,341.3,579587.44,-107936.06,335.4,Weapon+Missile,Blue,Enemies,R-27ET,,cn,,175.428321215071,160.225082397461,0.527280185459291,1988.34997558594,985.620849609375,97.6206513240995,-145.757690429688,0.0347985373796653,NaN,0.199987938897973,1.69628793909983,5000,0.0610040500760078,0.0610040500760078,0.0610040500760078,1538.7547942169,1949.90522880798,3488.66002302489,,,70.7200000286102,1002.72912597656,27939.0916221981,29167.0311953847
2018-07-19T08:42:36Z,1531989756,6B04,41.4477443,43.8521582,1838.77,-2.1,-58.6,341,579548,-107850.7,335.1,Weapon+Missile,Blue,Enemies,R-27ET,,cn,,176.680851840109,162.516204833984,0.530110943953379,1838.77307128906,837.364135742188,94.036551977995,-149.576904296875,0.0157293877573884,NaN,0.199987938897973,1.59645885468628,5000,0.0502666942775249,0.0502666942775249,0.0502666942775249,1560.80617034733,1803.22039395569,3364.02656430302,,,71.7200000286102,1001.40893554688,28032.762747513,29343.5327412844
2018-07-19T08:42:37Z,1531989757,6B04,41.4473785,43.852918,1686.73,-2,-60.2,340.7,579509.94,-107769.29,334.8,Weapon+Missile,Blue,Enemies,R-27ET,,cn,,176.616294470987,163.609573364258,0.528973276509398,1686.72839355469,686.806640625,89.8650735564852,-152.044677734375,0.0174535350547617,NaN,0.0769186022249217,1.54644063234234,5000,0.0600583553314209,0.0600583553314209,0.0600583553314209,1559.66577363312,1654.11550006531,3213.78127369843,,,72.7200000286102,999.921752929688,28122.3013933545,29519.9957266696
2018-07-19T08:42:38Z,1531989758,6B04,41.4470202,43.8536498,1530.94,-1.8,-61.6,340.4,579472.75,-107690.94,334.5,Weapon+Missile,Blue,Enemies,R-27ET,,cn,,178.305552891133,166.387451171875,0.533061456819576,1530.93688964844,532.699096679688,86.7287582203355,-155.79150390625,0.0182227675787046,NaN,0.199987938897973,1.49540599247253,5000,0.0533219054341316,0.0533219054341316,0.0533219054341316,1589.64350959063,1501.33622488708,3090.97973447771,,,73.7200000286102,998.23779296875,28208.6970889086,29698.1500837513
2018-07-19T08:42:39Z,1531989759,6B04,41.4466711,43.8543512,1372.21,-1.7,-63.1,340.1,579436.62,-107615.91,334.2,Weapon+Missile,Blue,Enemies,R-27ET,,cn,,179.244263464254,168.499252319336,0.534878536034493,1372.20764160156,375.430297851562,83.2678317197968,-158.729248046875,0.038524027471763,NaN,0.199987938897973,1.395424189298,5000,0.0425791852176189,0.0425791852176189,0.0425791852176189,1606.42529924214,1345.6760068512,2952.10130609334,,,74.7200000286102,996.77734375,28291.6433081452,29877.2539124071
2018-07-19T08:42:40Z,1531989760,6B04,41.4463325,43.8550207,1211.25,-1.6,-64.3,339.8,579401.75,-107544.32,333.9,Weapon+Missile,Blue,Enemies,R-27ET,,cn,,179.576833448327,170.064361572266,0.534871527275703,1211.25451660156,215.280639648438,79.6362396403955,-160.953125,0.0303413479541591,NaN,0,1.29555166915019,5000,0.0413703955709934,0.0413703955709934,0.0413703955709934,1612.39195556641,1187.83491052307,2800.22686608948,,,75.7200000286102,995.973876953125,28370.979607257,30056.7050381886
2018-07-19T08:42:41Z,1531989761,6B04,41.4460031,43.8556616,1047.78,-1.5,-65.6,339.5,579368,-107475.84,333.6,Weapon+Missile,Blue,Enemies,R-27ET,,cn,,180.423283645055,172.150283813477,0.53637856367628,1047.78161621094,52.5767822265625,76.3490151812099,-163.472900390625,0.0552570842294152,NaN,0.0307672274465571,1.24497166374702,5000,0.0392956733703613,0.0392956733703613,0.0392956733703613,1627.62806406319,1027.5227586615,2655.15082272469,,,76.7200000286102,995.204833984375,28447.0651233405,30237.0226620509
